year,date,district,municipality,parish,local,latitude,longitude,cause,elevation,hourly.time,hourly.temperature_2m,hourly.relative_humidity_2m,hourly.dew_point_2m,hourly.apparent_temperature,hourly.precipitation,hourly.rain,hourly.snowfall,hourly.snow_depth,hourly.weather_code,hourly.pressure_msl,hourly.surface_pressure,hourly.cloud_cover,hourly.cloud_cover_low,hourly.cloud_cover_mid,hourly.cloud_cover_high,hourly.et0_fao_evapotranspiration,hourly.vapour_pressure_deficit,hourly.wind_speed_10m,hourly.wind_speed_100m,hourly.wind_direction_10m,hourly.wind_direction_100m,hourly.wind_gusts_10m,hourly.soil_temperature_0_to_7cm,hourly.soil_temperature_7_to_28cm,hourly.soil_temperature_28_to_100cm,hourly.soil_temperature_100_to_255cm,hourly.soil_moisture_0_to_7cm,hourly.soil_moisture_7_to_28cm,hourly.soil_moisture_28_to_100cm,hourly.soil_moisture_100_to_255cm,hourly.is_day,hourly.sunshine_duration,hourly.shortwave_radiation_instant,hourly.direct_radiation_instant,hourly.diffuse_radiation_instant,hourly.direct_normal_irradiance_instant,hourly.global_tilted_irradiance_instant,hourly.terrestrial_radiation_instant,hourly.shortwave_radiation,hourly.direct_radiation,hourly.diffuse_radiation,hourly.direct_normal_irradiance,hourly.global_tilted_irradiance,hourly.terrestrial_radiation,scientificNames
2001,2001-07-26,Castelo Branco,Fundão,Fundão,VALVERDE,40.1413493,-7.4963846,NC,485.0,2001-07-26T13:00,28.4,33,10.8,30.1,0.0,0.0,0.0,0.0,0,1015.0,961.0,0,0,0,0,0.7,2.57,7.3,9.2,279,281,25.9,36.5,25.4,22.9,18.7,0.094,0.156,0.213,0.346,1,3600.0,962.4,845.6,116.8,908.6,962.4,1234.1,964.0,847.0,117.0,908.6,964.0,1236.1,Tracheophyta; Magnoliopsida; Pinales; Olea europaea L.; Acacia Mill.
2001,2001-05-26,Castelo Branco,Idanha-a-Nova,Idanha-a-Nova,IDANHA A NOVA,39.8874234,-7.214369144662824,NC,196.0,2001-05-26T12:00,29.7,36,13.0,32.1,0.0,0.0,0.0,0.0,0,1017.2,995.0,2,0,0,5,0.7,2.68,7.0,9.1,78,83,22.0,28.8,21.3,16.9,13.4,0.233,0.271,0.268,0.38,1,3600.0,968.0,846.6,121.4,898.1,968.0,1256.6,949.0,830.0,119.0,898.1,949.0,1231.9,Pinus pinea L.; Tracheophyta; Eucalyptus L'Hér.
2001,2001-09-08,Castelo Branco,Idanha-a-Nova,Monsanto,Carroqueiro,40.0302987,-7.1293248,NC,429.0,2001-09-08T18:00,29.4,18,2.9,27.4,0.0,0.0,0.0,0.0,1,1015.2,967.4,23,0,0,77,0.11,3.34,1.9,3.3,112,96,10.4,30.5,26.0,24.3,21.7,0.132,0.153,0.192,0.325,1,3600.0,100.7,61.5,39.2,415.0,100.7,199.8,167.0,102.0,65.0,415.0,167.0,331.3,Quercus L.; Eucalyptus L'Hér.; Quercus rotundifolia Lam.; Quercus suber L.; Olea europaea L.; Tracheophyta; Magnoliopsida; Pinus pinaster Aiton; Vitis vinifera L.; 
2001,2001-09-09,Castelo Branco,Penamacor,Aldeia do Bispo,ALDEIA DO BISPO,40.11535035,-7.163076334842016,NC,434.0,2001-09-09T12:00,30.6,21,5.6,31.3,0.0,0.0,0.0,0.0,0,1014.9,966.8,0,0,0,0,0.58,3.49,1.1,1.5,252,284,14.8,32.5,24.6,24.1,21.7,0.13,0.155,0.2,0.327,1,3600.0,848.7,744.1,104.5,913.0,848.7,1099.2,828.0,726.0,102.0,913.0,828.0,1072.4,Magnoliopsida; Pinus pinaster Aiton; Tracheophyta; Eucalyptus L'Hér.; Olea europaea L.; Quercus L.; Quercus suber L.; Pinus pinea L.; 
2001,2001-09-08,Castelo Branco,Castelo Branco,Castelo Branco,CASTELO BRANCO,39.8266322,-7.4919318,NC,410.0,2001-09-08T16:00,30.8,16,2.4,28.4,0.0,0.0,0.0,0.0,0,1015.1,969.6,0,0,0,0,0.45,3.72,6.1,7.4,28,29,17.3,36.0,26.1,24.3,21.6,0.109,0.151,0.184,0.321,1,3600.0,517.4,439.5,77.9,842.4,517.4,703.3,591.0,502.0,89.0,842.4,591.0,803.3,Tracheophyta; Olea europaea L.; Magnoliopsida
2001,2001-07-27,Castelo Branco,Fundão,Silvares,Barrocão,40.1408065,-7.5017521,NC,482.0,2001-07-27T14:00,28.0,33,10.1,28.9,0.0,0.0,0.0,0.0,1,1014.3,960.6,35,12,11,59,0.64,2.54,7.9,9.8,286,287,23.4,36.5,25.6,23.0,18.7,0.094,0.156,0.212,0.345,1,3600.0,852.1,649.0,203.1,733.0,852.1,1174.3,877.0,668.0,209.0,733.0,877.0,1208.7,Tracheophyta; Pinales; Olea europaea L.; Acacia Mill.
2001,2001-05-27,Castelo Branco,Sertã,Cernache do Bonjardim,CERNACHE,39.8127676,-8.186952558587361,Natural,394.0,2001-05-27T14:00,32.2,33,13.7,34.8,0.0,0.0,0.0,0.0,0,1019.4,975.6,6,0,0,20,0.72,3.24,6.6,8.2,151,151,20.2,30.4,21.5,16.0,12.8,0.186,0.266,0.28,0.383,1,3600.0,903.5,793.0,110.5,887.2,903.5,1191.0,932.0,818.0,114.0,887.2,932.0,1228.6,Olea europaea L.; Tracheophyta; Pinus pinaster Aiton
2001,2001-09-09,Castelo Branco,Belmonte,Inguias,INGUIAS,40.3103933,-7.3516832,NC,440.0,2001-09-09T18:00,30.7,22,6.7,28.4,0.0,0.0,0.0,0.0,0,1012.9,964.2,1,0,2,0,0.23,3.43,10.2,15.5,312,314,27.7,31.9,26.1,23.6,21.3,0.099,0.153,0.197,0.326,1,3600.0,117.4,85.1,32.3,585.9,117.4,195.8,196.0,142.0,54.0,585.9,196.0,326.9,Magnoliopsida; Tracheophyta; Acacia Mill.; Pinus pinaster Aiton; Vitis vinifera L.; Olea europaea L.; 
2001,2001-05-28,Castelo Branco,Fundão,Castelo Novo,Castelo Novo,40.06444705,-7.460806733657126,NC,473.0,2001-05-28T12:00,31.5,28,10.7,32.5,0.0,0.0,0.0,0.0,0,1023.2,970.6,0,0,0,0,0.75,3.34,10.4,13.2,104,101,28.8,31.5,22.3,17.1,12.5,0.143,0.252,0.27,0.382,1,3600.0,966.4,848.0,118.4,899.0,966.4,1256.5,947.0,831.0,116.0,899.0,947.0,1231.3,Magnoliopsida; Pinus pinaster Aiton; Olea europaea L.; Tracheophyta; Quercus suber L.; Eucalyptus L'Hér.; Vitis vinifera L.; Pinales; Quercus L.; 
2001,2001-09-09,Castelo Branco,Covilhã,Sobral de São Miguel,SOBRAL DE SÃO MIGUEL,40.2150556,-7.7698333,NC,912.0,2001-09-09T17:00,26.4,24,3.9,23.4,0.0,0.0,0.0,0.0,0,1014.2,914.9,0,0,0,0,0.33,2.63,10.7,13.7,315,315,29.2,28.9,22.4,20.3,18.3,0.121,0.155,0.21,0.325,1,3600.0,313.9,255.1,58.8,745.0,313.9,461.8,395.0,321.0,74.0,745.0,395.0,581.2,Magnoliopsida; Pinus pinaster Aiton
2001,2001-09-09,Castelo Branco,Covilhã,Unhais da Serra,UNHAIS DA SERRA,40.2586476,-7.6241365,Desconhecida,658.0,2001-09-09T20:00,25.0,35,8.3,23.4,0.0,0.0,0.0,0.0,0,1014.5,941.3,0,0,0,0,0.08,2.08,8.4,13.6,317,320,21.6,25.8,25.0,22.5,20.2,0.129,0.197,0.244,0.364,0,0.0,0.0,0.0,0.0,0.0,0.0,0.0,0.0,0.0,0.0,0.0,0.0,0.0,Pinus pinaster Aiton; Magnoliopsida; Tracheophyta; Olea europaea L.
2001,2001-09-08,Castelo Branco,Oleiros,Amieira,Medrosa de Cima,39.9808285,-7.9119449,Desconhecida,521.0,2001-09-08T18:00,28.1,27,7.1,26.5,0.0,0.0,0.0,0.0,0,1015.8,957.8,7,0,0,24,0.17,2.8,5.7,13.1,325,328,18.4,31.0,25.6,23.0,20.3,0.115,0.147,0.183,0.318,1,3600.0,126.8,89.1,37.7,563.7,126.8,213.1,205.0,144.0,61.0,563.7,205.0,344.4,Pinus pinaster Aiton; Eucalyptus L'Hér.; Magnoliopsida; Olea europaea L.; Tracheophyta
2001,2001-09-16,Castelo Branco,Fundão,Alcaide,ALCAIDE,40.1338233,-7.44879207936232,NC,489.0,2001-09-16T19:00,29.2,21,4.6,26.6,0.0,0.0,0.0,0.0,0,1014.5,960.2,0,0,0,0,0.14,3.2,9.0,12.0,331,339,13.0,29.0,26.1,23.6,21.5,0.111,0.154,0.198,0.324,0,152.63,0.0,0.0,0.0,0.0,0.0,0.0,17.0,8.0,9.0,88.3,17.0,63.6,Pinus pinaster Aiton; Magnoliopsida; Tracheophyta; Quercus L.; Eucalyptus L'Hér.; Pinales; Olea europaea L.; 
2001,2001-09-17,Castelo Branco,Castelo Branco,São Vicente da Beira,PEREIROS,40.037489,-7.5602246,NC,560.0,2001-09-17T14:00,29.5,15,0.2,28.9,0.0,0.0,0.0,0.0,0,1011.7,950.1,0,0,0,0,0.55,3.51,1.8,2.3,37,18,18.4,37.3,25.5,24.2,22.0,0.085,0.15,0.192,0.321,1,3600.0,765.8,671.1,94.8,927.7,765.8,979.8,800.0,701.0,99.0,927.7,800.0,1023.6,Tracheophyta; Olea europaea L.; Pinus pinaster Aiton; Quercus suber L.
2001,2001-09-08,Castelo Branco,Fundão,Salgueiro,SALGUEIRO,40.241193,-7.3063697,NC,489.0,2001-09-08T19:00,28.2,27,7.4,27.0,0.0,0.0,0.0,0.0,1,1015.3,960.8,22,0,0,75,0.06,2.8,4.0,5.1,80,82,8.6,28.3,25.6,23.7,21.2,0.112,0.153,0.195,0.324,0,873.58,0.0,0.0,0.0,0.0,0.0,0.0,33.0,15.0,18.0,134.7,33.0,91.4,Pinus pinaster Aiton; Eucalyptus L'Hér.; Olea europaea L.; Vitis vinifera L.; Magnoliopsida; Tracheophyta; Quercus suber L.; 
2001,2001-09-06,Castelo Branco,Fundão,Souto da Casa,SOUTO DA CASA,40.0841112,-7.5792867,Desconhecida,615.0,2001-09-06T12:00,25.0,46,12.4,26.3,0.0,0.0,0.0,0.0,1,1016.0,947.3,26,10,12,32,0.51,1.72,4.6,5.9,45,52,25.2,31.4,24.7,23.5,20.7,0.103,0.148,0.194,0.322,1,3600.0,763.3,606.3,157.0,734.9,763.3,1111.0,744.0,591.0,153.0,734.9,744.0,1082.9,Pinus pinaster Aiton; Magnoliopsida; Olea europaea L.; Tracheophyta; Eucalyptus L'Hér.; Quercus L.; Pinales; Quercus suber L.; 
2001,2001-09-08,Castelo Branco,Covilhã,Vila Do Carvalho,Espinhaço de Cão \ SA,40.2831298,-7.504734964638136,NC,674.0,2001-09-08T15:00,28.9,22,5.2,28.5,0.0,0.0,0.0,0.0,1,1017.2,943.1,26,0,0,88,0.5,3.1,2.3,3.0,72,76,14.8,33.4,23.1,22.4,20.0,0.142,0.197,0.245,0.364,1,3600.0,667.1,565.5,101.6,858.1,667.1,888.4,722.0,612.0,110.0,858.1,722.0,961.5,Tracheophyta; Magnoliopsida; Pinus pinaster Aiton; Olea europaea L.
2001,2001-09-12,Castelo Branco,Covilhã,Unhais da Serra,Espinhaço do Cão,40.2602096,-7.6238043,NC,667.0,2001-09-12T08:00,15.3,95,14.5,16.3,0.0,0.0,0.0,0.0,2,1019.5,942.6,56,60,0,7,0.06,0.09,3.7,4.4,11,9,13.0,18.6,22.5,22.6,20.2,0.12,0.197,0.244,0.363,1,1844.74,157.5,42.5,115.1,121.5,157.5,472.1,115.0,31.0,84.0,121.5,115.0,344.6,Magnoliopsida; Pinus pinaster Aiton; Tracheophyta; Olea europaea L.
2001,2001-09-10,Castelo Branco,Vila Velha de Ródão,Vila Velha de Ródão,VILA VELHA DE RODÃO,39.68218585,-7.669402903957814,NC,220.0,2001-09-10T09:00,26.4,38,10.8,26.2,0.0,0.0,0.0,0.0,0,1013.9,988.8,0,0,0,0,0.27,2.15,2.9,3.6,97,96,13.0,27.5,25.8,25.3,22.5,0.13,0.151,0.173,0.317,1,3600.0,486.3,400.7,85.6,759.7,486.3,711.8,409.0,337.0,72.0,759.7,409.0,598.6,Magnoliopsida; Eucalyptus L'Hér.; Olea europaea L.; Tracheophyta; Pinus pinaster Aiton
2001,2001-09-07,Castelo Branco,Fundão,Capinha,CAPINHA,40.21469635,-7.382837426254095,NC,503.0,2001-09-07T19:00,26.1,27,5.7,23.9,0.0,0.0,0.0,0.0,0,1016.9,960.4,0,0,0,0,0.09,2.46,7.4,10.2,76,80,14.0,26.2,24.7,23.3,20.8,0.114,0.153,0.198,0.326,0,1469.38,0.0,0.0,0.0,0.0,0.0,0.0,39.0,23.0,16.0,203.2,39.0,93.7,Quercus suber L.; Magnoliopsida; Eucalyptus L'Hér.; Pinus pinaster Aiton; Tracheophyta; Olea europaea L.; Quercus L.; Vitis vinifera L.; Pinales; 
2001,2001-09-08,Castelo Branco,Belmonte,Inguias,INGUIAS,40.3103933,-7.3516832,NC,440.0,2001-09-08T21:00,24.5,41,10.3,23.5,0.0,0.0,0.0,0.0,1,1016.0,966.2,25,0,0,82,0.06,1.82,7.2,9.1,3,34,11.2,23.7,25.3,23.6,21.3,0.105,0.153,0.198,0.326,0,0.0,0.0,0.0,0.0,0.0,0.0,0.0,0.0,0.0,0.0,0.0,0.0,0.0,Magnoliopsida; Tracheophyta; Acacia Mill.; Pinus pinaster Aiton; Vitis vinifera L.; Olea europaea L.; 
2001,2001-07-28,Castelo Branco,Vila Velha de Ródão,Fratel,Silveira,39.6277241,-7.7455834,NC,282.0,2001-07-28T16:00,31.3,27,10.3,30.9,0.0,0.0,0.0,0.0,0,1012.8,981.3,12,0,19,1,0.51,3.31,7.1,8.6,300,303,20.5,35.8,26.2,23.0,19.3,0.123,0.153,0.192,0.34,1,3600.0,584.4,466.5,118.0,698.0,584.4,886.5,644.0,514.0,130.0,698.0,644.0,976.9,Magnoliopsida; Eucalyptus L'Hér.; Tracheophyta
2001,2001-09-10,Castelo Branco,Castelo Branco,Louriçal do Campo,LOURIÇAL DO CAMPO \ SF,40.0444113,-7.5107617,NC,486.0,2001-09-10T14:00,30.8,22,6.4,30.1,0.0,0.0,0.0,0.0,0,1013.0,959.4,2,0,4,0,0.63,3.49,8.8,10.8,215,217,28.8,33.8,25.2,23.4,20.8,0.131,0.154,0.193,0.328,1,3600.0,775.0,677.0,98.0,897.0,775.0,1018.5,807.0,705.0,102.0,897.0,807.0,1060.6,Pinus pinaster Aiton; Quercus rotundifolia Lam.; Magnoliopsida; Tracheophyta; Olea europaea L.; Quercus suber L.; Quercus L.; Eucalyptus L'Hér.; Acacia Mill.; 
2001,2001-08-03,Castelo Branco,Penamacor,Salvador,SALVADOR,40.0887823,-7.0908071,NC,561.0,2001-08-03T16:00,27.4,26,6.5,25.0,0.0,0.0,0.0,0.0,0,1018.8,956.2,6,0,0,20,0.56,2.69,15.9,20.7,321,320,36.7,31.8,24.7,23.1,19.1,0.14,0.154,0.198,0.333,1,3600.0,634.6,539.7,94.9,831.6,634.6,862.2,702.0,597.0,105.0,831.6,702.0,953.7,Pinus pinaster Aiton; Olea europaea L.; Quercus suber L.; Magnoliopsida; Quercus L.; Vitis vinifera L.; Tracheophyta; Pinus pinea L.; Eucalyptus L'Hér.; 
2001,2001-08-04,Castelo Branco,Covilhã,Canhoso,Canhoso,40.29348025,-7.468689595783609,NC,449.0,2001-08-04T18:00,27.0,31,8.6,24.7,0.0,0.0,0.0,0.0,0,1019.4,968.9,8,0,0,25,0.32,2.45,13.2,18.5,338,339,28.8,28.9,24.4,22.7,19.1,0.14,0.16,0.211,0.342,1,3600.0,267.3,210.6,56.7,696.7,267.3,401.7,349.0,275.0,74.0,696.7,349.0,524.5,Quercus L.; Magnoliopsida; Olea europaea L.; Tracheophyta
2001,2001-09-16,Castelo Branco,Fundão,Póvoa de Atalaia,PÓVOA DA ATALAIA,40.0621573,-7.4342522,NC,400.0,2001-09-16T09:00,24.5,30,5.7,22.2,0.0,0.0,0.0,0.0,0,1017.7,972.2,0,0,0,0,0.3,2.16,8.9,12.8,32,32,23.0,23.7,23.6,24.2,22.1,0.111,0.154,0.198,0.325,1,3600.0,473.2,383.6,89.6,754.2,473.2,688.5,396.0,321.0,75.0,754.2,396.0,576.2,Tracheophyta; Olea europaea L.; Magnoliopsida; Pinus pinaster Aiton; Eucalyptus L'Hér.; Pinales; Vitis vinifera L.; Quercus suber L.; Quercus L.; 
2001,2001-09-13,Castelo Branco,Idanha-a-Nova,Segura,SEGURA,39.81733945,-6.981736555337266,NC,178.0,2001-09-13T12:00,29.5,27,8.3,29.6,0.0,0.0,0.0,0.0,0,1017.7,997.5,13,0,0,42,0.61,3.02,7.3,9.4,250,247,22.3,31.3,25.1,25.9,23.8,0.143,0.164,0.21,0.331,1,3600.0,840.2,731.6,108.6,911.0,840.2,1085.4,820.0,714.0,106.0,911.0,820.0,1059.3,Magnoliopsida; Quercus rotundifolia Lam.; Pinus pinea L.; Tracheophyta; Olea europaea L.; Quercus suber L.; Eucalyptus L'Hér.; 
2001,2001-09-15,Castelo Branco,Idanha-a-Nova,Monsanto,Adingeiro,40.0276306,-7.1140078,NC,468.0,2001-09-15T22:00,22.3,35,6.1,20.4,0.0,0.0,0.0,0.0,0,1014.8,961.6,0,0,0,0,0.05,1.74,6.2,11.5,21,32,11.9,22.1,25.2,23.9,21.8,0.126,0.154,0.198,0.325,0,0.0,0.0,0.0,0.0,0.0,0.0,0.0,0.0,0.0,0.0,0.0,0.0,0.0,Quercus L.; Eucalyptus L'Hér.; Quercus rotundifolia Lam.; Quercus suber L.; Olea europaea L.; Tracheophyta; Magnoliopsida; Pinus pinaster Aiton; Vitis vinifera L.; 
2001,2001-09-16,Castelo Branco,Idanha-a-Nova,Alcafozes,Granja,39.9488086,-7.1196025,NC,367.0,2001-09-16T23:00,23.0,25,2.0,19.7,0.0,0.0,0.0,0.0,0,1015.2,973.3,0,0,0,0,0.11,2.1,10.1,22.9,360,13,19.4,22.9,25.4,23.7,21.9,0.136,0.157,0.198,0.328,0,0.0,0.0,0.0,0.0,0.0,0.0,0.0,0.0,0.0,0.0,0.0,0.0,0.0,Magnoliopsida; Tracheophyta; Olea europaea L.; Quercus suber L.; Quercus rotundifolia Lam.; Eucalyptus L'Hér.
2001,2001-09-20,Castelo Branco,Covilhã,Cortes do Meio,CORTES DO MEIO,40.2565541,-7.5782584,NC,626.0,2001-09-20T07:00,14.7,64,8.0,13.5,0.0,0.0,0.0,0.0,1,1012.8,940.8,28,0,0,94,0.03,0.6,4.6,11.1,141,167,19.8,15.2,21.8,22.8,20.8,0.116,0.195,0.241,0.36,1,0.0,49.3,9.0,40.3,67.1,28.5,181.0,22.0,4.0,18.0,38.8,22.0,80.9,Pinus pinaster Aiton; Magnoliopsida; Acacia Mill.; Tracheophyta; Olea europaea L.
2001,2001-09-17,Castelo Branco,Proença-a-Nova,Alvito da Beira,Mó,39.8254086,-7.8005263,NC,313.0,2001-09-17T21:00,24.7,26,3.7,22.1,0.0,0.0,0.0,0.0,0,1009.7,974.2,0,0,0,0,0.09,2.32,8.1,16.3,339,354,13.7,26.0,28.2,25.6,23.4,0.09,0.149,0.187,0.315,0,0.0,0.0,0.0,0.0,0.0,0.0,0.0,0.0,0.0,0.0,0.0,0.0,0.0,Pinus pinaster Aiton; Magnoliopsida; Olea europaea L.; Eucalyptus L'Hér.; Tracheophyta; Pinales; Vitis vinifera L.; 
2001,2001-09-18,Castelo Branco,Penamacor,Salvador,SALVADOR,40.0887823,-7.0908071,NC,561.0,2001-09-18T03:00,15.9,45,3.9,12.4,0.0,0.0,0.0,0.0,0,1012.7,948.1,0,0,0,0,0.09,0.99,14.3,26.8,34,41,34.9,18.9,24.6,24.0,21.8,0.106,0.15,0.183,0.31,0,0.0,0.0,0.0,0.0,0.0,0.0,0.0,0.0,0.0,0.0,0.0,0.0,0.0,Pinus pinaster Aiton; Olea europaea L.; Quercus suber L.; Magnoliopsida; Quercus L.; Vitis vinifera L.; Tracheophyta; Pinus pinea L.; Eucalyptus L'Hér.; 
2001,2001-09-11,Castelo Branco,Covilhã,Teixoso,Gibaltar,40.3134342,-7.4580288,NC,564.0,2001-09-11T22:00,20.1,72,14.8,21.0,0.0,0.0,0.0,0.0,0,1019.1,954.7,0,0,0,0,0.0,0.67,4.0,8.6,265,268,12.6,22.3,25.5,23.0,20.8,0.093,0.154,0.199,0.327,0,0.0,0.0,0.0,0.0,0.0,0.0,0.0,0.0,0.0,0.0,0.0,0.0,0.0,Tracheophyta; Olea europaea L.; Vitis vinifera L.; Pinus pinaster Aiton; Magnoliopsida
2001,2001-09-08,Castelo Branco,Idanha-a-Nova,Idanha-a-Nova,Senhora da Graça,39.91994355,-7.2367431907060285,NC,341.0,2001-09-08T15:00,31.1,16,2.4,30.1,0.0,0.0,0.0,0.0,0,1016.1,978.1,19,0,0,64,0.51,3.79,2.7,3.4,113,108,16.9,33.4,24.9,23.9,21.4,0.138,0.158,0.202,0.332,1,3600.0,670.6,571.8,98.8,864.2,670.6,892.0,726.0,619.0,107.0,864.2,726.0,965.6,Tracheophyta; Olea europaea L.; Quercus rotundifolia Lam.
2001,2001-09-15,Castelo Branco,Castelo Branco,São Vicente da Beira,Paradanta,40.0727131,-7.5813,NC,622.0,2001-09-15T12:00,26.9,29,7.4,26.0,0.0,0.0,0.0,0.0,0,1014.5,945.6,0,0,0,0,0.59,2.51,10.8,14.0,90,91,32.8,31.1,23.1,23.3,21.0,0.091,0.147,0.191,0.318,1,3600.0,816.5,713.9,102.6,901.9,816.5,1071.1,796.0,696.0,100.0,901.9,796.0,1044.2,Magnoliopsida; Eucalyptus L'Hér.; Pinus pinaster Aiton; Olea europaea L.
2001,2001-09-11,Castelo Branco,Castelo Branco,Monforte da Beira,MONFORTE DA BEIRA,39.7277995,-7.2879097,NC,439.0,2001-09-11T11:00,24.6,43,11.3,25.0,0.0,0.0,0.0,0.0,0,1016.2,966.5,0,0,0,0,0.48,1.75,6.7,8.0,216,216,23.4,28.6,25.2,24.6,22.0,0.102,0.151,0.201,0.313,1,3600.0,764.4,655.0,109.3,857.6,764.4,1031.2,720.0,617.0,103.0,857.6,720.0,971.3,Tracheophyta; Quercus rotundifolia Lam.; Quercus suber L.; Olea europaea L.; Magnoliopsida; Eucalyptus L'Hér.; Pinus pinea L.; Pinus pinaster Aiton; Quercus L.; 
2001,2001-09-11,Castelo Branco,Vila de Rei,Vila de Rei,VILA DE REI,39.6751385,-8.143569043758214,Desconhecida,433.0,2001-09-11T12:00,24.1,39,9.2,24.8,0.0,0.0,0.0,0.0,0,1016.5,967.4,0,0,0,0,0.54,1.84,5.2,6.2,254,249,20.5,32.0,25.0,24.3,21.4,0.094,0.15,0.188,0.317,1,3600.0,832.7,725.9,106.8,895.4,832.7,1094.5,811.0,707.0,104.0,895.4,811.0,1066.0,Pinales; Olea europaea L.; Tracheophyta; Magnoliopsida; Pinus pinaster Aiton
2001,2001-09-10,Castelo Branco,Covilhã,Tortosendo,Casal da Serra,40.2397543,-7.5232125,NC,547.0,2001-09-10T00:00,20.4,54,10.7,19.8,0.0,0.0,0.0,0.0,0,1014.1,951.9,0,0,0,0,0.03,1.11,5.5,9.5,349,351,13.7,20.2,24.8,23.0,20.8,0.099,0.154,0.2,0.327,0,0.0,0.0,0.0,0.0,0.0,0.0,0.0,0.0,0.0,0.0,0.0,0.0,0.0,Tracheophyta; Pinus pinaster Aiton; Vitis vinifera L.; Olea europaea L.; Magnoliopsida
2001,2001-09-11,Castelo Branco,Covilhã,Covilhã (são Martinho),Carreira de Tiro,40.2775366,-7.4960627,NC,530.0,2001-09-11T18:00,26.9,32,9.0,25.1,0.0,0.0,0.0,0.0,0,1015.7,956.6,0,0,0,0,0.2,2.4,10.8,14.9,274,277,24.1,30.6,26.0,23.2,21.0,0.093,0.154,0.199,0.327,1,3600.0,110.8,80.5,30.3,590.8,110.8,183.9,190.0,138.0,52.0,590.8,190.0,315.4,Olea europaea L.; Tracheophyta; Magnoliopsida
2001,2001-09-09,Castelo Branco,Fundão,Pêro Viseu,Vales de Pero Viseu,40.2071956,-7.4443594,NC,509.0,2001-09-09T01:00,19.6,53,9.7,18.5,0.0,0.0,0.0,0.0,0,1016.2,957.9,13,0,0,44,0.04,1.08,7.1,14.3,15,28,15.8,18.8,24.1,23.2,20.8,0.104,0.153,0.198,0.326,0,0.0,0.0,0.0,0.0,0.0,0.0,0.0,0.0,0.0,0.0,0.0,0.0,0.0,Tracheophyta; Pinales; Pinus pinaster Aiton; Olea europaea L.; Magnoliopsida
2001,2001-09-16,Castelo Branco,Fundão,Alpedrinha,ALPEDRINHA,40.09524555,-7.461951405733945,NC,525.0,2001-09-16T12:00,30.1,20,4.7,30.0,0.0,0.0,0.0,0.0,0,1016.6,958.5,0,0,0,0,0.57,3.4,3.3,3.6,96,84,21.2,33.8,24.1,23.9,21.7,0.094,0.151,0.193,0.321,1,3600.0,823.2,721.7,101.5,915.8,823.2,1066.8,803.0,704.0,99.0,915.8,803.0,1040.6,Magnoliopsida; Pinus pinaster Aiton; Tracheophyta; Quercus L.; Castanea sativa Mill.; Olea europaea L.; Vitis vinifera L.; Acacia Mill.; Quercus suber L.; 
2001,2001-08-06,Castelo Branco,Covilhã,Ferro,FERRO,40.2342622,-7.4451731,NC,479.0,2001-08-06T18:00,32.5,26,10.3,30.9,0.0,0.0,0.0,0.0,0,1018.9,966.0,0,0,0,0,0.35,3.63,11.6,16.5,338,340,27.4,33.6,26.2,22.5,19.0,0.107,0.159,0.21,0.341,1,3600.0,257.6,202.7,54.9,681.9,257.6,395.3,338.0,266.0,72.0,681.9,338.0,518.7,Tracheophyta; Olea europaea L.; Magnoliopsida; Quercus L.
2001,2001-08-07,Castelo Branco,Castelo Branco,Louriçal do Campo,LOURIÇAL DO CAMPO,40.0449204,-7.5098614,NC,483.0,2001-08-07T08:00,24.4,51,13.7,24.7,0.0,0.0,0.0,0.0,0,1019.0,964.3,0,0,0,0,0.21,1.48,6.0,9.3,327,332,18.7,24.1,24.9,22.6,18.8,0.142,0.158,0.205,0.342,1,3600.0,383.6,297.8,85.8,669.5,383.6,591.5,304.0,236.0,68.0,669.5,304.0,468.8,Pinus pinaster Aiton; Quercus rotundifolia Lam.; Magnoliopsida; Tracheophyta; Olea europaea L.; Quercus suber L.; Quercus L.; Eucalyptus L'Hér.; Acacia Mill.; 
2001,2001-05-29,Castelo Branco,Fundão,Castelo Novo,CASTELO NOVO,40.06444705,-7.460806733657126,NC,473.0,2001-05-29T13:00,33.2,22,8.8,33.8,0.0,0.0,0.0,0.0,0,1018.3,966.2,0,0,0,0,0.79,3.95,10.1,12.7,125,125,29.5,34.0,23.6,17.6,12.6,0.126,0.244,0.268,0.381,1,3600.0,973.6,859.2,114.4,912.3,973.6,1254.1,979.0,864.0,115.0,912.3,979.0,1261.1,Magnoliopsida; Pinus pinaster Aiton; Olea europaea L.; Tracheophyta; Quercus suber L.; Eucalyptus L'Hér.; Vitis vinifera L.; Pinales; Quercus L.; 
2001,2001-09-17,Castelo Branco,Oleiros,Estreito,Vale,39.9535622,-7.8109906,Desconhecida,666.0,2001-09-17T17:00,28.4,17,1.3,25.1,0.0,0.0,0.0,0.0,0,1010.8,937.8,0,0,0,0,0.32,3.19,9.4,12.2,360,358,29.2,31.5,24.7,22.2,19.9,0.118,0.151,0.18,0.309,1,3600.0,278.8,224.8,54.1,739.7,278.8,411.6,361.0,291.0,70.0,739.7,361.0,532.9,Eucalyptus L'Hér.; Pinus pinaster Aiton; Magnoliopsida; Tracheophyta; Olea europaea L.; Pinus pinea L.; Vitis vinifera L.; Quercus suber L.; 
2001,2001-09-10,Castelo Branco,Fundão,Pêro Viseu,Vales de Pero Viseu,40.2071956,-7.4443594,NC,509.0,2001-09-10T17:00,30.7,23,7.3,28.3,0.0,0.0,0.0,0.0,0,1012.6,956.6,0,0,0,0,0.34,3.4,12.0,15.6,254,255,29.9,33.0,25.8,23.2,20.9,0.097,0.153,0.197,0.325,1,3600.0,245.7,169.0,76.6,505.7,245.7,451.2,311.0,214.0,97.0,505.7,311.0,571.1,Tracheophyta; Pinales; Pinus pinaster Aiton; Olea europaea L.; Magnoliopsida
2001,2001-02-20,Castelo Branco,Oleiros,Madeirã,Cava,39.9452996,-8.0424364,NC,524.0,2001-02-20T15:00,13.9,44,1.8,9.9,0.0,0.0,0.0,0.0,0,1025.9,964.2,0,0,0,0,0.31,0.89,16.0,22.5,98,97,41.0,13.5,9.1,9.7,11.2,0.302,0.335,0.347,0.424,1,3600.0,530.0,454.9,75.1,895.6,530.0,710.8,579.0,497.0,82.0,895.6,579.0,776.6,Magnoliopsida; Eucalyptus L'Hér.; Pinus pinaster Aiton; Tracheophyta; Olea europaea L.; Pinales; 
2001,2001-09-25,Castelo Branco,Fundão,Fundão,Fundão,40.1413475,-7.496455741188095,NC,485.0,2001-09-25T15:00,19.9,46,8.1,19.0,0.0,0.0,0.0,0.0,0,1020.7,964.9,12,10,5,0,0.36,1.25,4.6,5.9,315,317,14.0,23.6,18.6,21.7,22.2,0.261,0.226,0.193,0.319,1,3600.0,532.5,416.0,116.5,721.9,532.5,784.0,585.0,457.0,128.0,721.9,585.0,861.3,Tracheophyta; Magnoliopsida; Pinales; Olea europaea L.; Acacia Mill.
2001,2001-10-04,Castelo Branco,Idanha-a-Nova,São Miguel de Acha,SÃO MIGUEL DE ACHA,40.0157136,-7.3222605,NC,364.0,2001-10-04T17:00,21.9,44,9.0,20.3,0.0,0.0,0.0,0.0,1,1012.2,970.6,30,0,0,99,0.16,1.49,9.4,14.7,230,234,25.2,22.1,19.6,20.1,21.9,0.268,0.257,0.21,0.328,1,1871.96,114.8,24.9,89.9,122.4,114.8,278.1,166.0,36.0,130.0,122.4,166.0,402.3,Quercus L.; Magnoliopsida; Tracheophyta; Eucalyptus L'Hér.; Olea europaea L.; Quercus suber L.; Quercus rotundifolia Lam.; Pinus pinaster Aiton; Vitis vinifera L.; 
2001,2001-09-17,Castelo Branco,Covilhã,Unhais da Serra,UNHAIS DA SERRA,40.2586476,-7.6241365,NC,658.0,2001-09-17T18:00,27.0,20,1.8,24.1,0.0,0.0,0.0,0.0,0,1010.8,938.4,0,0,0,0,0.16,2.88,7.7,14.7,11,11,28.8,30.0,25.1,22.7,20.5,0.116,0.195,0.242,0.36,1,3600.0,82.7,58.6,24.1,566.8,82.7,140.0,161.0,114.0,47.0,566.8,161.0,272.5,Pinus pinaster Aiton; Magnoliopsida; Tracheophyta; Olea europaea L.
2001,2001-09-13,Castelo Branco,Penamacor,Aldeia de João Pires,ALDEIA DE JOÃO PIRES,40.0926784,-7.1477866,NC,404.0,2001-09-13T14:00,29.8,18,2.6,28.6,0.0,0.0,0.0,0.0,0,1016.3,971.2,3,0,0,11,0.59,3.45,6.9,8.7,227,232,24.1,35.2,25.5,24.9,22.6,0.104,0.151,0.192,0.32,1,3600.0,758.9,654.5,104.4,885.5,758.9,998.9,792.0,683.0,109.0,885.5,792.0,1042.5,Magnoliopsida; Pinus pinaster Aiton; Tracheophyta; Eucalyptus L'Hér.; Olea europaea L.; Quercus L.; Quercus suber L.; Pinus pinea L.; 
2001,2001-08-07,Castelo Branco,Proença-a-Nova,Proença-a-Nova,Pergulho Cimeiro,39.73720165,-7.91196919525089,NC,440.0,2001-08-07T12:00,31.2,27,9.8,30.4,0.0,0.0,0.0,0.0,0,1018.6,969.7,0,0,0,0,0.75,3.33,17.8,23.0,318,319,41.4,35.0,26.4,23.2,19.4,0.107,0.155,0.206,0.339,1,3600.0,927.3,817.5,109.9,900.4,927.3,1207.4,903.0,796.0,107.0,900.4,903.0,1175.7,Pinus pinaster Aiton; Tracheophyta; Olea europaea L.; Magnoliopsida
2001,2001-09-20,Castelo Branco,Penamacor,Penamacor,PENAMACOR,40.17110305,-7.149775712218803,NC,494.0,2001-09-20T19:00,21.3,54,11.6,21.3,0.0,0.0,0.0,0.0,2,1012.2,956.1,79,1,86,88,0.04,1.17,3.7,7.6,191,199,17.3,23.3,23.5,24.0,22.3,0.1,0.151,0.19,0.317,0,0.0,0.0,0.0,0.0,0.0,0.0,0.0,7.0,1.0,6.0,12.9,7.0,46.4,Eucalyptus L'Hér.; Quercus suber L.; Pinus pinea L.; Pinus pinaster Aiton; Tracheophyta; Magnoliopsida
2001,2001-09-24,Castelo Branco,Idanha-a-Nova,Zebreira,ZEBREIRA \ SF,39.845592,-7.0703366,NC,375.0,2001-09-24T13:00,19.7,44,7.2,18.1,0.0,0.0,0.0,0.0,1,1015.6,972.3,39,19,36,0,0.46,1.28,13.6,18.2,282,284,30.2,22.1,18.7,22.1,22.3,0.312,0.254,0.207,0.33,1,3600.0,751.2,618.8,132.5,825.8,751.2,1018.9,760.0,626.0,134.0,825.8,760.0,1030.8,Magnoliopsida; Quercus rotundifolia Lam.; Pinus pinea L.; Tracheophyta; Olea europaea L.; Quercus suber L.; Eucalyptus L'Hér.; 
2001,2001-09-19,Castelo Branco,Fundão,Atalaia do Campo,ATALAIA DO CAMPO,40.054113,-7.43509,NC,376.0,2001-09-19T20:00,23.8,33,6.7,22.1,0.0,0.0,0.0,0.0,0,1010.3,967.7,7,0,12,0,0.06,1.97,6.0,13.4,253,256,10.8,24.7,25.1,24.3,22.4,0.111,0.153,0.197,0.323,0,0.0,0.0,0.0,0.0,0.0,0.0,0.0,0.0,0.0,0.0,0.0,0.0,0.0,Tracheophyta; Olea europaea L.; Magnoliopsida; Pinus pinaster Aiton; Eucalyptus L'Hér.; Pinales; Vitis vinifera L.; Quercus suber L.; Quercus L.; 
2001,2001-08-25,Castelo Branco,Fundão,Souto da Casa,SOUTO DA CASA,40.0841112,-7.5792867,Natural,615.0,2001-08-25T03:00,25.6,36,9.3,23.9,0.0,0.0,0.0,0.0,2,1011.5,943.2,57,0,51,87,0.1,2.11,10.5,21.9,128,139,35.3,23.5,26.7,23.4,20.0,0.092,0.148,0.198,0.328,0,0.0,0.0,0.0,0.0,0.0,0.0,0.0,0.0,0.0,0.0,0.0,0.0,0.0,Pinus pinaster Aiton; Magnoliopsida; Olea europaea L.; Tracheophyta; Eucalyptus L'Hér.; Quercus L.; Pinales; Quercus suber L.; 
2001,2001-09-12,Castelo Branco,Penamacor,Aranhas,ARANHAS,40.1112959,-7.120030340909622,NC,483.0,2001-09-12T11:00,24.3,50,13.2,25.6,0.0,0.0,0.0,0.0,0,1019.3,964.6,1,0,0,3,0.49,1.52,5.9,7.3,191,189,21.6,29.3,24.2,24.5,22.0,0.104,0.151,0.192,0.321,1,3600.0,781.3,675.1,106.2,891.4,781.3,1023.0,736.0,636.0,100.0,891.4,736.0,963.8,Quercus suber L.; Olea europaea L.; Tracheophyta; Eucalyptus L'Hér.; Pinus pinaster Aiton; Magnoliopsida; Quercus L.; ; Pinus pinea L.
2001,2001-09-27,Castelo Branco,Castelo Branco,Escalos de Baixo,ESCALOS DE BAIXO,39.8838078,-7.3975664,NC,313.0,2001-09-27T15:00,22.3,43,9.2,20.6,0.0,0.0,0.0,0.0,3,1012.9,977.0,100,95,97,100,0.31,1.54,10.1,12.7,153,151,20.2,22.6,18.5,20.6,21.8,0.257,0.232,0.198,0.327,1,3600.0,363.4,179.9,183.5,316.6,363.4,773.8,400.0,198.0,202.0,316.6,400.0,851.8,Olea europaea L.; Magnoliopsida; Tracheophyta; Quercus suber L.; Eucalyptus L'Hér.; Pinus pinaster Aiton; Quercus L.; Quercus rotundifolia Lam.; Vitis vinifera L.; Pinales; Pinus pinea L.; 
2001,2001-09-30,Castelo Branco,Castelo Branco,Benquerenças,BENQUERENÇAS,39.7882572,-7.5622178,NC,375.0,2001-09-30T17:00,19.8,60,11.7,19.1,0.0,0.0,0.0,0.0,0,1017.8,974.4,5,0,0,18,0.16,0.93,8.4,11.6,245,244,23.0,21.1,19.3,20.6,22.3,0.297,0.228,0.183,0.314,1,3600.0,181.4,126.4,55.0,556.2,181.4,310.1,254.0,177.0,77.0,556.2,254.0,434.3,Magnoliopsida; Eucalyptus L'Hér.; Olea europaea L.; Pinus pinaster Aiton; Quercus rotundifolia Lam.; Tracheophyta; Quercus suber L.; Vitis vinifera L.; Quercus L.; 
2001,2001-10-25,Castelo Branco,Fundão,Alcongosta,ALCONGOSTA,40.1169585,-7.482380307290599,NC,675.0,2001-10-25T21:00,14.6,73,9.9,14.2,0.0,0.0,0.0,0.0,1,1022.6,944.4,47,4,33,78,0.0,0.44,3.3,5.1,96,129,12.6,12.4,14.3,15.9,19.4,0.388,0.406,0.39,0.355,0,0.0,0.0,0.0,0.0,0.0,0.0,0.0,0.0,0.0,0.0,0.0,0.0,0.0,Magnoliopsida; Tracheophyta; Quercus L.; Pinales; Pinus pinaster Aiton; ; Eucalyptus L'Hér.
2001,2001-09-30,Castelo Branco,Vila de Rei,Vila de Rei,Penedo,39.6751385,-8.143569043758214,NC,433.0,2001-09-30T14:00,19.1,65,12.4,18.1,0.0,0.0,0.0,0.0,2,1018.1,968.1,67,51,0,70,0.31,0.77,11.4,14.8,204,203,33.5,21.3,18.4,20.3,21.8,0.311,0.232,0.187,0.311,1,3600.0,481.7,254.2,227.5,381.5,481.7,909.1,506.0,267.0,239.0,381.5,506.0,954.9,Pinales; Olea europaea L.; Tracheophyta; Magnoliopsida; Pinus pinaster Aiton
2001,2001-08-10,Castelo Branco,Covilhã,Cortes do Meio,CORTES DO MEIO,40.2565541,-7.5782584,NC,626.0,2001-08-10T17:00,30.8,26,8.9,30.2,0.0,0.0,0.0,0.0,0,1017.3,948.6,1,0,1,0,0.35,3.31,1.8,1.9,259,248,14.8,36.5,26.1,22.3,18.7,0.119,0.204,0.257,0.376,1,3600.0,437.3,363.6,73.7,776.5,437.3,623.3,516.0,429.0,87.0,776.5,516.0,735.5,Pinus pinaster Aiton; Magnoliopsida; Acacia Mill.; Tracheophyta; Olea europaea L.
2001,2001-10-04,Castelo Branco,Covilhã,Erada,ERADA,40.225944,-7.6483803,NC,538.0,2001-10-04T18:00,18.4,59,10.3,17.6,0.0,0.0,0.0,0.0,1,1013.5,951.9,29,0,0,97,0.06,0.86,6.2,11.2,277,276,23.4,19.3,18.9,19.8,21.6,0.241,0.239,0.192,0.313,1,0.0,4.8,0.3,4.5,3.0,3.8,20.4,36.0,2.0,34.0,14.2,36.0,154.3,Eucalyptus L'Hér.; Magnoliopsida; Olea europaea L.; Tracheophyta; Pinus pinaster Aiton
2001,2001-09-16,Castelo Branco,Idanha-a-Nova,Monfortinho,Ribeiro Galvão,40.0033288,-6.9164657,NC,390.0,2001-09-16T14:00,32.1,16,3.2,31.8,0.0,0.0,0.0,0.0,0,1015.3,972.1,0,0,0,0,0.56,4.01,1.9,2.7,338,337,15.8,35.1,25.0,24.3,22.4,0.125,0.151,0.193,0.322,1,3600.0,754.5,659.8,94.7,910.6,754.5,981.0,789.0,690.0,99.0,910.6,789.0,1025.9,Magnoliopsida; Quercus rotundifolia Lam.; Tracheophyta; Olea europaea L.; Eucalyptus L'Hér.; Pinus pinea L.; Pinus pinaster Aiton; Quercus suber L.; Pinales; 
2001,2001-10-01,Castelo Branco,Idanha-a-Nova,Ladoeiro,LADOEIRO,39.8373524,-7.262091187530026,NC,216.0,2001-10-01T17:00,24.8,52,14.3,25.2,0.0,0.0,0.0,0.0,2,1017.4,992.6,78,87,0,0,0.17,1.49,6.6,9.2,261,259,18.0,24.1,20.6,20.9,22.5,0.274,0.234,0.181,0.309,1,3600.0,159.2,106.8,52.4,485.3,159.2,300.5,225.0,151.0,74.0,485.3,225.0,424.8,Tracheophyta; Olea europaea L.; Quercus suber L.; Pinus pinaster Aiton; Vitis vinifera L.; Quercus rotundifolia Lam.; Magnoliopsida; Pinus pinea L.; Eucalyptus L'Hér.; 
2001,2001-09-17,Castelo Branco,Fundão,Alpedrinha,ALPEDRINHA,40.09524555,-7.461951405733945,NC,525.0,2001-09-17T15:00,30.2,15,0.8,28.8,0.0,0.0,0.0,0.0,0,1010.9,953.2,0,0,0,0,0.49,3.65,2.9,3.8,353,343,18.0,36.4,25.5,23.9,21.8,0.093,0.151,0.193,0.321,1,3600.0,642.9,556.7,86.2,901.2,642.9,836.8,701.0,607.0,94.0,901.2,701.0,912.3,Magnoliopsida; Pinus pinaster Aiton; Tracheophyta; Quercus L.; Castanea sativa Mill.; Olea europaea L.; Vitis vinifera L.; Acacia Mill.; Quercus suber L.; 
2001,2001-10-10,Castelo Branco,Fundão,Alpedrinha,ALPEDRINHA,40.09524555,-7.461951405733945,NC,525.0,2001-10-10T17:00,19.4,46,7.6,16.9,0.0,0.0,0.0,0.0,0,1018.0,957.8,5,1,7,0,0.17,1.21,12.5,21.5,78,80,38.2,18.0,15.7,18.2,21.4,0.302,0.306,0.199,0.316,1,3600.0,125.3,89.8,35.4,521.0,125.3,236.7,191.0,137.0,54.0,521.0,191.0,360.9,Magnoliopsida; Pinus pinaster Aiton; Tracheophyta; Quercus L.; Castanea sativa Mill.; Olea europaea L.; Vitis vinifera L.; Acacia Mill.; Quercus suber L.; 
2001,2001-11-01,Castelo Branco,Fundão,Castelo Novo,CASTELO NOVO,40.06444705,-7.460806733657126,NC,473.0,2001-11-01T16:00,20.1,53,10.4,18.6,0.0,0.0,0.0,0.0,1,1024.0,969.4,25,0,0,84,0.2,1.1,11.0,16.5,67,67,29.2,19.5,16.9,17.1,20.3,0.315,0.341,0.325,0.314,1,3600.0,220.6,169.5,51.1,691.8,220.6,340.3,289.0,222.0,67.0,691.8,289.0,445.8,Magnoliopsida; Pinus pinaster Aiton; Olea europaea L.; Tracheophyta; Quercus suber L.; Eucalyptus L'Hér.; Vitis vinifera L.; Pinales; Quercus L.; 
2001,2001-09-12,Castelo Branco,Oleiros,Amieira,Medrosa de Cima,39.9808285,-7.9119449,NC,521.0,2001-09-12T12:00,24.5,53,14.4,27.2,0.0,0.0,0.0,0.0,0,1019.5,960.7,7,2,0,17,0.52,1.44,2.1,2.3,211,198,17.3,30.5,23.3,23.1,20.5,0.109,0.146,0.182,0.316,1,3600.0,793.5,647.7,145.8,805.3,793.5,1086.4,773.0,631.0,142.0,805.3,773.0,1058.4,Pinus pinaster Aiton; Eucalyptus L'Hér.; Magnoliopsida; Olea europaea L.; Tracheophyta
2001,2001-09-16,Castelo Branco,Penamacor,Aldeia do Bispo,ALDEIA DO BISPO,40.11535035,-7.163076334842016,NC,434.0,2001-09-16T12:00,30.4,18,3.8,30.2,0.0,0.0,0.0,0.0,0,1016.3,968.1,0,0,0,0,0.57,3.54,2.9,3.6,97,96,20.2,31.7,24.3,24.0,22.0,0.126,0.154,0.198,0.325,1,3600.0,824.7,722.3,102.5,916.2,824.7,1067.2,805.0,705.0,100.0,916.2,805.0,1041.7,Magnoliopsida; Pinus pinaster Aiton; Tracheophyta; Eucalyptus L'Hér.; Olea europaea L.; Quercus L.; Quercus suber L.; Pinus pinea L.; 
2001,2001-09-12,Castelo Branco,Fundão,Silvares,SILVARES,40.1403177,-7.6613124,NC,407.0,2001-09-12T17:00,27.9,33,10.3,25.6,0.0,0.0,0.0,0.0,0,1018.0,972.2,18,0,1,59,0.36,2.5,16.3,21.2,284,285,35.3,34.8,27.3,25.4,22.7,0.086,0.15,0.194,0.323,1,3600.0,281.1,208.8,72.2,641.3,281.1,440.0,358.0,266.0,92.0,641.3,358.0,560.4,Olea europaea L.; Magnoliopsida; Eucalyptus L'Hér.; Pinus pinaster Aiton
2001,2001-08-12,Castelo Branco,Fundão,Fundão,FUNDÃO,40.1413475,-7.496455741188095,NC,485.0,2001-08-12T11:00,32.0,29,11.8,33.1,0.0,0.0,0.0,0.0,0,1017.4,963.9,0,0,0,0,0.61,3.38,6.3,7.7,239,242,23.8,36.4,27.1,24.0,19.9,0.093,0.154,0.204,0.337,1,3600.0,838.1,724.9,113.2,861.1,838.1,1121.4,792.0,685.0,107.0,861.1,792.0,1059.7,Tracheophyta; Magnoliopsida; Pinales; Olea europaea L.; Acacia Mill.
2001,2001-10-03,Castelo Branco,Belmonte,Inguias,INGUIAS,40.3103933,-7.3516832,NC,440.0,2001-10-03T19:00,17.3,69,11.7,16.9,0.0,0.0,0.0,0.0,0,1017.2,966.1,0,0,0,0,0.01,0.61,6.4,8.6,322,338,12.6,18.4,20.1,19.9,21.6,0.267,0.244,0.197,0.318,0,0.0,0.0,0.0,0.0,0.0,0.0,0.0,0.0,0.0,0.0,0.0,0.0,0.0,Magnoliopsida; Tracheophyta; Acacia Mill.; Pinus pinaster Aiton; Vitis vinifera L.; Olea europaea L.; 
2001,2001-10-24,Castelo Branco,Fundão,Fundão,FUNDÃO,40.1413475,-7.496455741188095,NC,485.0,2001-10-24T18:00,16.5,68,10.6,15.8,0.0,0.0,0.0,0.0,0,1027.2,970.4,0,0,0,0,0.03,0.6,6.5,9.4,71,86,11.9,15.6,15.7,17.0,20.8,0.368,0.386,0.32,0.314,0,209.34,0.0,0.0,0.0,0.0,0.0,0.0,17.0,9.0,8.0,102.0,17.0,62.2,Tracheophyta; Magnoliopsida; Pinales; Olea europaea L.; Acacia Mill.
2001,2001-11-05,Castelo Branco,Fundão,Vale de Prazeres,Póvoa Palhaça,40.1232643,-7.3367147,NC,466.0,2001-11-05T17:00,15.7,59,7.7,13.4,0.0,0.0,0.0,0.0,2,1016.6,962.4,58,38,12,57,0.09,0.73,12.2,23.1,71,72,32.4,15.4,14.4,16.1,19.6,0.309,0.325,0.318,0.321,1,2475.97,31.1,8.7,22.4,100.0,29.2,75.1,82.0,23.0,59.0,152.0,82.0,198.1,Eucalyptus L'Hér.; Tracheophyta; Olea europaea L.; Pinus pinaster Aiton; Magnoliopsida; Quercus suber L.; Quercus L.; Vitis vinifera L.; 
2001,2001-10-29,Castelo Branco,Oleiros,Sarnadas de São Simão,SARNADAS DE SÃO SIMÃO,39.9455736,-7.7475815,NC,498.0,2001-10-29T16:00,21.7,58,12.9,20.2,0.0,0.0,0.0,0.0,1,1021.2,964.2,50,0,37,92,0.19,1.1,16.1,28.6,110,113,46.1,19.2,16.9,16.8,20.4,0.343,0.345,0.291,0.303,1,2633.62,148.1,38.8,109.4,147.8,148.1,363.9,191.0,50.0,141.0,147.8,191.0,469.2,Pinus pinaster Aiton; Eucalyptus L'Hér.; Magnoliopsida; Tracheophyta; Olea europaea L.; 
2001,2001-11-11,Castelo Branco,Idanha-a-Nova,Medelim,MEDELIM,40.0707565,-7.1747375,NC,379.0,2001-11-11T14:00,10.7,44,-1.2,5.3,0.0,0.0,0.0,0.0,0,1016.9,971.7,0,0,0,0,0.26,0.73,20.9,30.0,19,20,42.5,11.3,9.5,15.1,19.9,0.299,0.315,0.293,0.316,1,3600.0,487.3,415.8,71.5,909.7,487.3,638.0,525.0,448.0,77.0,909.7,525.0,687.4,Tracheophyta; Quercus suber L.; Quercus L.; Magnoliopsida; Eucalyptus L'Hér.; Olea europaea L.; Pinus pinaster Aiton; Pinales; Vitis vinifera L.; Quercus rotundifolia Lam.; 
2001,2001-09-25,Castelo Branco,Covilhã,Covilhã (santa Maria),COVILHÃ,40.273597,-7.496332107249937,NC,536.0,2001-09-25T11:00,16.8,65,10.2,16.8,0.0,0.0,0.0,0.0,1,1022.8,960.6,21,5,0,56,0.35,0.66,3.3,4.5,347,346,16.9,20.0,16.5,21.1,21.4,0.283,0.229,0.198,0.322,1,3600.0,656.8,499.3,157.6,708.8,656.8,958.3,617.0,469.0,148.0,708.8,617.0,900.2,Olea europaea L.; Tracheophyta; Magnoliopsida
2001,2001-12-17,Castelo Branco,Covilhã,Unhais da Serra,UNHAIS DA SERRA,40.2586476,-7.6241365,NC,658.0,2001-12-17T20:00,2.7,55,-5.5,-1.5,0.0,0.0,0.0,0.0,1,1019.3,940.1,30,0,0,100,0.03,0.33,9.5,20.9,81,91,33.5,1.6,3.0,7.8,14.0,0.306,0.334,0.365,0.358,0,0.0,0.0,0.0,0.0,0.0,0.0,0.0,0.0,0.0,0.0,0.0,0.0,0.0,Pinus pinaster Aiton; Magnoliopsida; Tracheophyta; Olea europaea L.
2001,2001-09-18,Castelo Branco,Covilhã,Cortes do Meio,Penhas da Saúde,40.2565541,-7.5782584,NC,626.0,2001-09-18T12:00,23.5,29,4.3,22.3,0.0,0.0,0.0,0.0,1,1012.9,942.9,21,0,0,71,0.54,2.06,8.6,11.2,90,90,28.8,28.9,22.9,22.9,20.8,0.116,0.195,0.242,0.36,1,3600.0,811.8,708.3,103.5,910.0,811.8,1054.8,792.0,691.0,101.0,910.0,792.0,1029.1,Pinus pinaster Aiton; Magnoliopsida; Acacia Mill.; Tracheophyta; Olea europaea L.
2001,2001-09-18,Castelo Branco,Fundão,Alpedrinha,ALPEDRINHA,40.09524555,-7.461951405733945,NC,525.0,2001-09-18T01:00,19.2,34,3.2,16.1,0.0,0.0,0.0,0.0,0,1011.3,951.5,0,0,0,0,0.09,1.46,10.8,24.9,30,37,25.2,19.7,25.3,24.0,21.8,0.093,0.151,0.193,0.32,0,0.0,0.0,0.0,0.0,0.0,0.0,0.0,0.0,0.0,0.0,0.0,0.0,0.0,Magnoliopsida; Pinus pinaster Aiton; Tracheophyta; Quercus L.; Castanea sativa Mill.; Olea europaea L.; Vitis vinifera L.; Acacia Mill.; Quercus suber L.; 
2001,2001-09-27,Castelo Branco,Penamacor,Aranhas,ARANHAS,40.1112959,-7.120030340909622,NC,483.0,2001-09-27T14:00,21.8,43,8.6,20.8,0.0,0.0,0.0,0.0,2,1014.2,959.3,52,11,26,88,0.37,1.49,4.8,6.1,132,130,19.1,23.1,18.0,21.0,22.4,0.224,0.227,0.192,0.316,1,3600.0,532.6,296.7,235.9,442.1,532.6,914.3,560.0,312.0,248.0,442.1,560.0,961.4,Quercus suber L.; Olea europaea L.; Tracheophyta; Eucalyptus L'Hér.; Pinus pinaster Aiton; Magnoliopsida; Quercus L.; ; Pinus pinea L.
2001,2001-09-20,Castelo Branco,Fundão,Capinha,CAPINHA,40.21469635,-7.382837426254095,NC,503.0,2001-09-20T20:00,20.8,57,12.1,21.0,0.0,0.0,0.0,0.0,3,1012.2,955.0,81,1,88,90,0.01,1.05,3.1,4.7,144,180,10.8,21.9,22.9,23.0,21.4,0.095,0.152,0.194,0.321,0,0.0,0.0,0.0,0.0,0.0,0.0,0.0,0.0,0.0,0.0,0.0,0.0,0.0,Quercus suber L.; Magnoliopsida; Eucalyptus L'Hér.; Pinus pinaster Aiton; Tracheophyta; Olea europaea L.; Quercus L.; Vitis vinifera L.; Pinales; 
2001,2001-09-25,Castelo Branco,Castelo Branco,Benquerenças,Benquerenças de Baixo,39.7971745,-7.5917719,NC,344.0,2001-09-25T17:00,20.5,43,7.4,19.3,0.0,0.0,0.0,0.0,0,1020.0,980.1,10,4,11,0,0.18,1.38,3.6,4.6,307,309,11.9,22.4,19.4,22.2,22.7,0.254,0.208,0.182,0.313,1,3600.0,225.6,173.8,51.8,675.9,225.6,349.9,305.0,235.0,70.0,675.9,305.0,473.1,Magnoliopsida; Eucalyptus L'Hér.; Olea europaea L.; Pinus pinaster Aiton; Quercus rotundifolia Lam.; Tracheophyta; Quercus suber L.; Vitis vinifera L.; Quercus L.; 
2001,2001-09-27,Castelo Branco,Castelo Branco,Escalos de Cima,ESCALOS DE CIMA,39.92814925,-7.402261830769533,NC,346.0,2001-09-27T18:00,20.7,57,11.8,20.8,0.0,0.0,0.0,0.0,3,1012.0,972.2,100,35,70,98,0.05,1.05,2.9,6.8,90,115,11.5,20.4,18.8,20.4,21.6,0.255,0.232,0.198,0.327,1,0.0,9.4,0.0,9.4,0.0,8.7,64.5,29.0,0.0,29.0,0.0,29.0,198.9,Magnoliopsida; Tracheophyta; Quercus suber L.; Olea europaea L.; Quercus rotundifolia Lam.; Pinus pinaster Aiton; Eucalyptus L'Hér.; Pinus pinea L.; 
2001,2001-09-13,Castelo Branco,Penamacor,Aldeia do Bispo,ALDEIA DO BISPO,40.11535035,-7.163076334842016,NC,434.0,2001-09-13T13:00,29.0,20,3.8,28.3,0.0,0.0,0.0,0.0,0,1017.1,968.6,10,0,0,32,0.62,3.2,6.9,8.7,219,222,24.1,32.0,24.2,24.2,21.9,0.127,0.154,0.199,0.326,1,3600.0,832.0,723.9,108.1,910.2,832.0,1074.9,839.0,730.0,109.0,910.2,839.0,1084.0,Magnoliopsida; Pinus pinaster Aiton; Tracheophyta; Eucalyptus L'Hér.; Olea europaea L.; Quercus L.; Quercus suber L.; Pinus pinea L.; 
2001,2001-11-09,Castelo Branco,Covilhã,Tortosendo,TORTOSENDO,40.2451299,-7.5119271,NC,497.0,2001-11-09T19:00,5.7,39,-7.1,-0.7,0.0,0.0,0.0,0.0,0,1019.7,959.8,0,0,0,0,0.09,0.56,23.1,39.4,21,23,51.8,7.7,11.2,14.6,19.1,0.327,0.339,0.343,0.319,0,0.0,0.0,0.0,0.0,0.0,0.0,0.0,0.0,0.0,0.0,0.0,0.0,0.0,Magnoliopsida; Olea europaea L.; Tracheophyta; Pinus pinaster Aiton
2001,2001-11-05,Castelo Branco,Penamacor,Águas,ÁGUAS,40.1046247,-7.205330353780623,NC,394.0,2001-11-05T15:00,17.7,51,7.5,14.4,0.0,0.0,0.0,0.0,1,1016.2,970.4,27,4,0,78,0.24,0.99,18.1,26.1,67,67,38.2,17.2,14.5,16.7,20.3,0.296,0.314,0.293,0.317,1,3600.0,298.6,159.3,139.4,428.3,298.6,517.5,345.0,184.0,161.0,428.3,345.0,597.9,Magnoliopsida; Pinus pinaster Aiton; Tracheophyta; Eucalyptus L'Hér.; Olea europaea L.; Quercus L.; Quercus suber L.; Pinus pinea L.; 
2001,2001-09-17,Castelo Branco,Covilhã,Erada,TRIGAIS,40.225944,-7.6483803,NC,538.0,2001-09-17T15:00,30.2,16,1.3,28.0,0.0,0.0,0.0,0.0,0,1011.7,952.6,0,0,0,0,0.54,3.62,7.6,9.4,352,353,27.0,36.8,25.5,23.9,21.7,0.091,0.147,0.19,0.317,1,3600.0,640.1,556.5,83.6,897.8,640.1,839.7,697.0,606.0,91.0,897.8,697.0,914.3,Eucalyptus L'Hér.; Magnoliopsida; Olea europaea L.; Tracheophyta; Pinus pinaster Aiton
2001,2001-02-21,Santarém,Mação,Envendos,Sanguinheira,39.5622535,-7.89779,NC,265.0,2001-02-21T15:00,17.7,38,3.4,13.9,0.0,0.0,0.0,0.0,0,1024.2,992.9,0,0,0,0,0.36,1.25,17.0,22.7,86,87,33.8,16.0,10.9,11.0,12.5,0.293,0.33,0.38,0.416,1,3600.0,534.6,458.6,76.0,889.0,534.6,721.6,584.0,501.0,83.0,889.0,584.0,788.3,Eucalyptus L'Hér.; Magnoliopsida; Pinus pinaster Aiton; Tracheophyta; Olea europaea L.
2001,2001-12-27,Castelo Branco,Oleiros,Orvalho,ORVALHO,40.0173362,-7.7891072,NC,476.0,2001-12-27T16:00,8.5,62,1.6,6.3,0.0,0.0,0.0,0.0,0,1025.6,968.4,0,0,0,0,0.09,0.43,2.8,4.1,50,45,12.6,8.5,5.4,8.1,13.9,0.278,0.272,0.295,0.301,1,3600.0,162.7,124.2,38.5,696.5,162.7,252.1,224.0,171.0,53.0,696.5,224.0,347.2,Pinus pinaster Aiton; Eucalyptus L'Hér.; Magnoliopsida; Olea europaea L.; Tracheophyta; 
2001,2001-11-26,Castelo Branco,Vila de Rei,Vila de Rei,Penedo,39.6751385,-8.143569043758214,NC,433.0,2001-11-26T14:00,13.1,61,5.7,10.2,0.0,0.0,0.0,0.0,3,1016.7,965.7,92,34,52,100,0.19,0.59,12.2,16.5,315,316,29.5,13.2,9.2,11.8,17.7,0.213,0.257,0.285,0.306,1,3600.0,318.5,143.0,175.5,339.6,318.5,591.5,343.0,154.0,189.0,339.6,343.0,636.9,Pinales; Olea europaea L.; Tracheophyta; Magnoliopsida; Pinus pinaster Aiton
2001,2001-06-07,Castelo Branco,Fundão,Castelo Novo,Serra da Gardunha,40.06444705,-7.460806733657126,NC,473.0,2001-06-07T11:00,27.9,23,4.7,27.8,0.0,0.0,0.0,0.0,0,1015.0,962.2,0,0,0,1,0.64,2.89,6.1,7.6,183,185,24.1,31.6,22.4,20.1,13.8,0.098,0.201,0.255,0.375,1,3600.0,930.3,812.9,117.5,900.2,930.3,1199.1,887.0,775.0,112.0,900.2,887.0,1143.3,Magnoliopsida; Pinus pinaster Aiton; Olea europaea L.; Tracheophyta; Quercus suber L.; Eucalyptus L'Hér.; Vitis vinifera L.; Pinales; Quercus L.; 
2001,2001-08-14,Castelo Branco,Fundão,Vale de Prazeres,Cortiçada,40.114639100000005,-7.424249151910219,NC,551.0,2001-08-14T10:00,24.9,41,10.7,24.8,0.0,0.0,0.0,0.0,0,1013.9,952.2,0,0,0,0,0.45,1.87,6.4,8.0,207,207,23.4,28.8,25.5,23.6,19.3,0.112,0.157,0.208,0.338,1,3600.0,713.5,600.3,113.2,813.2,713.5,984.0,649.0,546.0,103.0,813.2,649.0,895.0,Eucalyptus L'Hér.; Tracheophyta; Olea europaea L.; Pinus pinaster Aiton; Magnoliopsida; Quercus suber L.; Quercus L.; Vitis vinifera L.; 
2001,2001-11-14,Castelo Branco,Fundão,Alpedrinha,Alpedrinha,40.09524555,-7.461951405733945,NC,525.0,2001-11-14T22:00,5.0,53,-3.8,0.2,0.0,0.0,0.0,0.0,0,1023.9,960.3,0,0,0,0,0.05,0.41,15.0,29.6,27,32,36.4,5.9,9.4,12.6,18.7,0.281,0.312,0.321,0.314,0,0.0,0.0,0.0,0.0,0.0,0.0,0.0,0.0,0.0,0.0,0.0,0.0,0.0,Magnoliopsida; Pinus pinaster Aiton; Tracheophyta; Quercus L.; Castanea sativa Mill.; Olea europaea L.; Vitis vinifera L.; Acacia Mill.; Quercus suber L.; 
2001,2001-09-17,Castelo Branco,Fundão,Silvares,SILVARES,40.1403177,-7.6613124,NC,407.0,2001-09-17T23:00,21.8,29,3.2,19.0,0.0,0.0,0.0,0.0,0,1011.4,965.0,0,0,0,0,0.08,1.84,8.4,17.3,70,73,18.4,22.7,27.2,25.3,23.0,0.085,0.15,0.192,0.321,0,0.0,0.0,0.0,0.0,0.0,0.0,0.0,0.0,0.0,0.0,0.0,0.0,0.0,Olea europaea L.; Magnoliopsida; Eucalyptus L'Hér.; Pinus pinaster Aiton
2001,2001-06-07,Santarém,Mação,Penhascoso,Ribeira das Boas Eiras,39.52983,-8.0262077,NC,154.0,2001-06-07T14:00,32.0,21,7.1,32.1,0.0,0.0,0.0,0.0,0,1013.2,995.9,0,0,0,1,0.76,3.75,10.6,12.8,260,260,30.6,37.4,24.9,21.6,15.8,0.089,0.172,0.224,0.344,1,3600.0,930.5,817.0,113.5,903.5,930.5,1200.9,959.0,842.0,117.0,903.5,959.0,1237.6,Olea europaea L.; Pinus pinaster Aiton; Magnoliopsida; Eucalyptus L'Hér.
2001,2001-06-01,Castelo Branco,Vila de Rei,Vila de Rei,Valadinhas,39.6751385,-8.143569043758214,Desconhecida,433.0,2001-06-01T15:00,32.2,15,2.6,30.0,0.0,0.0,0.0,0.0,0,1015.4,967.6,0,0,0,0,0.76,4.06,15.5,19.8,269,268,34.2,36.9,26.2,19.4,13.4,0.098,0.214,0.261,0.379,1,3600.0,830.4,729.6,100.7,905.6,830.4,1071.8,882.0,775.0,107.0,905.6,882.0,1138.5,Pinales; Olea europaea L.; Tracheophyta; Magnoliopsida; Pinus pinaster Aiton
2001,2001-10-04,Castelo Branco,Penamacor,Meimoa,MEIMOA,40.2600029,-7.139085,NC,567.0,2001-10-04T14:00,21.6,45,9.3,20.2,0.0,0.0,0.0,0.0,1,1013.5,949.4,30,0,0,100,0.44,1.41,13.1,16.8,188,189,31.0,22.8,17.5,19.3,21.3,0.253,0.24,0.195,0.316,1,3600.0,639.8,497.6,142.2,783.1,639.8,869.0,675.0,525.0,150.0,783.1,675.0,916.9,Quercus rotundifolia Lam.; Magnoliopsida; Olea europaea L.; Tracheophyta; Pinus pinaster Aiton; Eucalyptus L'Hér.; Quercus suber L.; Quercus L.; Pinales; 
2001,2001-10-04,Castelo Branco,Vila Velha de Ródão,Perais,Alfrivida,39.7206636,-7.5373409,NC,168.0,2001-10-04T15:00,25.5,35,8.7,23.4,0.0,0.0,0.0,0.0,1,1012.7,993.5,30,0,0,100,0.42,2.13,11.7,15.5,236,234,25.2,26.1,20.7,21.5,23.1,0.231,0.213,0.169,0.304,1,3600.0,493.5,338.3,155.2,633.6,493.5,730.3,547.0,375.0,172.0,633.6,547.0,809.5,Tracheophyta; Olea europaea L.; Magnoliopsida; Quercus suber L.
2001,2001-06-02,Castelo Branco,Castelo Branco,Sobral do Campo,SOBRAL DO CAMPO,39.9980552,-7.5639776,NC,464.0,2001-06-02T15:00,32.1,18,4.6,30.2,0.0,0.0,0.0,0.0,0,1015.2,964.1,0,0,0,0,0.75,3.93,15.9,21.3,274,275,38.2,38.0,26.1,20.2,13.4,0.092,0.214,0.261,0.378,1,3600.0,828.0,724.5,103.5,902.8,828.0,1067.1,880.0,770.0,110.0,902.8,880.0,1134.2,Eucalyptus L'Hér.; Magnoliopsida; Pinus pinaster Aiton; Tracheophyta; Olea europaea L.; Quercus suber L.; Vitis vinifera L.; 
2001,2001-11-10,Castelo Branco,Castelo Branco,Monforte da Beira,MONFORTE DA BEIRA,39.7277995,-7.2879097,NC,439.0,2001-11-10T13:00,9.3,31,-7.2,1.7,0.0,0.0,0.0,0.0,2,1019.8,967.3,55,14,70,0,0.26,0.81,31.5,46.4,38,38,68.0,11.1,10.3,15.6,20.1,0.282,0.298,0.261,0.303,1,3600.0,473.7,332.8,140.9,629.0,473.7,738.1,484.0,340.0,144.0,629.0,484.0,754.1,Tracheophyta; Quercus rotundifolia Lam.; Quercus suber L.; Olea europaea L.; Magnoliopsida; Eucalyptus L'Hér.; Pinus pinea L.; Pinus pinaster Aiton; Quercus L.; 
2001,2001-10-11,Castelo Branco,Sertã,Sertã,SERTÃ,39.82435875,-8.08282085861341,NC,344.0,2001-10-11T11:00,22.9,64,15.8,21.3,0.0,0.0,0.0,0.0,0,1016.2,976.8,8,6,1,8,0.33,1.0,24.4,34.4,82,83,52.6,20.9,17.4,18.9,21.7,0.282,0.29,0.184,0.3,1,3600.0,527.6,416.3,111.3,653.3,527.6,874.9,493.0,389.0,104.0,653.3,493.0,817.5,Tracheophyta; Eucalyptus L'Hér.; Olea europaea L.; Pinus pinaster Aiton; Magnoliopsida
2001,2001-11-23,Castelo Branco,Fundão,Fundão,Fundão,40.1413475,-7.496455741188095,NC,485.0,2001-11-23T15:00,13.7,56,5.2,10.3,0.0,0.0,0.0,0.0,0,1022.3,965.2,2,0,0,6,0.2,0.68,15.1,22.2,50,50,36.0,12.1,8.1,10.9,17.8,0.292,0.312,0.319,0.314,1,3600.0,315.2,259.0,56.2,820.5,315.2,442.8,370.0,304.0,66.0,820.5,370.0,519.8,Tracheophyta; Magnoliopsida; Pinales; Olea europaea L.; Acacia Mill.
2001,2001-12-07,Castelo Branco,Fundão,Alcongosta,ALCONGOSTA,40.1169585,-7.482380307290599,NC,675.0,2001-12-07T15:00,13.6,56,5.0,12.0,0.0,0.0,0.0,0.0,0,1021.9,943.5,4,0,6,0,0.16,0.68,2.4,3.2,333,333,10.1,12.4,7.2,9.0,15.1,0.332,0.35,0.369,0.358,1,3600.0,280.5,226.1,54.4,762.9,280.5,417.7,330.0,266.0,64.0,762.9,330.0,491.4,Magnoliopsida; Tracheophyta; Quercus L.; Pinales; Pinus pinaster Aiton; ; Eucalyptus L'Hér.
2001,2001-09-18,Castelo Branco,Covilhã,Dominguizo,DOMINGUISO,40.2107398,-7.5271724,NC,470.0,2001-09-18T02:00,18.1,41,4.7,14.9,0.0,0.0,0.0,0.0,0,1011.5,957.5,0,0,0,0,0.09,1.23,13.2,27.6,35,40,29.5,18.4,24.6,23.7,21.7,0.092,0.153,0.197,0.324,0,0.0,0.0,0.0,0.0,0.0,0.0,0.0,0.0,0.0,0.0,0.0,0.0,0.0,Pinus pinaster Aiton; Tracheophyta; Olea europaea L.; Vitis vinifera L.; Magnoliopsida
2001,2001-11-03,Castelo Branco,Fundão,Castelo Novo,CASTELO NOVO,40.06444705,-7.460806733657126,NC,473.0,2001-11-03T15:00,16.8,56,7.8,14.5,0.0,0.0,0.0,0.0,0,1023.8,968.6,0,0,0,0,0.25,0.85,11.4,15.1,108,108,27.7,17.3,13.8,16.7,20.2,0.299,0.33,0.325,0.314,1,3600.0,373.7,309.4,64.3,808.0,373.7,532.5,430.0,356.0,74.0,808.0,430.0,612.6,Magnoliopsida; Pinus pinaster Aiton; Olea europaea L.; Tracheophyta; Quercus suber L.; Eucalyptus L'Hér.; Vitis vinifera L.; Pinales; Quercus L.; 
2001,2001-08-14,Castelo Branco,Fundão,Vale de Prazeres,Póvoa Palhaça,40.1232643,-7.3367147,NC,466.0,2001-08-14T14:00,29.8,26,8.0,29.7,0.0,0.0,0.0,0.0,0,1012.3,960.7,0,0,0,0,0.7,3.13,11.2,14.1,230,230,31.0,33.4,26.7,23.9,19.7,0.133,0.162,0.213,0.341,1,3600.0,876.5,770.9,105.6,909.3,876.5,1130.3,905.0,796.0,109.0,909.3,905.0,1167.1,Eucalyptus L'Hér.; Tracheophyta; Olea europaea L.; Pinus pinaster Aiton; Magnoliopsida; Quercus suber L.; Quercus L.; Vitis vinifera L.; 
2001,2001-12-22,Castelo Branco,Oleiros,Oleiros,Barroca,39.9720349,-7.7277392,NC,528.0,2001-12-22T12:00,6.8,68,1.3,3.6,0.0,0.0,0.0,0.0,3,1016.2,953.2,93,39,70,52,0.08,0.32,8.4,13.0,83,85,20.5,5.9,4.9,8.4,14.4,0.246,0.266,0.302,0.307,1,2176.29,153.8,58.6,95.2,132.5,153.8,624.9,147.0,56.0,91.0,132.5,147.0,597.2,Pinus pinaster Aiton; Eucalyptus L'Hér.
2001,2001-11-05,Castelo Branco,Fundão,Castelo Novo,CASTELO NOVO,40.06444705,-7.460806733657126,NC,473.0,2001-11-05T15:00,17.3,54,7.9,14.0,0.0,0.0,0.0,0.0,1,1016.2,961.5,25,2,0,78,0.24,0.9,18.6,26.6,72,71,42.1,16.8,13.7,16.0,20.0,0.291,0.322,0.324,0.314,1,3600.0,309.5,174.3,135.3,465.1,309.5,521.6,357.0,201.0,156.0,465.1,357.0,601.6,Magnoliopsida; Pinus pinaster Aiton; Olea europaea L.; Tracheophyta; Quercus suber L.; Eucalyptus L'Hér.; Vitis vinifera L.; Pinales; Quercus L.; 
2001,2001-11-22,Castelo Branco,Proença-a-Nova,Sobreira Formosa,SOBREIRA FORMOSA,39.7735302,-7.84956008028218,NC,403.0,2001-11-22T16:00,13.3,53,4.0,9.6,0.0,0.0,0.0,0.0,1,1022.4,974.6,29,0,0,98,0.14,0.71,15.6,25.8,56,57,38.2,12.6,9.8,12.3,19.3,0.246,0.274,0.286,0.308,1,3600.0,145.4,81.3,64.1,435.3,145.4,262.0,202.0,113.0,89.0,435.3,202.0,364.1,Pinus pinaster Aiton; Magnoliopsida; Olea europaea L.; Eucalyptus L'Hér.; Tracheophyta; Pinales; Vitis vinifera L.; 
2001,2001-12-15,Castelo Branco,Castelo Branco,São Vicente da Beira,Tripeiro,39.9991296,-7.560563813783784,NC,473.0,2001-12-15T15:00,6.4,39,-6.7,1.2,0.0,0.0,0.0,0.0,0,1020.2,963.2,0,0,0,0,0.16,0.59,14.7,20.8,73,72,37.8,8.6,7.2,9.9,15.4,0.245,0.279,0.307,0.313,1,3600.0,302.9,248.3,54.6,838.7,302.9,418.0,355.0,291.0,64.0,838.7,355.0,489.9,Magnoliopsida; Tracheophyta; Pinus pinaster Aiton; Vitis vinifera L.; Olea europaea L.
2001,2001-12-27,Castelo Branco,Covilhã,Cortes do Meio,Penhas da Saúde,40.2565541,-7.5782584,NC,626.0,2001-12-27T20:00,3.2,79,-0.1,0.5,0.0,0.0,0.0,0.0,0,1027.7,951.7,0,0,0,0,0.0,0.16,3.9,5.0,68,69,11.5,0.6,2.9,6.1,13.0,0.339,0.34,0.361,0.358,0,0.0,0.0,0.0,0.0,0.0,0.0,0.0,0.0,0.0,0.0,0.0,0.0,0.0,Pinus pinaster Aiton; Magnoliopsida; Acacia Mill.; Tracheophyta; Olea europaea L.
2001,2001-09-23,Castelo Branco,Fundão,Alcaria,ALCARIA,40.2005515,-7.517209,NC,408.0,2001-09-23T18:00,17.2,81,14.0,16.7,0.0,0.0,0.0,0.0,1,1008.9,961.8,23,3,29,10,0.06,0.37,12.7,20.6,278,282,26.3,18.5,19.3,22.5,22.0,0.337,0.217,0.195,0.321,1,3545.09,32.4,16.2,16.2,185.7,32.1,94.6,78.0,39.0,39.0,230.4,78.0,228.0,Tracheophyta; Magnoliopsida; Olea europaea L.; Pinus pinaster Aiton; Vitis vinifera L.; Quercus L.; Quercus suber L.; Eucalyptus L'Hér.; 
2001,2001-11-08,Castelo Branco,Castelo Branco,Alcains,ALCAINS,39.91996525,-7.4362786,NC,364.0,2001-11-08T12:00,17.8,48,6.5,16.1,0.0,0.0,0.0,0.0,0,1021.0,978.5,0,0,0,0,0.32,1.07,6.0,7.9,327,330,15.5,16.6,12.8,15.8,19.3,0.333,0.325,0.288,0.321,1,3600.0,572.5,491.5,81.1,894.0,572.5,766.2,558.0,479.0,79.0,894.0,558.0,746.8,Vitis vinifera L.; Tracheophyta; Magnoliopsida
2001,2001-11-13,Castelo Branco,Covilhã,Covilhã (são Pedro),Covilhã,40.2741058,-7.477974326582679,NC,453.0,2001-11-13T22:00,9.1,79,5.7,6.2,0.0,0.0,0.0,0.0,0,1020.9,966.7,0,0,0,0,0.01,0.24,11.9,26.8,358,7,29.9,8.0,9.8,12.7,18.8,0.294,0.32,0.332,0.317,0,0.0,0.0,0.0,0.0,0.0,0.0,0.0,0.0,0.0,0.0,0.0,0.0,0.0,Quercus L.; Tracheophyta; Pinus pinaster Aiton; Magnoliopsida; Olea europaea L.; Pinales
2001,2001-08-15,Castelo Branco,Fundão,Fundão,FUNDÃO,40.1413475,-7.496455741188095,NC,485.0,2001-08-15T18:00,22.8,65,15.8,22.7,0.1,0.1,0.0,0.0,51,1017.3,962.2,39,31,9,20,0.17,0.97,14.0,19.4,288,288,36.0,28.3,27.2,24.6,20.2,0.102,0.153,0.203,0.335,1,3600.0,134.9,52.4,82.6,197.9,134.9,352.8,183.0,71.0,112.0,197.9,183.0,478.5,Tracheophyta; Magnoliopsida; Pinales; Olea europaea L.; Acacia Mill.
2001,2001-08-16,Castelo Branco,Oleiros,Madeirã,MADEIRA,39.925164,-8.0223567,NC,436.0,2001-08-16T16:00,23.4,37,7.9,20.3,0.0,0.0,0.0,0.0,0,1019.0,969.3,13,1,0,39,0.49,1.81,20.7,27.6,319,320,48.2,30.2,24.7,23.8,19.8,0.117,0.151,0.184,0.318,1,3600.0,594.0,475.4,118.6,766.1,594.0,827.9,661.0,529.0,132.0,766.1,661.0,921.3,Magnoliopsida; Eucalyptus L'Hér.; Pinus pinaster Aiton; Tracheophyta; Olea europaea L.; Pinales; 
2001,2001-12-16,Castelo Branco,Vila de Rei,Vila de Rei,Vale do Grou,39.6751385,-8.143569043758214,NC,433.0,2001-12-16T21:00,4.6,50,-5.0,-0.2,0.0,0.0,0.0,0.0,2,1020.8,968.1,69,3,61,100,0.05,0.43,13.7,29.7,108,109,38.2,5.2,7.1,10.7,15.6,0.195,0.243,0.279,0.305,0,0.0,0.0,0.0,0.0,0.0,0.0,0.0,0.0,0.0,0.0,0.0,0.0,0.0,Pinales; Olea europaea L.; Tracheophyta; Magnoliopsida; Pinus pinaster Aiton
2001,2001-06-06,Castelo Branco,Fundão,Atalaia do Campo,ATALAIA DO CAMPO,40.054113,-7.43509,NC,376.0,2001-06-06T10:00,23.5,30,5.0,21.8,0.0,0.0,0.0,0.0,0,1020.0,976.9,5,0,0,16,0.52,2.02,11.0,14.4,11,13,31.7,25.3,21.6,20.4,14.0,0.125,0.213,0.257,0.375,1,3600.0,819.5,699.3,120.2,861.7,819.5,1078.1,757.0,646.0,111.0,861.7,757.0,995.9,Tracheophyta; Olea europaea L.; Magnoliopsida; Pinus pinaster Aiton; Eucalyptus L'Hér.; Pinales; Vitis vinifera L.; Quercus suber L.; Quercus L.; 
2001,2001-11-14,Castelo Branco,Vila Velha de Ródão,Fratel,Silveira,39.6277241,-7.7455834,NC,282.0,2001-11-14T11:00,11.5,47,0.6,6.2,0.0,0.0,0.0,0.0,0,1023.2,989.3,0,0,0,0,0.23,0.72,22.5,31.2,41,40,47.5,11.8,10.9,14.6,20.0,0.262,0.282,0.254,0.307,1,3600.0,498.1,417.8,80.3,849.0,498.1,687.8,459.0,385.0,74.0,849.0,459.0,633.8,Magnoliopsida; Eucalyptus L'Hér.; Tracheophyta
2001,2001-06-15,Castelo Branco,Castelo Branco,Castelo Branco,CASTELO BRANCO,39.8266322,-7.4919318,NC,410.0,2001-06-15T15:00,21.8,35,5.6,19.5,0.0,0.0,0.0,0.0,0,1016.1,969.2,12,13,1,0,0.57,1.7,19.6,26.5,287,288,45.7,28.0,21.5,19.3,14.7,0.122,0.179,0.238,0.368,1,3600.0,829.0,704.5,124.5,864.3,829.0,1080.6,879.0,747.0,132.0,864.3,879.0,1145.7,Tracheophyta; Olea europaea L.; Magnoliopsida
2001,2001-12-27,Castelo Branco,Fundão,Alpedrinha,Alpedrinha,40.09524555,-7.461951405733945,NC,525.0,2001-12-27T21:00,0.8,86,-1.3,-2.2,0.0,0.0,0.0,0.0,0,1027.8,963.0,0,0,0,0,0.0,0.09,4.2,2.9,340,353,7.6,0.2,3.3,6.3,13.2,0.292,0.291,0.308,0.313,0,0.0,0.0,0.0,0.0,0.0,0.0,0.0,0.0,0.0,0.0,0.0,0.0,0.0,Magnoliopsida; Pinus pinaster Aiton; Tracheophyta; Quercus L.; Castanea sativa Mill.; Olea europaea L.; Vitis vinifera L.; Acacia Mill.; Quercus suber L.; 
2001,2001-12-28,Castelo Branco,Penamacor,Meimoa,MEIMOA,40.2600029,-7.139085,NC,567.0,2001-12-28T17:00,5.2,77,1.4,2.4,0.0,0.0,0.0,0.0,1,1026.8,958.2,26,0,0,87,0.02,0.21,5.9,6.0,166,163,9.7,2.6,1.8,5.1,12.4,0.301,0.304,0.316,0.315,1,2347.42,11.3,7.3,4.0,83.6,8.8,21.1,73.0,47.0,26.0,379.4,73.0,135.9,Quercus rotundifolia Lam.; Magnoliopsida; Olea europaea L.; Tracheophyta; Pinus pinaster Aiton; Eucalyptus L'Hér.; Quercus suber L.; Quercus L.; Pinales; 
2001,2001-06-03,Castelo Branco,Covilhã,Casegas,Relvas,40.1707515,-7.6949262,NC,410.0,2001-06-03T19:00,22.3,52,12.1,21.2,0.0,0.0,0.0,0.0,0,1020.6,973.6,0,0,0,0,0.16,1.29,11.8,16.0,282,284,29.9,28.4,26.0,20.5,13.9,0.101,0.216,0.271,0.378,1,3600.0,119.8,84.6,35.2,568.7,119.8,197.7,194.0,137.0,57.0,568.7,194.0,320.2,Magnoliopsida; Pinus pinaster Aiton; Tracheophyta; Acacia Mill.; Olea europaea L.
2001,2001-12-29,Castelo Branco,Castelo Branco,Alcains,ALCAINS,39.91996525,-7.4362786,NC,364.0,2001-12-29T19:00,3.1,90,1.6,0.7,0.0,0.0,0.0,0.0,1,1021.5,976.7,31,1,0,99,0.0,0.08,3.8,6.1,41,90,7.9,3.1,3.4,7.2,13.6,0.294,0.291,0.284,0.318,0,0.0,0.0,0.0,0.0,0.0,0.0,0.0,0.0,0.0,0.0,0.0,0.0,0.0,Vitis vinifera L.; Tracheophyta; Magnoliopsida
2001,2001-05-05,Castelo Branco,Sertã,Palhais,Orgueira,39.7643599,-8.1984968,NC,262.0,2001-05-05T17:00,18.4,45,6.2,14.6,0.0,0.0,0.0,0.0,0,1013.7,983.1,6,0,0,19,0.34,1.17,19.6,27.0,316,318,34.9,20.0,15.0,13.2,13.0,0.239,0.249,0.291,0.397,1,3600.0,440.2,362.6,77.6,787.3,440.2,619.4,522.0,430.0,92.0,787.3,522.0,734.6,Magnoliopsida; Pinus pinaster Aiton; Olea europaea L.; Eucalyptus L'Hér.; Tracheophyta
2001,2001-06-15,Castelo Branco,Castelo Branco,Retaxo,Represa,39.6657206,-8.1113932,NC,515.0,2001-06-15T04:00,11.3,94,10.3,10.2,0.0,0.0,0.0,0.0,2,1016.8,956.2,65,32,49,22,0.0,0.08,8.4,13.8,317,321,19.4,14.7,20.2,18.6,14.4,0.123,0.172,0.236,0.366,0,0.0,0.0,0.0,0.0,0.0,0.0,0.0,0.0,0.0,0.0,0.0,0.0,0.0,Magnoliopsida; Eucalyptus L'Hér.; Olea europaea L.; Tracheophyta; Pinus pinaster Aiton; Quercus rotundifolia Lam.; Vitis vinifera L.; 
2001,2001-11-14,Castelo Branco,Fundão,Enxames,Enxames,40.1546967,-7.3836612,NC,467.0,2001-11-14T15:00,11.0,40,-1.9,5.6,0.0,0.0,0.0,0.0,0,1021.4,965.9,0,0,0,0,0.22,0.78,20.4,29.9,26,27,47.5,11.8,9.8,12.5,18.6,0.288,0.318,0.332,0.317,1,3600.0,342.2,281.3,60.9,827.6,342.2,475.1,399.0,328.0,71.0,827.6,399.0,554.0,Magnoliopsida; Eucalyptus L'Hér.; Pinus pinaster Aiton; Tracheophyta; Olea europaea L.; Pinales; Quercus suber L.; Acacia Mill.; 
2001,2001-11-26,Castelo Branco,Penamacor,Penamacor,Minas do Palão,40.17110305,-7.149775712218803,NC,494.0,2001-11-26T17:00,11.3,71,6.2,9.5,0.0,0.0,0.0,0.0,3,1015.2,957.0,100,42,94,100,0.03,0.39,5.6,13.2,285,292,19.4,10.5,9.3,11.0,17.6,0.276,0.298,0.3,0.31,1,0.0,0.4,0.0,0.4,0.0,0.3,1.5,33.0,0.0,33.0,0.0,33.0,121.0,Eucalyptus L'Hér.; Quercus suber L.; Pinus pinea L.; Pinus pinaster Aiton; Tracheophyta; Magnoliopsida
2001,2001-08-26,Castelo Branco,Fundão,Fundão,Fundão,40.1413475,-7.496455741188095,NC,485.0,2001-08-26T16:00,26.0,57,17.0,27.3,0.0,0.0,0.0,0.0,1,1013.2,958.9,41,15,14,65,0.37,1.43,8.4,10.8,211,210,27.0,30.7,26.5,24.4,20.9,0.124,0.152,0.199,0.33,1,3600.0,460.5,343.1,117.3,595.3,460.5,772.2,518.0,386.0,132.0,595.3,518.0,868.6,Tracheophyta; Magnoliopsida; Pinales; Olea europaea L.; Acacia Mill.
2001,2001-09-27,Castelo Branco,Covilhã,Ferro,FERRO,40.2342622,-7.4451731,NC,479.0,2001-09-27T20:00,18.5,72,13.4,18.8,0.0,0.0,0.0,0.0,3,1012.2,957.3,82,24,51,100,0.01,0.6,5.8,10.5,94,121,12.6,18.0,18.6,20.4,21.5,0.222,0.225,0.195,0.32,0,0.0,0.0,0.0,0.0,0.0,0.0,0.0,0.0,0.0,0.0,0.0,0.0,0.0,Tracheophyta; Olea europaea L.; Magnoliopsida; Quercus L.
2001,2001-08-20,Castelo Branco,Covilhã,Cortes do Meio,Piornos,40.3173715,-7.5716837,NC,1605.0,2001-08-20T21:00,15.2,70,9.8,14.2,0.0,0.0,0.0,0.0,0,1015.5,842.5,0,0,0,0,0.01,0.52,7.2,9.8,270,278,10.4,18.0,18.2,15.8,12.9,0.141,0.154,0.206,0.337,0,0.0,0.0,0.0,0.0,0.0,0.0,0.0,0.0,0.0,0.0,0.0,0.0,0.0,Magnoliopsida
2001,2001-10-11,Castelo Branco,Sertã,Carvalhal,Sesmo,39.8693055,-8.139021237894362,NC,427.0,2001-10-11T15:00,26.1,54,16.0,25.6,0.0,0.0,0.0,0.0,1,1014.8,966.7,26,4,26,23,0.38,1.55,17.3,25.5,113,113,52.6,23.5,18.2,18.3,20.9,0.278,0.292,0.18,0.295,1,3600.0,435.3,349.1,86.2,696.5,435.3,688.2,485.0,389.0,96.0,696.5,485.0,766.9,Pinus pinaster Aiton; Eucalyptus L'Hér.; Tracheophyta; Magnoliopsida; Vitis vinifera L.; Olea europaea L.
2001,2001-06-11,Castelo Branco,Idanha-a-Nova,Monsanto,Serra da Moreirinha,40.038751,-7.1151133,NC,645.0,2001-06-11T19:00,22.4,33,5.5,21.1,0.0,0.0,0.0,0.0,1,1018.3,945.6,29,0,0,97,0.09,1.8,1.6,3.8,297,319,10.1,22.5,20.1,18.2,13.1,0.21,0.2,0.247,0.37,1,3600.0,92.2,29.7,62.5,188.6,92.2,208.7,146.0,47.0,99.0,188.6,146.0,330.6,Quercus L.; Eucalyptus L'Hér.; Quercus rotundifolia Lam.; Quercus suber L.; Olea europaea L.; Tracheophyta; Magnoliopsida; Pinus pinaster Aiton; Vitis vinifera L.; 
2001,2001-11-15,Castelo Branco,Fundão,Alcaria,ALCARIA,40.2005515,-7.517209,NC,408.0,2001-11-15T18:00,8.3,51,-1.2,4.3,0.0,0.0,0.0,0.0,2,1018.9,969.9,52,0,38,99,0.06,0.53,11.8,22.2,40,42,26.3,8.2,9.1,12.6,18.8,0.28,0.314,0.331,0.317,0,0.0,0.0,0.0,0.0,0.0,0.0,0.0,1.0,0.0,1.0,0.0,1.0,7.6,Tracheophyta; Magnoliopsida; Olea europaea L.; Pinus pinaster Aiton; Vitis vinifera L.; Quercus L.; Quercus suber L.; Eucalyptus L'Hér.; 
2001,2001-12-16,Castelo Branco,Castelo Branco,São Vicente da Beira,Tripeiro,39.9991296,-7.560563813783784,NC,473.0,2001-12-16T14:00,6.7,40,-6.0,1.7,0.0,0.0,0.0,0.0,0,1021.1,964.1,0,0,0,0,0.19,0.59,14.4,19.8,89,88,35.3,6.6,4.5,9.6,15.3,0.242,0.278,0.306,0.313,1,3600.0,408.5,346.1,62.3,885.4,408.5,552.1,439.0,372.0,67.0,885.4,439.0,593.3,Magnoliopsida; Tracheophyta; Pinus pinaster Aiton; Vitis vinifera L.; Olea europaea L.
2001,2001-08-24,Castelo Branco,Vila de Rei,São João do Peso,SÃO JOÃO DO PESO,39.71732825,-8.074791304487363,NC,351.0,2001-08-24T12:00,32.5,23,8.7,33.0,0.0,0.0,0.0,0.0,0,1012.6,973.8,3,0,0,11,0.68,3.77,7.3,9.2,147,149,24.5,37.0,25.7,24.0,21.0,0.093,0.151,0.194,0.326,1,3600.0,890.0,773.8,116.1,891.0,890.0,1162.4,866.0,753.0,113.0,891.0,866.0,1131.1,Magnoliopsida; Eucalyptus L'Hér.; Pinus pinaster Aiton; Tracheophyta; Olea europaea L.; 
2001,2001-08-25,Castelo Branco,Castelo Branco,Castelo Branco,PONTE DO PONSUL \ VG,39.8266322,-7.4919318,NC,410.0,2001-08-25T14:00,32.6,31,13.3,32.2,0.0,0.0,0.0,0.0,1,1012.7,967.5,47,0,33,91,0.66,3.38,16.6,23.1,146,146,37.1,37.1,27.8,24.2,20.8,0.108,0.151,0.188,0.327,1,3600.0,724.7,529.5,195.2,646.8,724.7,1096.3,750.0,548.0,202.0,646.8,750.0,1134.5,Tracheophyta; Olea europaea L.; Magnoliopsida
2001,2001-06-02,Castelo Branco,Penamacor,Meimoa,MEIMOA,40.2600029,-7.139085,NC,567.0,2001-06-02T12:00,29.9,19,3.8,29.9,0.0,0.0,0.0,0.0,0,1016.6,954.0,0,0,0,0,0.73,3.41,7.2,9.0,264,265,23.8,33.3,23.3,18.7,12.3,0.109,0.227,0.271,0.379,1,3600.0,997.7,880.4,117.3,930.5,997.7,1258.3,978.0,863.0,115.0,930.5,978.0,1233.4,Quercus rotundifolia Lam.; Magnoliopsida; Olea europaea L.; Tracheophyta; Pinus pinaster Aiton; Eucalyptus L'Hér.; Quercus suber L.; Quercus L.; Pinales; 
2001,2001-08-29,Castelo Branco,Covilhã,Cortes do Meio,Piornos,40.3173715,-7.5716837,NC,1605.0,2001-08-29T20:00,11.3,81,8.1,9.1,0.0,0.0,0.0,0.0,0,1017.4,842.0,18,12,4,16,0.01,0.26,12.2,20.6,313,313,28.4,14.9,16.3,16.3,13.4,0.256,0.16,0.202,0.333,0,0.0,0.0,0.0,0.0,0.0,0.0,0.0,0.0,0.0,0.0,0.0,0.0,0.0,Magnoliopsida
2001,2001-12-11,Castelo Branco,Oleiros,Cambas,CAMBAS,40.0131281,-7.846922842610679,NC,302.0,2001-12-11T17:00,10.5,72,5.7,6.4,0.3,0.3,0.0,0.0,51,1019.3,983.0,100,100,99,98,0.06,0.35,20.7,33.9,83,86,40.7,10.5,9.6,11.2,17.0,0.235,0.265,0.284,0.301,1,0.0,0.2,0.0,0.2,0.2,0.2,1.9,15.0,1.0,14.0,8.4,15.0,118.6,Eucalyptus L'Hér.; Magnoliopsida; Pinus pinaster Aiton; Tracheophyta; Pinus pinea L.; Olea europaea L.; 
2001,2001-12-17,Castelo Branco,Castelo Branco,Santo André das Tojeiras,SANTO ANDRÉ DAS TOJEIRAS,39.8068702,-7.6982007,NC,348.0,2001-12-17T19:00,5.8,48,-4.3,-0.0,0.0,0.0,0.0,0.0,1,1018.1,975.8,45,12,7,100,0.07,0.48,21.6,37.6,75,80,44.6,5.6,6.5,10.3,16.0,0.195,0.246,0.27,0.305,0,0.0,0.0,0.0,0.0,0.0,0.0,0.0,0.0,0.0,0.0,0.0,0.0,0.0,Magnoliopsida; Pinus pinaster Aiton; Olea europaea L.; Tracheophyta
2001,2001-05-06,Castelo Branco,Castelo Branco,Cebolais de Cima,CEBOLAIS DE CIMA,39.7518688,-7.5724044,NC,399.0,2001-05-06T12:00,17.6,41,4.2,17.5,0.0,0.0,0.0,0.0,1,1015.2,968.9,28,0,46,0,0.53,1.19,6.4,8.2,52,52,24.1,20.2,13.4,12.5,11.9,0.221,0.231,0.281,0.393,1,3600.0,934.7,802.9,131.8,877.5,934.7,1230.1,915.0,786.0,129.0,877.5,915.0,1204.2,Magnoliopsida; Eucalyptus L'Hér.; Olea europaea L.; Tracheophyta; Pinus pinaster Aiton; Quercus rotundifolia Lam.; Vitis vinifera L.; 
2001,2001-08-25,Castelo Branco,Fundão,Silvares,SILVARES,40.1403177,-7.6613124,NC,407.0,2001-08-25T15:00,32.4,31,13.4,31.4,0.0,0.0,0.0,0.0,0,1012.1,967.3,16,0,5,45,0.54,3.34,14.8,19.5,186,185,32.0,38.4,29.1,25.3,21.8,0.088,0.151,0.199,0.33,1,3600.0,521.4,357.2,164.1,496.5,521.4,963.5,559.0,383.0,176.0,496.5,559.0,1033.1,Olea europaea L.; Magnoliopsida; Eucalyptus L'Hér.; Pinus pinaster Aiton
2001,2001-12-20,Castelo Branco,Covilhã,Cortes do Meio,CORTES DO MEIO,40.2565541,-7.5782584,NC,626.0,2001-12-20T19:00,5.5,81,2.5,2.6,0.0,0.0,0.0,0.0,2,1021.7,946.7,63,70,0,0,0.0,0.17,8.1,12.6,77,90,21.2,4.8,5.0,7.4,13.9,0.304,0.331,0.363,0.358,0,0.0,0.0,0.0,0.0,0.0,0.0,0.0,0.0,0.0,0.0,0.0,0.0,0.0,Pinus pinaster Aiton; Magnoliopsida; Acacia Mill.; Tracheophyta; Olea europaea L.
2001,2001-06-15,Castelo Branco,Sertã,Pedrógão Pequeno,Bravo,39.9033995,-8.1312252,NC,358.0,2001-06-15T05:00,12.0,96,11.4,11.4,0.0,0.0,0.0,0.0,3,1017.3,974.8,100,87,72,84,0.0,0.05,7.4,11.0,321,322,16.6,15.1,20.2,19.1,15.1,0.13,0.178,0.244,0.368,0,0.0,0.0,0.0,0.0,0.0,0.0,0.0,0.0,0.0,0.0,0.0,0.0,0.0,Eucalyptus L'Hér.; Pinus pinaster Aiton; Magnoliopsida; Olea europaea L.; Tracheophyta
2001,2001-11-15,Castelo Branco,Fundão,Vale de Prazeres,VALE DE PRAZERES,40.114639100000005,-7.424249151910219,NC,551.0,2001-11-15T18:00,7.3,49,-2.7,3.5,0.0,0.0,0.0,0.0,2,1019.1,953.4,66,0,61,99,0.05,0.53,9.0,19.9,37,42,25.2,7.8,8.7,12.3,18.1,0.283,0.311,0.317,0.317,0,0.0,0.0,0.0,0.0,0.0,0.0,0.0,1.0,0.0,1.0,0.0,1.0,7.9,Eucalyptus L'Hér.; Tracheophyta; Olea europaea L.; Pinus pinaster Aiton; Magnoliopsida; Quercus suber L.; Quercus L.; Vitis vinifera L.; 
2001,2001-09-04,Castelo Branco,Covilhã,Unhais da Serra,Quinta da Várzea,40.2602096,-7.6238043,NC,667.0,2001-09-04T09:00,25.5,42,11.6,25.2,0.0,0.0,0.0,0.0,0,1016.0,941.9,6,0,0,20,0.29,1.91,5.8,7.2,90,93,17.3,24.5,23.0,22.4,19.9,0.145,0.198,0.247,0.366,1,3600.0,487.6,388.4,99.2,714.0,487.6,731.7,413.0,329.0,84.0,714.0,413.0,619.8,Magnoliopsida; Pinus pinaster Aiton; Tracheophyta; Olea europaea L.
2001,2001-06-15,Castelo Branco,Castelo Branco,Cafede,CAFEDE,39.89592725,-7.525198815114228,NC,328.0,2001-06-15T07:00,14.6,72,9.6,12.2,0.0,0.0,0.0,0.0,3,1016.7,978.0,84,20,67,87,0.09,0.46,15.7,22.3,307,309,33.1,16.6,20.2,19.1,14.7,0.159,0.182,0.235,0.369,1,3600.0,169.3,75.1,94.2,218.3,169.3,456.0,124.0,55.0,69.0,218.3,124.0,334.0,Olea europaea L.; Magnoliopsida; Tracheophyta; Quercus rotundifolia Lam.; Pinus pinaster Aiton; Quercus suber L.; Quercus L.; Vitis vinifera L.; 
2001,2001-09-04,Castelo Branco,Proença-a-Nova,Proença-a-Nova,Vale Serrão,39.7215459,-7.896435586460699,Desconhecida,376.0,2001-09-04T16:00,32.5,29,12.0,32.4,0.0,0.0,0.0,0.0,0,1013.5,971.9,11,0,11,15,0.36,3.48,5.1,5.9,262,259,15.8,36.9,28.2,24.2,21.5,0.108,0.152,0.196,0.326,1,3600.0,372.7,274.0,98.7,504.3,372.7,731.0,423.0,311.0,112.0,504.3,423.0,829.8,Eucalyptus L'Hér.; Magnoliopsida; Tracheophyta; Pinus pinaster Aiton; Olea europaea L.
2001,2001-06-11,Castelo Branco,Fundão,Telhado,Freixial,40.1354216,-7.5610435,NC,459.0,2001-06-11T15:00,25.0,29,5.8,25.6,0.0,0.0,0.0,0.0,0,1018.7,966.8,13,0,0,42,0.6,2.25,3.7,4.6,79,72,19.4,29.2,20.5,19.7,14.5,0.172,0.196,0.261,0.373,1,3600.0,832.3,702.2,130.1,866.1,832.3,1075.6,883.0,745.0,138.0,866.1,883.0,1141.2,Olea europaea L.; Vitis vinifera L.; Pinus pinaster Aiton; Tracheophyta; Magnoliopsida; 
2001,2001-09-07,Castelo Branco,Fundão,Fundão,Fundão \ CF,40.1413475,-7.496455741188095,NC,485.0,2001-09-07T15:00,28.6,20,3.7,27.0,0.0,0.0,0.0,0.0,0,1017.3,963.2,0,0,0,0,0.56,3.11,8.4,10.6,83,80,27.4,33.7,25.2,24.3,21.6,0.106,0.152,0.196,0.325,1,3600.0,686.0,596.3,89.7,897.6,686.0,895.2,742.0,645.0,97.0,897.6,742.0,968.2,Tracheophyta; Magnoliopsida; Pinales; Olea europaea L.; Acacia Mill.
2001,2001-09-10,Castelo Branco,Covilhã,Covilhã (conceição),Ponte de Flandres \ PTE,40.28695805,-7.5007239184333905,NC,621.0,2001-09-10T16:00,30.2,23,6.7,28.1,0.0,0.0,0.0,0.0,1,1012.6,944.6,36,0,60,0,0.41,3.31,8.5,11.1,258,257,28.8,32.5,23.8,21.8,19.8,0.109,0.159,0.21,0.331,1,3600.0,425.5,304.3,121.2,601.2,425.5,683.1,488.0,349.0,139.0,601.2,488.0,783.3,Tracheophyta; Pinus pinaster Aiton; Olea europaea L.; Magnoliopsida
2001,2001-05-06,Castelo Branco,Castelo Branco,Castelo Branco,CASTELO BRANCO,39.8266322,-7.4919318,NC,410.0,2001-05-06T11:00,16.5,44,4.3,15.8,0.0,0.0,0.0,0.0,1,1015.2,967.5,26,4,33,8,0.47,1.05,8.0,10.1,72,73,28.1,18.5,13.0,12.4,11.9,0.224,0.232,0.281,0.393,1,3600.0,890.5,757.9,132.6,874.6,890.5,1165.1,846.0,720.0,126.0,874.6,846.0,1106.8,Tracheophyta; Olea europaea L.; Magnoliopsida
2001,2001-12-17,Castelo Branco,Vila de Rei,Fundada,Vilar do Ruivo,39.7013016,-8.22683809368936,NC,117.0,2001-12-17T21:00,8.2,44,-3.2,2.2,0.0,0.0,0.0,0.0,3,1017.1,1002.8,100,98,94,100,0.09,0.6,23.5,38.2,86,87,41.8,7.7,8.9,12.1,17.1,0.177,0.213,0.235,0.277,0,0.0,0.0,0.0,0.0,0.0,0.0,0.0,0.0,0.0,0.0,0.0,0.0,0.0,Tracheophyta; Pinus pinaster Aiton; Magnoliopsida; Eucalyptus L'Hér.; Pinales; Olea europaea L.; 
2001,2001-02-21,Castelo Branco,Castelo Branco,Castelo Branco,Feiteira,39.8388796,-7.4779367,NC,382.0,2001-02-21T16:00,16.2,39,2.2,12.9,0.0,0.0,0.0,0.0,0,1024.8,979.8,0,0,0,0,0.27,1.13,11.2,15.9,84,86,26.3,14.4,9.4,9.5,11.4,0.298,0.331,0.37,0.42,1,3600.0,382.2,319.5,62.7,839.2,382.2,532.5,451.0,377.0,74.0,839.2,451.0,628.4,Tracheophyta; Magnoliopsida; Quercus suber L.; Olea europaea L.
2001,2001-06-03,Castelo Branco,Fundão,Alcaria,ALCARIA,40.2005515,-7.517209,NC,408.0,2001-06-03T04:00,15.6,81,12.3,15.5,0.0,0.0,0.0,0.0,0,1016.4,968.7,0,0,0,0,0.0,0.34,5.6,8.7,333,330,13.3,16.2,23.2,19.7,13.1,0.107,0.224,0.266,0.379,0,0.0,0.0,0.0,0.0,0.0,0.0,0.0,0.0,0.0,0.0,0.0,0.0,0.0,Tracheophyta; Magnoliopsida; Olea europaea L.; Pinus pinaster Aiton; Vitis vinifera L.; Quercus L.; Quercus suber L.; Eucalyptus L'Hér.; 
2001,2001-06-12,Castelo Branco,Castelo Branco,Castelo Branco,CASTELO BRANCO,39.8266322,-7.4919318,NC,410.0,2001-06-12T16:00,23.5,39,8.9,20.8,0.0,0.0,0.0,0.0,1,1016.0,969.3,28,0,21,53,0.43,1.76,16.9,23.4,270,269,36.0,26.7,21.5,19.3,14.5,0.15,0.184,0.241,0.37,1,3600.0,501.2,317.4,183.7,464.8,501.2,905.9,551.0,349.0,202.0,464.8,551.0,995.9,Tracheophyta; Olea europaea L.; Magnoliopsida
2001,2001-09-01,Castelo Branco,Covilhã,Teixoso,TEIXOSO,40.3185839,-7.4562317,NC,543.0,2001-09-01T22:00,22.7,45,10.2,21.7,0.0,0.0,0.0,0.0,0,1012.9,951.7,0,0,0,0,0.06,1.52,7.6,13.1,19,37,16.2,22.1,24.7,22.8,20.5,0.121,0.156,0.203,0.331,0,0.0,0.0,0.0,0.0,0.0,0.0,0.0,0.0,0.0,0.0,0.0,0.0,0.0,Tracheophyta; Magnoliopsida; Pinus pinaster Aiton; Vitis vinifera L.; Olea europaea L.
2001,2001-06-07,Castelo Branco,Fundão,Bogas de Baixo,BOGAS DE BAIXO,40.0438894,-7.7772661,NC,340.0,2001-06-07T15:00,30.9,24,7.8,30.4,0.0,0.0,0.0,0.0,0,1013.0,975.2,2,0,0,6,0.7,3.42,12.0,14.8,277,276,31.7,37.1,25.2,21.0,14.8,0.097,0.19,0.249,0.372,1,3600.0,820.5,714.1,106.5,883.4,820.5,1073.4,871.0,758.0,113.0,883.4,871.0,1139.4,Eucalyptus L'Hér.; Pinus pinaster Aiton; Magnoliopsida; Olea europaea L.; Tracheophyta; Vitis vinifera L.; Castanea sativa Mill.; Pinales; 
2001,2001-09-07,Castelo Branco,Sertã,Cabeçudo,Tojal \ POV,39.8303567,-8.1432476,Desconhecida,397.0,2001-09-07T14:00,29.2,21,4.4,28.3,0.0,0.0,0.0,0.0,0,1017.3,972.9,0,0,0,0,0.63,3.21,8.3,10.5,56,59,27.7,34.0,25.0,24.0,21.1,0.116,0.15,0.181,0.311,1,3600.0,800.1,703.8,96.3,911.4,800.1,1040.4,831.0,731.0,100.0,911.4,831.0,1080.6,Eucalyptus L'Hér.; Tracheophyta; Pinus pinaster Aiton; Olea europaea L.; Magnoliopsida
2001,2001-09-14,Castelo Branco,Penamacor,Bemposta,BEMPOSTA,40.067342,-7.211318,NC,405.0,2001-09-14T10:00,23.8,44,10.8,22.5,0.0,0.0,0.0,0.0,0,1014.4,968.4,12,0,0,41,0.4,1.65,11.9,16.0,14,14,32.0,25.0,23.7,24.3,22.1,0.127,0.154,0.199,0.326,1,3600.0,642.3,544.5,97.8,831.2,642.3,885.8,578.0,490.0,88.0,831.2,578.0,797.1,Magnoliopsida; Tracheophyta; Quercus suber L.; Olea europaea L.; Eucalyptus L'Hér.; Quercus rotundifolia Lam.; Pinus pinaster Aiton; Pinales; Quercus L.; 
2001,2001-06-14,Castelo Branco,Fundão,Pêro Viseu,PERO VISEU,40.2071956,-7.4443594,NC,509.0,2001-06-14T17:00,24.9,44,11.8,23.1,0.0,0.0,0.0,0.0,0,1015.4,958.2,0,0,0,0,0.42,1.77,16.5,21.9,302,303,41.0,28.9,22.1,18.5,13.8,0.126,0.194,0.252,0.372,1,3600.0,471.8,369.6,102.1,705.5,471.8,694.6,545.0,427.0,118.0,705.5,545.0,802.4,Tracheophyta; Pinales; Pinus pinaster Aiton; Olea europaea L.; Magnoliopsida
2001,2001-12-18,Castelo Branco,Fundão,Alpedrinha,ALPEDRINHA,40.09524555,-7.461951405733945,NC,525.0,2001-12-18T22:00,4.0,75,0.0,0.2,0.0,0.0,0.0,0.0,2,1024.8,961.0,55,58,4,0,0.01,0.2,11.6,26.2,74,82,27.7,2.7,5.0,8.0,14.3,0.25,0.282,0.311,0.314,0,0.0,0.0,0.0,0.0,0.0,0.0,0.0,0.0,0.0,0.0,0.0,0.0,0.0,Magnoliopsida; Pinus pinaster Aiton; Tracheophyta; Quercus L.; Castanea sativa Mill.; Olea europaea L.; Vitis vinifera L.; Acacia Mill.; Quercus suber L.; 
2001,2001-12-24,Castelo Branco,Fundão,Alpedrinha,ALPEDRINHA,40.09524555,-7.461951405733945,NC,525.0,2001-12-24T16:00,5.3,43,-6.4,0.5,0.0,0.0,0.0,0.0,0,1015.9,952.9,0,0,0,0,0.11,0.51,12.9,22.2,60,61,33.1,5.0,3.7,7.2,13.6,0.316,0.288,0.309,0.313,1,3600.0,163.0,125.8,37.2,740.1,163.0,240.4,228.0,176.0,52.0,740.1,228.0,336.2,Magnoliopsida; Pinus pinaster Aiton; Tracheophyta; Quercus L.; Castanea sativa Mill.; Olea europaea L.; Vitis vinifera L.; Acacia Mill.; Quercus suber L.; 
2001,2001-09-11,Castelo Branco,Fundão,Enxames,Enxames,40.1546967,-7.3836612,NC,467.0,2001-09-11T09:00,24.7,41,10.4,24.0,0.0,0.0,0.0,0.0,0,1015.7,963.0,0,0,0,0,0.27,1.85,5.0,6.4,249,254,16.9,24.9,23.6,23.5,21.2,0.097,0.153,0.197,0.325,1,3600.0,459.7,351.6,108.1,670.0,459.7,708.4,387.0,296.0,91.0,670.0,387.0,596.4,Magnoliopsida; Eucalyptus L'Hér.; Pinus pinaster Aiton; Tracheophyta; Olea europaea L.; Pinales; Quercus suber L.; Acacia Mill.; 
2001,2001-09-15,Castelo Branco,Castelo Branco,Castelo Branco,Lirião \ REG,39.8266322,-7.4919318,NC,410.0,2001-09-15T05:00,16.8,56,7.8,15.2,0.0,0.0,0.0,0.0,0,1011.9,964.4,0,0,0,0,0.03,0.85,6.6,18.7,45,56,11.9,17.4,23.8,24.2,21.9,0.107,0.15,0.183,0.319,0,0.0,0.0,0.0,0.0,0.0,0.0,0.0,0.0,0.0,0.0,0.0,0.0,0.0,Tracheophyta; Olea europaea L.; Magnoliopsida
2001,2001-09-16,Castelo Branco,Oleiros,Sobral,Roda de Baixo,39.9383684,-8.0113748,NC,563.0,2001-09-16T23:00,20.2,46,8.2,18.7,0.0,0.0,0.0,0.0,0,1016.2,952.1,0,0,0,0,0.05,1.28,7.3,11.4,351,342,15.1,22.5,25.5,22.9,20.6,0.106,0.149,0.173,0.3,0,0.0,0.0,0.0,0.0,0.0,0.0,0.0,0.0,0.0,0.0,0.0,0.0,0.0,Eucalyptus L'Hér.; Pinus pinaster Aiton; Magnoliopsida; Tracheophyta; Olea europaea L.; Quercus suber L.; Vitis vinifera L.; 
2001,2001-09-17,Castelo Branco,Covilhã,Cortes do Meio,Piornos,40.3173715,-7.5716837,NC,1605.0,2001-09-17T16:00,21.2,19,-3.7,17.0,0.0,0.0,0.0,0.0,0,1011.9,842.6,0,0,0,0,0.39,2.05,10.9,13.5,8,9,27.7,24.9,17.5,16.0,14.1,0.125,0.146,0.193,0.325,1,3600.0,469.7,397.1,72.5,839.1,469.7,641.1,544.0,460.0,84.0,839.1,544.0,742.6,Magnoliopsida
2001,2001-09-16,Castelo Branco,Castelo Branco,Castelo Branco,Feiteira,39.8388796,-7.4779367,NC,382.0,2001-09-16T10:00,27.6,24,4.9,25.3,0.0,0.0,0.0,0.0,0,1017.2,974.2,0,0,0,0,0.44,2.82,8.5,10.9,54,56,24.1,27.7,23.9,24.3,22.1,0.107,0.15,0.182,0.318,1,3600.0,642.9,543.7,99.2,841.2,642.9,874.9,577.0,488.0,89.0,841.2,577.0,785.3,Tracheophyta; Magnoliopsida; Quercus suber L.; Olea europaea L.
2001,2001-05-29,Castelo Branco,Penamacor,Meimoa,MEIMOA,40.2600029,-7.139085,NC,567.0,2001-05-29T19:00,30.7,31,11.4,30.3,0.0,0.0,0.0,0.0,0,1016.6,954.2,0,0,0,0,0.15,3.06,5.4,11.6,180,175,19.1,28.7,24.4,17.0,11.8,0.135,0.251,0.277,0.382,1,3600.0,100.3,68.9,31.5,509.7,100.3,179.9,169.0,116.0,53.0,509.7,169.0,303.0,Quercus rotundifolia Lam.; Magnoliopsida; Olea europaea L.; Tracheophyta; Pinus pinaster Aiton; Eucalyptus L'Hér.; Quercus suber L.; Quercus L.; Pinales; 
2001,2001-06-14,Castelo Branco,Fundão,Pêro Viseu,PERO VISEU,40.2071956,-7.4443594,NC,509.0,2001-06-14T11:00,23.9,47,12.0,24.7,0.0,0.0,0.0,0.0,0,1017.3,959.8,5,6,0,0,0.54,1.56,9.3,11.3,306,307,24.8,26.9,19.7,18.5,13.8,0.137,0.195,0.253,0.372,1,3600.0,850.9,701.9,149.0,777.1,850.9,1197.6,811.0,669.0,142.0,777.1,811.0,1141.4,Tracheophyta; Pinales; Pinus pinaster Aiton; Olea europaea L.; Magnoliopsida
2001,2001-09-19,Castelo Branco,Covilhã,Cortes do Meio,CORTES DO MEIO,40.2565541,-7.5782584,NC,626.0,2001-09-19T11:00,23.1,28,3.7,21.4,0.0,0.0,0.0,0.0,0,1012.1,942.1,0,0,0,1,0.47,2.03,7.6,9.4,109,113,25.2,26.9,22.0,22.9,20.8,0.116,0.195,0.241,0.36,1,3600.0,748.8,648.8,100.0,890.9,748.8,987.4,704.0,610.0,94.0,890.9,704.0,928.4,Pinus pinaster Aiton; Magnoliopsida; Acacia Mill.; Tracheophyta; Olea europaea L.
2001,2001-11-07,Castelo Branco,Penamacor,Meimoa,MEIMOA,40.2600029,-7.139085,NC,567.0,2001-11-07T13:00,15.6,52,5.9,12.3,0.0,0.0,0.0,0.0,0,1024.6,958.5,0,0,0,0,0.31,0.84,16.4,22.4,52,53,34.9,15.0,11.5,14.8,19.1,0.352,0.334,0.331,0.314,1,3600.0,556.1,477.8,78.3,894.4,556.1,744.2,568.0,488.0,80.0,894.4,568.0,760.2,Quercus rotundifolia Lam.; Magnoliopsida; Olea europaea L.; Tracheophyta; Pinus pinaster Aiton; Eucalyptus L'Hér.; Quercus suber L.; Quercus L.; Pinales; 
2001,2001-06-15,Castelo Branco,Oleiros,Madeirã,Vilarejo,39.9452996,-8.0424364,NC,524.0,2001-06-15T02:00,12.1,97,11.6,11.4,0.0,0.0,0.0,0.0,2,1016.6,955.1,79,86,1,4,0.0,0.05,8.1,14.1,315,320,18.4,15.6,20.4,18.4,14.3,0.126,0.176,0.243,0.368,0,0.0,0.0,0.0,0.0,0.0,0.0,0.0,0.0,0.0,0.0,0.0,0.0,0.0,Magnoliopsida; Eucalyptus L'Hér.; Pinus pinaster Aiton; Tracheophyta; Olea europaea L.; Pinales; 
2001,2001-06-03,Castelo Branco,Fundão,Alcaria,Quinta do Regato,40.1996983,-7.5193298,NC,421.0,2001-06-03T15:00,30.6,22,6.5,29.3,0.0,0.0,0.0,0.0,0,1016.6,969.8,0,0,0,0,0.72,3.41,15.1,19.7,245,246,39.6,34.9,24.6,19.7,13.1,0.103,0.221,0.265,0.379,1,3600.0,834.6,729.3,105.4,909.2,834.6,1066.4,887.0,775.0,112.0,909.2,887.0,1133.2,Tracheophyta; Magnoliopsida; Olea europaea L.; Pinus pinaster Aiton; Vitis vinifera L.; Quercus L.; Quercus suber L.; Eucalyptus L'Hér.; 
2001,2001-09-19,Castelo Branco,Fundão,Alcaria,ALCARIA,40.2005515,-7.517209,NC,408.0,2001-09-19T16:00,27.8,24,5.3,25.6,0.0,0.0,0.0,0.0,0,1009.5,964.0,2,0,2,1,0.38,2.84,7.1,9.0,195,196,22.0,32.8,24.4,23.8,21.9,0.095,0.152,0.194,0.321,1,3600.0,427.2,337.8,89.4,731.2,427.2,626.5,497.0,393.0,104.0,731.2,497.0,728.8,Tracheophyta; Magnoliopsida; Olea europaea L.; Pinus pinaster Aiton; Vitis vinifera L.; Quercus L.; Quercus suber L.; Eucalyptus L'Hér.; 
2001,2001-06-05,Castelo Branco,Castelo Branco,Sarzedas,Serrasqueira,39.8504445,-7.6855887,NC,396.0,2001-06-05T14:00,26.7,27,6.1,25.8,0.0,0.0,0.0,0.0,0,1020.0,975.2,0,0,0,0,0.7,2.55,14.3,18.1,304,305,36.0,34.0,23.4,20.6,14.2,0.099,0.196,0.252,0.374,1,3600.0,932.0,818.5,113.5,908.9,932.0,1196.5,961.0,844.0,117.0,908.9,961.0,1233.8,Magnoliopsida; Vitis vinifera L.; Pinus pinaster Aiton; Tracheophyta; Eucalyptus L'Hér.; Olea europaea L.; Quercus suber L.; Quercus rotundifolia Lam.; 
2001,2001-11-30,Castelo Branco,Penamacor,Penamacor,PENAMACOR,40.17110305,-7.149775712218803,NC,494.0,2001-11-30T11:00,8.4,81,5.3,6.8,0.0,0.0,0.0,0.0,0,1028.1,968.6,16,18,0,0,0.12,0.21,3.1,3.8,315,319,11.5,9.1,7.4,10.9,17.1,0.301,0.301,0.3,0.31,1,3600.0,295.2,160.2,135.0,371.3,295.2,606.8,269.0,146.0,123.0,371.3,269.0,553.0,Eucalyptus L'Hér.; Quercus suber L.; Pinus pinea L.; Pinus pinaster Aiton; Tracheophyta; Magnoliopsida
2001,2001-09-20,Castelo Branco,Fundão,Enxames,Enxames,40.1546967,-7.3836612,NC,467.0,2001-09-20T23:00,18.1,71,12.8,18.1,0.0,0.0,0.0,0.0,2,1012.2,958.5,72,12,57,90,0.01,0.6,5.8,15.4,90,111,13.3,18.6,22.8,23.3,21.6,0.095,0.152,0.194,0.321,0,0.0,0.0,0.0,0.0,0.0,0.0,0.0,0.0,0.0,0.0,0.0,0.0,0.0,Magnoliopsida; Eucalyptus L'Hér.; Pinus pinaster Aiton; Tracheophyta; Olea europaea L.; Pinales; Quercus suber L.; Acacia Mill.; 
2001,2001-06-16,Castelo Branco,Penamacor,Benquerença,BENQUERENÇA,40.2247057,-7.2348752,NC,479.0,2001-06-16T00:00,13.4,77,9.5,12.0,0.0,0.0,0.0,0.0,0,1020.0,963.7,16,17,1,0,0.01,0.35,8.8,16.4,289,296,24.8,16.4,21.4,19.6,14.8,0.117,0.184,0.242,0.368,0,0.0,0.0,0.0,0.0,0.0,0.0,0.0,0.0,0.0,0.0,0.0,0.0,0.0,Magnoliopsida; Eucalyptus L'Hér.; Olea europaea L.; Pinus pinaster Aiton; Tracheophyta; Quercus rotundifolia Lam.; Quercus suber L.; Vitis vinifera L.; Quercus L.; Pinales; 
2001,2001-10-25,Castelo Branco,Fundão,Alpedrinha,ALPEDRINHA,40.09524555,-7.461951405733945,NC,525.0,2001-10-25T18:00,16.9,66,10.4,16.3,0.0,0.0,0.0,0.0,1,1022.4,961.4,33,4,0,98,0.03,0.66,4.7,7.2,99,117,9.7,15.2,15.1,16.5,20.5,0.357,0.375,0.322,0.314,0,0.0,0.0,0.0,0.0,0.0,0.0,0.0,12.0,2.0,10.0,23.2,12.0,59.3,Magnoliopsida; Pinus pinaster Aiton; Tracheophyta; Quercus L.; Castanea sativa Mill.; Olea europaea L.; Vitis vinifera L.; Acacia Mill.; Quercus suber L.; 
2001,2001-12-09,Castelo Branco,Oleiros,Oleiros,OLEIROS,39.8957084,-7.8765451,NC,810.0,2001-12-09T03:00,3.2,88,1.3,-0.3,0.0,0.0,0.0,0.0,0,1023.9,927.2,0,0,0,0,0.0,0.1,11.1,19.6,103,107,26.3,3.3,6.0,8.4,13.8,0.257,0.276,0.3,0.305,0,0.0,0.0,0.0,0.0,0.0,0.0,0.0,0.0,0.0,0.0,0.0,0.0,0.0,Pinus pinaster Aiton; Eucalyptus L'Hér.; Olea europaea L.; Magnoliopsida
2001,2001-12-09,Castelo Branco,Sertã,Troviscal,Fonte do Amioso,39.8997567,-8.0077237,NC,751.0,2001-12-09T03:00,3.6,88,1.7,0.1,0.0,0.0,0.0,0.0,0,1023.9,934.0,0,0,0,0,0.0,0.1,11.1,19.6,103,107,26.3,3.7,6.4,8.8,14.2,0.257,0.276,0.3,0.305,0,0.0,0.0,0.0,0.0,0.0,0.0,0.0,0.0,0.0,0.0,0.0,0.0,0.0,Pinus pinaster Aiton; Magnoliopsida; Eucalyptus L'Hér.
2001,2001-12-17,Castelo Branco,Fundão,Soalheira,SOALHEIRA,40.0268704,-7.4553464,NC,408.0,2001-12-17T18:00,6.0,44,-5.4,1.0,0.0,0.0,0.0,0.0,1,1018.5,969.1,30,0,0,100,0.06,0.53,15.3,30.0,82,85,43.6,5.7,5.7,9.4,15.1,0.274,0.292,0.306,0.317,0,0.0,0.0,0.0,0.0,0.0,0.0,0.0,0.0,0.0,0.0,0.0,0.0,0.0,Magnoliopsida; Tracheophyta; Vitis vinifera L.; Quercus suber L.; Olea europaea L.
2001,2001-06-15,Castelo Branco,Castelo Branco,Cebolais de Cima,CEBOLAIS DE CIMA,39.7518688,-7.5724044,NC,399.0,2001-06-15T18:00,19.5,41,6.1,15.4,0.0,0.0,0.0,0.0,0,1016.6,970.5,6,7,0,0,0.3,1.33,21.8,31.0,292,293,46.4,24.9,22.0,19.4,14.8,0.121,0.179,0.238,0.368,1,3600.0,302.3,232.5,69.8,672.4,302.3,458.2,381.0,293.0,88.0,672.4,381.0,577.6,Magnoliopsida; Eucalyptus L'Hér.; Olea europaea L.; Tracheophyta; Pinus pinaster Aiton; Quercus rotundifolia Lam.; Vitis vinifera L.; 
2001,2001-06-01,Castelo Branco,Fundão,Castelo Novo,CASTELO NOVO,40.06444705,-7.460806733657126,NC,473.0,2001-06-01T14:00,34.0,15,4.2,32.3,0.0,0.0,0.0,0.0,0,1014.5,962.8,0,0,0,0,0.84,4.5,16.4,21.3,232,233,39.6,37.0,25.8,19.3,13.0,0.103,0.224,0.263,0.379,1,3600.0,926.2,815.7,110.4,911.9,926.2,1189.9,956.0,842.0,114.0,911.9,956.0,1228.3,Magnoliopsida; Pinus pinaster Aiton; Olea europaea L.; Tracheophyta; Quercus suber L.; Eucalyptus L'Hér.; Vitis vinifera L.; Pinales; Quercus L.; 
2001,2001-11-08,Castelo Branco,Penamacor,Aranhas,ARANHAS,40.1112959,-7.120030340909622,NC,483.0,2001-11-08T15:00,19.0,35,3.2,15.6,0.0,0.0,0.0,0.0,0,1018.0,962.4,2,0,0,8,0.28,1.43,12.2,17.3,315,318,25.9,17.1,13.1,15.4,19.8,0.309,0.308,0.279,0.311,1,3600.0,358.5,298.2,60.3,830.1,358.5,500.7,416.0,346.0,70.0,830.1,416.0,581.0,Quercus suber L.; Olea europaea L.; Tracheophyta; Eucalyptus L'Hér.; Pinus pinaster Aiton; Magnoliopsida; Quercus L.; ; Pinus pinea L.
2001,2001-11-09,Castelo Branco,Fundão,Castelo Novo,CASTELO NOVO,40.06444705,-7.460806733657126,NC,473.0,2001-11-09T14:00,9.4,44,-2.1,3.1,0.0,0.0,0.0,0.0,0,1015.9,959.7,11,2,16,0,0.24,0.66,26.8,39.0,22,23,61.2,12.4,11.9,15.1,19.7,0.324,0.329,0.323,0.314,1,3600.0,467.7,388.7,79.0,832.4,467.7,651.1,503.0,418.0,85.0,832.4,503.0,700.3,Magnoliopsida; Pinus pinaster Aiton; Olea europaea L.; Tracheophyta; Quercus suber L.; Eucalyptus L'Hér.; Vitis vinifera L.; Pinales; Quercus L.; 
2001,2001-11-11,Castelo Branco,Idanha-a-Nova,São Miguel de Acha,SÃO MIGUEL DE ACHA,40.0157136,-7.3222605,NC,364.0,2001-11-11T17:00,9.3,49,-1.0,4.7,0.0,0.0,0.0,0.0,0,1016.3,972.7,0,0,0,0,0.09,0.6,16.2,29.1,12,15,34.9,10.2,10.1,15.0,19.6,0.316,0.326,0.305,0.324,1,2853.72,27.3,18.1,9.2,208.1,23.9,49.4,95.0,63.0,32.0,446.8,95.0,171.7,Quercus L.; Magnoliopsida; Tracheophyta; Eucalyptus L'Hér.; Olea europaea L.; Quercus suber L.; Quercus rotundifolia Lam.; Pinus pinaster Aiton; Vitis vinifera L.; 
2001,2001-06-16,Castelo Branco,Fundão,Escarigo,Quinta do Anascer da Condessa,40.255357700000005,-7.2908573911856385,NC,545.0,2001-06-16T00:00,12.3,85,9.9,11.0,0.0,0.0,0.0,0.0,0,1020.0,956.0,11,11,2,0,0.0,0.21,8.2,15.0,299,300,20.5,15.0,19.5,18.0,13.5,0.135,0.2,0.257,0.373,0,0.0,0.0,0.0,0.0,0.0,0.0,0.0,0.0,0.0,0.0,0.0,0.0,0.0,Magnoliopsida; Tracheophyta; Pinus pinaster Aiton; Olea europaea L.; Quercus L.
2001,2001-11-13,Santarém,Mação,Envendos,Avessada,39.5473018,-7.8550837,NC,280.0,2001-11-13T10:00,11.8,69,6.2,10.0,0.0,0.0,0.0,0.0,0,1021.6,988.0,2,2,1,0,0.15,0.43,5.3,8.7,298,312,12.6,10.9,9.6,15.0,20.5,0.24,0.278,0.257,0.308,1,3600.0,385.4,308.1,77.3,748.5,385.4,575.0,329.0,263.0,66.0,748.5,329.0,490.9,Magnoliopsida; Eucalyptus L'Hér.; Pinus pinaster Aiton; Tracheophyta
2001,2001-06-20,Castelo Branco,Oleiros,Cambas,Muro Cimeiro,40.0082654,-7.8463699,NC,349.0,2001-06-20T15:00,35.5,17,6.4,35.8,0.0,0.0,0.0,0.0,0,1013.5,975.2,0,0,0,0,0.69,4.83,5.5,6.7,281,286,21.6,41.7,26.9,20.6,16.0,0.096,0.17,0.234,0.363,1,3600.0,824.1,718.4,105.7,878.8,824.1,1082.7,873.0,761.0,112.0,878.8,873.0,1147.0,Eucalyptus L'Hér.; Magnoliopsida; Pinus pinaster Aiton; Tracheophyta; Pinus pinea L.; Olea europaea L.; 
2001,2001-06-21,Castelo Branco,Fundão,Soalheira,Quinta da Serra,38.815403,-9.203262,NC,236.0,2001-06-21T14:00,29.6,31,10.6,31.2,0.0,0.0,0.0,0.0,0,1013.6,987.0,0,0,0,0,0.71,2.88,7.4,8.4,299,301,22.7,37.2,24.7,20.0,16.2,0.091,0.188,0.263,0.358,1,3600.0,935.9,821.0,114.9,892.8,935.9,1217.8,961.0,843.0,118.0,892.8,961.0,1250.5,
2001,2001-06-27,Castelo Branco,Idanha-a-Nova,Segura,SEGURA,39.81733945,-6.981736555337266,NC,178.0,2001-06-27T17:00,28.3,24,6.0,25.3,0.0,0.0,0.0,0.0,0,1018.3,998.0,0,0,0,0,0.49,2.91,14.5,19.8,297,297,32.0,30.9,26.2,24.0,18.0,0.144,0.191,0.249,0.36,1,3600.0,498.1,406.3,91.8,769.8,498.1,698.5,575.0,469.0,106.0,769.8,575.0,806.3,Magnoliopsida; Quercus rotundifolia Lam.; Pinus pinea L.; Tracheophyta; Olea europaea L.; Quercus suber L.; Eucalyptus L'Hér.; 
2001,2001-07-02,Castelo Branco,Covilhã,Covilhã (santa Maria),COVILHÃ,40.273597,-7.496332107249937,NC,536.0,2001-07-02T15:00,32.9,35,15.2,34.2,0.0,0.0,0.0,0.0,0,1018.9,960.0,9,0,11,7,0.68,3.27,12.8,16.4,320,322,36.0,40.8,28.7,22.3,15.9,0.105,0.168,0.235,0.362,1,3600.0,769.8,632.8,137.0,774.6,769.8,1080.9,815.0,670.0,145.0,774.6,815.0,1144.4,Olea europaea L.; Tracheophyta; Magnoliopsida
2001,2001-07-05,Castelo Branco,Castelo Branco,Lardosa,Barrocal,39.9881774,-7.4432595,NC,406.0,2001-07-05T04:00,13.0,81,9.8,11.6,0.0,0.0,0.0,0.0,0,1010.4,962.8,16,13,8,0,0.01,0.29,9.6,17.9,304,310,22.3,16.7,22.5,22.6,16.6,0.148,0.173,0.229,0.36,0,0.0,0.0,0.0,0.0,0.0,0.0,0.0,0.0,0.0,0.0,0.0,0.0,0.0,Magnoliopsida; Quercus suber L.; Tracheophyta; Eucalyptus L'Hér.; Olea europaea L.; Quercus L.; Quercus rotundifolia Lam.; Pinus pinaster Aiton; Pinales; Pinus pinea L.; Vitis vinifera L.; Acacia Mill.; 
2001,2001-07-07,Castelo Branco,Fundão,Capinha,CAPINHA,40.21469635,-7.382837426254095,NC,503.0,2001-07-07T15:00,25.0,40,10.4,25.5,0.0,0.0,0.0,0.0,0,1017.7,961.0,1,1,0,0,0.57,1.9,8.8,11.0,289,289,25.9,31.6,22.3,21.6,16.4,0.117,0.165,0.228,0.358,1,3600.0,780.7,629.7,151.1,773.8,780.7,1076.8,827.0,667.0,160.0,773.8,827.0,1140.6,Quercus suber L.; Magnoliopsida; Eucalyptus L'Hér.; Pinus pinaster Aiton; Tracheophyta; Olea europaea L.; Quercus L.; Vitis vinifera L.; Pinales; 
2001,2001-07-14,Castelo Branco,Penamacor,Aranhas,ARANHAS,40.1112959,-7.120030340909622,NC,483.0,2001-07-14T14:00,23.9,44,10.9,22.1,0.0,0.0,0.0,0.0,3,1013.4,958.9,81,4,85,88,0.5,1.66,18.8,25.7,258,259,47.5,30.0,25.6,23.0,17.8,0.106,0.159,0.215,0.349,1,3600.0,666.5,389.6,276.9,433.4,666.5,1189.9,686.0,401.0,285.0,433.4,686.0,1224.8,Quercus suber L.; Olea europaea L.; Tracheophyta; Eucalyptus L'Hér.; Pinus pinaster Aiton; Magnoliopsida; Quercus L.; ; Pinus pinea L.
2001,2001-07-14,Castelo Branco,Idanha-a-Nova,Monsanto,MONSANTO,40.0400404,-7.1130885,NC,590.0,2001-07-14T18:00,20.1,55,10.9,18.4,0.1,0.1,0.0,0.0,51,1013.7,946.8,73,35,69,0,0.15,1.05,13.4,18.2,262,262,36.0,24.1,24.1,21.7,16.8,0.143,0.165,0.221,0.352,1,266.76,91.9,23.8,68.2,68.9,91.9,456.8,116.0,30.0,86.0,68.9,116.0,576.4,Quercus L.; Eucalyptus L'Hér.; Quercus rotundifolia Lam.; Quercus suber L.; Olea europaea L.; Tracheophyta; Magnoliopsida; Pinus pinaster Aiton; Vitis vinifera L.; 
2001,2001-07-15,Castelo Branco,Castelo Branco,Santo André das Tojeiras,SANTO ANDRÉ DAS TOJEIRAS,39.8068702,-7.6982007,NC,348.0,2001-07-15T18:00,25.3,29,6.1,22.0,0.0,0.0,0.0,0.0,0,1015.0,975.5,10,0,0,34,0.36,2.29,16.0,21.0,306,308,33.8,32.0,26.2,23.7,18.9,0.095,0.156,0.214,0.348,1,3600.0,308.6,245.1,63.5,705.5,308.6,459.9,389.0,309.0,80.0,705.5,389.0,579.8,Magnoliopsida; Pinus pinaster Aiton; Olea europaea L.; Tracheophyta
