year,date,district,municipality,parish,local,latitude,longitude,cause,elevation,hourly.time,hourly.temperature_2m,hourly.relative_humidity_2m,hourly.dew_point_2m,hourly.apparent_temperature,hourly.precipitation,hourly.rain,hourly.snowfall,hourly.snow_depth,hourly.weather_code,hourly.pressure_msl,hourly.surface_pressure,hourly.cloud_cover,hourly.cloud_cover_low,hourly.cloud_cover_mid,hourly.cloud_cover_high,hourly.et0_fao_evapotranspiration,hourly.vapour_pressure_deficit,hourly.wind_speed_10m,hourly.wind_speed_100m,hourly.wind_direction_10m,hourly.wind_direction_100m,hourly.wind_gusts_10m,hourly.soil_temperature_0_to_7cm,hourly.soil_temperature_7_to_28cm,hourly.soil_temperature_28_to_100cm,hourly.soil_temperature_100_to_255cm,hourly.soil_moisture_0_to_7cm,hourly.soil_moisture_7_to_28cm,hourly.soil_moisture_28_to_100cm,hourly.soil_moisture_100_to_255cm,hourly.is_day,hourly.sunshine_duration,hourly.shortwave_radiation_instant,hourly.direct_radiation_instant,hourly.diffuse_radiation_instant,hourly.direct_normal_irradiance_instant,hourly.global_tilted_irradiance_instant,hourly.terrestrial_radiation_instant,hourly.shortwave_radiation,hourly.direct_radiation,hourly.diffuse_radiation,hourly.direct_normal_irradiance,hourly.global_tilted_irradiance,hourly.terrestrial_radiation,scientificNames
2001,2001-12-08,Setúbal,Sesimbra,Sesimbra (castelo),AZÓIA,38.4285467,-9.1870568,NC,155.0,2001-12-08T20:00,13.0,79,9.4,11.0,0.0,0.0,0.0,0.0,0,1020.9,1002.2,0,0,0,0,0.02,0.31,12.2,26.3,71,80,21.6,11.9,13.0,13.6,17.6,0.146,0.171,0.155,0.203,0,0.0,0.0,0.0,0.0,0.0,0.0,0.0,0.0,0.0,0.0,0.0,0.0,0.0,Tracheophyta; Magnoliopsida
2001,2001-11-15,Lisboa,Sintra,Sintra (são Pedro De Penaferrim),Vale das Porcas,38.7992243,-9.3853801,NC,187.0,2001-11-15T17:00,11.2,43,-0.8,6.2,0.0,0.0,0.0,0.0,1,1019.5,996.9,20,0,1,65,0.12,0.75,18.8,27.0,26,27,36.4,12.7,13.5,15.9,19.1,0.167,0.226,0.211,0.265,1,3328.12,42.8,27.5,15.3,315.1,41.0,82.5,106.0,68.0,38.0,445.3,106.0,204.4,Tracheophyta; Magnoliopsida
2001,2001-11-25,Santarém,Coruche,Coruche,CORUCHE,38.9362945,-8.4873305,NC,37.0,2001-11-25T12:00,15.4,53,6.0,13.9,0.0,0.0,0.0,0.0,0,1020.8,1016.3,0,0,0,0,0.26,0.82,3.9,4.8,22,27,14.0,15.8,10.7,14.1,19.6,0.09,0.147,0.132,0.183,1,3600.0,507.1,427.4,79.7,853.2,507.1,703.4,490.0,413.0,77.0,853.2,490.0,679.6,Pinus pinea L.; Tracheophyta; Pinus pinaster Aiton; Quercus suber L.; Olea europaea L.
2001,2001-11-14,Santarém,Santarém,Alcanede,Pé da Pedreira,39.4147304,-8.8213206,NC,88.0,2001-11-14T15:00,15.3,42,2.3,10.7,0.0,0.0,0.0,0.0,0,1021.8,1011.2,0,0,0,0,0.26,1.02,19.2,26.4,13,14,39.6,16.4,13.3,15.8,20.5,0.211,0.265,0.265,0.319,1,3600.0,358.5,294.3,64.2,813.1,358.5,505.8,413.0,339.0,74.0,813.1,413.0,582.8,Pinus pinea L.; Olea europaea L.; Tracheophyta; Magnoliopsida; Eucalyptus L'Hér.
2001,2001-06-18,Santarém,Benavente,Samora Correia,Murteira,38.9348747,-8.8689911,NC,10.0,2001-06-18T17:00,33.6,20,7.3,31.3,0.0,0.0,0.0,0.0,0,1014.2,1013.1,0,0,0,0,0.55,4.19,12.6,16.3,63,65,30.2,31.9,23.8,21.2,18.3,0.247,0.315,0.365,0.418,1,3600.0,519.0,432.9,86.1,798.9,519.0,717.9,597.0,498.0,99.0,798.9,597.0,825.9,Quercus suber L.; Oryza sativa L.; Tracheophyta; Pinus pinaster Aiton; Quercus rotundifolia Lam.; Eucalyptus L'Hér.; Magnoliopsida; Pinus pinea L.; Olea europaea L.; Vitis vinifera L.; 
2001,2001-09-20,Santarém,Chamusca,Pinheiro Grande,PINHEIRO GRANDE,39.36236985,-8.478626445121314,NC,23.0,2001-09-20T15:00,25.5,42,11.7,24.3,0.0,0.0,0.0,0.0,3,1012.1,1009.4,80,11,67,100,0.36,1.88,11.7,14.6,191,190,27.4,29.3,24.1,24.0,22.0,0.074,0.099,0.134,0.252,1,3282.16,409.3,104.6,304.7,169.4,409.3,837.9,446.0,114.0,332.0,169.4,446.0,913.1,Tracheophyta; Quercus suber L.; Magnoliopsida
2001,2001-09-19,Lisboa,Mafra,Malveira,MALVEIRA,38.9288751,-9.25739695492422,NC,231.0,2001-09-19T16:00,22.1,55,12.7,21.5,0.0,0.0,0.0,0.0,0,1009.9,983.3,14,0,0,46,0.35,1.2,10.3,12.5,258,258,25.2,31.7,24.0,22.6,21.0,0.083,0.155,0.215,0.33,1,3600.0,471.0,393.8,77.2,804.9,471.0,663.5,543.0,454.0,89.0,804.9,543.0,764.9,Tracheophyta; Magnoliopsida; Eucalyptus L'Hér.
2001,2001-11-14,Leiria,Óbidos,Gaeiras,Casais do Alvito,39.36414735,-9.124567651047371,NC,90.0,2001-11-14T14:00,14.9,48,4.1,10.3,0.0,0.0,0.0,0.0,0,1021.9,1011.1,0,0,0,0,0.29,0.88,22.1,29.4,22,23,42.8,16.6,14.1,16.0,19.5,0.186,0.239,0.22,0.294,1,3600.0,483.6,407.8,75.8,871.5,483.6,654.1,517.0,436.0,81.0,871.5,517.0,699.3,Magnoliopsida; Eucalyptus L'Hér.; Pinus pinea L.; Tracheophyta
2001,2001-11-24,Lisboa,Loures,Santo Antão do Tojal,Manjoeira,38.8604094,-9.1562261,NC,59.0,2001-11-24T14:00,15.9,52,6.0,12.6,0.0,0.0,0.0,0.0,0,1020.9,1013.8,0,0,0,0,0.27,0.87,15.8,20.2,49,50,28.4,14.0,12.1,13.3,15.9,0.309,0.327,0.332,0.35,1,3600.0,450.2,380.2,70.1,856.7,450.2,622.8,482.0,407.0,75.0,856.7,482.0,666.8,Tracheophyta
2001,2001-09-20,Santarém,Ferreira do Zêzere,Águas Belas,Vales,39.6967155,-8.295624309379004,NC,354.0,2001-09-20T18:00,22.4,46,10.4,21.9,0.0,0.0,0.0,0.0,3,1011.7,971.3,83,4,86,92,0.1,1.46,4.8,7.7,243,233,22.3,25.5,23.8,23.7,21.5,0.098,0.149,0.18,0.306,1,3600.0,61.7,28.1,33.5,293.1,61.7,130.2,125.0,57.0,68.0,293.1,125.0,263.9,Magnoliopsida; Tracheophyta; Eucalyptus L'Hér.; Olea europaea L.
2001,2001-12-02,Leiria,Alcobaça,São Martinho do Porto,Serra de Mangues,39.5219543,-9.120685007004628,NC,40.0,2001-12-02T11:00,12.2,74,7.7,9.8,0.0,0.0,0.0,0.0,1,1021.7,1016.8,41,41,0,15,0.14,0.37,12.4,15.5,112,112,23.0,13.6,12.5,14.2,18.3,0.149,0.152,0.158,0.206,1,3600.0,343.5,230.4,113.0,539.5,343.5,601.2,310.0,208.0,102.0,539.5,310.0,542.6,Tracheophyta; Vitis vinifera L.; Magnoliopsida; Eucalyptus L'Hér.; Pinus pinaster Aiton
2001,2001-11-14,Leiria,Nazaré,Nazaré,NAZARÉ,39.612089,-9.058583215115968,NC,116.0,2001-11-14T17:00,13.3,54,4.2,8.9,0.0,0.0,0.0,0.0,0,1022.5,1008.5,0,0,0,0,0.11,0.7,21.0,33.0,5,6,40.3,14.5,14.2,15.7,19.1,0.112,0.165,0.154,0.202,1,3158.33,38.8,25.5,13.3,292.7,36.0,70.9,105.0,69.0,36.0,466.9,105.0,191.8,Magnoliopsida; Pinus pinaster Aiton; Tracheophyta
2001,2001-06-18,Lisboa,Sintra,Sintra (santa Maria E São Miguel),Portela de Sintra,38.80222835,-9.376374834016822,NC,192.0,2001-06-18T15:00,23.1,49,11.8,23.5,0.0,0.0,0.0,0.0,0,1015.8,993.6,0,0,0,0,0.57,1.44,13.9,19.2,17,23,31.0,30.8,20.8,18.4,16.1,0.091,0.159,0.21,0.305,1,3600.0,848.8,739.0,109.8,888.0,848.8,1102.6,897.0,781.0,116.0,888.0,897.0,1165.2,Tracheophyta; Magnoliopsida
2001,2001-09-05,Lisboa,Loures,Santo Antão do Tojal,Pintéus,38.8665744,-9.1525512,NC,106.0,2001-09-05T14:00,25.3,57,16.3,26.4,0.0,0.0,0.0,0.0,1,1016.6,1004.4,32,36,0,0,0.54,1.38,17.2,20.9,209,209,30.6,34.0,25.8,23.7,21.4,0.089,0.156,0.215,0.329,1,3600.0,794.7,674.0,120.7,849.3,794.7,1068.1,823.0,698.0,125.0,849.3,823.0,1106.2,Tracheophyta; Eucalyptus L'Hér.; Magnoliopsida
2001,2001-11-19,Lisboa,Torres Vedras,Dois Portos,Furadouro,39.0301727,-9.2104244,NC,204.0,2001-11-19T17:00,12.1,60,4.5,9.1,0.0,0.0,0.0,0.0,0,1023.0,998.4,0,0,0,0,0.07,0.57,11.7,22.0,9,11,28.4,12.7,11.9,14.3,19.2,0.255,0.257,0.251,0.315,1,3076.35,34.1,22.5,11.6,258.4,31.2,65.5,97.0,64.0,33.0,440.1,97.0,186.2,Vitis vinifera L.; Eucalyptus L'Hér.; Magnoliopsida; Tracheophyta; 
2001,2001-11-14,Lisboa,Vila Franca de Xira,Calhandriz,CALHANDRIZ,38.9185086,-9.010851924829645,NC,3.0,2001-11-14T10:00,13.7,62,6.6,10.1,0.0,0.0,0.0,0.0,0,1023.4,1023.0,0,0,0,0,0.17,0.59,18.5,26.8,29,31,33.8,13.3,13.6,16.7,20.2,0.37,0.386,0.372,0.412,1,3600.0,387.1,309.2,77.9,758.7,387.1,569.6,328.0,262.0,66.0,758.7,328.0,482.6,Magnoliopsida; Tracheophyta; Pinus pinaster Aiton; Vitis vinifera L.; Olea europaea L.; Eucalyptus L'Hér.; Pinales; 
2001,2001-08-19,Lisboa,Alenquer,Carnota,Casal das Balas,39.0420615,-9.0635033,NC,211.0,2001-08-19T15:00,25.4,53,15.0,25.4,0.0,0.0,0.0,0.0,1,1013.3,989.2,33,29,11,0,0.47,1.54,15.3,19.2,262,262,34.6,32.8,24.0,23.0,20.4,0.084,0.156,0.218,0.332,1,3600.0,622.2,433.6,188.6,572.3,622.2,1011.9,663.0,462.0,201.0,572.3,663.0,1078.2,Vitis vinifera L.; Tracheophyta; Magnoliopsida; Olea europaea L.
2001,2001-12-08,Lisboa,Mafra,Mafra,Senhora do Socorro,38.96434055,-9.340462306966607,NC,88.0,2001-12-08T15:00,16.7,64,9.7,15.0,0.0,0.0,0.0,0.0,0,1020.4,1009.9,0,0,0,0,0.2,0.69,10.8,13.7,94,95,21.2,16.4,12.4,13.8,18.2,0.232,0.255,0.253,0.319,1,3600.0,306.3,248.4,58.0,765.2,306.3,457.6,354.0,287.0,67.0,765.2,354.0,528.7,Magnoliopsida; Pinus pinaster Aiton; Tracheophyta; Eucalyptus L'Hér.
2001,2001-11-19,Lisboa,Loures,Loures,BOLORES,38.8558286,-9.2264303,NC,271.0,2001-11-19T16:00,12.9,53,3.6,9.4,0.0,0.0,0.0,0.0,0,1022.7,990.2,0,0,0,0,0.15,0.7,14.1,20.4,13,14,29.9,13.5,11.4,13.9,18.8,0.272,0.262,0.255,0.316,1,3600.0,194.0,149.8,44.2,689.8,194.0,304.2,259.0,200.0,59.0,689.8,259.0,406.1,Magnoliopsida; Tracheophyta; Eucalyptus L'Hér.
2001,2001-12-05,Santarém,Vila Nova da Barquinha,Vila Nova da Barquinha,BARQUINHA,39.4582267,-8.4309285,NC,25.0,2001-12-05T12:00,15.1,61,7.6,13.2,0.0,0.0,0.0,0.0,0,1030.6,1027.6,0,0,0,0,0.23,0.67,8.7,11.5,45,46,18.4,14.1,9.0,12.8,18.1,0.131,0.143,0.147,0.194,1,3600.0,474.3,396.3,78.0,847.7,474.3,658.4,456.0,381.0,75.0,847.7,456.0,633.1,Pinales; Magnoliopsida; Tracheophyta; Eucalyptus L'Hér.
2001,2001-12-10,Lisboa,Azambuja,Aveiras de Cima,AVEIRAS DE CIMA,39.1389557,-8.8999055,NC,58.0,2001-12-10T16:00,13.7,58,5.6,9.4,0.0,0.0,0.0,0.0,2,1019.1,1012.1,58,0,63,66,0.13,0.66,22.5,34.9,103,104,45.4,13.1,11.3,12.8,18.0,0.233,0.267,0.272,0.334,1,1145.28,81.6,18.2,63.4,98.2,81.6,261.6,112.0,25.0,87.0,98.2,112.0,359.2,Tracheophyta; Olea europaea L.; Vitis vinifera L.; Magnoliopsida
2001,2001-10-10,Lisboa,Alenquer,Ribafria,Azedia,39.06415665,-9.08696556489279,NC,138.0,2001-10-10T19:00,18.6,63,11.4,17.2,0.0,0.0,0.0,0.0,1,1016.8,1000.5,41,2,65,0,0.05,0.8,12.6,25.0,20,30,21.2,18.6,18.9,20.2,22.2,0.244,0.232,0.205,0.317,0,0.0,0.0,0.0,0.0,0.0,0.0,0.0,0.0,0.0,0.0,0.0,0.0,0.0,Vitis vinifera L.; Tracheophyta; Pinales; Eucalyptus L'Hér.; Magnoliopsida
2001,2001-10-12,Lisboa,Sintra,Sintra (são Martinho),PEDRAS DA GRANJA,38.80719695,-9.415192060524232,NC,69.0,2001-10-12T15:00,19.7,83,16.6,21.5,0.0,0.0,0.0,0.0,1,1015.8,1007.7,26,1,2,81,0.26,0.4,3.2,3.8,207,197,16.2,23.4,20.5,20.0,21.0,0.275,0.217,0.168,0.269,1,3600.0,389.4,238.9,150.5,462.2,389.4,710.1,432.0,265.0,167.0,462.2,432.0,787.7,Tracheophyta; Magnoliopsida
2001,2001-10-14,Lisboa,Alenquer,Alenquer (triana),Albarrois,39.0490112,-9.0145622,NC,160.0,2001-10-14T19:00,17.7,89,15.9,17.3,0.2,0.2,0.0,0.0,51,1019.1,1000.2,100,99,94,0,0.01,0.22,16.3,27.2,225,226,36.7,18.3,18.7,19.4,21.0,0.404,0.386,0.294,0.395,0,0.0,0.0,0.0,0.0,0.0,0.0,0.0,0.0,0.0,0.0,0.0,0.0,0.0,Tracheophyta; Magnoliopsida; Olea europaea L.; Vitis vinifera L.
2001,2001-11-20,Lisboa,Cadaval,Lamas,Serra de Montejunto,39.1920729,-9.038127779095984,NC,336.0,2001-11-20T15:00,14.3,46,2.7,11.2,0.0,0.0,0.0,0.0,0,1023.4,983.5,0,0,0,0,0.21,0.89,9.8,12.9,28,30,20.2,14.7,10.1,13.0,18.5,0.218,0.249,0.246,0.312,1,3600.0,335.1,272.7,62.3,782.6,335.1,488.4,387.0,315.0,72.0,782.6,387.0,564.1,Eucalyptus L'Hér.; Magnoliopsida; Tracheophyta; Pinales; Vitis vinifera L.; Olea europaea L.; Pinus pinaster Aiton; Castanea sativa Mill.; 
2001,2001-12-09,Lisboa,Torres Vedras,Dois Portos,Furadouro,39.0301727,-9.2104244,NC,204.0,2001-12-09T17:00,14.6,63,7.7,11.7,0.0,0.0,0.0,0.0,0,1020.2,995.8,4,0,0,12,0.08,0.62,16.2,29.9,86,89,33.5,13.6,11.7,12.8,17.4,0.223,0.252,0.25,0.313,1,2655.88,19.4,12.3,7.0,141.5,16.2,39.4,77.0,49.0,28.0,370.0,77.0,156.4,Vitis vinifera L.; Eucalyptus L'Hér.; Magnoliopsida; Tracheophyta; 
2001,2001-09-22,Santarém,Ourém,Urqueira,Resouro \ POVI,39.76129555,-8.60631373788449,NC,296.0,2001-09-22T15:00,19.1,72,14.0,19.1,0.0,0.0,0.0,0.0,2,1003.0,969.0,54,39,28,8,0.24,0.62,8.7,11.3,120,121,29.5,20.5,19.2,21.6,20.1,0.286,0.142,0.186,0.307,1,3600.0,360.3,222.8,137.5,367.9,360.3,822.4,393.0,243.0,150.0,367.9,393.0,897.1,Eucalyptus L'Hér.; Magnoliopsida; Pinus pinaster Aiton
2001,2001-11-02,Lisboa,Sintra,Colares,Praia da Ursa,38.8020657,-9.459324142974458,NC,69.0,2001-11-02T19:00,17.1,73,12.2,16.8,0.0,0.0,0.0,0.0,0,1022.2,1013.9,17,4,0,46,0.01,0.52,6.5,11.8,124,121,11.9,16.9,18.6,19.1,21.0,0.297,0.332,0.255,0.328,0,0.0,0.0,0.0,0.0,0.0,0.0,0.0,0.0,0.0,0.0,0.0,0.0,0.0,Tracheophyta; Magnoliopsida; Pinus pinaster Aiton; Pinales; Pinus pinea L.; Eucalyptus L'Hér.; Vitis vinifera L.; Acacia Mill.; 
2001,2001-09-24,Lisboa,Vila Franca de Xira,Vialonga,VIALONGA,38.8773451,-9.0685711,NC,55.0,2001-09-24T15:00,20.7,61,12.9,19.4,0.0,0.0,0.0,0.0,1,1018.0,1011.5,28,22,13,0,0.35,0.95,15.8,20.4,317,318,34.2,23.5,20.8,22.7,22.3,0.299,0.231,0.22,0.332,1,3600.0,523.1,410.4,112.7,677.8,523.1,823.5,571.0,448.0,123.0,677.8,571.0,898.9,Tracheophyta; Magnoliopsida; Pinus pinea L.; Olea europaea L.; Pinus pinaster Aiton; Pinales; 
2001,2001-11-20,Lisboa,Torres Vedras,Torres Vedras (são Pedro E São Tiago),Figueiredo,39.09299855,-9.25866085,NC,33.0,2001-11-20T18:00,13.3,70,7.9,10.4,0.0,0.0,0.0,0.0,0,1024.1,1020.1,0,0,0,0,0.06,0.46,16.1,25.8,16,19,24.5,13.1,13.2,15.2,19.8,0.226,0.253,0.249,0.321,0,0.0,0.0,0.0,0.0,0.0,0.0,0.0,3.0,1.0,2.0,17.1,3.0,21.0,Tracheophyta; Magnoliopsida
2001,2001-09-26,Lisboa,Azambuja,Manique do Intendente,MANIQUE DO INTENDENTE,39.2180783,-8.88718527081545,NC,33.0,2001-09-26T14:00,22.6,43,9.5,22.7,0.0,0.0,0.0,0.0,0,1018.7,1014.8,0,0,0,1,0.47,1.55,6.2,6.9,263,261,19.1,26.9,20.5,22.7,22.9,0.214,0.181,0.199,0.314,1,3600.0,702.9,582.4,120.5,836.8,702.9,947.5,735.0,609.0,126.0,836.8,735.0,990.8,Pinus pinea L.; Vitis vinifera L.; Olea europaea L.; Tracheophyta; Eucalyptus L'Hér.
2001,2001-08-17,Lisboa,Sintra,Sintra (são Martinho),Ribeira de Sintra,38.80026705,-9.389521074625552,NC,160.0,2001-08-17T10:00,19.3,73,14.3,19.8,0.0,0.0,0.0,0.0,0,1019.4,1000.6,9,10,0,0,0.34,0.61,8.9,11.4,302,305,20.9,24.7,21.2,21.4,19.3,0.079,0.122,0.179,0.283,1,3600.0,663.8,527.5,136.3,729.9,663.8,964.4,599.0,476.0,123.0,729.9,599.0,870.3,Tracheophyta; Magnoliopsida
2001,2001-09-27,Lisboa,Loures,Bucelas,Quinta de Baixo,38.9252443,-9.1567376,NC,129.0,2001-09-27T12:00,20.9,51,10.5,21.0,0.0,0.0,0.0,0.0,1,1015.2,1000.1,40,2,17,93,0.38,1.2,3.3,4.1,139,135,13.7,23.5,19.0,21.5,21.9,0.218,0.209,0.21,0.323,1,3600.0,629.4,372.3,257.1,494.6,629.4,1025.3,612.0,362.0,250.0,494.6,612.0,996.9,Magnoliopsida; Tracheophyta; Olea europaea L.; Pinus pinea L.; Pinus pinaster Aiton; Eucalyptus L'Hér.; Vitis vinifera L.; 
2001,2001-09-27,Lisboa,Sobral de Monte Agraço,Sapataria,Moitelas,38.9711825,-9.175726667883554,NC,316.0,2001-09-27T19:00,17.8,71,12.4,17.9,0.0,0.0,0.0,0.0,3,1011.6,974.9,100,38,70,100,0.04,0.59,4.5,9.0,256,254,9.4,18.8,19.2,20.3,20.7,0.208,0.209,0.21,0.323,0,0.0,0.0,0.0,0.0,0.0,0.0,0.0,3.0,0.0,3.0,0.0,3.0,40.1,Tracheophyta
2001,2001-09-03,Lisboa,Sintra,Sintra (são Pedro De Penaferrim),Manique de Cima \ POVI,38.7992243,-9.3853801,NC,187.0,2001-09-03T14:00,22.7,68,16.6,24.5,0.0,0.0,0.0,0.0,0,1012.4,990.8,0,0,0,0,0.5,0.88,13.5,15.8,314,319,28.1,32.8,23.3,21.6,19.8,0.077,0.117,0.173,0.278,1,3600.0,798.5,693.2,105.4,863.2,798.5,1079.7,826.0,717.0,109.0,863.2,826.0,1116.9,Tracheophyta; Magnoliopsida
2001,2001-09-28,Lisboa,Azambuja,Alcoentre,Tagarro,39.2078257,-8.9572359,NC,81.0,2001-09-28T10:00,18.7,81,15.3,17.4,0.3,0.3,0.0,0.0,51,1010.8,1001.3,100,100,66,80,0.12,0.41,21.5,30.7,189,190,40.0,19.4,19.7,22.1,22.7,0.189,0.18,0.201,0.317,1,345.27,163.3,42.8,120.5,71.5,163.3,815.7,145.0,38.0,107.0,71.5,145.0,724.2,Tracheophyta; Magnoliopsida; Pinales; Olea europaea L.
2001,2001-11-22,Lisboa,Mafra,Mafra,Senhora do Socorro,38.96434055,-9.340462306966607,NC,88.0,2001-11-22T16:00,14.4,62,7.3,10.5,0.0,0.0,0.0,0.0,1,1021.5,1010.9,29,0,0,95,0.14,0.62,22.4,31.4,24,27,37.8,14.0,12.4,14.8,19.6,0.221,0.255,0.254,0.321,1,3600.0,125.2,41.7,83.4,198.3,125.2,295.1,168.0,56.0,112.0,198.3,168.0,396.0,Magnoliopsida; Pinus pinaster Aiton; Tracheophyta; Eucalyptus L'Hér.
2001,2001-11-23,Lisboa,Sintra,Terrugem,Casal da Granja,38.83363195,-9.367501448128994,NC,159.0,2001-11-23T15:00,15.9,43,3.2,11.6,0.0,0.0,0.0,0.0,0,1021.0,1002.0,0,0,0,0,0.26,1.04,19.0,25.3,33,36,31.0,16.2,13.1,14.5,18.7,0.167,0.211,0.21,0.264,1,3600.0,352.0,292.2,59.8,839.8,352.0,488.2,406.0,337.0,69.0,839.8,406.0,563.0,Tracheophyta; Magnoliopsida; Pinus pinaster Aiton; Pinus pinea L.; Vitis vinifera L.; Pinales; Olea europaea L.; 
2001,2001-09-12,Lisboa,Oeiras,Linda-a-velha,Linda a Velha,38.7114041,-9.240821345915377,NC,87.0,2001-09-12T14:00,21.9,58,13.3,22.4,0.0,0.0,0.0,0.0,0,1019.9,1009.7,14,3,0,39,0.47,1.1,12.3,13.9,291,291,27.7,27.9,23.0,22.9,20.9,0.135,0.156,0.206,0.33,1,3600.0,739.7,575.0,164.7,749.7,739.7,1036.1,768.0,597.0,171.0,749.7,768.0,1075.7,Tracheophyta; Pinus pinaster Aiton; Pinales; Magnoliopsida; Pinus pinea L.; Vitis vinifera L.; Eucalyptus L'Hér.; Olea europaea L.
2001,2001-09-30,Leiria,Nazaré,Famalicão,Serra da Pescaria,39.5499586,-9.0944107,NC,160.0,2001-09-30T15:00,21.9,59,13.6,20.9,0.0,0.0,0.0,0.0,0,1017.4,998.8,8,8,0,1,0.35,1.07,14.5,18.4,210,208,32.8,23.8,19.8,20.4,21.0,0.254,0.169,0.171,0.289,1,3600.0,492.9,359.9,133.0,632.2,492.9,776.7,541.0,395.0,146.0,632.2,541.0,852.6,Tracheophyta; Magnoliopsida
2001,2001-12-10,Leiria,Alcobaça,Aljubarrota (Prazeres),Molianos,39.5719302,-8.9442444,NC,134.0,2001-12-10T20:00,11.0,61,3.8,5.2,0.0,0.0,0.0,0.0,1,1019.5,1003.2,38,0,28,71,0.08,0.51,29.7,47.2,104,105,50.0,10.6,11.8,12.9,17.3,0.115,0.155,0.166,0.217,0,0.0,0.0,0.0,0.0,0.0,0.0,0.0,0.0,0.0,0.0,0.0,0.0,0.0,Tracheophyta; Eucalyptus L'Hér.; Vitis vinifera L.; Magnoliopsida; Pinus pinaster Aiton
2001,2001-09-12,Lisboa,Mafra,Venda do Pinheiro,Asseiceira Pequena,38.9256342,-9.2333665,NC,250.0,2001-09-12T14:00,22.4,55,12.8,23.4,0.0,0.0,0.0,0.0,0,1019.4,990.4,5,0,0,17,0.5,1.23,9.2,11.0,281,281,29.2,31.1,23.4,23.0,20.8,0.09,0.155,0.212,0.327,1,3600.0,770.6,651.2,119.4,851.0,770.6,1033.7,800.0,676.0,124.0,851.0,800.0,1073.1,Tracheophyta; Eucalyptus L'Hér.; Pinus pinaster Aiton; Pinales
2001,2001-10-15,Lisboa,Torres Vedras,Turcifal,Freixofeira,39.03188365,-9.241670973423387,NC,87.0,2001-10-15T00:00,17.3,93,16.2,18.1,0.0,0.0,0.0,0.0,1,1019.2,1008.8,23,12,16,8,0.0,0.13,9.2,17.1,219,228,16.6,17.6,19.1,19.9,21.2,0.308,0.266,0.216,0.326,0,0.0,0.0,0.0,0.0,0.0,0.0,0.0,0.0,0.0,0.0,0.0,0.0,0.0,Tracheophyta; Castanea sativa Mill.; Vitis vinifera L.; Magnoliopsida; Pinales; Eucalyptus L'Hér.; 
2001,2001-12-10,Leiria,Caldas da Rainha,Foz do Arelho,Serra do Bouro,39.4075398,-9.1560612,NC,27.0,2001-12-10T23:00,11.6,61,4.4,5.9,0.0,0.0,0.0,0.0,2,1018.7,1015.4,59,0,77,44,0.09,0.53,30.5,44.8,104,105,50.0,11.1,12.4,13.8,17.8,0.098,0.141,0.146,0.204,0,0.0,0.0,0.0,0.0,0.0,0.0,0.0,0.0,0.0,0.0,0.0,0.0,0.0,Tracheophyta; Eucalyptus L'Hér.; Magnoliopsida; Pinus pinaster Aiton
2001,2001-06-01,Lisboa,Oeiras,Paço de Arcos,Caxias,38.70158605,-9.290442061077108,NC,61.0,2001-06-01T14:00,23.3,61,15.3,25.6,0.0,0.0,0.0,0.0,0,1016.1,1009.0,14,15,0,0,0.59,1.13,11.9,13.0,275,272,23.8,28.0,22.3,19.2,15.8,0.188,0.248,0.293,0.363,1,3600.0,930.0,758.0,172.0,833.6,930.0,1209.7,957.0,780.0,177.0,833.6,957.0,1244.8,Pinus pinea L.; Magnoliopsida; Tracheophyta; Vitis vinifera L.; Eucalyptus L'Hér.; Olea europaea L.; Pinus pinaster Aiton
2001,2001-09-30,Lisboa,Azambuja,Aveiras de Cima,Vale do Brejo,39.1350142,-8.9224639,NC,72.0,2001-09-30T14:00,22.4,58,13.7,22.1,0.0,0.0,0.0,0.0,0,1017.8,1009.4,17,17,0,7,0.4,1.15,13.1,16.5,212,212,31.0,24.1,20.3,21.4,22.3,0.328,0.248,0.232,0.341,1,3600.0,591.8,429.5,162.3,634.2,591.8,924.1,620.0,450.0,170.0,634.2,620.0,968.2,Vitis vinifera L.; Magnoliopsida; Tracheophyta
2001,2001-10-16,Lisboa,Mafra,Milharado,Póvoa da Galega,38.9307632,-9.203303,NC,179.0,2001-10-16T19:00,17.1,87,15.0,17.3,0.0,0.0,0.0,0.0,1,1017.8,996.6,20,1,3,58,0.0,0.24,10.2,15.9,203,208,16.6,18.1,19.1,19.6,21.2,0.288,0.285,0.214,0.319,0,0.0,0.0,0.0,0.0,0.0,0.0,0.0,0.0,0.0,0.0,0.0,0.0,0.0,Magnoliopsida; Eucalyptus L'Hér.; Tracheophyta
2001,2001-09-13,Setúbal,Setúbal,Sado,Mitrena,38.5181894,-8.830048,NC,15.0,2001-09-13T06:00,14.0,97,13.6,13.9,0.0,0.0,0.0,0.0,1,1019.1,1017.3,40,34,0,30,0.0,0.04,8.2,13.9,345,343,13.7,14.1,23.8,24.6,22.8,0.044,0.061,0.1,0.206,0,0.0,0.0,0.0,0.0,0.0,0.0,0.0,0.0,0.0,0.0,0.0,0.0,0.0,Quercus suber L.; Tracheophyta; Eucalyptus L'Hér.; Pinus pinea L.; Olea europaea L.; Magnoliopsida; Quercus rotundifolia Lam.; 
2001,2001-09-14,Lisboa,Loures,Loures,LOURES,38.8444686,-9.206289225745532,NC,88.0,2001-09-14T12:00,23.7,56,14.5,21.6,0.0,0.0,0.0,0.0,0,1015.2,1005.0,12,0,0,40,0.5,1.28,31.8,41.8,350,352,54.7,25.6,21.9,22.8,21.0,0.118,0.159,0.215,0.326,1,3600.0,805.8,690.6,115.3,856.7,805.8,1090.0,783.0,671.0,112.0,856.7,783.0,1059.1,Tracheophyta; Quercus suber L.; Magnoliopsida
2001,2001-09-13,Lisboa,Torres Vedras,Maceira,Maceira,39.1809806,-9.340490816591055,NC,84.0,2001-09-13T20:00,17.1,84,14.3,14.8,0.0,0.0,0.0,0.0,0,1018.1,1008.1,5,6,0,0,0.03,0.32,25.3,34.3,356,356,41.0,20.6,23.2,22.6,20.8,0.088,0.144,0.201,0.317,0,0.0,0.0,0.0,0.0,0.0,0.0,0.0,0.0,0.0,0.0,0.0,0.0,0.0,Eucalyptus L'Hér.; Tracheophyta; Vitis vinifera L.; Magnoliopsida; Pinus pinea L.; 
2001,2001-08-04,Lisboa,Sintra,Rio de Mouro,RIO DE MOURO \ SF,38.7723602,-9.3256835,NC,116.0,2001-08-04T16:00,23.1,52,12.6,20.0,0.0,0.0,0.0,0.0,0,1021.4,1007.8,0,0,0,0,0.48,1.37,32.0,42.7,346,348,52.2,27.0,22.9,21.3,18.8,0.133,0.172,0.235,0.342,1,3600.0,669.4,575.8,93.6,857.5,669.4,892.4,737.0,634.0,103.0,857.5,737.0,982.5,Tracheophyta; Magnoliopsida; Pinales; 
2001,2001-09-14,Lisboa,Oeiras,Barcarena,Ribeira-a-Cima,38.7315692,-9.2780907,NC,51.0,2001-09-14T21:00,17.7,79,13.9,15.2,0.0,0.0,0.0,0.0,0,1013.4,1007.4,1,0,0,2,0.05,0.43,25.5,36.5,347,347,44.3,19.9,22.1,22.2,20.7,0.132,0.166,0.222,0.331,0,0.0,0.0,0.0,0.0,0.0,0.0,0.0,0.0,0.0,0.0,0.0,0.0,0.0,Tracheophyta; Magnoliopsida; Pinus pinea L.; Vitis vinifera L.; Eucalyptus L'Hér.; Olea europaea L.; Pinus pinaster Aiton
2001,2001-11-01,Lisboa,Sintra,Colares,Azóia,38.7764649,-9.4812519,NC,216.0,2001-11-01T09:00,17.4,85,14.8,17.3,0.0,0.0,0.0,0.0,0,1024.9,999.3,1,1,0,0,0.1,0.3,11.7,20.2,45,55,21.6,17.4,17.7,18.1,19.5,0.28,0.29,0.207,0.266,1,3600.0,264.8,194.3,70.5,596.1,264.8,452.7,199.0,146.0,53.0,596.1,199.0,340.2,Tracheophyta; Magnoliopsida; Pinus pinaster Aiton; Pinales; Pinus pinea L.; Eucalyptus L'Hér.; Vitis vinifera L.; Acacia Mill.; 
2001,2001-09-15,Lisboa,Mafra,Milharado,MILHARADO,38.9127575,-9.1807003,NC,198.0,2001-09-15T15:00,28.6,36,12.3,30.3,0.0,0.0,0.0,0.0,0,1011.5,989.1,0,0,0,0,0.48,2.49,0.8,1.5,153,135,18.0,35.4,23.5,22.9,21.2,0.089,0.155,0.211,0.326,1,3600.0,654.1,563.5,90.5,864.1,654.1,882.4,708.0,610.0,98.0,864.1,708.0,955.2,Tracheophyta; Magnoliopsida; Pinus pinaster Aiton; Eucalyptus L'Hér.
2001,2001-11-02,Leiria,Alcobaça,Benedita,Riba Fria,39.4257209,-8.9800702,NC,207.0,2001-11-02T19:00,15.5,57,7.1,12.8,0.0,0.0,0.0,0.0,0,1022.9,998.2,4,0,0,15,0.06,0.76,13.4,28.4,95,99,22.7,15.7,17.4,18.1,19.9,0.266,0.305,0.239,0.318,0,0.0,0.0,0.0,0.0,0.0,0.0,0.0,0.0,0.0,0.0,0.0,0.0,0.0,Tracheophyta; Magnoliopsida; Pinus pinaster Aiton
2001,2001-11-01,Lisboa,Mafra,Mafra,Gonçalvinhos,38.9352283,-9.3587066,NC,160.0,2001-11-01T11:00,19.9,72,14.6,19.8,0.0,0.0,0.0,0.0,0,1024.7,1005.8,0,0,0,0,0.28,0.66,10.9,14.9,63,70,22.0,20.3,17.8,18.5,20.4,0.329,0.343,0.254,0.329,1,3600.0,533.8,448.3,85.5,816.6,533.8,762.5,493.0,414.0,79.0,816.6,493.0,704.2,Vitis vinifera L.; Magnoliopsida; Pinales; Tracheophyta
2001,2001-09-14,Lisboa,Loures,Santo Antão do Tojal,SÃO JULIÃO DO TOJAL,38.8639227,-9.133711,NC,45.0,2001-09-14T03:00,16.6,90,14.9,14.3,0.0,0.0,0.0,0.0,0,1016.0,1010.6,2,2,0,0,0.02,0.19,26.3,38.4,350,350,43.2,18.1,23.4,24.2,22.1,0.098,0.165,0.222,0.335,0,0.0,0.0,0.0,0.0,0.0,0.0,0.0,0.0,0.0,0.0,0.0,0.0,0.0,Tracheophyta; Magnoliopsida; Eucalyptus L'Hér.
2001,2001-10-31,Leiria,Alcobaça,Martingança,Martingança,39.69919745,-8.964786222111005,NC,123.0,2001-10-31T12:00,22.9,63,15.6,23.3,0.0,0.0,0.0,0.0,1,1024.9,1010.5,28,0,1,92,0.34,1.02,9.8,13.4,24,36,13.0,22.5,17.9,17.8,19.3,0.209,0.222,0.17,0.2,1,3600.0,549.7,415.9,133.8,709.3,549.7,814.0,534.0,404.0,130.0,709.3,534.0,790.7,Pinus pinaster Aiton; Eucalyptus L'Hér.; Tracheophyta
2001,2001-11-07,Lisboa,Torres Vedras,Torres Vedras (santa Maria Do Castelo E São Miguel),Orjarica,39.0885917,-9.25274142461584,NC,58.0,2001-11-07T18:00,18.4,69,12.6,17.1,0.0,0.0,0.0,0.0,0,1021.5,1014.6,0,0,0,0,0.06,0.65,14.1,25.7,50,59,25.6,17.9,17.6,18.4,20.5,0.26,0.295,0.249,0.322,0,0.0,0.0,0.0,0.0,0.0,0.0,0.0,9.0,4.0,5.0,53.1,9.0,44.7,Tracheophyta; Magnoliopsida
2001,2001-08-24,Setúbal,Seixal,Corroios,CORROIOS,38.6364997,-9.1517196,NC,18.0,2001-08-24T17:00,26.5,57,17.3,27.4,0.0,0.0,0.0,0.0,2,1010.6,1008.5,76,8,69,92,0.27,1.49,11.7,13.3,317,319,21.2,32.9,25.2,22.6,20.7,0.052,0.064,0.108,0.219,1,3600.0,264.6,91.8,172.8,208.9,264.6,588.3,317.0,110.0,207.0,208.9,317.0,704.7,Tracheophyta; Pinus pinea L.
2001,2001-11-23,Lisboa,Mafra,Malveira,MALVEIRA,38.9288751,-9.25739695492422,NC,231.0,2001-11-23T16:00,15.3,46,3.8,11.9,0.0,0.0,0.0,0.0,0,1021.3,993.8,0,0,0,0,0.17,0.94,13.4,22.6,31,34,29.9,14.7,12.1,13.9,18.7,0.213,0.256,0.256,0.32,1,3600.0,193.1,150.0,43.1,722.1,193.1,291.4,260.0,202.0,58.0,722.1,260.0,392.5,Tracheophyta; Magnoliopsida; Eucalyptus L'Hér.
2001,2001-11-08,Lisboa,Sintra,São João das Lampas,Magoito,38.83363195,-9.367501448128994,NC,159.0,2001-11-08T18:00,15.3,80,11.8,11.3,0.0,0.0,0.0,0.0,0,1020.8,1001.8,0,0,0,0,0.06,0.35,31.0,44.3,359,359,46.8,16.4,17.3,18.0,19.7,0.228,0.253,0.211,0.266,0,0.0,0.0,0.0,0.0,0.0,0.0,0.0,9.0,4.0,5.0,53.1,9.0,44.6,Tracheophyta; Magnoliopsida; Pinus pinaster Aiton; Pinus pinea L.; Vitis vinifera L.; Pinales; Olea europaea L.; 
2001,2001-11-08,Lisboa,Torres Vedras,Maceira,Praia de Santa Rita,39.17223945,-9.35855208581506,NC,0.0,2001-11-08T15:00,18.5,66,12.0,15.0,0.0,0.0,0.0,,0,1021.1,1021.1,0,0,0,0,0.25,0.72,28.5,37.1,2,3,45.4,19.3,17.2,18.2,19.9,0.147,0.177,0.161,0.199,1,3600.0,382.6,316.9,65.7,815.0,382.6,542.1,437.0,362.0,75.0,815.0,437.0,619.2,Eucalyptus L'Hér.; Tracheophyta; Vitis vinifera L.; Magnoliopsida; Pinus pinea L.; 
2001,2001-04-11,Lisboa,Sintra,Belas,São Mamede,38.7744421,-9.2542643,NC,192.0,2001-04-11T17:00,19.5,64,12.6,18.0,0.0,0.0,0.0,0.0,0,1021.2,998.6,0,0,0,0,0.28,0.81,15.5,22.0,1,4,32.8,20.2,16.9,14.7,14.0,0.279,0.32,0.369,0.377,1,3600.0,395.7,327.3,68.4,794.6,395.7,561.2,480.0,397.0,83.0,794.6,480.0,680.7,Pinus pinaster Aiton; Tracheophyta; Pinales; Eucalyptus L'Hér.; Magnoliopsida; 
2001,2001-09-14,Lisboa,Mafra,Milharado,Ribeira,38.936294,-9.17002,NC,139.0,2001-09-14T18:00,19.6,65,12.9,16.2,0.0,0.0,0.0,0.0,0,1013.7,997.4,5,0,0,17,0.17,0.79,29.4,39.3,348,348,52.6,24.8,23.7,23.5,21.6,0.089,0.155,0.212,0.326,1,3600.0,112.8,80.3,32.5,562.6,112.8,193.1,191.0,136.0,55.0,562.6,191.0,326.9,Tracheophyta; Magnoliopsida
2001,2001-11-08,Lisboa,Mafra,Mafra,Paz,38.9493636,-9.3288367,NC,212.0,2001-11-08T16:00,17.1,68,11.1,14.4,0.0,0.0,0.0,0.0,0,1020.3,995.2,0,0,0,0,0.18,0.63,20.6,31.1,348,350,38.2,18.5,16.8,17.7,20.0,0.267,0.3,0.256,0.322,1,3600.0,227.0,178.5,48.5,719.7,227.0,345.8,295.0,232.0,63.0,719.7,295.0,449.4,Tracheophyta; Magnoliopsida; Eucalyptus L'Hér.; Olea europaea L.
2001,2001-11-05,Lisboa,Loures,Loures,Montemor,38.8244745,-9.1929375,NC,150.0,2001-11-05T20:00,17.0,72,11.9,15.4,0.0,0.0,0.0,0.0,3,1015.4,997.7,100,76,21,100,0.04,0.55,15.5,24.9,62,68,25.2,16.8,17.3,18.4,20.0,0.316,0.314,0.262,0.317,0,0.0,0.0,0.0,0.0,0.0,0.0,0.0,0.0,0.0,0.0,0.0,0.0,0.0,Magnoliopsida; Tracheophyta
2001,2001-06-05,Lisboa,Oeiras,Carnaxide,CARNAXIDE,38.7275721,-9.238170738165364,NC,108.0,2001-06-05T01:00,15.7,92,14.4,14.6,0.0,0.0,0.0,0.0,0,1023.8,1010.8,15,17,0,0,0.0,0.14,16.8,26.1,350,353,26.6,17.7,20.5,19.4,15.7,0.176,0.231,0.285,0.364,0,0.0,0.0,0.0,0.0,0.0,0.0,0.0,,,,,,,Tracheophyta; Magnoliopsida; Pinus pinea L.; Vitis vinifera L.; Eucalyptus L'Hér.; Olea europaea L.; Pinus pinaster Aiton
2001,2001-10-04,Lisboa,Sintra,São João das Lampas,Areias,38.8867739,-9.3937464,NC,141.0,2001-10-04T18:00,17.2,72,12.1,16.8,0.0,0.0,0.0,0.0,1,1014.0,997.3,30,0,0,100,0.05,0.56,7.2,10.4,288,290,22.0,19.7,20.3,20.7,21.5,0.202,0.205,0.221,0.333,1,0.0,12.8,0.6,12.2,6.4,11.4,52.1,46.0,2.0,44.0,13.0,46.0,187.9,Tracheophyta; Magnoliopsida; Pinus pinaster Aiton; Pinus pinea L.; Vitis vinifera L.; Pinales; Olea europaea L.; 
2001,2001-07-06,Setúbal,Setúbal,Setúbal (são Sebastião),Setúbal,38.52734715,-8.85704211645389,NC,26.0,2001-07-06T09:00,20.6,61,12.8,19.7,0.0,0.0,0.0,0.0,0,1015.3,1012.2,11,12,0,0,0.3,0.95,12.3,15.8,322,325,24.5,23.2,21.9,21.8,18.3,0.06,0.06,0.095,0.208,1,3600.0,541.6,395.3,146.3,604.4,541.6,865.5,474.0,346.0,128.0,604.4,474.0,757.5,Tracheophyta; Pinus pinaster Aiton; Olea europaea L.; Magnoliopsida
2001,2001-11-24,Lisboa,Mafra,Santo Estêvão Das Galés,Ribeira de Rogel,38.8772945,-9.2440132,NC,170.0,2001-11-24T19:00,12.3,70,7.0,9.8,0.0,0.0,0.0,0.0,0,1021.7,1001.2,0,0,0,0,0.03,0.42,11.4,20.1,13,24,18.7,11.6,12.3,13.9,19.0,0.215,0.255,0.255,0.315,0,0.0,0.0,0.0,0.0,0.0,0.0,0.0,0.0,0.0,0.0,0.0,0.0,0.0,Magnoliopsida; Tracheophyta; Quercus suber L.; Pinus pinaster Aiton; Eucalyptus L'Hér.
2001,2001-09-20,Lisboa,Mafra,Milharado,MILHARADO,38.9127575,-9.1807003,NC,198.0,2001-09-20T17:00,20.6,63,13.2,20.0,0.0,0.0,0.0,0.0,2,1012.1,989.1,52,7,38,75,0.21,0.9,11.1,14.4,234,233,29.9,26.6,23.3,23.0,21.4,0.089,0.154,0.209,0.324,1,3600.0,255.3,181.0,74.3,587.7,255.3,418.0,330.0,234.0,96.0,587.7,330.0,540.3,Tracheophyta; Magnoliopsida; Pinus pinaster Aiton; Eucalyptus L'Hér.
2001,2001-11-08,Lisboa,Lourinhã,Ribamar,Ribamar,39.1923862,-9.324752,NC,34.0,2001-11-08T18:00,15.1,83,12.3,11.1,0.0,0.0,0.0,0.0,0,1021.6,1017.5,12,10,0,10,0.05,0.29,32.0,45.7,360,360,49.7,16.4,17.1,18.2,20.3,0.229,0.272,0.232,0.306,0,0.0,0.0,0.0,0.0,0.0,0.0,0.0,8.0,3.0,5.0,40.7,8.0,42.2,Magnoliopsida; Tracheophyta; ; Vitis vinifera L.; Eucalyptus L'Hér.
2001,2001-11-09,Setúbal,Seixal,Corroios,CORROIOS,38.6364997,-9.1517196,NC,18.0,2001-11-09T11:00,13.6,50,3.2,6.1,0.0,0.0,0.0,0.0,1,1018.7,1016.5,24,5,33,0,0.26,0.79,40.2,52.9,6,6,73.1,15.5,16.3,18.6,20.5,0.186,0.2,0.159,0.206,1,3600.0,487.9,394.5,93.5,759.1,487.9,724.7,449.0,363.0,86.0,759.1,449.0,666.9,Tracheophyta; Pinus pinea L.
2001,2001-09-15,Lisboa,Sintra,Pêro Pinheiro,Falimas,38.83977325,-9.319917216660787,NC,145.0,2001-09-15T14:00,25.4,52,14.8,27.8,0.0,0.0,0.0,0.0,0,1012.2,995.6,0,0,0,0,0.54,1.55,5.2,5.2,326,348,15.1,29.6,21.8,21.7,20.3,0.12,0.161,0.217,0.329,1,3600.0,768.9,671.7,97.2,891.6,768.9,1019.4,799.0,698.0,101.0,891.6,799.0,1059.3,Tracheophyta; Magnoliopsida; Pinus pinaster Aiton; Eucalyptus L'Hér.; Vitis vinifera L.; 
2001,2001-09-19,Santarém,Ferreira do Zêzere,Águas Belas,Vales \ POV,39.6967155,-8.295624309379004,NC,354.0,2001-09-19T17:00,26.8,29,7.1,24.7,0.0,0.0,0.0,0.0,0,1009.7,970.0,8,0,0,27,0.29,2.52,9.7,12.1,248,247,22.0,32.1,25.5,23.7,21.5,0.098,0.149,0.18,0.306,1,3600.0,260.9,202.6,58.3,683.0,260.9,402.2,340.0,264.0,76.0,683.0,340.0,524.2,Magnoliopsida; Tracheophyta; Eucalyptus L'Hér.; Olea europaea L.
2001,2001-11-10,Lisboa,Torres Vedras,São Pedro da Cadeira,Escravelheira,39.0701787,-9.3716166,NC,50.0,2001-11-10T14:00,13.0,41,0.1,5.9,0.0,0.0,0.0,,1,1020.1,1014.0,29,2,45,0,0.3,0.89,34.8,45.1,27,28,56.9,15.0,14.1,17.2,19.2,0.172,0.2,0.185,0.218,1,3600.0,503.4,428.4,75.0,879.0,503.4,679.9,537.0,457.0,80.0,879.0,537.0,725.4,Magnoliopsida; Tracheophyta; Vitis vinifera L.; Eucalyptus L'Hér.; 
2001,2001-11-09,Lisboa,Mafra,Enxara do Bispo,SENHORA DO SOCORRO,38.9913696,-9.226112636489727,NC,208.0,2001-11-09T18:00,10.4,49,0.1,4.6,0.0,0.0,0.0,0.0,0,1018.4,993.3,0,0,0,0,0.11,0.64,25.3,40.6,5,7,53.3,12.5,15.0,17.4,20.0,0.243,0.287,0.251,0.316,0,0.0,0.0,0.0,0.0,0.0,0.0,0.0,7.0,3.0,4.0,41.4,7.0,40.9,Tracheophyta; Magnoliopsida
2001,2001-09-18,Santarém,Alcanena,Moitas Venda,Vale da Chouseira,39.4929824,-8.6570906,Desconhecida,168.0,2001-09-18T21:00,21.4,46,9.3,19.9,0.0,0.0,0.0,0.0,1,1010.5,991.0,30,0,0,100,0.07,1.38,9.3,21.6,347,360,20.2,24.3,25.9,24.0,21.9,0.071,0.147,0.221,0.329,0,0.0,0.0,0.0,0.0,0.0,0.0,0.0,0.0,0.0,0.0,0.0,0.0,0.0,Olea europaea L.; Pinus pinaster Aiton; Tracheophyta; Quercus L.; Magnoliopsida; 
2001,2001-12-07,Santarém,Ourém,Nossa Senhora da Piedade,Gravia,39.6530504,-8.5793634,NC,140.0,2001-12-07T15:00,15.8,66,9.4,15.3,0.0,0.0,0.0,0.0,2,1022.2,1005.4,68,75,0,0,0.16,0.62,2.6,3.2,326,333,10.4,16.1,10.5,12.4,17.2,0.143,0.158,0.168,0.205,1,3600.0,274.4,201.5,72.9,651.7,274.4,435.8,320.0,235.0,85.0,651.7,320.0,508.2,Eucalyptus L'Hér.; Tracheophyta; Olea europaea L.; Magnoliopsida
2001,2001-09-15,Lisboa,Oeiras,Barcarena,BARCARENA,38.7155799,-9.2774701,NC,51.0,2001-09-15T22:00,22.0,66,15.4,21.9,0.0,0.0,0.0,0.0,0,1014.4,1008.4,0,0,0,0,0.05,0.89,12.6,23.9,357,5,23.4,22.3,23.0,22.1,20.7,0.132,0.165,0.221,0.33,0,0.0,0.0,0.0,0.0,0.0,0.0,0.0,0.0,0.0,0.0,0.0,0.0,0.0,Tracheophyta; Magnoliopsida; Pinus pinea L.; Vitis vinifera L.; Eucalyptus L'Hér.; Olea europaea L.; Pinus pinaster Aiton
2001,2001-12-09,Leiria,Caldas da Rainha,Salir de Matos,Casal Novo,39.433046,-9.0962527,NC,62.0,2001-12-09T11:00,12.7,64,6.2,8.0,0.0,0.0,0.0,0.0,0,1022.7,1015.2,0,0,0,0,0.18,0.52,25.6,35.6,104,104,45.0,12.2,11.3,13.5,17.7,0.19,0.213,0.219,0.291,1,3600.0,394.6,319.9,74.7,774.4,394.6,582.5,354.0,287.0,67.0,774.4,354.0,522.6,Tracheophyta; Magnoliopsida; Eucalyptus L'Hér.; Vitis vinifera L.; Olea europaea L.
2001,2001-11-12,Lisboa,Alenquer,Olhalvo,Surraipas,39.1180914,-9.0507509,NC,133.0,2001-11-12T18:00,11.8,75,7.6,8.9,0.0,0.0,0.0,0.0,0,1021.1,1005.0,1,0,0,2,0.05,0.34,15.5,28.7,348,352,26.3,12.4,12.6,16.3,20.6,0.206,0.268,0.246,0.313,0,0.0,0.0,0.0,0.0,0.0,0.0,0.0,5.0,2.0,3.0,30.1,5.0,32.2,Eucalyptus L'Hér.; Vitis vinifera L.; Pinales; Magnoliopsida; Tracheophyta; Pinus pinaster Aiton
2001,2001-06-05,Lisboa,Sintra,Rio de Mouro,Rio de Mouro,38.784308,-9.32112237305857,NC,155.0,2001-06-05T23:00,15.8,85,13.2,13.2,0.0,0.0,0.0,0.0,0,1023.4,1004.8,2,2,0,0,0.03,0.28,24.4,36.7,351,353,41.4,17.7,20.0,18.7,15.4,0.154,0.228,0.285,0.363,0,0.0,0.0,0.0,0.0,0.0,0.0,0.0,0.0,0.0,0.0,0.0,0.0,0.0,Tracheophyta; Magnoliopsida; Pinales; 
2001,2001-11-05,Lisboa,Mafra,Enxara do Bispo,SENHORA DO SOCORRO,38.9913696,-9.226112636489727,NC,208.0,2001-11-05T18:00,16.9,72,11.8,15.4,0.0,0.0,0.0,0.0,3,1014.9,990.4,91,62,10,96,0.06,0.54,13.8,25.1,62,66,26.6,16.8,16.9,18.0,20.2,0.271,0.302,0.25,0.317,0,0.0,0.0,0.0,0.0,0.0,0.0,0.0,7.0,2.0,5.0,25.3,7.0,49.9,Tracheophyta; Magnoliopsida
2001,2001-12-09,Santarém,Ferreira do Zêzere,Ferreira do Zêzere,Vale da Figueira,39.68328045,-8.266840335297333,NC,261.0,2001-12-09T12:00,12.6,67,6.6,8.4,0.0,0.0,0.0,0.0,0,1023.5,992.1,1,1,0,0,0.2,0.48,23.1,32.5,94,95,48.2,11.8,8.9,11.5,17.0,0.231,0.261,0.287,0.314,1,3600.0,455.2,381.2,74.0,834.1,455.2,644.5,437.0,366.0,71.0,834.1,437.0,618.7,Eucalyptus L'Hér.; Pinus pinaster Aiton; Magnoliopsida
2001,2001-10-10,Lisboa,Alenquer,Alenquer (santo Estêvão),Paredes,39.0477236,-9.0033107,NC,48.0,2001-10-10T15:00,23.1,39,8.4,19.2,0.0,0.0,0.0,0.0,1,1016.2,1010.6,35,0,59,0,0.44,1.72,24.4,34.4,59,59,42.5,22.5,18.3,20.3,21.9,0.351,0.331,0.292,0.396,1,3600.0,520.5,440.2,80.3,842.9,520.5,716.7,577.0,488.0,89.0,842.9,577.0,794.5,Tracheophyta; Magnoliopsida; Vitis vinifera L.; Olea europaea L.
2001,2001-05-28,Lisboa,Sintra,Agualva-Cacém,Agualva-Cacém,38.7665167,-9.2984684,NC,113.0,2001-05-28T15:00,27.0,52,16.4,28.9,0.0,0.0,0.0,0.0,0,1019.9,1006.9,1,1,0,0,0.6,1.71,13.6,15.9,328,335,20.2,29.3,22.1,17.4,15.1,0.194,0.259,0.298,0.366,1,3600.0,810.9,704.4,106.5,865.2,810.9,1084.3,860.0,747.0,113.0,865.2,860.0,1150.0,Tracheophyta; Magnoliopsida
2001,2001-10-10,Lisboa,Sobral de Monte Agraço,Sapataria,Godeis,38.9554855,-9.1791797,NC,208.0,2001-10-10T20:00,18.0,64,11.0,16.6,0.0,0.0,0.0,0.0,1,1017.0,992.5,47,7,68,1,0.04,0.75,11.3,23.9,27,34,22.3,17.7,18.4,19.6,21.2,0.253,0.237,0.209,0.32,0,0.0,0.0,0.0,0.0,0.0,0.0,0.0,0.0,0.0,0.0,0.0,0.0,0.0,Magnoliopsida; Tracheophyta; Pinus pinaster Aiton
2001,2001-11-10,Leiria,Caldas da Rainha,Caldas Da Rainha (nossa Senhora Do Pópulo),CALDAS DA RAINHA,39.4059714,-9.1346217,NC,59.0,2001-11-10T17:00,11.8,49,1.5,5.8,0.0,0.0,0.0,0.0,0,1019.7,1012.5,4,2,3,0,0.14,0.7,28.4,38.3,12,12,51.1,13.3,14.0,17.5,20.0,0.2,0.25,0.22,0.294,1,3438.2,45.0,24.2,20.8,277.9,43.9,90.0,106.0,57.0,49.0,366.0,106.0,211.9,Tracheophyta; Magnoliopsida
2001,2001-11-15,Leiria,Caldas da Rainha,Santa Catarina,Mata de Porto Moiro,39.4469306,-9.0155179,NC,89.0,2001-11-15T15:00,12.2,40,-1.0,6.3,0.0,0.0,0.0,0.0,2,1019.6,1008.8,51,36,31,0,0.24,0.86,25.0,33.2,25,26,41.4,14.3,12.8,15.9,20.0,0.197,0.256,0.24,0.316,1,3600.0,341.1,271.6,69.4,756.8,341.1,502.0,393.0,313.0,80.0,756.8,393.0,578.4,Eucalyptus L'Hér.; Magnoliopsida; Tracheophyta; Vitis vinifera L.; Pinus pinaster Aiton
2001,2001-10-11,Leiria,Nazaré,Nazaré,NAZARÉ,39.612089,-9.058583215115968,NC,116.0,2001-10-11T17:00,23.1,72,17.7,25.4,1.8,1.8,0.0,0.0,61,1012.9,999.5,59,9,36,98,0.08,0.8,3.6,4.6,6,18,27.7,23.4,20.4,19.2,20.2,0.193,0.169,0.098,0.205,1,2067.71,69.8,24.4,45.4,128.9,69.8,259.9,103.0,36.0,67.0,128.9,103.0,383.5,Magnoliopsida; Pinus pinaster Aiton; Tracheophyta
2001,2001-09-15,Santarém,Ourém,Ribeira Do Farrio,Ruge Água,39.7949451,-8.518517467067237,NC,220.0,2001-09-15T06:00,12.7,94,11.8,12.2,0.0,0.0,0.0,0.0,0,1012.3,986.1,0,0,0,0,0.0,0.08,6.7,13.1,16,21,10.4,15.5,21.5,23.0,20.6,0.096,0.134,0.185,0.308,0,0.0,0.0,0.0,0.0,0.0,0.0,0.0,0.0,0.0,0.0,0.0,0.0,0.0,Magnoliopsida; Pinus pinaster Aiton; Tracheophyta; Eucalyptus L'Hér.
2001,2001-12-09,Santarém,Ourém,Seiça,Valada,39.6749443,-8.5241761,NC,117.0,2001-12-09T13:00,15.0,61,7.6,11.0,0.0,0.0,0.0,0.0,0,1022.2,1008.1,0,0,0,0,0.24,0.66,23.1,32.5,105,105,47.9,14.9,10.2,12.2,17.3,0.135,0.17,0.19,0.218,1,3600.0,455.5,381.4,74.1,840.5,455.5,639.9,461.0,386.0,75.0,840.5,461.0,647.6,Tracheophyta; Vitis vinifera L.; Olea europaea L.; Magnoliopsida; Quercus L.; Eucalyptus L'Hér.
2001,2001-11-15,Santarém,Vila Nova da Barquinha,Atalaia,ATALAIA,39.5084935,-8.4235427,NC,103.0,2001-11-15T18:00,9.4,51,-0.1,6.1,0.0,0.0,0.0,0.0,2,1019.5,1006.9,79,0,81,100,0.05,0.58,7.9,18.9,360,14,19.4,10.2,11.5,14.7,19.7,0.097,0.16,0.15,0.195,0,0.0,0.0,0.0,0.0,0.0,0.0,0.0,2.0,0.0,2.0,0.0,2.0,19.7,Eucalyptus L'Hér.; Magnoliopsida; Tracheophyta; Olea europaea L.; Pinus pinaster Aiton; Pinus pinea L.; Vitis vinifera L.; Quercus suber L.; 
2001,2001-09-15,Lisboa,Alenquer,Aldeia Galega da Merceana,ALDEIA GALEGA,39.0818257,-9.1121121,NC,115.0,2001-09-15T15:00,31.1,30,11.3,32.4,0.0,0.0,0.0,0.0,0,1011.5,998.5,0,0,0,0,0.49,3.18,0.8,1.5,153,135,18.0,38.9,24.7,24.2,22.4,0.08,0.152,0.205,0.323,1,3600.0,653.9,563.4,90.5,866.5,653.9,879.8,708.0,610.0,98.0,866.5,708.0,952.6,Magnoliopsida; Vitis vinifera L.; Tracheophyta
2001,2001-10-11,Lisboa,Torres Vedras,Monte Redondo,MONTE REDONDO,39.13809515,-9.17757752611162,NC,74.0,2001-10-11T19:00,19.4,87,17.2,21.5,4.1,4.1,0.0,0.0,63,1014.9,1006.2,52,5,30,100,0.0,0.28,3.3,4.1,131,165,19.4,20.8,20.7,20.3,22.1,0.404,0.23,0.209,0.321,0,0.0,0.0,0.0,0.0,0.0,0.0,0.0,0.0,0.0,0.0,0.0,0.0,0.0,Eucalyptus L'Hér.; Tracheophyta; Magnoliopsida; Vitis vinifera L.; Pinales; Pinus pinaster Aiton; 
2001,2001-09-10,Lisboa,Loures,Camarate,CAMARATE,38.7979738,-9.137797597001224,NC,130.0,2001-09-10T13:00,24.6,51,13.8,25.8,0.0,0.0,0.0,0.0,0,1014.7,999.7,0,0,0,0,0.57,1.51,11.5,13.4,272,275,26.3,28.5,25.1,24.5,23.2,0.237,0.27,0.305,0.356,1,3600.0,856.1,739.5,116.6,897.3,856.1,1112.2,859.0,742.0,117.0,897.3,859.0,1115.9,Tracheophyta; Olea europaea L.; Magnoliopsida; 
2001,2001-06-02,Lisboa,Oeiras,Paço de Arcos,Quinta da Terrugem,38.7000836,-9.284993,NC,47.0,2001-06-02T21:00,16.5,86,14.1,15.4,0.0,0.0,0.0,0.0,1,1018.4,1012.8,35,39,0,0,0.02,0.27,16.4,21.3,322,323,27.7,19.9,21.8,19.4,15.9,0.183,0.243,0.291,0.363,0,0.0,0.0,0.0,0.0,0.0,0.0,0.0,0.0,0.0,0.0,0.0,0.0,0.0,Pinus pinea L.; Magnoliopsida; Tracheophyta; Vitis vinifera L.; Eucalyptus L'Hér.; Olea europaea L.; Pinus pinaster Aiton
2001,2001-09-18,Lisboa,Loures,Lousa,SALEMAS,38.8666199,-9.221234,NC,117.0,2001-09-18T13:00,26.6,34,9.6,27.0,0.0,0.0,0.0,0.0,1,1010.6,997.2,30,0,0,100,0.52,2.29,5.1,6.3,176,156,16.2,33.1,24.1,23.7,21.9,0.089,0.154,0.21,0.325,1,3600.0,738.3,487.5,250.7,616.2,738.3,1072.2,742.0,490.0,252.0,616.2,742.0,1077.6,Tracheophyta; Magnoliopsida; Pinus pinaster Aiton; Eucalyptus L'Hér.; Pinales; ; Pinus pinea L.
2001,2001-11-10,Lisboa,Sobral de Monte Agraço,Santo Quintino,Abadia,39.0169525,-9.1360814,NC,251.0,2001-11-10T18:00,9.3,52,-0.0,4.2,0.0,0.0,0.0,0.0,0,1019.2,988.8,0,0,0,0,0.09,0.56,19.8,33.5,357,359,39.2,10.5,12.5,16.6,19.9,0.225,0.281,0.252,0.313,0,0.0,0.0,0.0,0.0,0.0,0.0,0.0,6.0,3.0,3.0,42.7,6.0,37.5,Tracheophyta; Eucalyptus L'Hér.; Magnoliopsida; Vitis vinifera L.
2001,2001-06-06,Lisboa,Sintra,Algueirão-Mem Martins,Algueirão-Mem Martins,38.7977037,-9.341033451942735,NC,169.0,2001-06-06T23:00,15.9,79,12.3,14.5,0.0,0.0,0.0,0.0,0,1018.4,998.3,0,0,0,0,0.02,0.38,14.8,27.6,342,348,28.8,17.7,20.0,18.6,15.4,0.151,0.225,0.284,0.363,0,0.0,0.0,0.0,0.0,0.0,0.0,0.0,0.0,0.0,0.0,0.0,0.0,0.0,Tracheophyta; Magnoliopsida; Pinales; 
2001,2001-06-04,Lisboa,Sintra,Colares,Pinhal da Nazaré,38.8147336,-9.4629805,NC,17.0,2001-06-04T17:00,20.1,70,14.4,18.2,0.0,0.0,0.0,0.0,1,1023.3,1021.3,28,0,0,92,0.31,0.71,23.0,29.8,331,333,38.2,29.4,23.4,20.4,16.3,0.077,0.206,0.274,0.379,1,3600.0,472.8,329.9,142.9,620.5,472.8,706.6,546.0,381.0,165.0,620.5,546.0,816.0,Tracheophyta; Magnoliopsida; Pinus pinaster Aiton; Pinales; Pinus pinea L.; Eucalyptus L'Hér.; Vitis vinifera L.; Acacia Mill.; 
2001,2001-11-15,Lisboa,Alenquer,Vila Verde dos Francos,VILA VERDE DOS FRANCOS,39.15514575,-9.115868171322164,NC,179.0,2001-11-15T16:00,11.3,39,-2.0,6.0,0.0,0.0,0.0,0.0,0,1019.1,997.5,4,0,0,15,0.18,0.81,20.0,27.7,26,26,37.8,13.4,12.2,15.3,19.7,0.18,0.252,0.24,0.314,1,3600.0,206.5,162.0,44.5,723.6,206.5,313.1,274.0,215.0,59.0,723.6,274.0,415.5,Tracheophyta; Magnoliopsida; Vitis vinifera L.; Olea europaea L.
2001,2001-12-05,Lisboa,Sintra,Almargem do Bispo,Covas de Ferro,38.8491202,-9.264334778649603,NC,283.0,2001-12-05T16:00,15.1,64,8.3,13.3,0.0,0.0,0.0,0.0,0,1027.8,994.0,0,0,0,0,0.12,0.62,9.0,15.6,37,40,20.5,14.0,10.7,12.6,17.2,0.252,0.267,0.255,0.314,1,3600.0,168.8,128.5,40.4,664.8,168.8,272.2,230.0,175.0,55.0,664.8,230.0,370.8,Tracheophyta; Magnoliopsida; Pinus pinaster Aiton; Eucalyptus L'Hér.; Vitis vinifera L.; 
2001,2001-09-20,Lisboa,Loures,Lousa,LOUSA,38.8726888,-9.210574,NC,128.0,2001-09-20T19:00,19.0,70,13.5,19.0,0.0,0.0,0.0,0.0,1,1011.9,996.9,28,0,20,52,0.04,0.66,7.9,10.2,223,222,15.5,23.0,23.7,23.5,21.9,0.089,0.154,0.209,0.324,0,29.76,0.0,0.0,0.0,0.0,0.0,0.0,15.0,6.0,9.0,65.2,15.0,65.8,Tracheophyta; Magnoliopsida; Pinus pinaster Aiton; Eucalyptus L'Hér.; Pinales; 
2001,2001-12-06,Lisboa,Cascais,Parede,PAREDE,38.6932444,-9.355054025521005,NC,55.0,2001-12-06T18:00,14.2,76,10.0,13.1,0.0,0.0,0.0,0.0,1,1024.0,1017.3,39,0,24,83,0.04,0.39,8.0,10.2,126,135,13.0,13.6,13.3,14.6,18.3,0.287,0.297,0.268,0.319,0,0.0,0.0,0.0,0.0,0.0,0.0,0.0,1.0,0.0,1.0,0.0,1.0,12.2,Magnoliopsida; Tracheophyta; Pinus pinea L.; Pinus pinaster Aiton; 
2001,2001-11-17,Setúbal,Seixal,Aldeia de Paio Pires,ALDEIA DE PAIO PIRES,38.6236478,-9.083138906923136,NC,19.0,2001-11-17T09:00,10.6,79,7.1,7.4,0.0,0.0,0.0,0.0,3,1020.1,1017.8,96,43,49,92,0.06,0.27,16.7,23.5,123,126,25.9,10.6,11.9,16.0,20.2,0.146,0.173,0.153,0.2,1,3444.97,123.6,46.9,76.7,174.8,123.6,375.2,87.0,33.0,54.0,174.8,87.0,264.2,Tracheophyta; Magnoliopsida; Pinus pinaster Aiton
2001,2001-11-12,Leiria,Nazaré,Nazaré,FANHAIS,39.619967200000005,-8.990062195301084,NC,48.0,2001-11-12T17:00,13.4,67,7.4,9.7,0.0,0.0,0.0,0.0,0,1020.9,1015.1,3,0,0,9,0.09,0.51,20.5,32.1,357,357,35.3,14.4,13.5,16.4,19.6,0.118,0.17,0.154,0.202,1,3268.49,42.0,27.5,14.5,315.4,39.8,78.4,107.0,70.0,37.0,463.9,107.0,199.6,Pinus pinaster Aiton; Tracheophyta; Eucalyptus L'Hér.
2001,2001-10-29,Santarém,Tomar,Carregueiros,Vale de Figueira,39.624166,-8.4412078,NC,147.0,2001-10-29T14:00,23.3,57,14.3,22.4,0.0,0.0,0.0,0.0,1,1019.7,1002.6,39,0,17,95,0.28,1.22,15.5,21.4,121,123,33.8,20.8,18.0,18.3,21.5,0.344,0.34,0.259,0.314,1,3600.0,337.9,95.7,242.2,182.1,337.9,729.0,360.0,102.0,258.0,182.1,360.0,776.7,Olea europaea L.; Pinus pinaster Aiton; Tracheophyta; Magnoliopsida; Quercus rotundifolia Lam.
2001,2001-11-08,Leiria,Alcobaça,São Martinho do Porto,Serra de Mangues,39.5219543,-9.120685007004628,NC,40.0,2001-11-08T21:00,14.6,81,11.4,10.6,0.0,0.0,0.0,0.0,2,1020.8,1016.0,59,32,0,100,0.04,0.32,30.9,46.4,352,353,52.2,14.6,16.5,18.0,20.3,0.141,0.182,0.161,0.208,0,0.0,0.0,0.0,0.0,0.0,0.0,0.0,0.0,0.0,0.0,0.0,0.0,0.0,Tracheophyta; Vitis vinifera L.; Magnoliopsida; Eucalyptus L'Hér.; Pinus pinaster Aiton
2001,2001-11-13,Santarém,Chamusca,Vale de Cavalos,VALE DE CAVALOS,39.2911403,-8.516894447432328,NC,33.0,2001-11-13T15:00,16.9,58,8.6,13.3,0.0,0.0,0.0,0.0,3,1019.2,1015.2,96,86,1,61,0.21,0.81,22.1,30.1,344,345,38.9,17.2,13.0,16.4,20.9,0.221,0.267,0.232,0.303,1,3600.0,255.9,140.5,115.4,385.5,255.9,509.4,295.0,162.0,133.0,385.5,295.0,587.2,Tracheophyta; Magnoliopsida; Quercus suber L.; Pinus pinea L.
2001,2001-11-14,Santarém,Tomar,Serra,Bugarrel,39.5997966,-8.3005954,NC,318.0,2001-11-14T15:00,13.1,40,-0.2,8.2,0.0,0.0,0.0,0.0,0,1021.4,983.5,0,0,0,0,0.24,0.91,19.0,26.7,27,27,41.0,14.3,11.4,14.2,19.7,0.24,0.284,0.294,0.313,1,3600.0,348.3,288.7,59.6,814.5,348.3,495.4,403.0,334.0,69.0,814.5,403.0,573.2,Olea europaea L.; Magnoliopsida; Tracheophyta; Quercus L.; Pinus pinaster Aiton; ; Eucalyptus L'Hér.
2001,2001-11-03,Lisboa,Sintra,Almargem do Bispo,TAPADA,38.8239901,-9.2769278,NC,281.0,2001-11-03T01:00,12.8,75,8.5,11.2,0.0,0.0,0.0,0.0,0,1023.5,989.8,19,14,0,22,0.01,0.37,8.2,18.7,75,89,14.0,13.1,16.4,17.9,19.8,0.289,0.319,0.254,0.317,0,0.0,0.0,0.0,0.0,0.0,0.0,0.0,0.0,0.0,0.0,0.0,0.0,0.0,Tracheophyta; Magnoliopsida; Pinus pinaster Aiton; Eucalyptus L'Hér.; Vitis vinifera L.; 
2001,2001-11-03,Leiria,Caldas da Rainha,Foz do Arelho,Serra do Bouro,39.4075398,-9.1560612,NC,27.0,2001-11-03T15:00,20.1,67,13.9,19.6,0.0,0.0,0.0,0.0,1,1022.2,1019.0,36,36,0,12,0.23,0.77,12.7,17.2,115,116,24.8,21.0,17.7,18.8,20.6,0.156,0.196,0.149,0.207,1,3600.0,314.7,208.3,106.4,514.0,314.7,563.6,358.0,237.0,121.0,514.0,358.0,641.1,Tracheophyta; Eucalyptus L'Hér.; Magnoliopsida; Pinus pinaster Aiton
2001,2001-11-09,Lisboa,Torres Vedras,Freiria,Colaria,39.0246473,-9.3198387,NC,62.0,2001-11-09T19:00,11.4,49,1.0,4.4,0.0,0.0,0.0,0.0,0,1019.6,1012.0,1,0,0,4,0.13,0.69,34.7,48.5,15,15,58.0,12.9,15.8,18.3,20.7,0.246,0.292,0.254,0.322,0,0.0,0.0,0.0,0.0,0.0,0.0,0.0,0.0,0.0,0.0,0.0,0.0,0.0,Vitis vinifera L.; Magnoliopsida; Tracheophyta; Eucalyptus L'Hér.; 
2001,2001-06-12,Lisboa,Amadora,Falagueira,AMADORA,38.7613137,-9.2259842,NC,127.0,2001-06-12T15:00,21.4,52,11.2,20.7,0.0,0.0,0.0,0.0,0,1018.7,1003.8,11,0,6,24,0.51,1.22,17.8,21.6,312,314,33.5,25.8,20.7,18.9,16.0,0.192,0.215,0.277,0.358,1,3600.0,798.7,656.0,142.7,792.6,798.7,1097.7,845.0,694.0,151.0,792.6,845.0,1161.3,Tracheophyta; 
2001,2001-11-14,Lisboa,Mafra,Carvoeira,CARVOEIRA,38.94035695,-9.39838089157741,NC,90.0,2001-11-14T13:00,15.1,47,4.0,9.8,0.0,0.0,0.0,0.0,0,1022.3,1011.5,0,0,0,0,0.31,0.91,26.7,34.0,27,28,45.4,17.0,14.4,16.5,20.3,0.206,0.275,0.259,0.327,1,3600.0,553.1,473.2,79.9,890.8,553.1,742.6,561.0,480.0,81.0,890.8,561.0,753.2,Vitis vinifera L.; Magnoliopsida; Eucalyptus L'Hér.; Tracheophyta; Pinus pinea L.; ; Pinus pinaster Aiton
2001,2001-09-15,Lisboa,Torres Vedras,Carvoeira,Pinheiro,39.0862473,-9.167073173503926,NC,165.0,2001-09-15T19:00,23.1,56,13.8,22.4,0.0,0.0,0.0,0.0,0,1012.8,993.7,0,0,0,0,0.1,1.26,13.7,24.0,346,352,22.7,27.4,24.9,23.3,21.5,0.082,0.153,0.209,0.327,0,796.86,0.0,0.0,0.0,0.0,0.0,0.0,28.0,15.0,13.0,142.7,28.0,83.3,Vitis vinifera L.; Magnoliopsida; Eucalyptus L'Hér.; Tracheophyta; Pinus pinea L.; 
2001,2001-11-14,Leiria,Alcobaça,Vimeiro,VIMEIRO,39.4753123,-9.014840393780856,NC,113.0,2001-11-14T18:00,12.3,60,4.8,8.1,0.0,0.0,0.0,0.0,0,1022.9,1009.2,0,0,0,0,0.08,0.57,20.2,34.3,3,4,33.5,13.2,14.2,15.9,19.8,0.172,0.23,0.211,0.282,0,0.0,0.0,0.0,0.0,0.0,0.0,0.0,4.0,1.0,3.0,16.1,4.0,26.0,Tracheophyta; Vitis vinifera L.; Olea europaea L.; Magnoliopsida
2001,2001-11-02,Lisboa,Mafra,Mafra,Senhora do Socorro,38.96434055,-9.340462306966607,NC,88.0,2001-11-02T09:00,15.8,62,8.6,12.8,0.0,0.0,0.0,0.0,0,1023.3,1012.7,8,0,0,28,0.13,0.68,18.5,30.0,82,84,30.6,15.9,17.6,19.1,20.8,0.31,0.329,0.251,0.323,1,3600.0,243.5,140.5,103.0,439.9,243.5,443.8,182.0,105.0,77.0,439.9,182.0,331.7,Magnoliopsida; Pinus pinaster Aiton; Tracheophyta; Eucalyptus L'Hér.
2001,2001-11-10,Lisboa,Torres Vedras,Torres Vedras (são Pedro E São Tiago),TORRES VEDRAS,39.09299855,-9.25866085,NC,33.0,2001-11-10T12:00,12.6,42,0.1,5.7,0.0,0.0,0.0,0.0,0,1021.2,1017.2,0,0,0,0,0.29,0.85,32.7,42.3,25,26,57.2,14.5,13.8,18.0,20.5,0.23,0.284,0.249,0.322,1,3600.0,563.6,476.9,86.7,865.5,563.6,768.8,546.0,462.0,84.0,865.5,546.0,744.7,Tracheophyta; Magnoliopsida
2001,2001-11-14,Lisboa,Alenquer,Vila Verde dos Francos,VILA VERDE DOS FRANCOS,39.15514575,-9.115868171322164,NC,179.0,2001-11-14T18:00,11.7,60,4.2,7.8,0.0,0.0,0.0,0.0,0,1022.6,1000.9,0,0,0,0,0.08,0.55,17.3,30.6,360,2,28.8,12.7,13.7,15.5,19.8,0.186,0.255,0.24,0.314,0,0.0,0.0,0.0,0.0,0.0,0.0,0.0,4.0,1.0,3.0,15.5,4.0,29.5,Tracheophyta; Magnoliopsida; Vitis vinifera L.; Olea europaea L.
2001,2001-09-16,Lisboa,Oeiras,Barcarena,BARCARENA,38.7155799,-9.2774701,NC,51.0,2001-09-16T20:00,21.3,72,16.1,21.8,0.0,0.0,0.0,0.0,0,1015.5,1009.5,0,0,0,0,0.04,0.71,11.2,18.6,312,328,18.0,23.8,24.4,22.1,20.7,0.132,0.165,0.221,0.33,0,0.0,0.0,0.0,0.0,0.0,0.0,0.0,0.0,0.0,0.0,0.0,0.0,0.0,Tracheophyta; Magnoliopsida; Pinus pinea L.; Vitis vinifera L.; Eucalyptus L'Hér.; Olea europaea L.; Pinus pinaster Aiton
2001,2001-11-20,Lisboa,Mafra,Santo Estêvão Das Galés,SANTO ESTEVÃO DAS GALÉS,38.8972643,-9.2520369803897,NC,298.0,2001-11-20T14:00,14.2,48,3.4,11.1,0.0,0.0,0.0,0.0,0,1023.1,987.6,0,0,0,0,0.26,0.84,11.2,14.8,33,34,25.9,14.5,10.6,13.6,18.6,0.262,0.262,0.255,0.315,1,3600.0,459.0,386.1,72.9,849.4,459.0,637.0,491.0,413.0,78.0,849.4,491.0,681.4,Tracheophyta; Pinales; Eucalyptus L'Hér.; Pinus pinaster Aiton
2001,2001-11-05,Lisboa,Alenquer,Vila Verde dos Francos,VILA VERDE DOS FRANCOS,39.15514575,-9.115868171322164,NC,179.0,2001-11-05T15:00,19.5,54,10.0,16.4,0.0,0.0,0.0,0.0,2,1014.7,993.8,57,36,0,82,0.23,1.03,21.3,29.1,64,64,41.0,19.1,16.6,17.9,20.3,0.241,0.29,0.239,0.315,1,3003.68,222.0,64.1,157.9,160.1,222.0,556.8,253.0,73.0,180.0,160.1,253.0,634.6,Tracheophyta; Magnoliopsida; Vitis vinifera L.; Olea europaea L.
2001,2001-11-21,Lisboa,Cadaval,Lamas,Póvoa,39.22942645,-9.052506814312228,NC,137.0,2001-11-21T15:00,14.8,46,3.2,10.8,0.0,0.0,0.0,0.0,0,1024.2,1007.7,0,0,0,0,0.23,0.91,16.3,21.6,45,46,32.0,15.3,11.3,14.1,19.4,0.183,0.239,0.24,0.313,1,3600.0,339.2,277.7,61.4,804.7,339.2,483.8,392.0,321.0,71.0,804.7,392.0,559.2,Eucalyptus L'Hér.; Magnoliopsida; Tracheophyta; Pinales; Vitis vinifera L.; Olea europaea L.; Pinus pinaster Aiton; Castanea sativa Mill.; 
2001,2001-11-23,Lisboa,Alenquer,Cabanas de Torres,CABANAS DE TORRES,39.15626395,-9.06018891782175,NC,168.0,2001-11-23T00:00,8.9,68,3.3,5.1,0.0,0.0,0.0,0.0,0,1023.4,1002.8,0,0,0,0,0.03,0.36,15.0,31.1,46,53,26.3,8.3,10.9,13.7,19.0,0.178,0.237,0.24,0.313,0,0.0,0.0,0.0,0.0,0.0,0.0,0.0,0.0,0.0,0.0,0.0,0.0,0.0,Tracheophyta; Magnoliopsida; Olea europaea L.; Eucalyptus L'Hér.
2001,2001-11-11,Lisboa,Loures,Loures,LOURES,38.8444686,-9.206289225745532,NC,88.0,2001-11-11T13:00,10.8,43,-1.3,7.1,0.0,0.0,0.0,0.0,0,1019.5,1008.8,0,0,0,0,0.28,0.74,11.3,13.4,338,340,20.5,13.9,12.5,17.4,20.1,0.265,0.296,0.263,0.316,1,3600.0,586.1,505.3,80.8,930.5,586.1,758.0,595.0,513.0,82.0,930.5,595.0,769.6,Tracheophyta; Quercus suber L.; Magnoliopsida
2001,2001-11-07,Santarém,Santarém,Alcanede,ALCANEDE,39.4171807,-8.821452616379318,NC,136.0,2001-11-07T11:00,18.3,57,9.7,15.4,0.0,0.0,0.0,0.0,0,1023.6,1007.4,0,0,0,0,0.28,0.9,18.9,25.8,81,82,34.6,17.3,15.1,17.8,20.7,0.274,0.29,0.265,0.319,1,3600.0,499.0,413.3,85.7,796.6,499.0,722.8,460.0,381.0,79.0,796.6,460.0,666.3,Olea europaea L.; Tracheophyta; Magnoliopsida; Eucalyptus L'Hér.
2001,2001-11-23,Lisboa,Sobral de Monte Agraço,Sobral de Monte Agraço,Casal Catarino,39.01346065,-9.159639792999531,NC,184.0,2001-11-23T14:00,16.2,36,1.0,11.7,0.0,0.0,0.0,0.0,0,1021.5,999.6,0,0,0,0,0.31,1.18,17.3,22.4,42,44,31.3,15.5,11.4,13.8,19.0,0.216,0.252,0.251,0.315,1,3600.0,468.0,397.0,71.0,893.1,468.0,623.7,501.0,425.0,76.0,893.1,501.0,667.7,Vitis vinifera L.; Tracheophyta
2001,2001-11-14,Santarém,Ourém,Nossa Senhora das Misericórdias,OUREM,39.6422696,-8.5917408,NC,318.0,2001-11-14T21:00,7.4,69,2.0,4.3,0.0,0.0,0.0,0.0,0,1024.4,985.6,0,0,0,0,0.02,0.32,9.4,23.8,18,27,20.2,8.5,11.7,14.4,19.4,0.222,0.269,0.272,0.316,0,0.0,0.0,0.0,0.0,0.0,0.0,0.0,0.0,0.0,0.0,0.0,0.0,0.0,Eucalyptus L'Hér.; Olea europaea L.; Pinus pinaster Aiton; Tracheophyta
2001,2001-09-16,Leiria,Peniche,Atouguia da Baleia,Bolhos,39.34781665,-9.334225849608696,NC,11.0,2001-09-16T14:00,28.3,40,13.3,29.5,0.0,0.0,0.0,0.0,0,1015.3,1014.0,0,0,0,0,0.58,2.31,8.6,9.8,338,352,19.4,40.7,24.3,23.0,21.6,0.044,0.065,0.115,0.217,1,3600.0,762.8,666.6,96.2,895.9,762.8,1007.2,793.0,693.0,100.0,895.9,793.0,1047.2,Eucalyptus L'Hér.; Magnoliopsida; Tracheophyta; Pinus pinaster Aiton; Pinus pinea L.; 
2001,2001-11-11,Lisboa,Arruda dos Vinhos,Santiago dos Velhos,Carvalha,38.9389255,-9.1029104,NC,238.0,2001-11-11T15:00,10.9,44,-0.8,6.4,0.0,0.0,0.0,0.0,0,1018.0,989.3,0,0,0,0,0.22,0.73,15.1,20.5,335,336,26.3,13.4,11.1,16.0,19.5,0.239,0.292,0.271,0.326,1,3600.0,382.3,316.8,65.5,833.3,382.3,530.7,438.0,363.0,75.0,833.3,438.0,608.1,Tracheophyta; Vitis vinifera L.; Magnoliopsida; Olea europaea L.
2001,2001-09-16,Leiria,Bombarral,Vale Covo,Boa Vista,39.2542019,-9.172156,NC,69.0,2001-09-16T18:00,26.6,42,12.8,25.6,0.0,0.0,0.0,0.0,0,1015.3,1007.4,0,0,0,0,0.21,2.01,13.5,21.0,335,344,26.6,31.2,24.5,21.9,20.5,0.046,0.062,0.103,0.211,1,3600.0,103.8,74.6,29.2,562.7,103.8,179.4,181.0,130.0,51.0,562.7,181.0,312.8,Magnoliopsida; Tracheophyta; Olea europaea L.; Vitis vinifera L.
2001,2001-11-10,Santarém,Ourém,Ribeira Do Farrio,Fárrio,39.7855707,-8.5042971,NC,203.0,2001-11-10T19:00,7.6,55,-0.9,3.5,0.0,0.0,0.0,0.0,0,1019.4,994.6,1,0,1,0,0.05,0.47,12.8,27.9,349,354,25.9,9.6,12.0,16.3,19.6,0.245,0.277,0.264,0.297,0,0.0,0.0,0.0,0.0,0.0,0.0,0.0,0.0,0.0,0.0,0.0,0.0,0.0,Magnoliopsida; Olea europaea L.; Pinus pinaster Aiton; Tracheophyta; Eucalyptus L'Hér.
2001,2001-09-16,Lisboa,Cadaval,Cadaval,Adão Lobo,39.242859,-9.1026628,NC,104.0,2001-09-16T17:00,31.0,28,10.4,29.1,0.0,0.0,0.0,0.0,0,1014.5,1002.7,0,0,0,0,0.38,3.22,13.7,18.4,330,334,27.7,36.5,26.7,23.8,22.0,0.081,0.153,0.206,0.324,1,3600.0,295.0,236.2,58.8,724.7,295.0,441.2,376.0,301.0,75.0,724.7,376.0,562.3,Magnoliopsida; Eucalyptus L'Hér.; Tracheophyta; Pinales
2001,2001-11-20,Santarém,Coruche,Branca,Fazendas da Arriça,38.8376879,-8.5754342,NC,90.0,2001-11-20T13:00,15.5,45,3.7,12.3,0.0,0.0,0.0,0.0,0,1023.9,1013.1,0,0,0,0,0.29,0.96,11.6,15.4,36,37,28.1,15.8,10.3,14.0,19.8,0.114,0.158,0.142,0.184,1,3600.0,524.5,445.8,78.7,874.5,524.5,714.3,533.0,453.0,80.0,874.5,533.0,725.9,Olea europaea L.; Tracheophyta; Magnoliopsida; Vitis vinifera L.; Quercus L.; Pinales; ; Pinus pinea L.; Pinus pinaster Aiton; Quercus suber L.
2001,2001-11-13,Lisboa,Torres Vedras,Maxial,Aldeia Grande,39.1517342,-9.1570202,NC,80.0,2001-11-13T02:00,11.7,87,9.5,8.2,0.0,0.0,0.0,0.0,0,1022.4,1012.6,0,0,0,0,0.02,0.18,23.3,34.6,8,8,35.6,11.2,13.0,16.4,20.1,0.186,0.251,0.23,0.304,0,0.0,0.0,0.0,0.0,0.0,0.0,0.0,0.0,0.0,0.0,0.0,0.0,0.0,Eucalyptus L'Hér.; Tracheophyta; Magnoliopsida; Vitis vinifera L.; Pinales; Pinus pinaster Aiton; 
2001,2001-11-07,Lisboa,Mafra,Enxara do Bispo,SENHORA DO SOCORRO,38.9913696,-9.226112636489727,NC,208.0,2001-11-07T18:00,17.6,68,11.6,16.5,0.0,0.0,0.0,0.0,0,1021.5,996.9,0,0,0,0,0.06,0.65,11.3,24.2,53,62,21.6,17.2,16.9,17.7,20.1,0.267,0.295,0.251,0.317,0,0.0,0.0,0.0,0.0,0.0,0.0,0.0,8.0,3.0,5.0,39.6,8.0,45.2,Tracheophyta; Magnoliopsida
2001,2001-09-16,Lisboa,Arruda dos Vinhos,Arruda dos Vinhos,Lapão,39.0144861,-9.0938815,NC,157.0,2001-09-16T22:00,22.8,46,10.7,21.8,0.0,0.0,0.0,0.0,0,1015.6,997.4,0,0,0,0,0.07,1.49,8.9,22.0,339,358,17.3,24.4,26.8,23.9,22.0,0.081,0.152,0.206,0.321,0,0.0,0.0,0.0,0.0,0.0,0.0,0.0,0.0,0.0,0.0,0.0,0.0,0.0,Vitis vinifera L.; Tracheophyta; Magnoliopsida
2001,2001-11-25,Lisboa,Torres Vedras,Dois Portos,Furadouro,39.0301727,-9.2104244,NC,204.0,2001-11-25T16:00,14.7,61,7.4,12.7,0.0,0.0,0.0,0.0,0,1019.0,994.7,0,0,0,0,0.13,0.65,9.2,12.9,339,342,20.9,15.2,11.8,13.5,18.6,0.202,0.247,0.25,0.315,1,3600.0,181.1,139.0,42.1,685.6,181.1,284.6,245.0,188.0,57.0,685.6,245.0,385.0,Vitis vinifera L.; Eucalyptus L'Hér.; Magnoliopsida; Tracheophyta; 
2001,2001-11-22,Santarém,Salvaterra de Magos,Muge,MUGE,39.1044624,-8.7130345,NC,12.0,2001-11-22T13:00,15.3,50,4.8,11.2,0.0,0.0,0.0,0.0,1,1022.3,1020.8,30,0,0,99,0.25,0.87,19.1,26.8,41,42,35.3,14.5,11.2,14.3,19.7,0.189,0.214,0.192,0.261,1,3600.0,379.0,171.3,207.7,343.0,379.0,700.3,385.0,174.0,211.0,343.0,385.0,711.5,Tracheophyta; Vitis vinifera L.; Pinus pinaster Aiton; Magnoliopsida
2001,2001-11-13,Lisboa,Mafra,Carvoeira,Foz do Lisandro,38.942756,-9.3965784,NC,66.0,2001-11-13T18:00,14.5,76,10.3,10.5,0.0,0.0,0.0,0.0,1,1020.4,1012.4,38,42,0,0,0.07,0.4,28.1,39.6,360,1,44.6,14.8,14.9,16.7,20.5,0.208,0.278,0.259,0.327,0,0.0,0.0,0.0,0.0,0.0,0.0,0.0,3.0,1.0,2.0,14.7,3.0,34.3,Vitis vinifera L.; Magnoliopsida; Eucalyptus L'Hér.; Tracheophyta; Pinus pinea L.; 
2001,2001-11-08,Lisboa,Sintra,São João das Lampas,Peroleite,38.9105453,-9.3892826,NC,120.0,2001-11-08T01:00,15.1,71,9.9,13.3,0.0,0.0,0.0,0.0,0,1022.7,1008.3,0,0,0,0,0.03,0.5,12.1,23.0,53,63,20.5,14.3,16.7,18.2,20.5,0.277,0.306,0.258,0.328,0,0.0,0.0,0.0,0.0,0.0,0.0,0.0,0.0,0.0,0.0,0.0,0.0,0.0,Tracheophyta; Magnoliopsida; Pinus pinaster Aiton; Pinus pinea L.; Vitis vinifera L.; Pinales; Olea europaea L.; 
2001,2001-11-25,Lisboa,Torres Vedras,Torres Vedras (são Pedro E São Tiago),Louriceira,39.09299855,-9.25866085,NC,33.0,2001-11-25T19:00,12.3,78,8.7,9.8,0.0,0.0,0.0,0.0,0,1020.2,1016.2,0,0,0,0,0.02,0.31,14.8,24.5,357,358,23.0,12.3,13.3,14.7,19.3,0.189,0.243,0.249,0.32,0,0.0,0.0,0.0,0.0,0.0,0.0,0.0,0.0,0.0,0.0,0.0,0.0,0.0,Tracheophyta; Magnoliopsida
2001,2001-07-07,Lisboa,Loures,Unhos,Catujal,38.8169449,-9.124492,NC,129.0,2001-07-07T15:00,22.5,60,14.4,21.8,0.0,0.0,0.0,0.0,2,1019.6,1004.5,78,87,0,0,0.42,1.09,18.4,24.1,318,321,37.1,25.5,23.0,22.7,21.0,0.243,0.281,0.321,0.368,1,3600.0,614.6,345.7,269.0,415.5,614.6,1100.8,649.0,365.0,284.0,415.5,649.0,1162.4,Tracheophyta; Olea europaea L.; Magnoliopsida; 
2001,2001-11-22,Lisboa,Arruda dos Vinhos,Arranhó,Moinho de a do Baco,38.9533255,-9.1349729,NC,239.0,2001-11-22T17:00,12.7,62,5.7,9.5,0.0,0.0,0.0,0.0,1,1021.7,993.0,28,1,0,90,0.08,0.55,15.1,27.2,33,39,28.8,11.8,10.5,13.2,18.8,0.224,0.253,0.251,0.311,1,605.53,20.0,3.8,16.2,43.7,17.8,56.1,63.0,12.0,51.0,84.8,63.0,176.5,Tracheophyta; Magnoliopsida
2001,2001-06-07,Lisboa,Cascais,Estoril,Alto dos Gaios,38.71502635,-9.456762952650216,NC,68.0,2001-06-07T15:00,20.5,69,14.6,20.5,0.0,0.0,0.0,0.0,0,1014.8,1006.8,0,0,0,0,0.47,0.74,21.6,26.9,323,328,35.6,28.7,21.3,19.4,16.3,0.09,0.171,0.218,0.309,1,3600.0,838.8,729.2,109.6,884.5,838.8,1094.9,888.0,772.0,116.0,884.5,888.0,1159.1,Pinus pinea L.; Tracheophyta; Magnoliopsida; Pinus pinaster Aiton
2001,2001-11-08,Santarém,Alcanena,Minde,Covão do Coelho,39.5305102,-8.6736294,NC,345.0,2001-11-08T16:00,16.2,64,9.3,12.9,0.0,0.0,0.0,0.0,0,1020.4,979.8,0,0,0,1,0.17,0.67,20.9,32.0,331,334,36.0,17.2,14.8,16.4,19.2,0.258,0.285,0.261,0.314,1,3600.0,213.9,167.5,46.4,706.9,213.9,330.3,281.0,220.0,61.0,706.9,281.0,433.8,Magnoliopsida; Tracheophyta; Olea europaea L.; Eucalyptus L'Hér.; Pinus pinaster Aiton; Quercus L.; 
2001,2001-11-25,Santarém,Santarém,Alcanede,ALCANEDE,39.4171807,-8.821452616379318,NC,136.0,2001-11-25T13:00,15.8,52,5.8,14.4,0.0,0.0,0.0,0.0,0,1020.1,1003.9,0,0,0,0,0.27,0.87,2.4,3.1,333,339,13.7,16.1,10.4,13.4,19.1,0.195,0.243,0.264,0.317,1,3600.0,498.6,420.7,77.8,864.3,498.6,683.5,506.0,427.0,79.0,864.3,506.0,693.6,Olea europaea L.; Tracheophyta; Magnoliopsida; Eucalyptus L'Hér.
2001,2001-09-17,Setúbal,Montijo,Alto-estanqueiro-jardia,Alto do Estanqueiro,38.6837115,-8.944141604645626,NC,19.0,2001-09-17T13:00,31.5,25,9.2,30.9,0.0,0.0,0.0,0.0,0,1012.3,1010.1,0,0,0,0,0.68,3.46,13.4,17.1,301,305,31.3,36.1,24.7,23.3,21.5,0.055,0.059,0.071,0.185,1,3600.0,827.5,718.1,109.4,901.7,827.5,1078.7,832.0,722.0,110.0,901.7,832.0,1084.6,Tracheophyta; Magnoliopsida; Pinus pinea L.; Quercus suber L.
2001,2001-11-22,Lisboa,Mafra,Carvoeira,Fonte Boa da Brincosa,38.9414342,-9.3963656,NC,65.0,2001-11-22T19:00,13.1,70,7.7,9.4,0.0,0.0,0.0,0.0,1,1022.1,1014.2,24,0,0,80,0.05,0.46,21.1,32.9,30,34,33.8,12.0,12.6,14.9,19.7,0.212,0.256,0.259,0.326,0,0.0,0.0,0.0,0.0,0.0,0.0,0.0,0.0,0.0,0.0,0.0,0.0,0.0,Vitis vinifera L.; Magnoliopsida; Eucalyptus L'Hér.; Tracheophyta; Pinus pinea L.; ; Pinus pinaster Aiton
2001,2001-11-16,Leiria,Caldas da Rainha,Nadadouro,NADADOURO,39.4141029,-9.1885392,NC,7.0,2001-11-16T14:00,12.1,54,3.1,10.1,0.0,0.0,0.0,0.0,1,1019.7,1018.8,22,1,0,71,0.21,0.65,3.2,3.6,27,37,10.8,17.6,13.0,16.2,20.0,0.09,0.159,0.148,0.206,1,3600.0,413.2,272.1,141.2,591.2,413.2,643.8,442.0,291.0,151.0,591.2,442.0,688.6,Eucalyptus L'Hér.; Tracheophyta; Magnoliopsida
2001,2001-11-09,Lisboa,Sintra,São João das Lampas,SÃO JOÃO DAS LAMPAS,38.879658,-9.3970359,NC,130.0,2001-11-09T14:00,12.6,48,1.8,4.7,0.0,0.0,0.0,0.0,0,1016.7,1001.0,3,3,0,0,0.27,0.76,41.4,54.4,360,0,72.4,15.7,15.5,17.9,20.3,0.252,0.299,0.259,0.328,1,3600.0,487.6,404.1,83.5,820.0,487.6,687.3,520.0,431.0,89.0,820.0,520.0,733.0,Tracheophyta; Magnoliopsida; Pinus pinaster Aiton; Pinus pinea L.; Vitis vinifera L.; Pinales; Olea europaea L.; 
2001,2001-06-16,Lisboa,Sintra,Montelavar,Rebanque,38.8779543,-9.3228258,NC,162.0,2001-06-16T17:00,19.1,60,11.2,16.0,0.0,0.0,0.0,0.0,0,1023.4,1004.2,0,0,0,0,0.34,0.88,25.3,32.8,337,339,44.3,26.5,21.7,19.4,16.4,0.099,0.196,0.268,0.367,1,3600.0,518.8,429.2,89.7,786.2,518.8,723.4,596.0,493.0,103.0,786.2,596.0,831.0,Tracheophyta; Magnoliopsida; Pinus pinaster Aiton; Eucalyptus L'Hér.; Vitis vinifera L.; 
2001,2001-09-17,Lisboa,Cadaval,Lamas,Murteira,39.2125463,-9.072057,NC,134.0,2001-09-17T22:00,18.3,77,14.2,18.4,0.0,0.0,0.0,0.0,0,1011.2,995.5,0,0,0,0,0.01,0.49,8.5,17.2,306,323,18.0,21.2,26.0,23.8,21.8,0.081,0.152,0.206,0.324,0,0.0,0.0,0.0,0.0,0.0,0.0,0.0,0.0,0.0,0.0,0.0,0.0,0.0,Eucalyptus L'Hér.; Magnoliopsida; Tracheophyta; Pinales; Vitis vinifera L.; Olea europaea L.; Pinus pinaster Aiton; Castanea sativa Mill.; 
2001,2001-11-24,Lisboa,Sintra,Pêro Pinheiro,Quarteira,38.83977325,-9.319917216660787,NC,145.0,2001-11-24T18:00,14.1,65,7.7,11.7,0.0,0.0,0.0,0.0,0,1021.3,1003.9,0,0,0,0,0.06,0.56,11.7,20.8,18,30,17.6,13.6,13.4,14.5,18.7,0.242,0.268,0.259,0.317,0,0.0,0.0,0.0,0.0,0.0,0.0,0.0,2.0,1.0,1.0,17.7,2.0,18.3,Tracheophyta; Magnoliopsida; Pinus pinaster Aiton; Eucalyptus L'Hér.; Vitis vinifera L.; 
2001,2001-06-11,Lisboa,Amadora,Falagueira,AMADORA,38.7613137,-9.2259842,NC,127.0,2001-06-11T18:00,20.8,66,14.3,18.4,0.0,0.0,0.0,0.0,1,1018.7,1003.8,30,0,0,100,0.24,0.83,26.6,37.2,330,332,39.6,23.7,20.9,18.9,16.0,0.204,0.216,0.278,0.358,1,3600.0,288.2,181.2,107.0,503.9,288.2,477.1,361.0,227.0,134.0,503.9,361.0,597.6,Tracheophyta; 
2001,2001-11-26,Lisboa,Mafra,Mafra,Senhora do Socorro,38.96434055,-9.340462306966607,NC,88.0,2001-11-26T11:00,14.0,81,10.8,12.1,0.0,0.0,0.0,0.0,2,1019.5,1008.9,60,33,0,100,0.15,0.3,14.3,17.8,342,342,25.9,13.7,12.3,14.5,19.2,0.2,0.248,0.253,0.32,1,3600.0,368.2,208.3,159.8,461.9,368.2,633.5,334.0,189.0,145.0,461.9,334.0,574.7,Magnoliopsida; Pinus pinaster Aiton; Tracheophyta; Eucalyptus L'Hér.
2001,2001-11-10,Santarém,Santarém,Abitureiras,ABITUREIRAS,39.3172231,-8.783114,NC,138.0,2001-11-10T10:00,9.9,57,1.7,4.6,0.0,0.0,0.0,0.0,0,1022.6,1005.7,0,0,0,0,0.17,0.53,23.5,33.7,5,7,42.5,10.6,11.8,16.8,19.8,0.239,0.279,0.246,0.316,1,3600.0,408.1,328.4,79.8,783.2,408.1,584.9,348.0,280.0,68.0,783.2,348.0,498.7,Magnoliopsida; Olea europaea L.; Vitis vinifera L.; Tracheophyta
2001,2001-11-24,Santarém,Torres Novas,Assentiz,ASSENTIZ,39.58976955,-8.507019931652195,NC,132.0,2001-11-24T15:00,17.1,44,4.8,14.4,0.0,0.0,0.0,0.0,0,1021.0,1005.3,0,0,0,0,0.23,1.09,9.8,12.7,62,61,25.2,15.9,10.8,13.2,19.2,0.211,0.252,0.269,0.313,1,3600.0,318.9,259.6,59.3,789.1,318.9,461.7,371.0,302.0,69.0,789.1,371.0,537.1,Tracheophyta; Olea europaea L.; Quercus L.; Quercus suber L.; Vitis vinifera L.; Eucalyptus L'Hér.; Pinus pinaster Aiton; Pinus pinea L.; Magnoliopsida; Pinales; 
2001,2001-11-12,Lisboa,Mafra,Igreja Nova,Penedo de Lexim,38.91323715,-9.328906889461573,NC,217.0,2001-11-12T17:00,13.2,69,7.7,10.3,0.0,0.0,0.0,0.0,0,1020.5,994.5,1,0,0,2,0.08,0.47,15.7,27.0,344,347,29.5,14.0,13.0,16.2,19.7,0.219,0.281,0.256,0.322,1,3468.83,48.6,32.3,16.4,370.3,47.6,92.2,113.0,75.0,38.0,478.8,113.0,214.3,Magnoliopsida; Tracheophyta
2001,2001-11-17,Lisboa,Mafra,São Miguel de Alcainça,Laje,38.9223722,-9.2956271,NC,234.0,2001-11-17T15:00,11.9,66,5.8,9.7,0.4,0.4,0.0,0.0,51,1018.9,990.8,93,82,32,0,0.11,0.48,8.2,10.5,151,153,21.6,13.4,11.7,15.0,19.3,0.213,0.263,0.256,0.321,1,3600.0,162.7,94.0,68.7,258.8,162.7,508.1,187.0,108.0,79.0,258.8,187.0,584.1,Tracheophyta; Vitis vinifera L.
2001,2001-11-16,Leiria,Alcobaça,Aljubarrota (São Vicente),Ataija de Cima,39.5556754,-8.9025866,NC,166.0,2001-11-16T16:00,11.5,54,2.6,8.9,0.0,0.0,0.0,0.0,3,1019.4,999.3,100,65,84,94,0.11,0.62,6.7,8.2,36,41,13.0,14.6,11.7,14.9,19.3,0.112,0.176,0.17,0.218,1,3600.0,159.8,109.0,50.8,507.4,159.8,300.7,214.0,146.0,68.0,507.4,214.0,402.6,Eucalyptus L'Hér.; Pinus pinaster Aiton; Magnoliopsida; Tracheophyta; Pinales
2001,2001-06-18,Setúbal,Almada,Charneca De Caparica,Botequim,38.6333309,-9.2022596,NC,88.0,2001-06-18T17:00,28.6,34,11.2,26.1,0.0,0.0,0.0,0.0,0,1014.8,1004.7,0,0,0,0,0.53,2.58,21.0,29.4,347,353,30.6,33.5,22.7,19.3,16.8,0.058,0.096,0.145,0.243,1,3600.0,521.9,437.6,84.4,802.6,521.9,722.3,600.0,503.0,97.0,802.6,600.0,830.3,Magnoliopsida; Tracheophyta; Eucalyptus L'Hér.; Pinus pinaster Aiton
2001,2001-11-16,Lisboa,Vila Franca de Xira,Sobralinho,Sobralinho,38.91921885,-9.0272541199494,NC,93.0,2001-11-16T19:00,11.0,60,3.6,9.3,0.0,0.0,0.0,0.0,1,1019.8,1008.5,39,14,32,24,0.0,0.52,1.4,3.3,90,96,3.6,10.7,12.1,15.5,19.4,0.359,0.38,0.371,0.412,0,0.0,0.0,0.0,0.0,0.0,0.0,0.0,0.0,0.0,0.0,0.0,0.0,0.0,Magnoliopsida; Tracheophyta; Pinales; Olea europaea L.; Pinus pinaster Aiton; Eucalyptus L'Hér.; Oryza sativa L.; Pinus pinea L.; Vitis vinifera L.; 
2001,2001-11-14,Lisboa,Sintra,Almargem do Bispo,Vale de Almornos,38.8491202,-9.264334778649603,NC,283.0,2001-11-14T17:00,12.8,51,2.8,9.0,0.0,0.0,0.0,0.0,0,1022.0,988.1,0,0,0,0,0.1,0.73,14.6,25.5,10,13,36.0,13.7,13.4,15.2,19.2,0.214,0.272,0.255,0.316,1,3340.97,44.7,30.0,14.6,344.7,42.8,83.4,110.0,74.0,36.0,483.0,110.0,205.4,Tracheophyta; Magnoliopsida; Pinus pinaster Aiton; Eucalyptus L'Hér.; Vitis vinifera L.; 
2001,2001-11-26,Lisboa,Mafra,Carvoeira,SÃO JULIÃO,38.942756,-9.3965784,NC,66.0,2001-11-26T19:00,14.1,84,11.3,13.0,0.0,0.0,0.0,0.0,3,1016.5,1008.6,100,92,94,98,0.01,0.26,9.7,16.0,312,314,18.7,13.7,13.7,14.7,19.3,0.186,0.247,0.259,0.326,0,0.0,0.0,0.0,0.0,0.0,0.0,0.0,0.0,0.0,0.0,0.0,0.0,0.0,Vitis vinifera L.; Magnoliopsida; Eucalyptus L'Hér.; Tracheophyta; Pinus pinea L.; 
2001,2001-11-29,Setúbal,Setúbal,São Lourenço,SÃO LOURENÇO,38.5375781,-9.0176938,NC,75.0,2001-11-29T17:00,15.0,73,10.3,13.9,0.0,0.0,0.0,0.0,0,1027.7,1018.6,15,0,0,50,0.05,0.46,8.2,14.2,345,353,15.5,14.8,13.5,14.6,19.0,0.188,0.176,0.15,0.2,1,2792.45,23.3,14.9,8.4,170.8,20.1,46.8,83.0,53.0,30.0,385.3,83.0,166.7,Tracheophyta; Magnoliopsida
2001,2001-09-17,Santarém,Abrantes,Pego,Vale dos Peixes \ CAS,39.4625876,-8.1493983,NC,93.0,2001-09-17T19:00,28.2,28,7.8,25.5,0.0,0.0,0.0,0.0,0,1009.4,998.8,0,0,0,0,0.19,2.77,14.6,25.7,308,313,27.7,30.9,27.9,24.6,22.4,0.049,0.059,0.082,0.197,0,220.11,0.0,0.0,0.0,0.0,0.0,0.0,18.0,9.0,9.0,97.4,18.0,66.2,Quercus suber L.; Olea europaea L.; Pinus pinaster Aiton; Tracheophyta; Magnoliopsida; Eucalyptus L'Hér.; Pinus pinea L.; Vitis vinifera L.; Pinales; 
2001,2001-11-16,Lisboa,Mafra,Mafra,Longo da Vila,38.930381,-9.3526966,NC,165.0,2001-11-16T14:00,10.9,53,1.7,8.6,0.0,0.0,0.0,0.0,1,1019.6,999.6,23,2,0,72,0.2,0.61,3.0,3.5,14,24,11.2,15.7,12.0,15.5,19.6,0.187,0.266,0.259,0.327,1,3600.0,401.5,240.5,161.0,514.1,401.5,654.5,429.0,257.0,172.0,514.1,429.0,699.3,Magnoliopsida; Tracheophyta; Eucalyptus L'Hér.; Pinales
2001,2001-11-18,Lisboa,Sintra,São João das Lampas,Magoito,38.83363195,-9.367501448128994,NC,159.0,2001-11-18T16:00,12.6,81,9.4,11.5,0.0,0.0,0.0,0.0,2,1019.8,1000.6,51,50,10,0,0.1,0.28,6.8,7.9,162,164,21.6,13.9,12.2,15.2,19.1,0.197,0.219,0.211,0.265,1,3600.0,158.7,97.8,60.9,442.6,158.7,309.3,211.0,130.0,81.0,442.6,211.0,411.3,Tracheophyta; Magnoliopsida; Pinus pinaster Aiton; Pinus pinea L.; Vitis vinifera L.; Pinales; Olea europaea L.; 
2001,2001-11-28,Lisboa,Sintra,Colares,COLARES,38.8014202,-9.4425612,NC,30.0,2001-11-28T17:00,14.6,68,8.8,12.4,0.0,0.0,0.0,0.0,0,1027.7,1024.0,0,0,0,0,0.07,0.53,13.0,20.3,3,6,23.8,14.8,14.3,15.4,19.1,0.252,0.224,0.21,0.264,1,2871.07,26.5,17.1,9.5,195.9,23.3,52.3,87.0,56.0,31.0,402.4,87.0,171.7,Tracheophyta; Magnoliopsida; Pinus pinaster Aiton; Pinales; Pinus pinea L.; Eucalyptus L'Hér.; Vitis vinifera L.; Acacia Mill.; 
2001,2001-11-14,Lisboa,Sintra,Almargem do Bispo,OLELAS,38.8342837,-9.2893402,NC,210.0,2001-11-14T18:00,12.6,56,4.0,9.1,0.0,0.0,0.0,0.0,0,1022.3,997.0,0,0,0,0,0.08,0.65,14.4,27.4,359,3,26.3,13.6,14.4,15.9,19.0,0.25,0.285,0.26,0.318,0,0.0,0.0,0.0,0.0,0.0,0.0,0.0,4.0,2.0,2.0,29.9,4.0,32.8,Tracheophyta; Magnoliopsida; Pinus pinaster Aiton; Eucalyptus L'Hér.; Vitis vinifera L.; 
2001,2001-12-02,Lisboa,Torres Vedras,Maxial,Casais de Santo António,39.130701,-9.1617079,NC,173.0,2001-12-02T16:00,13.3,64,6.7,11.6,0.0,0.0,0.0,0.0,1,1020.3,999.5,35,32,0,21,0.09,0.55,5.9,6.9,101,99,11.5,14.5,12.6,13.6,18.1,0.249,0.246,0.245,0.315,1,3600.0,106.8,38.0,68.7,198.6,106.8,269.6,146.0,52.0,94.0,198.6,146.0,368.6,Eucalyptus L'Hér.; Tracheophyta; Magnoliopsida; Vitis vinifera L.; Pinales; Pinus pinaster Aiton; 
2001,2001-11-14,Lisboa,Mafra,Carvoeira,SENHORA DO Ó DO PORTO,38.942756,-9.3965784,NC,66.0,2001-11-14T22:00,12.1,68,6.3,7.5,0.0,0.0,0.0,0.0,0,1023.2,1015.1,0,0,0,0,0.06,0.45,25.1,37.0,21,22,41.4,12.0,14.6,16.6,20.4,0.201,0.273,0.259,0.327,0,0.0,0.0,0.0,0.0,0.0,0.0,0.0,0.0,0.0,0.0,0.0,0.0,0.0,Vitis vinifera L.; Magnoliopsida; Eucalyptus L'Hér.; Tracheophyta; Pinus pinea L.; 
2001,2001-12-01,Setúbal,Sesimbra,Sesimbra (castelo),Cabo Espichel,38.4139707,-9.2221662,NC,0.0,2001-12-01T23:00,13.1,84,10.5,12.0,0.0,0.0,0.0,0.0,2,1021.2,1021.2,74,77,0,16,0.0,0.24,8.4,12.6,155,156,14.0,12.6,13.9,15.1,19.2,0.177,0.18,0.156,0.203,0,0.0,0.0,0.0,0.0,0.0,0.0,0.0,0.0,0.0,0.0,0.0,0.0,0.0,Magnoliopsida
2001,2001-09-18,Leiria,Alcobaça,Aljubarrota (Prazeres),Molianos,39.5719302,-8.9442444,NC,134.0,2001-09-18T11:00,26.0,27,5.6,23.1,0.0,0.0,0.0,0.0,1,1011.2,995.9,29,0,0,96,0.54,2.46,17.2,21.8,106,106,36.7,29.1,23.2,23.1,21.3,0.054,0.077,0.113,0.227,1,3600.0,726.2,582.0,144.2,795.5,726.2,991.4,680.0,545.0,135.0,795.5,680.0,928.4,Tracheophyta; Eucalyptus L'Hér.; Vitis vinifera L.; Magnoliopsida; Pinus pinaster Aiton
2001,2001-11-18,Lisboa,Sintra,Sintra (são Martinho),Nafarros,38.8141416,-9.4235204,NC,88.0,2001-11-18T18:00,12.3,83,9.5,11.5,0.5,0.5,0.0,0.0,53,1020.3,1009.6,38,36,9,0,0.02,0.24,4.0,4.8,153,167,18.4,12.5,12.9,15.7,19.6,0.204,0.219,0.211,0.265,0,0.0,0.0,0.0,0.0,0.0,0.0,0.0,3.0,1.0,2.0,16.1,3.0,26.2,Vitis vinifera L.; Tracheophyta; Magnoliopsida; Pinus pinea L.
2001,2001-12-03,Lisboa,Alenquer,Aldeia Galega da Merceana,ALDEIA GAVINHA,39.0875006,-9.0631004,NC,86.0,2001-12-03T19:00,9.3,89,7.5,7.8,0.0,0.0,0.0,0.0,0,1024.7,1014.1,0,0,0,0,0.0,0.13,5.8,7.1,330,345,8.6,9.8,11.7,13.8,18.8,0.24,0.246,0.245,0.311,0,0.0,0.0,0.0,0.0,0.0,0.0,0.0,0.0,0.0,0.0,0.0,0.0,0.0,Vitis vinifera L.; Tracheophyta; Magnoliopsida
2001,2001-07-08,Lisboa,Loures,Lousa,Ponte de Lousa,38.8666199,-9.221234,NC,117.0,2001-07-08T07:00,17.5,83,14.6,16.2,0.0,0.0,0.0,0.0,1,1019.6,1005.7,32,9,2,75,0.08,0.34,19.4,25.7,338,340,32.4,18.1,21.0,21.5,18.3,0.1,0.174,0.248,0.352,1,3600.0,180.2,93.8,86.5,316.6,180.2,391.9,123.0,64.0,59.0,316.6,123.0,267.4,Tracheophyta; Magnoliopsida; Pinus pinaster Aiton; Eucalyptus L'Hér.; Pinales; ; Pinus pinea L.
2001,2001-08-08,Leiria,Bombarral,Carvalhal,Quinta dos Loridos,39.2896436,-9.130338,NC,74.0,2001-08-08T16:00,24.4,63,16.9,24.7,0.0,0.0,0.0,0.0,0,1017.2,1008.6,0,0,0,0,0.43,1.13,18.8,24.4,324,326,33.5,30.3,23.8,21.6,19.1,0.091,0.128,0.184,0.3,1,3600.0,594.5,478.5,116.0,726.8,594.5,876.0,656.0,528.0,128.0,726.8,656.0,966.6,Vitis vinifera L.; Tracheophyta; Magnoliopsida; Eucalyptus L'Hér.; 
2001,2001-11-22,Lisboa,Arruda dos Vinhos,Arruda dos Vinhos,Arruda dos Vinhos,38.99119885,-9.062929029605822,NC,72.0,2001-11-22T16:00,14.9,56,6.1,11.4,0.0,0.0,0.0,0.0,1,1021.4,1012.7,30,0,0,100,0.14,0.75,17.1,27.3,35,36,33.8,13.6,11.3,14.2,19.6,0.297,0.338,0.341,0.392,1,3254.39,122.9,34.8,88.1,168.5,122.9,289.7,166.0,47.0,119.0,168.5,166.0,391.2,Vitis vinifera L.; Tracheophyta
2001,2001-12-04,Santarém,Ourém,Urqueira,Brejo Alto,39.76129555,-8.60631373788449,NC,296.0,2001-12-04T12:00,13.2,64,6.6,11.7,0.0,0.0,0.0,0.0,0,1028.8,993.2,0,0,0,0,0.22,0.54,4.0,5.2,80,78,13.0,12.1,8.4,11.9,16.7,0.238,0.244,0.254,0.297,1,3600.0,468.2,391.2,77.0,841.2,468.2,654.8,450.0,376.0,74.0,841.2,450.0,629.4,Eucalyptus L'Hér.; Magnoliopsida; Pinus pinaster Aiton
2001,2001-11-22,Santarém,Santarém,Várzea,Cortelo,39.2746459,-8.7330747,NC,60.0,2001-11-22T14:00,15.7,48,4.7,11.6,0.0,0.0,0.0,0.0,1,1022.0,1014.8,30,0,0,99,0.24,0.93,19.4,26.5,42,43,34.9,14.3,11.2,13.8,19.1,0.217,0.245,0.235,0.31,1,3600.0,329.1,132.4,196.7,300.2,329.1,618.4,353.0,142.0,211.0,300.2,353.0,663.4,Tracheophyta; Olea europaea L.; Vitis vinifera L.
2001,2001-09-18,Lisboa,Alenquer,Alenquer (triana),Carapinha,39.0490112,-9.0145622,NC,160.0,2001-09-18T23:00,19.4,56,10.5,18.6,0.0,0.0,0.0,0.0,0,1010.4,991.7,11,0,0,36,0.03,0.98,6.3,15.9,329,357,16.6,21.4,24.9,23.4,21.1,0.158,0.247,0.292,0.399,0,0.0,0.0,0.0,0.0,0.0,0.0,0.0,0.0,0.0,0.0,0.0,0.0,0.0,Tracheophyta; Magnoliopsida; Olea europaea L.; Vitis vinifera L.
2001,2001-06-18,Lisboa,Sintra,Rio de Mouro,Mercês,38.7890337,-9.3337563,NC,179.0,2001-06-18T21:00,22.1,53,12.0,20.3,0.0,0.0,0.0,0.0,0,1015.2,994.4,0,0,0,0,0.11,1.26,17.1,32.4,7,15,30.2,22.4,21.5,18.3,15.9,0.15,0.209,0.271,0.359,0,0.0,0.0,0.0,0.0,0.0,0.0,0.0,0.0,0.0,0.0,0.0,0.0,0.0,Tracheophyta; Magnoliopsida; Pinales; 
2001,2001-11-22,Leiria,Alcobaça,Moita,Leirão,39.4426757,-8.9465133,NC,197.0,2001-11-22T02:00,6.9,80,3.8,3.5,0.0,0.0,0.0,0.0,0,1024.8,1000.5,0,0,0,0,0.01,0.2,13.7,26.3,45,54,21.2,6.7,10.3,13.6,19.1,0.204,0.246,0.25,0.316,0,0.0,0.0,0.0,0.0,0.0,0.0,0.0,0.0,0.0,0.0,0.0,0.0,0.0,Pinus pinaster Aiton; Tracheophyta; Eucalyptus L'Hér.; ; Olea europaea L.; Magnoliopsida; Pinales
2001,2001-09-18,Lisboa,Lourinhã,Moita dos Ferreiros,MOITA DOS FERREIROS,39.250112,-9.223300300359313,NC,93.0,2001-09-18T23:00,19.2,66,12.7,18.4,0.0,0.0,0.0,0.0,0,1010.6,999.7,9,0,0,29,0.04,0.75,11.2,21.4,4,13,22.0,19.5,23.3,21.9,20.4,0.046,0.061,0.103,0.21,0,0.0,0.0,0.0,0.0,0.0,0.0,0.0,0.0,0.0,0.0,0.0,0.0,0.0,Vitis vinifera L.; Pinus pinea L.; Eucalyptus L'Hér.; Tracheophyta; Magnoliopsida; 
2001,2001-11-22,Lisboa,Cascais,São Domingos de Rana,TRAJOUCE,38.7368865,-9.3391658,NC,115.0,2001-11-22T14:00,14.2,57,5.7,9.6,0.0,0.0,0.0,0.0,1,1021.4,1007.5,29,0,0,96,0.2,0.7,24.1,31.6,27,29,36.7,14.1,12.7,14.9,19.0,0.277,0.285,0.267,0.32,1,3421.81,287.1,78.6,208.5,174.1,287.1,632.9,307.0,84.0,223.0,174.1,307.0,676.8,Tracheophyta; Magnoliopsida
2001,2001-12-09,Setúbal,Palmela,Quinta do Anjo,Quinta da Marquesa,38.5803261,-8.980884492896589,NC,46.0,2001-12-09T09:00,10.6,79,7.2,6.2,0.0,0.0,0.0,0.0,0,1021.0,1015.4,1,1,0,0,0.06,0.26,25.2,35.6,93,98,37.1,10.4,11.7,13.7,18.0,0.158,0.17,0.134,0.185,1,2905.9,152.9,98.6,54.2,489.0,135.3,284.4,93.0,60.0,33.0,432.9,93.0,173.0,Vitis vinifera L.; Tracheophyta; Eucalyptus L'Hér.; Magnoliopsida; Pinus pinaster Aiton; Quercus suber L.
2001,2001-11-22,Lisboa,Lourinhã,Moledo,Cezaredas,39.27903515,-9.291668879084463,NC,75.0,2001-11-22T12:00,13.3,59,5.4,9.4,0.0,0.0,0.0,0.0,1,1024.0,1014.9,29,0,0,97,0.19,0.64,19.6,24.3,36,38,31.3,13.7,11.6,14.5,19.0,0.11,0.156,0.154,0.208,1,3011.63,331.8,80.9,250.9,160.4,331.8,707.1,320.0,78.0,242.0,160.4,320.0,682.0,Magnoliopsida; Eucalyptus L'Hér.; Tracheophyta; Vitis vinifera L.; Pinales; 
2001,2001-09-19,Lisboa,Vila Franca de Xira,São João dos Montes,A-dos-Loucos,38.9354073,-9.0114846,NC,90.0,2001-09-19T22:00,18.3,76,13.9,18.9,0.0,0.0,0.0,0.0,0,1012.5,1001.9,0,0,0,0,0.0,0.51,4.3,9.7,318,329,14.8,21.8,24.3,23.1,21.1,0.241,0.268,0.305,0.419,0,0.0,0.0,0.0,0.0,0.0,0.0,0.0,0.0,0.0,0.0,0.0,0.0,0.0,Magnoliopsida; Tracheophyta; Pinus pinaster Aiton; Vitis vinifera L.; Olea europaea L.; Eucalyptus L'Hér.; Pinales; 
2001,2001-12-09,Setúbal,Almada,Charneca De Caparica,Aroeira,38.5894018,-9.1658385,NC,60.0,2001-12-09T13:00,15.9,62,8.7,12.1,0.0,0.0,0.0,0.0,0,1020.5,1013.3,0,0,0,0,0.25,0.68,23.6,30.5,97,98,40.3,15.4,12.4,13.7,17.8,0.169,0.184,0.158,0.204,1,3600.0,468.6,394.3,74.3,835.0,468.6,665.8,473.0,398.0,75.0,835.0,473.0,672.1,Tracheophyta; Eucalyptus L'Hér.; Pinus pinaster Aiton; Magnoliopsida
2001,2001-11-23,Lisboa,Arruda dos Vinhos,Arranhó,Louriceira de Baixo,38.9787778,-9.1183519,NC,215.0,2001-11-23T18:00,11.8,58,3.7,8.9,0.0,0.0,0.0,0.0,0,1022.0,996.1,2,0,0,5,0.06,0.59,9.6,22.5,13,27,15.5,11.1,11.2,13.2,18.8,0.212,0.251,0.251,0.311,0,0.0,0.0,0.0,0.0,0.0,0.0,0.0,1.0,0.0,1.0,0.0,1.0,16.8,Magnoliopsida; Tracheophyta; Pinus pinea L.; Olea europaea L.
2001,2001-09-19,Setúbal,Montijo,Montijo,MONTIJO,38.7060845,-8.9746372,NC,6.0,2001-09-19T20:00,20.3,72,15.0,20.5,0.0,0.0,0.0,0.0,0,1011.4,1010.7,0,0,0,0,0.03,0.68,10.0,16.9,300,304,23.8,24.1,24.6,24.0,23.1,0.182,0.187,0.2,0.265,0,0.0,0.0,0.0,0.0,0.0,0.0,0.0,0.0,0.0,0.0,0.0,0.0,0.0,Tracheophyta
2001,2001-12-09,Lisboa,Mafra,Santo Estêvão Das Galés,Montemuro,38.92848,-9.2384452,NC,259.0,2001-12-09T22:00,10.8,77,7.0,7.5,0.0,0.0,0.0,0.0,0,1021.5,990.2,8,0,0,25,0.03,0.29,16.9,32.5,89,94,32.4,10.2,11.4,12.5,17.0,0.233,0.261,0.255,0.314,0,0.0,0.0,0.0,0.0,0.0,0.0,0.0,0.0,0.0,0.0,0.0,0.0,0.0,Tracheophyta; Eucalyptus L'Hér.; Pinus pinaster Aiton; Pinales; Magnoliopsida
2001,2001-11-22,Lisboa,Alenquer,Vila Verde dos Francos,VILA VERDE DOS FRANCOS,39.15514575,-9.115868171322164,NC,179.0,2001-11-22T17:00,13.0,64,6.5,10.0,0.0,0.0,0.0,0.0,1,1022.0,1000.4,21,0,0,69,0.07,0.53,14.8,27.1,29,33,29.9,12.6,11.2,13.7,19.0,0.178,0.237,0.24,0.313,1,1817.59,21.0,6.0,15.0,68.3,18.6,54.8,67.0,19.0,48.0,134.8,67.0,175.0,Tracheophyta; Magnoliopsida; Vitis vinifera L.; Olea europaea L.
2001,2001-09-19,Santarém,Ferreira do Zêzere,Águas Belas,Vales \ POV,39.6967155,-8.295624309379004,NC,354.0,2001-09-19T17:00,26.8,29,7.1,24.7,0.0,0.0,0.0,0.0,0,1009.7,970.0,8,0,0,27,0.29,2.52,9.7,12.1,248,247,22.0,32.1,25.5,23.7,21.5,0.098,0.149,0.18,0.306,1,3600.0,260.9,202.6,58.3,683.0,260.9,402.2,340.0,264.0,76.0,683.0,340.0,524.2,Magnoliopsida; Tracheophyta; Eucalyptus L'Hér.; Olea europaea L.
2001,2001-09-19,Lisboa,Mafra,Milharado,Vale de São Gião,38.9127575,-9.1807003,NC,198.0,2001-09-19T12:00,23.8,47,11.7,25.3,0.0,0.0,0.0,0.0,0,1011.0,988.3,0,0,0,0,0.51,1.57,3.4,3.7,212,209,18.4,31.6,23.0,23.1,21.4,0.089,0.154,0.21,0.325,1,3600.0,806.9,700.9,106.0,892.0,806.9,1065.4,784.0,681.0,103.0,892.0,784.0,1035.2,Tracheophyta; Magnoliopsida; Pinus pinaster Aiton; Eucalyptus L'Hér.
