year,date,district,municipality,parish,local,latitude,longitude,cause,elevation,hourly.time,hourly.temperature_2m,hourly.relative_humidity_2m,hourly.dew_point_2m,hourly.apparent_temperature,hourly.precipitation,hourly.rain,hourly.snowfall,hourly.snow_depth,hourly.weather_code,hourly.pressure_msl,hourly.surface_pressure,hourly.cloud_cover,hourly.cloud_cover_low,hourly.cloud_cover_mid,hourly.cloud_cover_high,hourly.et0_fao_evapotranspiration,hourly.vapour_pressure_deficit,hourly.wind_speed_10m,hourly.wind_speed_100m,hourly.wind_direction_10m,hourly.wind_direction_100m,hourly.wind_gusts_10m,hourly.soil_temperature_0_to_7cm,hourly.soil_temperature_7_to_28cm,hourly.soil_temperature_28_to_100cm,hourly.soil_temperature_100_to_255cm,hourly.soil_moisture_0_to_7cm,hourly.soil_moisture_7_to_28cm,hourly.soil_moisture_28_to_100cm,hourly.soil_moisture_100_to_255cm,hourly.is_day,hourly.sunshine_duration,hourly.shortwave_radiation_instant,hourly.direct_radiation_instant,hourly.diffuse_radiation_instant,hourly.direct_normal_irradiance_instant,hourly.global_tilted_irradiance_instant,hourly.terrestrial_radiation_instant,hourly.shortwave_radiation,hourly.direct_radiation,hourly.diffuse_radiation,hourly.direct_normal_irradiance,hourly.global_tilted_irradiance,hourly.terrestrial_radiation,scientificNames
2003,2003-07-24,Leiria,Caldas da Rainha,Vidais,Mosteiros,39.3809152,-9.0660137,NC,54.0,2003-07-24T20:00,19.8,86,17.3,19.3,0.0,0.0,0.0,0.0,0,1019.4,1013.0,14,15,0,0,0.04,0.33,21.2,31.0,342,342,39.6,23.4,23.5,21.1,18.7,0.097,0.151,0.217,0.318,0,1203.65,0.0,0.0,0.0,0.0,0.0,0.0,36.0,17.0,19.0,145.8,36.0,95.9,Magnoliopsida; Eucalyptus L'Hér.; Tracheophyta
2003,2003-07-24,Lisboa,Sintra,Belas,BELAS,38.7756179,-9.2638001,NC,142.0,2003-07-24T18:00,22.1,76,17.7,21.3,0.0,0.0,0.0,0.0,0,1018.8,1002.2,0,0,0,0,0.23,0.63,24.7,33.3,331,334,41.0,25.4,22.7,20.5,18.3,0.133,0.181,0.247,0.341,1,3600.0,296.9,229.6,67.3,655.3,296.9,464.3,375.0,290.0,85.0,655.3,375.0,586.5,Pinus pinaster Aiton; Tracheophyta; Pinales; Eucalyptus L'Hér.; Magnoliopsida; 
2003,2003-06-06,Leiria,Caldas da Rainha,Nadadouro,Quinta da Barrosa,39.40319105,-9.198021690966952,NC,0.0,2003-06-06T13:00,22.1,57,13.3,21.7,0.0,0.0,0.0,0.0,0,1019.3,1019.3,0,0,0,0,0.56,1.13,23.4,29.9,356,359,42.5,30.0,20.9,19.8,16.3,0.055,0.115,0.172,0.251,1,3600.0,966.1,839.4,126.8,880.4,966.1,1266.7,968.0,841.0,127.0,880.4,968.0,1269.1,Tracheophyta; Eucalyptus L'Hér.; Magnoliopsida; Pinus pinaster Aiton
2003,2003-06-09,Leiria,Caldas da Rainha,Serra do Bouro,Zambujeiro,39.4542388,-9.1806063,NC,39.0,2003-06-09T14:00,22.3,44,9.5,22.2,0.0,0.0,0.0,0.0,0,1017.8,1013.2,4,0,0,13,0.6,1.5,14.6,16.3,310,311,31.3,34.8,21.9,19.6,16.3,0.046,0.111,0.169,0.249,1,3600.0,931.6,810.1,121.6,889.3,931.6,1209.2,958.0,833.0,125.0,889.3,958.0,1243.4,Tracheophyta; Eucalyptus L'Hér.; Magnoliopsida; Pinus pinaster Aiton
2003,2003-04-06,Santarém,Abrantes,Fontes,Fontes,39.6049619,-8.263428169430746,NC,116.0,2003-04-06T17:00,22.6,34,6.1,20.5,0.0,0.0,0.0,0.0,0,1013.1,999.6,0,0,0,0,0.31,1.8,7.1,9.2,45,48,19.1,21.3,15.9,13.6,12.5,0.254,0.309,0.34,0.367,1,3600.0,372.0,308.5,63.5,805.4,372.0,523.6,457.0,379.0,78.0,805.4,457.0,643.2,Magnoliopsida; Eucalyptus L'Hér.; Olea europaea L.; Pinus pinaster Aiton; Tracheophyta; 
2003,2003-07-23,Leiria,Óbidos,Olho Marinho,OLHO MARINHO,39.3301388,-9.2272165,NC,35.0,2003-07-23T12:00,22.3,60,14.3,21.3,0.0,0.0,0.0,0.0,0,1023.5,1019.4,3,3,0,0,0.49,1.07,25.4,31.7,344,345,47.9,27.5,22.0,20.8,18.7,0.052,0.075,0.132,0.228,1,3600.0,848.5,654.1,194.4,702.3,848.5,1234.1,825.0,636.0,189.0,702.3,825.0,1199.9,Tracheophyta; Magnoliopsida
2003,2003-07-21,Lisboa,Sintra,Belas,Pego Longo,38.772047,-9.2583223,NC,177.0,2003-07-21T14:00,22.6,57,13.7,23.3,0.0,0.0,0.0,0.0,0,1017.9,997.3,19,0,0,64,0.57,1.17,17.2,22.0,323,325,40.0,27.2,21.8,20.1,17.9,0.144,0.183,0.249,0.342,1,3600.0,924.2,792.6,131.6,872.1,924.2,1203.9,948.0,813.0,135.0,872.1,948.0,1234.9,Pinus pinaster Aiton; Tracheophyta; Pinales; Eucalyptus L'Hér.; Magnoliopsida; 
2003,2003-04-05,Santarém,Abrantes,Souto,Bioucas,39.5689618,-8.2555592,NC,205.0,2003-04-05T14:00,17.9,40,4.2,16.0,0.0,0.0,0.0,0.0,0,1017.9,993.8,0,0,0,0,0.5,1.23,15.8,20.2,89,89,37.1,19.1,13.4,13.0,11.8,0.274,0.321,0.343,0.367,1,3600.0,847.9,747.5,100.4,955.0,847.9,1070.6,878.0,774.0,104.0,955.0,878.0,1108.5,Magnoliopsida; Tracheophyta; Eucalyptus L'Hér.; Pinus pinaster Aiton; Quercus suber L.; Pinus pinea L.; Olea europaea L.; Vitis vinifera L.; 
2003,2003-07-23,Lisboa,Vila Franca de Xira,Calhandriz,Mato da Cruz,38.9205802,-9.0724757,NC,239.0,2003-07-23T01:00,16.8,88,14.8,15.4,0.0,0.0,0.0,0.0,0,1022.0,993.7,4,4,0,0,0.02,0.23,20.4,33.7,328,331,36.7,18.7,22.6,20.7,18.2,0.105,0.182,0.253,0.355,0,0.0,0.0,0.0,0.0,0.0,0.0,0.0,0.0,0.0,0.0,0.0,0.0,0.0,Magnoliopsida; Tracheophyta; Pinus pinaster Aiton; Vitis vinifera L.; Olea europaea L.; Eucalyptus L'Hér.; Pinales; 
2003,2003-07-21,Lisboa,Oeiras,Porto Salvo,Porto Salvo,38.7162932,-9.3086601,NC,83.0,2003-07-21T18:00,21.3,66,14.6,19.2,0.0,0.0,0.0,0.0,1,1018.4,1008.6,25,0,0,83,0.24,0.86,24.8,32.0,332,334,40.7,24.7,22.8,20.7,18.5,0.155,0.187,0.252,0.344,1,3600.0,267.2,147.1,120.1,412.2,267.2,472.8,336.0,185.0,151.0,412.2,336.0,594.5,Tracheophyta; Magnoliopsida; Pinus pinea L.; Vitis vinifera L.; Eucalyptus L'Hér.; Olea europaea L.; Pinus pinaster Aiton
2003,2003-07-21,Lisboa,Sintra,Belas,Pego Longo,38.772047,-9.2583223,NC,177.0,2003-07-21T22:00,18.4,81,15.1,17.8,0.0,0.0,0.0,0.0,1,1019.9,999.0,21,0,0,70,0.02,0.4,15.2,25.6,338,340,31.7,20.3,22.1,20.2,18.0,0.142,0.182,0.249,0.342,0,0.0,0.0,0.0,0.0,0.0,0.0,0.0,0.0,0.0,0.0,0.0,0.0,0.0,Pinus pinaster Aiton; Tracheophyta; Pinales; Eucalyptus L'Hér.; Magnoliopsida; 
2003,2003-06-19,Lisboa,Torres Vedras,Maxial,Aldeia Grande,39.1517342,-9.1570202,NC,80.0,2003-06-19T06:00,24.2,39,9.4,21.6,0.0,0.0,0.0,0.0,0,1014.7,1005.4,0,0,0,0,0.16,1.84,16.9,32.8,89,90,24.1,21.9,23.2,20.7,16.6,0.086,0.18,0.262,0.34,1,567.55,56.8,27.3,29.5,203.6,32.4,177.4,25.0,12.0,13.0,116.3,25.0,78.1,Eucalyptus L'Hér.; Tracheophyta; Magnoliopsida; Vitis vinifera L.; Pinales; Pinus pinaster Aiton; 
2003,2003-07-24,Lisboa,Sintra,Sintra (santa Maria E São Miguel),Cabriz,38.7992243,-9.3853801,NC,187.0,2003-07-24T07:00,18.7,89,16.9,18.5,0.0,0.0,0.0,0.0,1,1021.3,999.2,34,36,0,4,0.06,0.24,18.3,25.9,344,344,29.5,19.3,21.4,20.6,18.3,0.083,0.134,0.196,0.287,1,3600.0,156.4,82.9,73.5,312.3,156.4,351.8,100.0,53.0,47.0,312.3,100.0,224.9,Tracheophyta; Magnoliopsida
2003,2003-07-09,Setúbal,Palmela,Pinhal Novo,Pinhal Novo,38.630096,-8.9128319,NC,39.0,2003-07-09T18:00,27.1,36,10.9,24.0,0.0,0.0,0.0,0.0,0,1015.1,1010.6,0,0,0,0,0.41,2.28,23.2,32.5,336,339,46.8,31.6,25.1,21.2,18.4,0.059,0.06,0.098,0.204,1,3600.0,337.0,270.6,66.4,740.2,337.0,483.7,421.0,338.0,83.0,740.2,421.0,604.2,Vitis vinifera L.; Magnoliopsida; Olea europaea L.; Tracheophyta
2003,2003-07-24,Setúbal,Palmela,Palmela,Lagoinha,38.5760455,-8.865312259667704,NC,43.0,2003-07-24T06:00,17.8,91,16.3,17.7,0.0,0.0,0.0,0.0,0,1020.9,1015.8,0,0,0,0,0.03,0.19,16.3,27.4,342,343,24.8,18.5,23.1,21.7,19.1,0.058,0.059,0.089,0.2,1,0.0,17.3,4.9,12.3,56.6,7.3,105.7,7.0,2.0,5.0,26.2,7.0,42.9,Vitis vinifera L.; ; Magnoliopsida; Quercus suber L.; Tracheophyta; Pinus pinea L.; Quercus rotundifolia Lam.
2003,2003-06-25,Lisboa,Torres Vedras,Dois Portos,Furadouro,39.0301727,-9.2104244,NC,204.0,2003-06-25T17:00,21.7,57,12.9,19.4,0.0,0.0,0.0,0.0,0,1018.2,994.5,0,0,0,0,0.38,1.11,23.5,31.7,331,332,47.2,29.1,23.8,21.5,16.9,0.092,0.182,0.265,0.354,1,3600.0,519.8,431.7,88.1,784.5,519.8,728.4,596.0,495.0,101.0,784.5,596.0,835.3,Vitis vinifera L.; Eucalyptus L'Hér.; Magnoliopsida; Tracheophyta; 
2003,2003-07-21,Santarém,Salvaterra de Magos,Glória do Ribatejo,GLÓRIA DO RIBATEJO,39.04230785,-8.6402425,NC,61.0,2003-07-21T17:00,26.9,33,9.4,23.8,0.0,0.0,0.0,0.0,1,1017.4,1010.4,27,0,0,89,0.47,2.37,20.4,26.8,328,329,41.4,33.2,24.6,21.9,19.3,0.051,0.064,0.109,0.195,1,3600.0,460.7,302.2,158.5,569.8,460.7,702.6,532.0,349.0,183.0,569.8,532.0,811.4,Olea europaea L.; Tracheophyta; Eucalyptus L'Hér.; Pinus pinaster Aiton
2003,2003-07-20,Lisboa,Sintra,Pêro Pinheiro,Fação,38.8429367,-9.3333306,NC,134.0,2003-07-20T17:00,21.6,63,14.4,19.7,0.0,0.0,0.0,0.0,0,1016.9,1001.3,0,0,0,1,0.36,0.95,23.8,30.4,322,324,39.6,25.9,22.6,20.3,18.2,0.148,0.183,0.25,0.343,1,3600.0,504.6,420.4,84.2,778.8,504.6,715.0,581.0,484.0,97.0,778.8,581.0,823.2,Tracheophyta; Magnoliopsida; Pinus pinaster Aiton; Eucalyptus L'Hér.; Vitis vinifera L.; 
2003,2003-07-24,Lisboa,Sintra,Almargem do Bispo,Vale de Lobos,38.8491202,-9.264334778649603,NC,283.0,2003-07-24T16:00,24.0,62,16.2,23.9,0.0,0.0,0.0,0.0,0,1018.8,986.3,0,0,0,0,0.45,1.14,20.7,26.8,321,324,42.5,29.8,23.0,20.7,18.2,0.093,0.171,0.242,0.344,1,3600.0,638.5,490.7,147.8,709.0,638.5,917.3,700.0,538.0,162.0,709.0,700.0,1005.7,Tracheophyta; Magnoliopsida; Pinus pinaster Aiton; Eucalyptus L'Hér.; Vitis vinifera L.; 
2003,2003-07-23,Lisboa,Sintra,Rio de Mouro,RIO DE MOURO,38.784308,-9.32112237305857,NC,155.0,2003-07-23T14:00,22.5,62,14.7,21.9,0.0,0.0,0.0,0.0,0,1022.6,1004.5,0,0,0,0,0.53,1.05,26.8,34.2,336,338,46.8,26.5,21.8,20.4,18.1,0.137,0.181,0.248,0.342,1,3600.0,912.6,784.9,127.7,865.2,912.6,1202.1,936.0,805.0,131.0,865.2,936.0,1232.9,Tracheophyta; Magnoliopsida; Pinales; 
2003,2003-07-18,Santarém,Santarém,Santarém (são Nicolau),São Domingos,39.2420546,-8.6752599,NC,20.0,2003-07-18T23:00,19.4,90,17.7,20.9,0.0,0.0,0.0,0.0,0,1022.1,1019.7,0,0,0,0,0.0,0.23,8.7,18.6,322,324,16.6,21.9,23.9,21.6,18.7,0.236,0.235,0.274,0.378,0,0.0,0.0,0.0,0.0,0.0,0.0,0.0,0.0,0.0,0.0,0.0,0.0,0.0,Tracheophyta; Magnoliopsida; Pinus pinea L.; Vitis vinifera L.
2003,2003-06-12,Leiria,Bombarral,Roliça,Baraçais,39.2923617,-9.1684371,NC,60.0,2003-06-12T09:00,23.0,67,16.6,23.5,0.0,0.0,0.0,0.0,0,1013.8,1006.8,0,0,0,0,0.33,0.93,12.4,15.5,10,18,23.4,24.5,20.9,19.1,16.0,0.049,0.104,0.164,0.244,1,3600.0,599.9,482.9,117.0,724.9,599.9,883.7,528.0,425.0,103.0,724.9,528.0,777.8,Magnoliopsida; Tracheophyta; Eucalyptus L'Hér.; Vitis vinifera L.; Pinales; Pinus pinaster Aiton; 
2003,2003-07-25,Lisboa,Vila Franca de Xira,Vialonga,VIALONGA,38.8773451,-9.0685711,NC,55.0,2003-07-25T14:00,27.8,54,17.6,28.5,0.0,0.0,0.0,0.0,1,1018.6,1012.3,44,49,0,0,0.57,1.72,21.4,27.7,340,342,45.4,32.0,24.1,22.1,19.5,0.102,0.18,0.251,0.354,1,3600.0,747.3,467.7,279.6,518.1,747.3,1196.4,767.0,480.0,287.0,518.1,767.0,1228.0,Tracheophyta; Magnoliopsida; Pinus pinea L.; Olea europaea L.; Pinus pinaster Aiton; Pinales; 
2003,2003-07-23,Lisboa,Torres Vedras,Dois Portos,Mouguelas,39.0380362,-9.1827519,NC,79.0,2003-07-23T17:00,21.6,65,14.8,19.3,0.0,0.0,0.0,0.0,0,1022.6,1013.3,0,0,0,0,0.35,0.9,27.7,36.8,339,340,47.5,28.6,23.7,21.4,18.9,0.093,0.174,0.246,0.348,1,3600.0,495.5,409.8,85.8,770.9,495.5,704.4,572.0,473.0,99.0,770.9,572.0,813.1,Vitis vinifera L.; Eucalyptus L'Hér.; Magnoliopsida; Tracheophyta; 
2003,2003-04-20,Santarém,Benavente,Benavente,BENAVENTE,38.95843905,-8.810396284134132,NC,15.0,2003-04-20T16:00,16.8,58,8.5,13.7,0.0,0.0,0.0,0.0,3,1011.0,1009.2,86,80,23,0,0.25,0.8,18.1,24.4,235,236,37.1,17.3,14.3,14.5,13.8,0.448,0.461,0.456,0.416,1,3600.0,350.8,186.6,164.2,311.0,350.8,813.4,393.0,209.0,184.0,311.0,393.0,911.3,Tracheophyta; Eucalyptus L'Hér.
2003,2003-07-21,Setúbal,Palmela,Quinta do Anjo,Fonte do Sol,38.5525792,-8.9610463,NC,160.0,2003-07-21T11:00,21.8,56,12.7,22.2,0.0,0.0,0.0,0.0,0,1018.2,999.5,10,10,0,3,0.48,1.14,11.8,15.0,322,325,29.9,30.4,22.8,21.7,19.3,0.046,0.074,0.13,0.225,1,3600.0,821.4,624.5,196.9,710.2,821.4,1164.7,776.0,590.0,186.0,710.2,776.0,1100.4,Vitis vinifera L.; Tracheophyta; Magnoliopsida; Pinus pinea L.; Olea europaea L.
2003,2003-06-14,Leiria,Peniche,Peniche (ajuda),PENICHE lº,39.362051300000005,-9.387688228092872,NC,12.0,2003-06-14T19:00,20.5,80,16.9,21.0,0.0,0.0,0.0,0.0,0,1019.0,1017.6,9,10,0,0,0.12,0.49,13.4,18.5,250,249,27.7,27.0,25.1,20.8,16.9,0.045,0.108,0.164,0.249,1,3600.0,135.4,92.5,42.9,512.2,135.4,239.3,205.0,140.0,65.0,512.2,205.0,362.4,Magnoliopsida; Tracheophyta
2003,2003-07-23,Lisboa,Loures,Unhos,Quinta da Boa Vista,38.8263302,-9.1238076,NC,65.0,2003-07-23T21:00,19.2,77,15.1,17.8,0.0,0.0,0.0,0.0,0,1022.4,1014.7,0,0,0,0,0.05,0.51,21.0,33.1,344,346,40.0,22.5,23.3,22.2,21.0,0.24,0.279,0.319,0.365,0,0.0,0.0,0.0,0.0,0.0,0.0,0.0,0.0,0.0,0.0,0.0,0.0,0.0,Tracheophyta; Olea europaea L.; Magnoliopsida; 
2003,2003-07-21,Santarém,Salvaterra de Magos,Foros de Salvaterra,Foros de Salvaterra,38.99501775,-8.726686816225442,NC,34.0,2003-07-21T13:00,27.0,34,9.9,27.1,0.0,0.0,0.0,0.0,0,1017.3,1013.4,14,0,0,48,0.7,2.34,14.5,18.4,325,325,36.4,32.5,23.4,22.0,19.2,0.138,0.184,0.238,0.304,1,3600.0,976.6,854.5,122.1,903.3,976.6,1253.1,976.0,854.0,122.0,903.3,976.0,1252.3,Pinus pinaster Aiton; Tracheophyta; Magnoliopsida; Quercus suber L.
2003,2003-07-23,Lisboa,Loures,Bucelas,Freixial,38.9063386,-9.1535911,NC,108.0,2003-07-23T23:00,19.0,82,15.9,18.2,0.0,0.0,0.0,0.0,0,1022.8,1010.0,12,13,0,0,0.03,0.39,19.4,29.8,350,352,35.6,21.0,23.9,21.8,19.3,0.093,0.171,0.242,0.345,0,0.0,0.0,0.0,0.0,0.0,0.0,0.0,0.0,0.0,0.0,0.0,0.0,0.0,Magnoliopsida; Tracheophyta; Olea europaea L.; Pinus pinea L.; Pinus pinaster Aiton; Eucalyptus L'Hér.; Vitis vinifera L.; 
2003,2003-07-21,Santarém,Santarém,Amiais de Baixo,AMIAIS DE BAIXO,39.44438075,-8.719949365102405,NC,92.0,2003-07-21T00:00,16.9,89,15.1,16.8,0.0,0.0,0.0,0.0,0,1017.5,1006.5,0,0,0,0,0.0,0.21,12.3,24.0,328,332,26.3,19.3,23.2,21.4,18.8,0.094,0.174,0.256,0.351,0,0.0,0.0,0.0,0.0,0.0,0.0,0.0,0.0,0.0,0.0,0.0,0.0,0.0,Quercus suber L.; Pinus pinaster Aiton; Magnoliopsida; Tracheophyta; Eucalyptus L'Hér.; Quercus L.
2003,2003-07-22,Santarém,Santarém,Santa Iria Da Ribeira De Santarém,Santarém,39.2420958,-8.6750993,NC,20.0,2003-07-22T14:00,27.7,41,13.1,27.9,0.0,0.0,0.0,0.0,0,1020.2,1017.9,0,0,0,0,0.68,2.21,18.5,23.3,327,328,41.8,31.1,23.5,21.8,18.9,0.214,0.234,0.271,0.377,1,3600.0,904.8,785.0,119.8,869.3,904.8,1196.5,929.0,806.0,123.0,869.3,929.0,1228.4,Tracheophyta; Magnoliopsida; Pinus pinea L.; Vitis vinifera L.
2003,2003-07-24,Setúbal,Palmela,Palmela,Vale de Marmelos,38.5760455,-8.865312259667704,NC,43.0,2003-07-24T07:00,18.9,86,16.5,18.9,0.0,0.0,0.0,0.0,0,1020.8,1015.7,1,1,0,0,0.07,0.31,16.2,24.6,343,345,25.9,19.5,23.0,21.7,19.1,0.058,0.059,0.089,0.2,1,3600.0,170.3,100.6,69.7,370.8,170.3,359.6,110.0,65.0,45.0,370.8,110.0,232.3,Vitis vinifera L.; ; Magnoliopsida; Quercus suber L.; Tracheophyta; Pinus pinea L.; Quercus rotundifolia Lam.
2003,2003-07-21,Setúbal,Palmela,Palmela,PALMELA,38.5760455,-8.865312259667704,NC,43.0,2003-07-21T17:00,25.5,43,11.9,22.9,0.0,0.0,0.0,0.0,0,1017.2,1012.2,17,0,0,58,0.44,1.88,22.0,29.3,310,315,36.0,31.3,24.3,21.5,18.9,0.06,0.059,0.091,0.201,1,3600.0,474.4,354.1,120.3,665.4,474.4,704.9,548.0,409.0,139.0,665.4,548.0,814.2,Vitis vinifera L.; ; Magnoliopsida; Quercus suber L.; Tracheophyta; Pinus pinea L.; Quercus rotundifolia Lam.
2003,2003-07-25,Santarém,Ourém,Nossa Senhora das Misericórdias,Lagoa da Carapita,39.6422696,-8.5917408,NC,318.0,2003-07-25T23:00,18.2,93,17.0,18.8,0.0,0.0,0.0,0.0,1,1018.8,981.6,32,35,0,0,0.0,0.15,13.1,22.9,328,334,28.1,21.6,24.3,21.3,18.5,0.077,0.165,0.248,0.349,0,0.0,0.0,0.0,0.0,0.0,0.0,0.0,0.0,0.0,0.0,0.0,0.0,0.0,Eucalyptus L'Hér.; Olea europaea L.; Pinus pinaster Aiton; Tracheophyta
2003,2003-06-27,Lisboa,Arruda dos Vinhos,Santiago dos Velhos,A dos Eiros,38.936359,-9.10427912424307,NC,231.0,2003-06-27T14:00,24.8,49,13.4,24.3,0.0,0.0,0.0,0.0,0,1015.7,989.2,0,0,0,0,0.62,1.6,23.4,30.1,329,331,48.6,30.5,22.4,21.1,16.7,0.101,0.192,0.272,0.363,1,3600.0,914.8,792.0,122.7,861.3,914.8,1217.0,939.0,813.0,126.0,861.3,939.0,1249.3,Tracheophyta; Vitis vinifera L.; Magnoliopsida
2003,2003-07-18,Lisboa,Mafra,Venda do Pinheiro,Venda do Pinheiro,38.9274586,-9.237265,NC,246.0,2003-07-18T22:00,18.7,92,17.3,19.9,0.0,0.0,0.0,0.0,0,1022.3,993.4,0,0,0,0,0.0,0.18,9.5,19.9,323,325,20.2,20.9,22.9,20.5,18.1,0.121,0.174,0.246,0.347,0,0.0,0.0,0.0,0.0,0.0,0.0,0.0,0.0,0.0,0.0,0.0,0.0,0.0,Tracheophyta; Eucalyptus L'Hér.; Pinus pinaster Aiton; Pinales; Magnoliopsida
2003,2003-07-23,Lisboa,Loures,Fanhões,FANHÕES,38.881,-9.15611,NC,205.0,2003-07-23T10:00,21.5,61,13.6,20.2,0.0,0.0,0.0,0.0,0,1022.8,998.8,4,4,0,0,0.4,1.01,21.1,28.1,343,344,47.2,24.7,22.0,21.1,18.6,0.095,0.171,0.243,0.345,1,3600.0,724.3,554.2,170.1,719.9,724.3,1020.1,660.0,505.0,155.0,719.9,660.0,929.5,Magnoliopsida; Tracheophyta; Eucalyptus L'Hér.; 
2003,2003-07-25,Lisboa,Sintra,Belas,Casal da Carregueira,38.7744421,-9.2542643,NC,192.0,2003-07-25T15:00,24.1,69,18.1,24.7,0.0,0.0,0.0,0.0,1,1018.4,996.2,42,47,0,0,0.44,0.92,21.7,28.0,339,340,45.7,27.4,22.2,20.3,18.0,0.132,0.18,0.246,0.341,1,3600.0,681.1,432.3,248.8,528.4,681.1,1084.5,720.0,457.0,263.0,528.4,720.0,1146.5,Pinus pinaster Aiton; Tracheophyta; Pinales; Eucalyptus L'Hér.; Magnoliopsida; 
2003,2003-07-25,Setúbal,Montijo,Montijo,Bairro da Caneira,38.7113153,-8.9890707,NC,13.0,2003-07-25T17:00,26.6,59,18.0,26.1,0.0,0.0,0.0,0.0,0,1017.7,1016.2,0,0,0,0,0.41,1.42,23.8,32.2,333,335,45.4,28.8,24.4,22.7,21.3,0.184,0.188,0.214,0.275,1,3600.0,481.5,394.2,87.3,747.4,481.5,699.1,557.0,456.0,101.0,747.4,557.0,808.8,Tracheophyta
2003,2003-07-23,Santarém,Golegã,Azinhaga,Mato de Miranda,39.364113450000005,-8.589106535350787,NC,37.0,2003-07-23T14:00,25.3,43,11.8,24.4,0.0,0.0,0.0,0.0,0,1021.2,1016.9,0,0,0,0,0.65,1.84,23.1,29.5,329,330,50.0,29.5,22.9,21.6,19.1,0.106,0.167,0.234,0.344,1,3600.0,919.2,802.4,116.9,890.5,919.2,1194.0,944.0,824.0,120.0,890.5,944.0,1226.2,Eucalyptus L'Hér.; Olea europaea L.; Tracheophyta
2003,2003-07-26,Lisboa,Sintra,Pêro Pinheiro,Carrasqueira,38.85768105,-9.318142138005117,NC,155.0,2003-07-26T16:00,23.8,70,18.0,24.6,0.0,0.0,0.0,0.0,0,1017.5,999.5,0,0,0,0,0.44,0.88,20.2,26.5,305,307,36.0,33.4,25.0,21.8,19.1,0.085,0.172,0.244,0.348,1,3600.0,661.1,561.7,99.4,813.8,661.1,915.1,725.0,616.0,109.0,813.8,725.0,1003.5,Tracheophyta; Magnoliopsida; Pinus pinaster Aiton; Eucalyptus L'Hér.; Vitis vinifera L.; 
2003,2003-07-19,Lisboa,Torres Vedras,Dois Portos,Outeiro da Zibreira,39.0659378,-9.1791296,NC,125.0,2003-07-19T00:00,18.5,96,17.9,20.2,0.0,0.0,0.0,0.0,0,1021.9,1007.1,0,0,0,0,0.0,0.08,7.4,15.9,317,321,10.8,20.0,23.4,21.4,18.9,0.115,0.172,0.246,0.345,0,0.0,0.0,0.0,0.0,0.0,0.0,0.0,0.0,0.0,0.0,0.0,0.0,0.0,Vitis vinifera L.; Eucalyptus L'Hér.; Magnoliopsida; Tracheophyta; 
2003,2003-07-23,Lisboa,Loures,Loures,Murteira,38.8444686,-9.206289225745532,NC,88.0,2003-07-23T14:00,23.8,55,14.2,23.0,0.0,0.0,0.0,0.0,0,1022.6,1012.3,0,0,0,0,0.58,1.33,26.8,34.2,336,338,46.8,27.9,22.6,21.1,18.8,0.131,0.178,0.245,0.343,1,3600.0,912.2,784.6,127.7,866.1,912.2,1200.3,936.0,805.0,131.0,866.1,936.0,1231.6,Tracheophyta; Quercus suber L.; Magnoliopsida
2003,2003-07-24,Lisboa,Sintra,Sintra (são Pedro De Penaferrim),Cabeço de Manique,38.7992243,-9.3853801,NC,187.0,2003-07-24T10:00,20.7,80,17.2,21.1,0.0,0.0,0.0,0.0,2,1021.0,999.1,57,63,0,1,0.3,0.49,14.8,19.4,347,350,33.8,24.9,21.5,20.6,18.3,0.083,0.134,0.195,0.287,1,3600.0,584.4,326.3,258.2,425.4,584.4,1016.5,532.0,297.0,235.0,425.4,532.0,925.3,Tracheophyta; Magnoliopsida
2003,2003-07-24,Lisboa,Loures,Bucelas,Freixial,38.9063386,-9.1535911,NC,108.0,2003-07-24T15:00,25.1,62,17.3,25.1,0.0,0.0,0.0,0.0,0,1019.7,1007.2,6,7,0,0,0.42,1.21,19.2,25.0,320,324,35.3,30.5,23.9,21.9,19.3,0.093,0.171,0.242,0.344,1,3600.0,559.1,268.6,290.4,328.3,559.1,1084.4,591.0,284.0,307.0,328.3,591.0,1146.4,Magnoliopsida; Tracheophyta; Olea europaea L.; Pinus pinea L.; Pinus pinaster Aiton; Eucalyptus L'Hér.; Vitis vinifera L.; 
2003,2003-07-25,Leiria,Bombarral,Roliça,São Mamede,39.3220339,-9.1794242,NC,20.0,2003-07-25T16:00,24.8,70,19.0,25.1,0.0,0.0,0.0,0.0,1,1019.5,1017.2,29,32,0,0,0.39,0.92,23.0,30.2,335,337,39.6,31.2,23.5,21.0,18.9,0.05,0.074,0.131,0.227,1,3600.0,558.3,330.2,228.0,479.1,558.3,913.6,612.0,362.0,250.0,479.1,612.0,1001.5,Magnoliopsida; Tracheophyta; Eucalyptus L'Hér.; Vitis vinifera L.; Pinales; Pinus pinaster Aiton; 
2003,2003-07-21,Santarém,Santarém,Vale de Santarém,VALE DE SANTARÉM,39.1884058,-8.7238414,NC,14.0,2003-07-21T17:00,25.6,39,10.6,22.7,0.0,0.0,0.0,0.0,1,1017.7,1016.1,28,0,0,94,0.45,2.0,21.4,28.3,327,329,42.1,29.5,24.2,21.8,18.8,0.217,0.235,0.271,0.378,1,3600.0,467.8,315.3,152.5,594.1,467.8,703.1,540.0,364.0,176.0,594.1,540.0,811.6,Quercus suber L.; Eucalyptus L'Hér.; Tracheophyta; Pinus pinaster Aiton
2003,2003-07-22,Lisboa,Sintra,Almargem do Bispo,Alfouvar de Baixo,38.8640981,-9.2786711,NC,178.0,2003-07-22T17:00,22.3,62,14.6,20.4,0.0,0.0,0.0,0.0,0,1020.4,999.7,0,0,0,0,0.36,1.02,24.3,33.0,331,332,49.0,29.7,24.0,21.3,18.7,0.088,0.174,0.247,0.35,1,3600.0,498.7,412.8,85.9,770.8,498.7,709.5,575.0,476.0,99.0,770.8,575.0,818.1,Tracheophyta; Magnoliopsida; Pinus pinaster Aiton; Eucalyptus L'Hér.; Vitis vinifera L.; 
2003,2003-07-26,Lisboa,Mafra,Sobral da Abelheira,Chança,38.97635795,-9.31815274492178,NC,69.0,2003-07-26T17:00,23.5,73,18.3,23.9,0.0,0.0,0.0,0.0,0,1017.5,1009.5,6,7,0,0,0.34,0.79,18.1,24.6,301,302,35.6,32.3,25.5,22.1,19.4,0.087,0.172,0.244,0.349,1,3600.0,476.3,378.4,97.9,713.4,476.3,703.3,550.0,437.0,113.0,713.4,550.0,812.2,Tracheophyta; Eucalyptus L'Hér.; Magnoliopsida; Pinales; Pinus pinaster Aiton; Vitis vinifera L.
2003,2003-07-22,Santarém,Salvaterra de Magos,Granho,Granho,39.0705897,-8.663227192109929,NC,46.0,2003-07-22T14:00,28.2,38,12.6,28.6,0.0,0.0,0.0,0.0,0,1019.8,1014.5,0,0,0,0,0.69,2.36,16.5,21.0,328,329,39.6,32.9,23.4,21.4,18.6,0.131,0.137,0.166,0.275,1,3600.0,911.6,793.7,117.8,878.0,911.6,1197.7,936.0,815.0,121.0,878.0,936.0,1229.8,Tracheophyta; Quercus rotundifolia Lam.; Eucalyptus L'Hér.; Quercus suber L.
2003,2003-06-27,Lisboa,Azambuja,Manique do Intendente,MANIQUE DO INTENDENTE,39.2180783,-8.88718527081545,NC,33.0,2003-06-27T18:00,22.9,62,15.2,20.8,0.0,0.0,0.0,0.0,0,1015.6,1011.7,4,4,0,0,0.29,1.07,26.3,35.6,338,340,50.8,29.3,25.0,22.9,18.1,0.088,0.175,0.257,0.344,1,3600.0,308.0,234.9,73.2,635.2,308.0,489.3,383.0,292.0,91.0,635.2,383.0,608.4,Pinus pinea L.; Vitis vinifera L.; Olea europaea L.; Tracheophyta; Eucalyptus L'Hér.
2003,2003-07-25,Lisboa,Alenquer,Aldeia Galega da Merceana,Paiol,39.0949154,-9.1349408,NC,135.0,2003-07-25T19:00,22.4,77,18.1,22.2,0.0,0.0,0.0,0.0,0,1018.8,1003.0,2,2,0,0,0.14,0.63,22.0,31.6,339,339,41.0,28.6,25.6,22.2,19.4,0.081,0.166,0.238,0.341,1,3600.0,113.4,76.0,37.4,481.4,113.4,209.4,182.0,122.0,60.0,481.4,182.0,336.0,Vitis vinifera L.; Magnoliopsida; Tracheophyta
2003,2003-07-25,Lisboa,Loures,Bucelas,Freixial,38.9063386,-9.1535911,NC,108.0,2003-07-25T17:00,25.5,66,18.6,25.2,0.0,0.0,0.0,0.0,0,1018.7,1006.2,1,1,0,0,0.38,1.12,23.7,32.1,336,337,41.0,31.0,24.8,22.0,19.4,0.092,0.17,0.241,0.344,1,3600.0,482.0,393.8,88.3,744.0,482.0,701.6,557.0,455.0,102.0,744.0,557.0,810.7,Magnoliopsida; Tracheophyta; Olea europaea L.; Pinus pinea L.; Pinus pinaster Aiton; Eucalyptus L'Hér.; Vitis vinifera L.; 
2003,2003-07-26,Lisboa,Sintra,Rio de Mouro,RIO DE MOURO,38.784308,-9.32112237305857,NC,155.0,2003-07-26T19:00,21.4,81,18.0,21.6,0.0,0.0,0.0,0.0,0,1017.1,999.0,0,0,0,0,0.12,0.48,18.9,26.8,309,310,34.6,24.9,23.4,20.6,18.3,0.13,0.18,0.245,0.341,1,3600.0,112.7,76.8,35.9,491.7,112.7,207.0,182.0,124.0,58.0,491.7,182.0,334.4,Tracheophyta; Magnoliopsida; Pinales; 
2003,2003-07-27,Santarém,Coruche,Erra,Erra,39.0025476,-8.44287,NC,28.0,2003-07-27T02:00,19.5,95,18.6,21.4,0.0,0.0,0.0,0.0,3,1017.4,1014.1,90,100,0,0,0.0,0.12,8.7,16.5,300,306,13.0,20.8,25.6,22.7,19.9,0.05,0.062,0.099,0.182,0,0.0,0.0,0.0,0.0,0.0,0.0,0.0,0.0,0.0,0.0,0.0,0.0,0.0,Olea europaea L.; Magnoliopsida; Tracheophyta; Quercus L.; Pinus pinaster Aiton; ; Pinus pinea L.; Quercus suber L.; Vitis vinifera L.
2003,2003-06-29,Lisboa,Torres Vedras,Campelos,CAMPELOS,39.1919559,-9.23317479665106,NC,97.0,2003-06-29T10:00,20.0,78,16.1,17.9,0.3,0.3,0.0,0.0,51,1009.6,998.3,100,100,94,96,0.14,0.51,28.9,39.4,197,198,50.8,21.0,21.2,21.4,17.5,0.086,0.17,0.249,0.336,1,0.0,177.8,21.8,156.0,27.5,177.8,1050.5,163.0,20.0,143.0,27.5,163.0,963.2,Eucalyptus L'Hér.; Tracheophyta; Magnoliopsida; Vitis vinifera L.; Olea europaea L.; Pinus pinaster Aiton; Pinus pinea L.; 
2003,2003-07-22,Lisboa,Alenquer,Aldeia Galega da Merceana,Casais Brancos,39.09544935,-9.129667052166312,NC,133.0,2003-07-22T23:00,18.0,86,15.6,16.6,0.0,0.0,0.0,0.0,0,1023.2,1007.4,14,15,0,0,0.02,0.29,22.0,31.8,342,342,37.4,20.7,24.5,22.1,19.3,0.083,0.168,0.241,0.342,0,0.0,0.0,0.0,0.0,0.0,0.0,0.0,0.0,0.0,0.0,0.0,0.0,0.0,Vitis vinifera L.; Tracheophyta; Magnoliopsida
2003,2003-07-26,Santarém,Ourém,Fátima,FÁTIMA,39.60322805,-8.663198476923824,NC,353.0,2003-07-26T17:00,24.8,60,16.4,24.3,0.0,0.0,0.0,0.0,0,1016.9,976.7,12,13,0,0,0.36,1.27,18.5,24.0,303,303,40.3,30.7,24.1,20.6,17.8,0.096,0.154,0.23,0.337,1,3600.0,435.5,328.4,107.2,629.4,435.5,691.8,504.0,380.0,124.0,629.4,504.0,800.5,Olea europaea L.; Magnoliopsida; Tracheophyta; Eucalyptus L'Hér.
2003,2003-03-10,Santarém,Alcanena,Monsanto,MONSANTO,39.4616161,-8.7121712,NC,147.0,2003-03-10T11:00,18.4,61,10.8,17.6,0.0,0.0,0.0,0.0,1,1025.0,1007.5,24,0,0,81,0.33,0.83,8.8,11.0,109,109,22.0,16.2,12.2,11.8,11.9,0.356,0.369,0.396,0.394,1,3600.0,643.0,535.3,107.7,830.7,643.0,894.3,591.0,492.0,99.0,830.7,591.0,822.0,Magnoliopsida; Olea europaea L.; Quercus L.; Quercus suber L.; Eucalyptus L'Hér.; Pinus pinaster Aiton; Tracheophyta; 
2003,2003-07-25,Lisboa,Torres Vedras,Torres Vedras (são Pedro E São Tiago),Casal de São Pedro,39.09299855,-9.25866085,NC,33.0,2003-07-25T22:00,19.6,93,18.5,20.4,0.0,0.0,0.0,0.0,0,1019.7,1015.8,17,19,0,0,0.0,0.15,16.0,25.2,351,351,31.3,22.3,24.5,21.9,19.3,0.091,0.173,0.245,0.347,0,0.0,0.0,0.0,0.0,0.0,0.0,0.0,0.0,0.0,0.0,0.0,0.0,0.0,Tracheophyta; Magnoliopsida
2003,2003-02-14,Santarém,Abrantes,Bemposta,BEMPOSTA,39.3499282,-8.142150422649244,NC,100.0,2003-02-14T13:00,13.4,55,4.5,10.0,0.0,0.0,0.0,0.0,1,1019.4,1007.3,34,24,16,8,0.3,0.69,16.4,21.8,351,352,40.3,13.8,9.5,10.7,12.2,0.194,0.209,0.246,0.242,1,3600.0,619.0,509.5,109.5,836.6,619.0,854.5,616.0,507.0,109.0,836.6,616.0,850.3,Quercus suber L.; Magnoliopsida; Pinus pinaster Aiton; Eucalyptus L'Hér.; Tracheophyta; Olea europaea L.; Vitis vinifera L.; Pinus pinea L.; Acacia Mill.; Pinales; 
2003,2003-07-26,Lisboa,Loures,Bucelas,Freixial,38.9063386,-9.1535911,NC,108.0,2003-07-26T12:00,25.7,60,17.4,27.9,0.0,0.0,0.0,0.0,0,1018.7,1006.2,14,16,0,0,0.55,1.31,13.1,16.0,302,306,28.8,31.8,23.9,22.1,19.4,0.092,0.17,0.241,0.344,1,3600.0,835.3,629.6,205.7,676.8,835.3,1233.2,812.0,612.0,200.0,676.8,812.0,1198.8,Magnoliopsida; Tracheophyta; Olea europaea L.; Pinus pinea L.; Pinus pinaster Aiton; Eucalyptus L'Hér.; Vitis vinifera L.; 
2003,2003-07-18,Santarém,Sardoal,Valhascos,VALHASCOS,39.52081335,-8.156064996677218,NC,174.0,2003-07-18T17:00,27.5,36,11.2,25.7,0.0,0.0,0.0,0.0,0,1020.3,1000.4,0,0,0,0,0.47,2.34,15.8,19.9,305,305,34.2,33.4,23.8,21.6,18.9,0.062,0.064,0.111,0.221,1,3600.0,502.3,419.2,83.1,793.2,502.3,699.8,580.0,484.0,96.0,793.2,580.0,808.0,Tracheophyta; Olea europaea L.; Pinus pinaster Aiton; Eucalyptus L'Hér.; Magnoliopsida
2003,2003-07-26,Lisboa,Cascais,São Domingos de Rana,SÃO DOMINGOS DE RANA,38.72511365,-9.355976966821707,NC,92.0,2003-07-26T18:00,22.3,77,18.0,22.2,0.0,0.0,0.0,0.0,0,1017.2,1006.4,0,0,0,0,0.23,0.62,20.2,27.9,309,309,36.7,26.0,23.4,20.9,18.7,0.144,0.185,0.248,0.343,1,3600.0,293.8,228.3,65.6,656.9,293.8,460.7,372.0,289.0,83.0,656.9,372.0,583.3,Tracheophyta; Magnoliopsida
2003,2003-07-27,Setúbal,Palmela,Marateca,Monte das Ferrarias,38.5824916,-8.721058086475654,NC,18.0,2003-07-27T12:00,27.2,54,16.9,28.7,0.0,0.0,0.0,0.0,1,1018.8,1016.7,22,24,0,0,0.55,1.67,14.4,17.6,292,301,27.7,32.6,24.9,22.5,19.7,0.054,0.061,0.094,0.198,1,3600.0,789.6,577.8,211.8,620.0,789.6,1235.7,768.0,562.0,206.0,620.0,768.0,1202.0,Vitis vinifera L.; Pinus pinea L.; Magnoliopsida; Oryza sativa L.; Tracheophyta; Quercus rotundifolia Lam.
2003,2003-07-28,Santarém,Cartaxo,Lapa,LAPA,39.1614125,-8.881055216239877,NC,84.0,2003-07-28T18:00,25.4,42,11.5,22.0,0.0,0.0,0.0,0.0,0,1020.6,1010.8,0,0,0,0,0.37,1.88,26.5,36.9,348,350,52.6,30.8,25.7,22.7,19.7,0.087,0.163,0.231,0.332,1,3600.0,297.9,236.6,61.3,697.6,297.9,449.9,379.0,301.0,78.0,697.6,379.0,572.3,Olea europaea L.; Tracheophyta; Magnoliopsida; Vitis vinifera L.; Quercus L.; Pinales; ; Eucalyptus L'Hér.
2003,2003-07-16,Setúbal,Setúbal,Setúbal (são Sebastião),Alto da Cascalheira,38.52734715,-8.85704211645389,NC,26.0,2003-07-16T17:00,24.3,38,9.2,21.3,0.0,0.0,0.0,0.0,0,1018.1,1015.1,0,0,0,0,0.44,1.87,19.9,26.1,315,321,33.1,29.8,23.1,21.8,18.9,0.071,0.06,0.091,0.201,1,3600.0,492.8,396.5,96.3,736.7,492.8,712.5,568.0,457.0,111.0,736.7,568.0,821.3,Tracheophyta; Pinus pinaster Aiton; Olea europaea L.; Magnoliopsida
2003,2003-07-22,Lisboa,Alenquer,Carnota,Santana da Carnota,39.0377246,-9.06827966311609,NC,175.0,2003-07-22T00:00,17.2,84,14.5,16.6,0.0,0.0,0.0,0.0,0,1019.9,999.2,2,1,0,2,0.02,0.31,14.0,24.4,337,341,26.3,19.5,23.7,21.6,18.9,0.088,0.169,0.242,0.343,0,0.0,0.0,0.0,0.0,0.0,0.0,0.0,0.0,0.0,0.0,0.0,0.0,0.0,Tracheophyta; Vitis vinifera L.; Eucalyptus L'Hér.; Magnoliopsida; Olea europaea L.
2003,2003-07-22,Lisboa,Loures,Fanhões,Casainhos,38.8805246,-9.1541923,NC,176.0,2003-07-22T15:00,24.8,50,13.8,24.0,0.0,0.0,0.0,0.0,0,1021.2,1000.8,0,0,0,0,0.57,1.56,24.0,31.0,336,338,45.0,31.7,23.5,21.3,18.8,0.096,0.172,0.243,0.345,1,3600.0,815.6,704.9,110.7,858.9,815.6,1087.4,862.0,745.0,117.0,858.9,862.0,1149.2,Magnoliopsida; Tracheophyta; Eucalyptus L'Hér.; 
2003,2003-07-23,Lisboa,Loures,Unhos,Catujal,38.8169449,-9.124492,NC,129.0,2003-07-23T10:00,21.4,60,13.3,20.1,0.0,0.0,0.0,0.0,0,1022.7,1007.5,2,2,0,0,0.4,1.01,19.8,26.1,344,345,43.2,23.2,22.1,21.8,20.5,0.241,0.28,0.319,0.365,1,3600.0,732.0,577.3,154.7,749.5,732.0,1020.5,667.0,526.0,141.0,749.5,667.0,929.9,Tracheophyta; Olea europaea L.; Magnoliopsida; 
2003,2003-04-27,Santarém,Ourém,Freixianda,Cumeada,39.7597878,-8.4587486,NC,116.0,2003-04-27T15:00,21.4,52,11.3,19.3,0.0,0.0,0.0,0.0,1,1012.9,999.4,25,10,17,18,0.34,1.22,17.1,23.0,188,189,36.0,20.9,16.1,14.2,13.1,0.329,0.353,0.355,0.373,1,3600.0,435.9,147.8,288.1,197.4,435.9,1011.3,466.0,158.0,308.0,197.4,466.0,1081.3,Olea europaea L.; Pinus pinaster Aiton; Tracheophyta; Eucalyptus L'Hér.
2003,2003-07-22,Lisboa,Sintra,Algueirão-Mem Martins,Casal da Cavaleira,38.7999099,-9.3397834,NC,166.0,2003-07-22T23:00,18.4,86,15.9,17.1,0.0,0.0,0.0,0.0,0,1023.1,1003.4,4,4,0,0,0.03,0.3,22.9,33.0,341,342,38.2,20.0,22.0,20.3,18.0,0.138,0.182,0.248,0.342,0,0.0,0.0,0.0,0.0,0.0,0.0,0.0,0.0,0.0,0.0,0.0,0.0,0.0,Tracheophyta; Magnoliopsida; Pinales; 
2003,2003-06-15,Leiria,Caldas da Rainha,Santa Catarina,Mata de Porto Moiro,39.4469306,-9.0155179,NC,89.0,2003-06-15T15:00,24.2,58,15.4,24.8,0.0,0.0,0.0,0.0,2,1017.9,1007.6,70,78,0,0,0.49,1.28,15.0,18.1,294,293,32.4,31.2,24.1,20.9,16.3,0.1,0.19,0.274,0.361,1,3600.0,699.6,456.6,243.0,553.2,699.6,1094.3,740.0,483.0,257.0,553.2,740.0,1157.4,Eucalyptus L'Hér.; Magnoliopsida; Tracheophyta; Vitis vinifera L.; Pinus pinaster Aiton
2003,2003-07-22,Setúbal,Almada,Caparica,Capuchos,38.645517,-9.222088,NC,95.0,2003-07-22T18:00,22.4,59,13.9,19.6,0.0,0.0,0.0,0.0,0,1021.2,1010.1,0,0,0,0,0.29,1.11,27.4,36.4,337,339,45.7,27.9,23.6,21.1,18.9,0.054,0.072,0.129,0.231,1,3600.0,305.4,241.1,64.2,682.5,305.4,468.1,385.0,304.0,81.0,682.5,385.0,590.2,Tracheophyta; Pinus pinea L.; Pinales; Magnoliopsida
2003,2003-07-23,Lisboa,Cascais,Alcabideche,Pai do Vento,38.7155542,-9.4165394,NC,70.0,2003-07-23T21:00,19.3,79,15.5,17.5,0.0,0.0,0.0,0.0,0,1022.6,1014.3,0,0,0,0,0.05,0.47,25.2,36.6,346,347,42.5,21.4,22.5,20.8,18.6,0.149,0.186,0.25,0.344,0,0.0,0.0,0.0,0.0,0.0,0.0,0.0,0.0,0.0,0.0,0.0,0.0,0.0,Tracheophyta; Eucalyptus L'Hér.; Magnoliopsida; Pinus pinea L.; Pinus pinaster Aiton; Pinales; Vitis vinifera L.; 
2003,2003-07-22,Santarém,Ourém,Nossa Senhora das Misericórdias,Bairro,39.5678412,-8.589973974244216,NC,300.0,2003-07-22T15:00,25.9,42,12.2,25.7,0.0,0.0,0.0,0.0,0,1019.6,985.4,0,0,0,0,0.61,1.93,17.3,21.7,318,320,40.7,33.2,23.2,21.1,18.4,0.082,0.167,0.25,0.35,1,3600.0,811.2,705.3,105.9,865.8,811.2,1079.3,858.0,746.0,112.0,865.8,858.0,1141.6,Olea europaea L.; Quercus L.; Tracheophyta; Magnoliopsida
2003,2003-07-28,Lisboa,Torres Vedras,Turcifal,Mugideira,39.05738,-9.240821,NC,129.0,2003-07-28T13:00,24.9,47,12.8,23.9,0.0,0.0,0.0,0.0,0,1022.0,1007.0,0,0,0,0,0.64,1.67,25.7,32.5,354,356,47.5,32.0,23.8,22.3,19.3,0.084,0.167,0.238,0.342,1,3600.0,962.5,846.3,116.2,902.7,962.5,1243.5,961.0,845.0,116.0,902.7,961.0,1241.6,Tracheophyta; Castanea sativa Mill.; Vitis vinifera L.; Magnoliopsida; Pinales; Eucalyptus L'Hér.; 
2003,2003-07-31,Lisboa,Odivelas,Pontinha,Pontinha,38.77702215,-9.199862345373251,NC,35.0,2003-07-31T15:00,35.3,30,15.2,36.0,0.0,0.0,0.0,0.0,0,1012.7,1008.8,0,0,0,0,0.77,4.0,17.7,21.7,343,354,27.7,38.4,27.7,22.7,19.5,0.119,0.173,0.239,0.34,1,3600.0,805.0,703.9,101.1,870.6,805.0,1073.2,852.0,745.0,107.0,870.6,852.0,1135.9,Pinus pinea L.; Olea europaea L.; Tracheophyta; Magnoliopsida; ; Pinales
2003,2003-07-21,Leiria,Peniche,Atouguia da Baleia,São Bernardino,39.309091,-9.3405217,NC,54.0,2003-07-21T21:00,18.8,79,15.2,17.7,0.0,0.0,0.0,0.0,0,1019.7,1013.3,18,0,0,61,0.04,0.45,19.7,27.7,351,351,32.4,21.9,24.2,21.3,19.0,0.047,0.084,0.141,0.235,0,0.0,0.0,0.0,0.0,0.0,0.0,0.0,0.0,0.0,0.0,0.0,0.0,0.0,Eucalyptus L'Hér.; Magnoliopsida; Tracheophyta; Pinus pinaster Aiton; Pinus pinea L.; 
2003,2003-07-20,Lisboa,Arruda dos Vinhos,Arranhó,Louriceira de Cima,38.9533255,-9.1349729,NC,239.0,2003-07-20T01:00,16.6,91,15.1,16.0,0.0,0.0,0.0,0.0,0,1019.0,990.8,12,13,0,0,0.01,0.18,16.3,27.9,338,340,27.7,18.4,23.0,21.0,18.4,0.101,0.17,0.243,0.344,0,0.0,0.0,0.0,0.0,0.0,0.0,0.0,0.0,0.0,0.0,0.0,0.0,0.0,Tracheophyta; Magnoliopsida
2003,2003-07-22,Lisboa,Amadora,São Brás,Moinhos da Funcheira,38.7777478,-9.2421045,NC,254.0,2003-07-22T17:00,22.9,54,13.2,20.4,0.0,0.0,0.0,0.0,0,1020.4,991.0,0,0,0,0,0.39,1.27,24.3,33.0,331,332,49.0,29.2,23.4,20.8,18.3,0.095,0.171,0.243,0.345,1,3600.0,498.8,412.9,85.9,769.3,498.8,711.2,575.0,476.0,99.0,769.3,575.0,819.8,Tracheophyta; Magnoliopsida
2003,2003-07-17,Lisboa,Loures,Santa Iria de Azoia,Bairro do Estacal Novo,38.8369295,-9.089971126712737,NC,66.0,2003-07-17T13:00,24.0,47,11.9,25.4,0.0,0.0,0.0,0.0,0,1019.9,1012.2,0,0,0,0,0.64,1.59,11.2,13.6,315,320,26.6,27.2,23.6,23.6,22.4,0.265,0.281,0.321,0.366,1,3600.0,980.1,858.9,121.1,903.3,980.1,1258.9,979.0,858.0,121.0,903.3,979.0,1257.5,Tracheophyta; Magnoliopsida; Olea europaea L.; 
2003,2003-07-23,Lisboa,Alenquer,Carregado,Carregado,39.0222962,-8.9751454,NC,19.0,2003-07-23T15:00,25.3,47,13.2,24.3,0.0,0.0,0.0,0.0,0,1022.1,1019.9,0,0,0,0,0.59,1.71,24.2,31.8,335,337,51.8,30.8,24.0,22.0,19.2,0.166,0.259,0.326,0.417,1,3600.0,820.1,703.8,116.4,860.1,820.1,1084.3,867.0,744.0,123.0,860.1,867.0,1146.3,Magnoliopsida; Tracheophyta
2003,2003-07-17,Lisboa,Amadora,São Brás,Casal da Fonte Santa,38.768975,-9.2286535,NC,180.0,2003-07-17T15:00,23.0,51,12.4,23.1,0.0,0.0,0.0,0.0,0,1019.8,998.9,0,0,0,0,0.56,1.38,16.6,20.8,321,323,33.5,27.1,21.1,20.1,17.9,0.17,0.181,0.25,0.345,1,3600.0,838.9,728.1,110.8,880.3,838.9,1095.1,886.0,769.0,117.0,880.3,886.0,1156.6,Tracheophyta
2003,2003-07-01,Santarém,Rio Maior,Rio Maior,Alto da Serra,39.3537858,-8.9623882,NC,215.0,2003-07-01T23:00,16.6,88,14.7,17.6,0.0,0.0,0.0,0.0,1,1018.0,992.6,25,20,12,0,0.0,0.22,3.9,10.8,304,307,14.0,18.1,20.6,20.2,16.9,0.18,0.178,0.255,0.354,0,0.0,0.0,0.0,0.0,0.0,0.0,0.0,0.0,0.0,0.0,0.0,0.0,0.0,Eucalyptus L'Hér.; Tracheophyta; Magnoliopsida; Olea europaea L.; Vitis vinifera L.
2003,2003-07-22,Lisboa,Sintra,Almargem do Bispo,Sabugo,38.8491202,-9.264334778649603,NC,283.0,2003-07-22T13:00,24.1,50,13.1,24.7,0.0,0.0,0.0,0.0,0,1020.9,988.3,0,0,0,0,0.62,1.5,17.4,21.8,336,338,41.4,30.2,22.1,20.6,18.0,0.096,0.172,0.243,0.345,1,3600.0,954.4,829.2,125.2,876.4,954.4,1253.5,953.0,828.0,125.0,876.4,953.0,1251.7,Tracheophyta; Magnoliopsida; Pinus pinaster Aiton; Eucalyptus L'Hér.; Vitis vinifera L.; 
2003,2003-07-22,Lisboa,Loures,Camarate,CAMARATE,38.7979738,-9.137797597001224,NC,130.0,2003-07-22T14:00,25.2,48,13.4,24.7,0.0,0.0,0.0,0.0,0,1021.0,1005.9,0,0,0,0,0.63,1.67,23.2,29.2,332,336,40.7,27.7,23.6,22.8,21.5,0.241,0.28,0.319,0.365,1,3600.0,911.5,794.5,117.0,875.2,911.5,1202.7,935.0,815.0,120.0,875.2,935.0,1233.7,Tracheophyta; Olea europaea L.; Magnoliopsida; 
2003,2003-07-24,Leiria,Peniche,Atouguia da Baleia,Casal Vale Verde,39.34781665,-9.334225849608696,NC,11.0,2003-07-24T22:00,19.1,88,17.0,18.4,0.0,0.0,0.0,0.0,2,1020.7,1019.4,55,61,0,0,0.02,0.27,21.8,30.6,344,345,37.4,21.4,24.3,21.8,19.5,0.045,0.083,0.14,0.234,0,0.0,0.0,0.0,0.0,0.0,0.0,0.0,0.0,0.0,0.0,0.0,0.0,0.0,Eucalyptus L'Hér.; Magnoliopsida; Tracheophyta; Pinus pinaster Aiton; Pinus pinea L.; 
2003,2003-07-28,Lisboa,Sintra,Agualva-Cacém,Cacém,38.7665167,-9.2984684,NC,113.0,2003-07-28T14:00,24.5,51,13.9,23.6,0.0,0.0,0.0,0.0,0,1021.0,1007.9,0,0,0,0,0.61,1.49,27.3,35.7,347,351,46.8,27.8,22.5,21.1,18.7,0.128,0.179,0.244,0.34,1,3600.0,924.0,811.9,112.1,901.5,924.0,1194.6,948.0,833.0,115.0,901.5,948.0,1225.6,Tracheophyta; Magnoliopsida
2003,2003-07-20,Lisboa,Cascais,Parede,PAREDE,38.6932444,-9.355054025521005,NC,55.0,2003-07-20T03:00,18.4,82,15.3,17.4,0.0,0.0,0.0,0.0,0,1018.8,1012.3,14,16,0,0,0.03,0.38,19.6,28.5,343,344,30.2,19.8,22.2,20.7,18.6,0.163,0.189,0.253,0.345,0,0.0,0.0,0.0,0.0,0.0,0.0,0.0,0.0,0.0,0.0,0.0,0.0,0.0,Magnoliopsida; Tracheophyta; Pinus pinea L.; Pinus pinaster Aiton; 
2003,2003-07-20,Lisboa,Vila Franca de Xira,Vila Franca de Xira,Casal da Coxa,38.9612031,-9.0173488,NC,211.0,2003-07-20T18:00,21.6,56,12.4,19.1,0.0,0.0,0.0,0.0,0,1016.0,991.5,2,0,0,6,0.28,1.13,22.0,29.8,322,323,42.5,28.3,24.1,21.2,18.6,0.093,0.17,0.243,0.344,1,3600.0,308.8,241.2,67.7,675.8,308.8,472.7,388.0,303.0,85.0,675.8,388.0,593.8,Tracheophyta; ; Magnoliopsida; Eucalyptus L'Hér.; Pinus pinaster Aiton
2003,2003-07-26,Lisboa,Lourinhã,Reguengo Grande,REGUENGO GRANDE,39.2837447,-9.2101967,NC,173.0,2003-07-26T21:00,19.8,90,18.1,20.9,0.0,0.0,0.0,0.0,0,1017.6,997.3,11,12,0,0,0.0,0.23,12.6,20.4,294,296,22.7,22.3,23.3,20.2,17.9,0.049,0.074,0.13,0.227,0,0.0,0.0,0.0,0.0,0.0,0.0,0.0,0.0,0.0,0.0,0.0,0.0,0.0,Vitis vinifera L.; Tracheophyta; Magnoliopsida; Eucalyptus L'Hér.; Quercus L.; 
2003,2003-07-27,Santarém,Salvaterra de Magos,Marinhais,MARINHAIS,39.03184385,-8.682415411567288,NC,44.0,2003-07-27T18:00,24.6,42,10.9,21.4,0.0,0.0,0.0,0.0,0,1019.1,1014.0,0,0,0,0,0.36,1.79,24.0,33.0,334,335,46.4,30.5,26.2,22.4,19.4,0.128,0.182,0.233,0.303,1,3600.0,302.3,238.7,63.6,706.7,302.3,447.8,385.0,304.0,81.0,706.7,385.0,570.4,Tracheophyta; Quercus suber L.; Eucalyptus L'Hér.; Pinus pinaster Aiton; Magnoliopsida
2003,2003-07-22,Lisboa,Azambuja,Aveiras de Baixo,AVEIRAS DE BAIXO,39.09041865,-8.842656759058414,NC,8.0,2003-07-22T15:00,27.7,40,12.9,27.4,0.0,0.0,0.0,0.0,0,1019.7,1018.8,0,0,0,0,0.64,2.22,19.2,24.5,326,327,42.5,32.0,23.9,21.9,19.3,0.145,0.202,0.264,0.353,1,3600.0,817.3,706.6,110.7,863.3,817.3,1084.4,864.0,747.0,117.0,863.3,864.0,1146.4,Pinus pinaster Aiton; Magnoliopsida; Quercus suber L.; Pinus pinea L.; Tracheophyta
2003,2003-07-03,Lisboa,Loures,Bucelas,Alto do Carrascal,38.9016248,-9.118728,NC,89.0,2003-07-03T14:00,23.0,54,13.2,22.0,0.0,0.0,0.0,0.0,3,1019.5,1009.1,88,92,8,0,0.37,1.29,13.7,17.6,315,316,31.0,25.7,21.2,21.1,18.1,0.131,0.191,0.268,0.362,1,3600.0,490.2,171.5,318.7,186.7,490.2,1215.9,503.0,176.0,327.0,186.7,503.0,1247.6,Magnoliopsida; Tracheophyta; Olea europaea L.; Pinus pinea L.; Pinus pinaster Aiton; Eucalyptus L'Hér.; Vitis vinifera L.; 
2003,2003-07-23,Leiria,Alcobaça,Pataias,Pisões,39.657082,-8.941130795140356,NC,94.0,2003-07-23T22:00,18.2,83,15.3,16.9,0.0,0.0,0.0,0.0,0,1023.1,1011.9,7,8,0,0,0.03,0.35,21.3,29.6,356,356,35.6,19.9,22.2,20.2,18.1,0.056,0.069,0.11,0.219,0,0.0,0.0,0.0,0.0,0.0,0.0,0.0,0.0,0.0,0.0,0.0,0.0,0.0,Tracheophyta; Pinus pinaster Aiton; Olea europaea L.
2003,2003-07-23,Lisboa,Loures,Bucelas,Freixial,38.9063386,-9.1535911,NC,108.0,2003-07-23T19:00,21.0,69,15.2,19.0,0.0,0.0,0.0,0.0,0,1022.4,1009.7,1,1,0,0,0.16,0.77,26.0,36.1,343,343,46.8,26.0,24.4,21.8,19.3,0.093,0.171,0.242,0.345,1,3600.0,119.8,82.2,37.6,511.2,119.8,213.1,191.0,131.0,60.0,511.2,191.0,339.6,Magnoliopsida; Tracheophyta; Olea europaea L.; Pinus pinea L.; Pinus pinaster Aiton; Eucalyptus L'Hér.; Vitis vinifera L.; 
2003,2003-07-18,Lisboa,Vila Franca de Xira,Vila Franca de Xira,VILA FRANCA DE XIRA,38.9561945,-8.98572979001366,NC,5.0,2003-07-18T01:00,16.7,83,13.9,16.5,0.0,0.0,0.0,0.0,0,1021.6,1021.0,0,0,0,0,0.01,0.32,10.4,22.4,326,332,18.4,18.4,22.5,21.9,19.0,0.221,0.261,0.331,0.419,0,0.0,0.0,0.0,0.0,0.0,0.0,0.0,0.0,0.0,0.0,0.0,0.0,0.0,Tracheophyta; ; Magnoliopsida; Olea europaea L.
2003,2003-07-20,Lisboa,Sintra,Algueirão-Mem Martins,Sacotes,38.8079654,-9.3325834,NC,197.0,2003-07-20T21:00,18.5,83,15.5,18.1,0.0,0.0,0.0,0.0,0,1017.3,994.1,0,0,0,0,0.02,0.37,15.7,25.8,323,324,31.3,20.7,22.1,20.0,17.8,0.147,0.183,0.25,0.342,0,0.0,0.0,0.0,0.0,0.0,0.0,0.0,0.0,0.0,0.0,0.0,0.0,0.0,Tracheophyta; Magnoliopsida; Pinales; 
2003,2003-07-31,Santarém,Alcanena,Moitas Venda,MOITAS VENDA,39.4929824,-8.6570906,NC,168.0,2003-07-31T16:00,36.4,29,15.5,36.7,0.0,0.0,0.0,0.0,0,1013.1,994.5,0,0,0,0,0.68,4.3,16.3,20.6,338,341,37.1,41.7,28.8,23.0,19.4,0.071,0.164,0.247,0.347,1,3600.0,652.7,556.3,96.4,826.3,652.7,893.6,718.0,612.0,106.0,826.3,718.0,983.0,Olea europaea L.; Pinus pinaster Aiton; Tracheophyta; Quercus L.; Magnoliopsida; 
2003,2003-05-01,Santarém,Almeirim,Almeirim,ALMEIRIM,39.2107506,-8.6340173,NC,7.0,2003-05-01T17:00,18.9,52,8.8,16.1,0.0,0.0,0.0,0.0,0,1018.6,1017.8,10,7,7,0,0.3,1.05,17.0,22.4,275,275,37.4,20.4,16.7,14.9,13.9,0.322,0.335,0.346,0.34,1,3600.0,403.6,313.6,90.0,687.3,403.6,615.2,480.0,373.0,107.0,687.3,480.0,731.6,Tracheophyta; Vitis vinifera L.
2003,2003-07-27,Lisboa,Cadaval,Pêro Moniz,PERO MONIZ,39.2186698,-9.122667310828138,NC,55.0,2003-07-27T15:00,24.4,52,13.8,23.9,0.0,0.0,0.0,0.0,0,1019.5,1013.1,0,0,0,0,0.57,1.48,21.9,28.0,333,334,47.5,34.0,25.9,22.6,19.7,0.084,0.166,0.238,0.337,1,3600.0,824.7,715.9,108.8,880.4,824.7,1078.3,872.0,757.0,115.0,880.4,872.0,1140.2,Tracheophyta; Eucalyptus L'Hér.; Magnoliopsida
2003,2003-04-03,Santarém,Ourém,Fátima,Cova da Iria,39.60322805,-8.663198476923824,NC,353.0,2003-04-03T22:00,12.4,65,6.1,10.1,0.0,0.0,0.0,0.0,0,1015.7,973.9,0,0,0,0,0.02,0.5,9.0,24.3,53,58,18.0,12.7,14.4,12.6,11.5,0.347,0.37,0.39,0.385,0,0.0,0.0,0.0,0.0,0.0,0.0,0.0,0.0,0.0,0.0,0.0,0.0,0.0,Olea europaea L.; Magnoliopsida; Tracheophyta; Eucalyptus L'Hér.
2003,2003-07-23,Lisboa,Sintra,Almargem do Bispo,ALMARGEM DO BISPO,38.8640076,-9.3371894,NC,136.0,2003-07-23T14:00,23.0,60,14.9,22.4,0.0,0.0,0.0,0.0,0,1022.6,1006.7,0,0,0,0,0.55,1.11,26.8,34.2,336,338,46.8,31.0,23.5,21.7,19.1,0.088,0.173,0.247,0.349,1,3600.0,912.7,784.9,127.7,865.5,912.7,1201.7,936.0,805.0,131.0,865.5,936.0,1232.4,Tracheophyta; Magnoliopsida; Pinus pinaster Aiton; Eucalyptus L'Hér.; Vitis vinifera L.; 
2003,2003-07-20,Setúbal,Seixal,Aldeia de Paio Pires,ALDEIA DE PAIO PIRES,38.6236478,-9.083138906923136,NC,19.0,2003-07-20T01:00,18.5,88,16.5,18.2,0.0,0.0,0.0,0.0,0,1018.6,1016.3,3,3,0,0,0.01,0.25,17.0,27.6,343,345,27.4,19.8,24.1,21.7,19.5,0.06,0.072,0.125,0.226,0,0.0,0.0,0.0,0.0,0.0,0.0,0.0,0.0,0.0,0.0,0.0,0.0,0.0,Tracheophyta; Magnoliopsida; Pinus pinaster Aiton
2003,2003-07-27,Lisboa,Torres Vedras,São Pedro da Cadeira,SÃO PEDRO DA CADEIRA,39.0673,-9.37461,NC,46.0,2003-07-27T16:00,23.2,58,14.4,22.0,0.0,0.0,0.0,,0,1019.9,1014.5,0,0,0,0,0.47,1.2,24.2,31.0,337,338,45.4,26.5,22.9,20.8,19.2,0.076,0.121,0.164,0.24,1,3600.0,681.1,582.7,98.5,846.4,681.1,912.9,747.0,639.0,108.0,846.4,747.0,1001.2,Magnoliopsida; Tracheophyta; Vitis vinifera L.; Eucalyptus L'Hér.; 
2003,2003-07-20,Setúbal,Montijo,Montijo,MONTIJO,38.7060845,-8.9746372,NC,6.0,2003-07-20T02:00,18.0,89,16.1,17.9,0.0,0.0,0.0,0.0,0,1018.5,1017.8,6,7,0,0,0.01,0.23,15.1,26.7,342,344,26.6,21.2,24.0,22.6,21.1,0.191,0.188,0.216,0.276,0,0.0,0.0,0.0,0.0,0.0,0.0,0.0,0.0,0.0,0.0,0.0,0.0,0.0,Tracheophyta
2003,2003-07-21,Santarém,Salvaterra de Magos,Glória do Ribatejo,GLÓRIA DO RIBATEJO,39.04230785,-8.6402425,NC,61.0,2003-07-21T02:00,16.1,91,14.7,16.2,0.0,0.0,0.0,0.0,0,1017.0,1009.7,5,6,0,0,0.0,0.16,10.1,21.1,325,330,18.4,17.5,23.9,21.9,19.3,0.052,0.064,0.11,0.195,0,0.0,0.0,0.0,0.0,0.0,0.0,0.0,0.0,0.0,0.0,0.0,0.0,0.0,Olea europaea L.; Tracheophyta; Eucalyptus L'Hér.; Pinus pinaster Aiton
2003,2003-07-21,Setúbal,Seixal,Corroios,Pinhal do Conde,38.6352837,-9.154203,NC,16.0,2003-07-21T17:00,23.3,56,13.9,21.0,0.0,0.0,0.0,0.0,1,1018.4,1016.5,27,0,0,89,0.38,1.27,24.6,31.6,328,330,40.7,29.8,24.0,21.5,19.3,0.055,0.073,0.129,0.231,1,3600.0,457.9,308.7,149.2,575.4,457.9,710.7,528.0,356.0,172.0,575.4,528.0,819.5,Tracheophyta
2003,2003-07-18,Setúbal,Montijo,Atalaia,Atalaia,38.7003266,-8.9302834,NC,49.0,2003-07-18T00:00,17.1,75,12.6,16.4,0.0,0.0,0.0,0.0,0,1022.0,1016.1,0,0,0,0,0.02,0.49,10.9,21.9,333,337,19.4,18.7,22.9,21.3,18.7,0.077,0.06,0.096,0.201,0,0.0,0.0,0.0,0.0,0.0,0.0,0.0,0.0,0.0,0.0,0.0,0.0,0.0,Tracheophyta; Quercus suber L.; Magnoliopsida; Pinus pinea L.; 
2003,2003-07-31,Santarém,Vila Nova da Barquinha,Praia do Ribatejo,Madeiras,39.4830378,-8.356922,NC,89.0,2003-07-31T16:00,40.6,17,10.4,40.3,0.0,0.0,0.0,0.0,0,1012.1,1002.3,0,0,0,0,0.66,6.35,9.7,11.5,321,321,25.2,48.0,30.1,23.1,19.8,0.044,0.063,0.11,0.22,1,3600.0,649.2,554.8,94.4,828.6,649.2,888.8,715.0,611.0,104.0,828.6,715.0,978.8,Eucalyptus L'Hér.; Magnoliopsida; Olea europaea L.; Tracheophyta; Vitis vinifera L.; Pinus pinaster Aiton; 
2003,2003-07-27,Lisboa,Sintra,Colares,COLARES,38.8014202,-9.4425612,NC,30.0,2003-07-27T13:00,22.5,72,17.1,24.0,0.0,0.0,0.0,0.0,0,1019.6,1016.1,0,0,0,0,0.53,0.77,20.0,25.1,326,331,38.2,31.2,24.0,21.9,19.5,0.081,0.133,0.194,0.286,1,3600.0,946.8,828.6,118.2,880.8,946.8,1247.5,945.0,827.0,118.0,880.8,945.0,1245.1,Tracheophyta; Magnoliopsida; Pinus pinaster Aiton; Pinales; Pinus pinea L.; Eucalyptus L'Hér.; Vitis vinifera L.; Acacia Mill.; 
2003,2003-07-23,Lisboa,Sintra,Algueirão-Mem Martins,Telhal,38.7999099,-9.3397834,Desconhecida,166.0,2003-07-23T15:00,22.4,62,14.7,21.5,0.0,0.0,0.0,0.0,0,1022.6,1003.2,0,0,0,0,0.5,1.04,26.9,35.0,335,338,46.8,26.6,22.0,20.3,18.1,0.136,0.181,0.248,0.342,1,3600.0,815.9,698.5,117.4,850.1,815.9,1088.8,862.0,738.0,124.0,850.1,862.0,1150.4,Tracheophyta; Magnoliopsida; Pinales; 
2003,2003-07-27,Lisboa,Loures,Lousa,Alto do Penedo Mouro,38.8666199,-9.221234,NC,117.0,2003-07-27T19:00,20.7,63,13.5,17.8,0.0,0.0,0.0,0.0,0,1019.9,1006.1,0,0,0,0,0.18,0.89,27.6,37.5,345,346,46.8,26.5,25.7,22.2,19.4,0.091,0.169,0.24,0.343,1,3600.0,117.8,82.8,35.0,542.7,117.8,202.4,192.0,135.0,57.0,542.7,192.0,329.9,Tracheophyta; Magnoliopsida; Pinus pinaster Aiton; Eucalyptus L'Hér.; Pinales; ; Pinus pinea L.
2003,2003-07-23,Santarém,Abrantes,Mouriscas,Cabrais,39.5028222,-8.094487,NC,180.0,2003-07-23T16:00,27.1,36,10.8,25.0,0.0,0.0,0.0,0.0,0,1019.7,999.1,0,0,0,0,0.58,2.3,22.2,28.9,320,321,47.9,32.9,24.0,21.7,19.1,0.051,0.063,0.107,0.219,1,3600.0,671.6,576.1,95.6,845.5,671.6,902.8,738.0,633.0,105.0,845.5,738.0,992.1,Olea europaea L.; Tracheophyta; Pinus pinaster Aiton; Magnoliopsida
2003,2003-07-01,Lisboa,Arruda dos Vinhos,Arranhó,Tesoureira,38.9533255,-9.1349729,NC,239.0,2003-07-01T12:00,20.5,57,11.6,19.3,0.0,0.0,0.0,0.0,2,1017.4,989.6,78,64,30,7,0.39,1.05,13.8,17.4,263,263,32.4,24.9,20.3,20.9,17.3,0.142,0.178,0.259,0.351,1,3600.0,623.9,247.3,376.6,260.1,623.9,1258.2,608.0,241.0,367.0,260.1,608.0,1226.1,Tracheophyta; Magnoliopsida
2003,2003-07-27,Lisboa,Alenquer,Abrigada,Cabanas do Chão,39.1450732,-9.0206761,NC,68.0,2003-07-27T23:00,17.5,78,13.6,15.9,0.0,0.0,0.0,0.0,0,1021.6,1013.5,0,0,0,0,0.04,0.44,19.2,31.1,347,350,36.0,20.9,26.0,23.0,19.9,0.082,0.165,0.236,0.337,0,0.0,0.0,0.0,0.0,0.0,0.0,0.0,0.0,0.0,0.0,0.0,0.0,0.0,Magnoliopsida; Tracheophyta
2003,2003-07-24,Setúbal,Palmela,Palmela,Vale de Touros,38.5760455,-8.865312259667704,NC,43.0,2003-07-24T17:00,26.6,54,16.6,25.6,0.0,0.0,0.0,0.0,0,1017.6,1012.6,0,0,0,0,0.43,1.6,23.1,31.8,304,309,39.2,31.9,24.5,21.7,19.1,0.058,0.059,0.089,0.2,1,3600.0,483.1,399.3,83.8,757.0,483.1,699.0,559.0,462.0,97.0,757.0,559.0,808.9,Vitis vinifera L.; ; Magnoliopsida; Quercus suber L.; Tracheophyta; Pinus pinea L.; Quercus rotundifolia Lam.
2003,2003-07-25,Lisboa,Sintra,Casal de Cambra,Casal de Cambra,38.79718845,-9.228319927517482,NC,230.0,2003-07-25T16:00,24.8,63,17.3,24.4,0.0,0.0,0.0,0.0,0,1018.5,992.1,7,8,0,0,0.41,1.16,22.4,29.7,336,337,46.1,27.9,22.5,20.3,18.0,0.127,0.177,0.244,0.343,1,3600.0,548.2,304.6,243.5,440.3,548.2,917.1,601.0,334.0,267.0,440.3,601.0,1005.5,Tracheophyta; Magnoliopsida; ; Eucalyptus L'Hér.
2003,2003-07-25,Santarém,Ourém,Alburitel,Toucinhos,39.6340967,-8.5327869,NC,241.0,2003-07-25T17:00,26.3,54,16.3,25.4,0.0,0.0,0.0,0.0,0,1018.3,990.8,6,7,0,0,0.41,1.58,21.3,28.4,326,327,42.8,32.6,24.5,21.5,18.7,0.078,0.162,0.243,0.347,1,3600.0,462.4,363.9,98.5,696.8,462.4,692.2,535.0,421.0,114.0,696.8,535.0,800.9,Magnoliopsida; Eucalyptus L'Hér.; Olea europaea L.; Tracheophyta; Pinus pinaster Aiton
2003,2003-07-23,Setúbal,Almada,Feijó,Feijó,38.65388335,-9.168357421916204,NC,55.0,2003-07-23T13:00,23.4,57,14.3,22.7,0.0,0.0,0.0,0.0,0,1023.0,1016.5,0,0,0,0,0.57,1.24,26.1,33.0,336,338,46.8,27.3,22.5,21.3,19.0,0.151,0.173,0.239,0.35,1,3600.0,950.3,820.1,130.2,866.8,950.3,1253.8,949.0,819.0,130.0,866.8,949.0,1252.0,Magnoliopsida; Tracheophyta; Pinus pinea L.
2003,2003-07-23,Lisboa,Cadaval,Figueiros,Palhoça,39.2820496,-9.0365674,NC,101.0,2003-07-23T20:00,19.4,74,14.7,17.7,0.0,0.0,0.0,0.0,0,1022.1,1010.1,0,0,0,0,0.08,0.58,22.6,34.3,338,339,47.2,23.6,24.1,21.7,19.1,0.091,0.167,0.238,0.342,0,1450.75,0.0,0.0,0.0,0.0,0.0,0.0,37.0,19.0,18.0,162.2,37.0,96.6,Magnoliopsida; Tracheophyta; Vitis vinifera L.; Eucalyptus L'Hér.; 
2003,2003-04-09,Santarém,Ourém,Freixianda,Cumeada,39.7597878,-8.4587486,NC,116.0,2003-04-09T16:00,16.3,52,6.5,12.9,0.0,0.0,0.0,0.0,0,1010.7,997.0,7,8,0,0,0.35,0.89,20.2,26.8,321,324,41.0,21.2,16.8,14.4,12.6,0.245,0.302,0.347,0.377,1,3600.0,572.1,488.8,83.4,867.7,572.1,768.6,645.0,551.0,94.0,867.7,645.0,866.5,Olea europaea L.; Pinus pinaster Aiton; Tracheophyta; Eucalyptus L'Hér.
2003,2003-07-22,Lisboa,Torres Vedras,Turcifal,Cadriceira,39.0295578,-9.2321111,NC,100.0,2003-07-22T14:00,25.1,51,14.3,25.1,0.0,0.0,0.0,0.0,0,1021.2,1009.6,0,0,0,0,0.61,1.56,22.0,27.8,339,341,42.1,32.2,23.6,21.7,19.2,0.096,0.171,0.243,0.344,1,3600.0,908.7,789.8,119.0,871.1,908.7,1201.1,932.0,810.0,122.0,871.1,932.0,1231.9,Tracheophyta; Castanea sativa Mill.; Vitis vinifera L.; Magnoliopsida; Pinales; Eucalyptus L'Hér.; 
2003,2003-07-19,Lisboa,Sintra,Casal de Cambra,Casal de Cambra,38.79718845,-9.228319927517482,NC,230.0,2003-07-19T17:00,23.0,59,14.6,21.9,0.0,0.0,0.0,0.0,0,1019.7,993.1,0,0,0,0,0.38,1.15,18.6,24.7,314,316,39.6,27.1,22.6,19.9,17.7,0.149,0.18,0.248,0.345,1,3600.0,502.2,416.1,86.0,769.3,502.2,716.4,578.0,479.0,99.0,769.3,578.0,824.6,Tracheophyta; Magnoliopsida; ; Eucalyptus L'Hér.
2003,2003-07-27,Santarém,Ourém,Olival,ALDEIA NOVA,39.7200507,-8.6165367,NC,232.0,2003-07-27T00:00,18.8,97,18.4,20.6,0.0,0.0,0.0,0.0,2,1017.8,990.6,78,87,0,0,0.0,0.06,9.0,17.3,293,293,21.2,20.6,23.7,20.6,18.0,0.062,0.082,0.123,0.238,0,0.0,0.0,0.0,0.0,0.0,0.0,0.0,0.0,0.0,0.0,0.0,0.0,0.0,Tracheophyta; Pinus pinaster Aiton; Eucalyptus L'Hér.; Magnoliopsida; Olea europaea L.
2003,2003-07-26,Leiria,Bombarral,Bombarral,BARREIRAS,39.2463203,-9.1492897,NC,100.0,2003-07-26T18:00,24.2,65,17.2,24.2,0.0,0.0,0.0,0.0,0,1017.3,1005.7,15,17,0,0,0.26,1.05,17.2,23.3,296,297,33.1,31.1,25.9,22.1,19.4,0.083,0.167,0.238,0.337,1,3600.0,276.8,202.5,74.3,583.3,276.8,460.2,350.0,256.0,94.0,583.3,350.0,581.9,Eucalyptus L'Hér.; Magnoliopsida; Vitis vinifera L.; Tracheophyta
2003,2003-07-27,Lisboa,Sintra,Belas,BELAS,38.7756179,-9.2638001,NC,142.0,2003-07-27T08:00,20.5,89,18.7,21.8,0.0,0.0,0.0,0.0,2,1018.7,1002.0,50,56,0,0,0.11,0.26,13.4,18.1,340,343,23.0,21.8,22.1,20.8,18.4,0.131,0.18,0.245,0.341,1,3600.0,238.6,95.9,142.6,213.9,238.6,594.8,189.0,76.0,113.0,213.9,189.0,471.2,Pinus pinaster Aiton; Tracheophyta; Pinales; Eucalyptus L'Hér.; Magnoliopsida; 
2003,2003-07-27,Lisboa,Loures,Camarate,Quinta de São Pedro,38.8000823,-9.13736540283195,NC,134.0,2003-07-27T18:00,21.9,56,12.6,18.7,0.0,0.0,0.0,0.0,0,1019.9,1004.2,0,0,0,0,0.3,1.17,27.9,37.1,340,342,46.1,26.4,24.8,23.1,21.8,0.238,0.278,0.318,0.364,1,3600.0,305.8,242.7,63.0,705.3,305.8,456.3,388.0,308.0,80.0,705.3,388.0,579.1,Tracheophyta; Olea europaea L.; Magnoliopsida; 
2003,2003-07-24,Lisboa,Sintra,Belas,BELAS,38.7756179,-9.2638001,NC,142.0,2003-07-24T09:00,21.2,77,17.1,20.7,0.0,0.0,0.0,0.0,1,1021.3,1004.6,29,32,0,0,0.25,0.57,20.9,27.4,341,343,34.9,22.3,21.2,20.5,18.3,0.135,0.181,0.247,0.341,1,3600.0,490.6,338.2,152.4,541.0,490.6,828.5,425.0,293.0,132.0,541.0,425.0,717.7,Pinus pinaster Aiton; Tracheophyta; Pinales; Eucalyptus L'Hér.; Magnoliopsida; 
2003,2003-07-28,Lisboa,Vila Franca de Xira,Calhandriz,CALHANDRIZ,38.9185086,-9.010851924829645,NC,3.0,2003-07-28T16:00,28.4,35,11.4,26.1,0.0,0.0,0.0,0.0,0,1020.7,1020.4,0,0,0,0,0.61,2.51,24.6,33.2,349,351,51.1,30.3,24.2,22.1,19.3,0.259,0.277,0.331,0.436,1,3600.0,673.7,579.0,94.7,847.6,673.7,906.1,740.0,636.0,104.0,847.6,740.0,995.3,Magnoliopsida; Tracheophyta; Pinus pinaster Aiton; Vitis vinifera L.; Olea europaea L.; Eucalyptus L'Hér.; Pinales; 
2003,2003-07-22,Lisboa,Vila Franca de Xira,Castanheira do Ribatejo,Areias de Baixo,38.9928763,-8.958712778426595,NC,3.0,2003-07-22T20:00,20.4,69,14.6,18.9,0.0,0.0,0.0,0.0,0,1021.2,1020.8,0,0,0,0,0.09,0.73,20.4,31.6,334,336,42.8,24.9,24.7,22.1,19.2,0.168,0.259,0.326,0.418,0,1567.09,0.0,0.0,0.0,0.0,0.0,0.0,39.0,20.0,19.0,170.8,39.0,96.5,Pinus pinea L.; Magnoliopsida; Tracheophyta; Vitis vinifera L.; Eucalyptus L'Hér.; Olea europaea L.; Pinus pinaster Aiton; 
2003,2003-04-06,Santarém,Abrantes,Tramagal,Crucifixo,39.4400349,-8.2683211,NC,96.0,2003-04-06T17:00,22.7,32,5.1,20.5,0.0,0.0,0.0,0.0,0,1013.1,1001.9,0,0,0,0,0.31,1.88,7.1,9.2,45,48,19.1,22.3,16.4,13.6,12.3,0.142,0.21,0.238,0.266,1,3600.0,371.5,308.1,63.4,807.3,371.5,521.7,457.0,379.0,78.0,807.3,457.0,641.7,Vitis vinifera L.; Tracheophyta; Eucalyptus L'Hér.; Magnoliopsida; Olea europaea L.; Quercus suber L.; Pinus pinaster Aiton; Pinus pinea L.; Pinales; 
2003,2003-07-31,Santarém,Santarém,Alcanhões,ALCANHÕES,39.2799244,-8.651417343624582,NC,31.0,2003-07-31T16:00,39.3,23,14.3,39.4,0.0,0.0,0.0,0.0,0,1012.2,1008.8,0,0,0,0,0.71,5.46,14.6,18.2,340,342,34.2,40.7,29.5,22.9,19.3,0.114,0.161,0.214,0.333,1,3600.0,649.8,550.7,99.1,817.7,649.8,893.9,715.0,606.0,109.0,817.7,715.0,983.6,Olea europaea L.; Magnoliopsida; Tracheophyta; Vitis vinifera L.
2003,2003-07-22,Santarém,Tomar,Pedreira,Porto de Cavaleiros,39.62022935,-8.406650165155357,NC,61.0,2003-07-22T16:00,27.8,39,12.5,26.1,0.0,0.0,0.0,0.0,0,1019.7,1012.7,0,0,0,0,0.59,2.29,22.9,29.5,323,325,47.5,35.6,25.4,22.8,20.0,0.084,0.161,0.229,0.348,1,3600.0,670.6,571.3,99.3,833.9,670.6,907.7,736.0,627.0,109.0,833.9,736.0,996.2,Tracheophyta; Magnoliopsida; Eucalyptus L'Hér.; Olea europaea L.; Pinus pinaster Aiton; Quercus suber L.
2003,2003-07-28,Lisboa,Loures,Santo Antão do Tojal,SANTO ANTÃO DO TOJAL,38.8590093,-9.1617468,NC,68.0,2003-07-28T17:00,26.1,40,11.6,22.4,0.0,0.0,0.0,0.0,0,1020.3,1012.4,0,0,0,0,0.49,2.02,29.6,40.3,350,353,50.4,27.6,24.5,23.2,21.8,0.238,0.278,0.317,0.364,1,3600.0,496.5,416.2,80.3,795.2,496.5,694.2,575.0,482.0,93.0,795.2,575.0,804.0,Magnoliopsida; Tracheophyta
2003,2003-07-18,Lisboa,Amadora,São Brás,Casal da Fonte Santa,38.768975,-9.2286535,NC,180.0,2003-07-18T21:00,19.6,88,17.6,20.6,0.0,0.0,0.0,0.0,0,1021.9,1000.7,0,0,0,0,0.01,0.27,11.8,21.5,320,320,24.8,21.8,22.5,20.2,18.0,0.156,0.181,0.249,0.345,0,0.0,0.0,0.0,0.0,0.0,0.0,0.0,0.0,0.0,0.0,0.0,0.0,0.0,Tracheophyta
2003,2003-07-28,Leiria,Alcobaça,São Martinho do Porto,Venda Nova,39.5362168,-9.1143034,NC,114.0,2003-07-28T00:00,16.8,85,14.4,15.2,0.0,0.0,0.0,0.0,0,1022.1,1008.5,4,5,0,0,0.02,0.28,20.7,32.6,353,354,35.6,18.0,24.0,21.7,19.0,0.049,0.081,0.136,0.232,0,0.0,0.0,0.0,0.0,0.0,0.0,0.0,0.0,0.0,0.0,0.0,0.0,0.0,Tracheophyta; Pinus pinaster Aiton; Magnoliopsida
2003,2003-07-27,Lisboa,Sintra,Belas,Idanha,38.7736196,-9.2705961,NC,163.0,2003-07-27T16:00,22.3,61,14.4,20.9,0.0,0.0,0.0,0.0,0,1019.7,1000.7,0,0,0,0,0.44,1.05,25.5,32.7,331,333,45.0,27.3,23.2,20.7,18.3,0.129,0.179,0.245,0.34,1,3600.0,676.3,579.7,96.6,841.9,676.3,913.1,742.0,636.0,106.0,841.9,742.0,1001.8,Pinus pinaster Aiton; Tracheophyta; Pinales; Eucalyptus L'Hér.; Magnoliopsida; 
2003,2003-07-24,Lisboa,Sintra,Almargem do Bispo,ALMARGEM DO BISPO,38.8640076,-9.3371894,NC,136.0,2003-07-24T09:00,21.4,77,17.2,20.9,0.0,0.0,0.0,0.0,1,1021.3,1005.3,29,32,0,0,0.25,0.59,20.9,27.4,341,343,34.9,23.9,22.5,21.7,19.1,0.088,0.173,0.246,0.349,1,3600.0,490.8,338.4,152.4,542.6,490.8,826.5,425.0,293.0,132.0,542.6,425.0,715.7,Tracheophyta; Magnoliopsida; Pinus pinaster Aiton; Eucalyptus L'Hér.; Vitis vinifera L.; 
2003,2003-07-27,Setúbal,Palmela,Palmela,Batudes,38.6020172,-8.9017562,NC,50.0,2003-07-27T12:00,26.1,56,16.8,27.0,0.0,0.0,0.0,0.0,1,1019.2,1013.4,22,25,0,0,0.5,1.48,15.8,18.6,291,302,27.0,31.8,24.3,21.8,19.2,0.057,0.059,0.087,0.199,1,3600.0,726.2,474.2,252.0,509.4,726.2,1234.4,706.0,461.0,245.0,509.4,706.0,1200.1,Vitis vinifera L.; ; Tracheophyta; Olea europaea L.; Pinus pinaster Aiton; Quercus suber L.; Pinus pinea L.
2003,2003-07-25,Lisboa,Sintra,Belas,Casal da Carregueira,38.7744421,-9.2542643,NC,192.0,2003-07-25T18:00,22.5,77,18.3,22.1,0.0,0.0,0.0,0.0,0,1018.3,996.0,1,1,0,0,0.23,0.62,23.5,32.5,333,334,45.4,25.6,22.7,20.3,18.0,0.131,0.18,0.246,0.341,1,3600.0,292.5,224.5,68.0,644.5,292.5,461.8,370.0,284.0,86.0,644.5,370.0,584.1,Pinus pinaster Aiton; Tracheophyta; Pinales; Eucalyptus L'Hér.; Magnoliopsida; 
2003,2003-07-27,Lisboa,Sobral de Monte Agraço,Sobral de Monte Agraço,SOBRAL DE MONTE AGRAÇO,39.01346065,-9.159639792999531,NC,184.0,2003-07-27T23:00,17.3,79,13.7,15.3,0.0,0.0,0.0,0.0,0,1021.8,1000.0,1,1,0,0,0.04,0.41,21.3,31.4,356,357,36.0,20.1,24.6,21.8,18.9,0.091,0.168,0.239,0.342,0,0.0,0.0,0.0,0.0,0.0,0.0,0.0,0.0,0.0,0.0,0.0,0.0,0.0,Vitis vinifera L.; Tracheophyta
2003,2003-07-25,Lisboa,Sintra,Montelavar,Rebanque,38.8779543,-9.3228258,NC,162.0,2003-07-25T11:00,23.8,66,16.9,24.3,0.0,0.0,0.0,0.0,1,1020.4,1001.6,32,35,0,0,0.48,1.02,21.0,27.8,348,350,41.0,28.7,22.9,21.6,19.0,0.087,0.173,0.246,0.349,1,3600.0,822.6,683.7,138.9,785.6,822.6,1153.6,776.0,645.0,131.0,785.6,776.0,1088.3,Tracheophyta; Magnoliopsida; Pinus pinaster Aiton; Eucalyptus L'Hér.; Vitis vinifera L.; 
2003,2003-07-23,Lisboa,Sintra,Almargem do Bispo,ALMARGEM DO BISPO,38.8640076,-9.3371894,NC,136.0,2003-07-23T16:00,22.7,62,15.0,21.0,0.0,0.0,0.0,0.0,0,1022.2,1006.3,0,0,0,0,0.44,1.05,28.2,36.8,335,337,47.5,30.6,24.0,21.7,19.1,0.087,0.173,0.246,0.349,1,3600.0,669.9,565.0,105.0,813.2,669.9,920.7,734.0,619.0,115.0,813.2,734.0,1008.7,Tracheophyta; Magnoliopsida; Pinus pinaster Aiton; Eucalyptus L'Hér.; Vitis vinifera L.; 
2003,2003-07-25,Lisboa,Vila Franca de Xira,Alverca do Ribatejo,ALVERCA DO RIBATEJO,38.8993791,-9.0382883,NC,21.0,2003-07-25T11:00,26.6,54,16.7,26.7,0.0,0.0,0.0,0.0,2,1019.9,1017.5,50,56,0,0,0.56,1.59,23.4,30.7,349,351,49.3,26.4,22.6,21.6,19.0,0.267,0.278,0.334,0.438,1,3600.0,845.2,719.2,126.0,824.4,845.2,1156.4,798.0,679.0,119.0,824.4,798.0,1091.8,Magnoliopsida; Tracheophyta; Pinales; Olea europaea L.; Pinus pinaster Aiton; Eucalyptus L'Hér.; Oryza sativa L.; Pinus pinea L.; Vitis vinifera L.; 
2003,2003-07-26,Setúbal,Palmela,Palmela,PALMELA,38.5760455,-8.865312259667704,NC,43.0,2003-07-26T03:00,18.8,94,17.8,19.5,0.0,0.0,0.0,0.0,2,1017.6,1012.5,72,80,0,0,0.0,0.13,14.1,21.7,345,349,20.2,20.0,24.2,21.8,19.2,0.057,0.059,0.088,0.199,0,0.0,0.0,0.0,0.0,0.0,0.0,0.0,0.0,0.0,0.0,0.0,0.0,0.0,Vitis vinifera L.; ; Magnoliopsida; Quercus suber L.; Tracheophyta; Pinus pinea L.; Quercus rotundifolia Lam.
2003,2003-07-24,Santarém,Salvaterra de Magos,Granho,Granho,39.0705897,-8.663227192109929,NC,46.0,2003-07-24T12:00,27.6,46,15.0,28.6,0.0,0.0,0.0,0.0,2,1019.4,1014.1,63,70,0,0,0.58,1.99,13.5,17.2,331,331,40.3,30.1,23.0,21.5,18.7,0.128,0.137,0.165,0.274,1,3600.0,796.4,570.3,226.1,611.3,796.4,1236.5,775.0,555.0,220.0,611.3,775.0,1203.2,Tracheophyta; Quercus rotundifolia Lam.; Eucalyptus L'Hér.; Quercus suber L.
2003,2003-07-28,Lisboa,Alenquer,Ribafria,Palaios,39.0532032,-9.1004711,NC,160.0,2003-07-28T15:00,26.4,38,11.0,24.8,0.0,0.0,0.0,0.0,0,1020.7,1002.3,0,0,0,0,0.64,2.13,23.5,31.4,349,351,50.0,34.4,24.9,22.5,19.5,0.081,0.165,0.236,0.34,1,3600.0,821.6,715.7,105.9,881.4,821.6,1077.0,869.0,757.0,112.0,881.4,869.0,1139.2,Vitis vinifera L.; Tracheophyta; Magnoliopsida
2003,2003-08-02,Santarém,Benavente,Santo Estêvão,Herdade de Almada,38.863621,-8.7456467,Desconhecida,21.0,2003-08-02T01:00,29.2,41,14.5,29.6,0.0,0.0,0.0,0.0,1,1011.6,1009.2,25,0,0,83,0.08,2.4,7.6,11.3,355,27,14.8,26.4,31.3,24.1,20.3,0.059,0.064,0.113,0.198,0,0.0,0.0,0.0,0.0,0.0,0.0,0.0,0.0,0.0,0.0,0.0,0.0,0.0,Oryza sativa L.; Tracheophyta
2003,2003-05-17,Santarém,Santarém,Alcanede,Valverde,39.4661837,-8.8604509,NC,283.0,2003-05-17T14:00,19.7,60,11.6,19.8,0.0,0.0,0.0,0.0,0,1019.3,986.3,0,0,0,0,0.52,0.93,16.0,20.1,314,314,34.9,25.8,17.7,15.6,13.2,0.141,0.254,0.327,0.385,1,3600.0,901.6,790.1,111.5,892.3,901.6,1184.7,930.0,815.0,115.0,892.3,930.0,1222.0,Magnoliopsida; Tracheophyta; Olea europaea L.; Pinus pinaster Aiton
2003,2003-05-14,Santarém,Ourém,Ribeira Do Farrio,Fárrio,39.7855707,-8.5042971,NC,203.0,2003-05-14T00:00,13.7,87,11.6,12.7,0.0,0.0,0.0,0.0,0,1020.1,995.8,0,0,0,0,0.0,0.2,10.0,23.2,339,348,22.3,15.6,18.0,15.1,13.0,0.203,0.276,0.344,0.378,0,0.0,0.0,0.0,0.0,0.0,0.0,0.0,0.0,0.0,0.0,0.0,0.0,0.0,Magnoliopsida; Olea europaea L.; Pinus pinaster Aiton; Tracheophyta; Eucalyptus L'Hér.
2003,2003-08-02,Setúbal,Sesimbra,Sesimbra (castelo),Apostiça,38.49240215,-9.11796389134298,NC,63.0,2003-08-02T09:00,27.2,48,15.4,26.6,0.0,0.0,0.0,0.0,1,1011.7,1004.5,26,0,4,80,0.28,1.86,16.8,27.5,99,101,27.7,28.6,27.5,23.8,20.4,0.045,0.075,0.132,0.225,1,3600.0,292.7,112.7,180.1,184.7,292.7,810.3,252.0,97.0,155.0,184.7,252.0,697.5,Magnoliopsida; Quercus rotundifolia Lam.; Pinus pinaster Aiton; Tracheophyta
2003,2003-07-20,Lisboa,Mafra,Encarnação,ENCARNAÇÃO,39.040274,-9.375862517849727,NC,143.0,2003-07-20T16:00,21.0,65,14.1,20.4,0.0,0.0,0.0,0.0,0,1017.1,1000.4,0,0,0,1,0.42,0.87,20.2,25.8,325,327,37.8,30.9,23.6,20.9,18.5,0.095,0.18,0.253,0.359,1,3600.0,680.5,580.0,100.5,831.6,680.5,923.7,745.0,635.0,110.0,831.6,745.0,1011.3,Vitis vinifera L.; Eucalyptus L'Hér.; Tracheophyta; Olea europaea L.
2003,2003-07-23,Lisboa,Loures,Loures,LOURES,38.8444686,-9.206289225745532,NC,88.0,2003-07-23T21:00,19.4,78,15.4,17.5,0.0,0.0,0.0,0.0,0,1022.6,1012.2,0,0,0,0,0.06,0.5,25.2,36.6,346,347,42.5,21.8,23.1,21.1,18.8,0.13,0.178,0.245,0.343,0,0.0,0.0,0.0,0.0,0.0,0.0,0.0,0.0,0.0,0.0,0.0,0.0,0.0,Tracheophyta; Quercus suber L.; Magnoliopsida
2003,2003-05-03,Santarém,Ourém,Fátima,FÁTIMA,39.60322805,-8.663198476923824,NC,353.0,2003-05-03T10:00,17.0,61,9.5,17.5,0.0,0.0,0.0,0.0,0,1018.3,977.0,0,0,0,0,0.39,0.75,2.9,3.6,360,6,14.4,17.4,13.3,13.3,12.1,0.32,0.344,0.369,0.381,1,3600.0,768.9,658.3,110.6,869.0,768.9,1020.2,702.0,601.0,101.0,869.0,702.0,931.4,Olea europaea L.; Magnoliopsida; Tracheophyta; Eucalyptus L'Hér.
2003,2003-04-04,Santarém,Abrantes,Alferrarede,Casal das Mansas,39.4862075,-8.179301808983434,NC,77.0,2003-04-04T15:00,18.2,41,4.8,16.4,0.0,0.0,0.0,0.0,0,1015.9,1006.8,11,0,0,37,0.45,1.23,12.5,16.4,72,71,28.8,20.1,14.7,13.7,12.3,0.19,0.23,0.236,0.271,1,3600.0,724.3,632.2,92.0,923.8,724.3,936.5,779.0,680.0,99.0,923.8,779.0,1007.2,Tracheophyta; Pinus pinea L.; Magnoliopsida; Eucalyptus L'Hér.; Pinus pinaster Aiton; Olea europaea L.
2003,2003-08-02,Setúbal,Montijo,Pegões,Craveira do Sul,38.68008015,-8.591171494214755,NC,114.0,2003-08-02T13:00,38.8,20,12.0,38.0,0.3,0.3,0.0,0.0,51,1010.4,997.9,19,0,0,63,0.84,5.53,19.3,26.0,99,100,34.9,45.1,30.7,24.2,20.1,0.053,0.062,0.103,0.196,1,3600.0,814.2,523.1,291.1,561.7,814.2,1236.8,814.0,523.0,291.0,561.7,814.0,1236.5,Pinus pinaster Aiton; Vitis vinifera L.; Pinus pinea L.; Tracheophyta; Quercus suber L.; Eucalyptus L'Hér.; Magnoliopsida; Olea europaea L.; Pinales; 
2003,2003-07-23,Lisboa,Lourinhã,Reguengo Grande,Cesaredas,39.3016551,-9.2396905,NC,154.0,2003-07-23T21:00,18.4,80,14.9,16.7,0.0,0.0,0.0,0.0,0,1023.0,1004.7,8,9,0,0,0.04,0.42,23.2,34.2,347,348,39.2,20.4,22.1,20.1,17.9,0.051,0.075,0.132,0.228,0,0.0,0.0,0.0,0.0,0.0,0.0,0.0,0.0,0.0,0.0,0.0,0.0,0.0,Vitis vinifera L.; Tracheophyta; Magnoliopsida; Eucalyptus L'Hér.; Quercus L.; 
2003,2003-07-25,Lisboa,Vila Franca de Xira,Calhandriz,CALHANDRIZ,38.9185086,-9.010851924829645,NC,3.0,2003-07-25T14:00,28.1,52,17.5,28.7,0.0,0.0,0.0,0.0,1,1018.6,1018.3,44,49,0,0,0.57,1.81,21.4,27.7,340,342,45.4,29.2,23.5,21.7,19.1,0.266,0.278,0.333,0.438,1,3600.0,747.3,467.7,279.6,518.1,747.3,1196.4,767.0,480.0,287.0,518.1,767.0,1228.0,Magnoliopsida; Tracheophyta; Pinus pinaster Aiton; Vitis vinifera L.; Olea europaea L.; Eucalyptus L'Hér.; Pinales; 
2003,2003-07-23,Leiria,Caldas da Rainha,Nadadouro,NADADOURO,39.4141029,-9.1885392,NC,7.0,2003-07-23T12:00,22.1,61,14.3,21.1,0.0,0.0,0.0,0.0,0,1023.5,1022.7,3,3,0,0,0.48,1.04,25.4,31.7,344,345,47.9,29.4,23.0,21.8,19.4,0.046,0.079,0.137,0.232,1,3600.0,848.5,654.1,194.4,702.7,848.5,1233.6,825.0,636.0,189.0,702.7,825.0,1199.4,Eucalyptus L'Hér.; Tracheophyta; Magnoliopsida
2003,2003-07-28,Santarém,Salvaterra de Magos,Granho,Granho,39.0705897,-8.663227192109929,NC,46.0,2003-07-28T19:00,25.7,43,12.0,23.2,0.0,0.0,0.0,0.0,0,1019.3,1014.0,0,0,0,0,0.25,1.89,21.3,32.1,338,340,45.0,29.3,25.4,21.9,18.9,0.123,0.136,0.162,0.273,1,3600.0,109.2,76.2,33.0,529.7,109.2,190.7,182.0,127.0,55.0,529.7,182.0,318.0,Tracheophyta; Quercus rotundifolia Lam.; Eucalyptus L'Hér.; Quercus suber L.
2003,2003-07-24,Lisboa,Odivelas,Pontinha,Pontinha,38.77702215,-9.199862345373251,NC,35.0,2003-07-24T03:00,18.7,89,16.9,18.2,0.0,0.0,0.0,0.0,0,1021.6,1017.4,0,0,0,0,0.02,0.24,20.4,30.7,343,344,32.0,19.9,22.6,21.5,19.2,0.13,0.178,0.245,0.343,0,0.0,0.0,0.0,0.0,0.0,0.0,0.0,0.0,0.0,0.0,0.0,0.0,0.0,Pinus pinea L.; Olea europaea L.; Tracheophyta; Magnoliopsida; ; Pinales
2003,2003-07-28,Santarém,Rio Maior,Rio Maior,Azinheira,39.332686,-8.9121831,NC,110.0,2003-07-28T20:00,21.3,59,13.0,18.7,0.0,0.0,0.0,0.0,0,1021.0,1008.1,0,0,0,0,0.13,1.04,24.1,39.1,351,354,45.0,25.6,25.4,22.5,19.5,0.09,0.164,0.231,0.342,0,1127.8,0.0,0.0,0.0,0.0,0.0,0.0,33.0,17.0,16.0,153.6,33.0,88.3,Tracheophyta; Eucalyptus L'Hér.; Olea europaea L.
2003,2003-07-28,Lisboa,Cascais,Carcavelos,CARCAVELOS,38.687829,-9.3373188,NC,28.0,2003-07-28T15:00,24.6,51,13.9,23.1,0.0,0.0,0.0,0.0,0,1020.9,1017.6,0,0,0,0,0.57,1.51,28.7,37.9,348,351,49.0,27.8,22.9,21.4,19.1,0.142,0.184,0.247,0.342,1,3600.0,823.6,718.7,105.0,882.1,823.6,1080.7,871.0,760.0,111.0,882.1,871.0,1142.8,Magnoliopsida; Tracheophyta; Pinus pinea L.; Pinus pinaster Aiton; 
2003,2003-08-03,Lisboa,Sintra,Almargem do Bispo,Casal do Falcão,38.8490446,-9.2357489,NC,159.0,2003-08-03T02:00,20.8,95,20.0,23.0,0.0,0.0,0.0,0.0,3,1012.6,994.1,90,100,0,0,0.0,0.13,11.3,15.3,171,172,16.9,23.7,27.6,23.0,18.9,0.118,0.171,0.237,0.339,0,0.0,0.0,0.0,0.0,0.0,0.0,0.0,0.0,0.0,0.0,0.0,0.0,0.0,Tracheophyta; Magnoliopsida; Pinus pinaster Aiton; Eucalyptus L'Hér.; Vitis vinifera L.; 
2003,2003-07-28,Lisboa,Loures,Unhos,Cabeço da Aguieira,38.8305271,-9.1283887,NC,132.0,2003-07-28T21:00,20.5,61,12.6,17.1,0.0,0.0,0.0,0.0,0,1020.8,1005.3,0,0,0,0,0.13,0.95,29.2,44.7,359,1,47.5,23.4,24.0,22.6,21.2,0.238,0.278,0.317,0.364,0,0.0,0.0,0.0,0.0,0.0,0.0,0.0,0.0,0.0,0.0,0.0,0.0,0.0,Tracheophyta; Olea europaea L.; Magnoliopsida; 
2003,2003-07-29,Lisboa,Amadora,Venda Nova,Venda Nova,38.757228,-9.2066219,NC,105.0,2003-07-29T00:00,19.9,73,15.0,17.7,0.0,0.0,0.0,0.0,0,1020.7,1008.3,0,0,0,0,0.07,0.62,26.3,41.9,1,4,45.0,21.2,23.4,21.5,18.9,0.123,0.175,0.241,0.342,0,0.0,0.0,0.0,0.0,0.0,0.0,0.0,0.0,0.0,0.0,0.0,0.0,0.0,Tracheophyta; 
2003,2003-07-29,Lisboa,Sobral de Monte Agraço,Sobral de Monte Agraço,SOBRAL,39.01346065,-9.159639792999531,NC,184.0,2003-07-29T08:00,22.2,66,15.5,21.4,0.0,0.0,0.0,0.0,0,1020.2,998.8,0,0,0,0,0.21,0.91,18.4,26.7,11,14,30.6,22.2,22.7,21.9,19.0,0.09,0.168,0.238,0.342,1,3600.0,367.9,280.7,87.2,629.5,367.9,591.4,291.0,222.0,69.0,629.5,291.0,467.8,Vitis vinifera L.; Tracheophyta
2003,2003-07-28,Lisboa,Cascais,Alcabideche,Alcoitão,38.7401087,-9.3946976,NC,130.0,2003-07-28T20:00,20.0,67,13.8,17.2,0.0,0.0,0.0,0.0,0,1021.1,1005.8,0,0,0,0,0.11,0.77,28.1,42.5,359,360,46.1,22.8,23.3,21.4,18.9,0.08,0.132,0.193,0.285,0,1251.9,0.0,0.0,0.0,0.0,0.0,0.0,34.0,18.0,16.0,159.9,34.0,90.8,Tracheophyta; Eucalyptus L'Hér.; Magnoliopsida; Pinus pinea L.; Pinus pinaster Aiton; Pinales; Vitis vinifera L.; 
2003,2003-07-26,Lisboa,Loures,Bucelas,BUCELAS,38.9049103,-9.090637350000003,NC,135.0,2003-07-26T02:00,18.8,94,17.8,19.7,0.0,0.0,0.0,0.0,3,1018.0,1002.1,88,98,0,0,0.0,0.13,13.9,24.8,335,341,28.1,20.5,23.6,21.6,19.0,0.102,0.18,0.251,0.354,0,0.0,0.0,0.0,0.0,0.0,0.0,0.0,0.0,0.0,0.0,0.0,0.0,0.0,Magnoliopsida; Tracheophyta; Olea europaea L.; Pinus pinea L.; Pinus pinaster Aiton; Eucalyptus L'Hér.; Vitis vinifera L.; 
2003,2003-07-29,Santarém,Salvaterra de Magos,Granho,Granho,39.0705897,-8.663227192109929,NC,46.0,2003-07-29T14:00,37.9,18,9.7,39.1,0.0,0.0,0.0,0.0,0,1017.1,1012.0,0,0,0,0,0.79,5.4,7.6,9.4,5,7,26.6,40.6,25.7,22.0,19.0,0.123,0.136,0.162,0.273,1,3600.0,915.0,804.0,111.0,898.6,915.0,1187.0,940.0,826.0,114.0,898.6,940.0,1219.4,Tracheophyta; Quercus rotundifolia Lam.; Eucalyptus L'Hér.; Quercus suber L.
2003,2003-07-23,Lisboa,Loures,Lousa,Fontelas,38.8666199,-9.221234,NC,117.0,2003-07-23T18:00,22.2,62,14.7,19.4,0.0,0.0,0.0,0.0,0,1022.0,1008.3,0,0,0,0,0.28,1.0,29.5,40.0,338,339,47.5,27.9,24.4,21.8,19.2,0.093,0.171,0.242,0.345,1,3600.0,303.0,236.3,66.6,670.3,303.0,467.2,382.0,298.0,84.0,670.3,382.0,589.1,Tracheophyta; Magnoliopsida; Pinus pinaster Aiton; Eucalyptus L'Hér.; Pinales; ; Pinus pinea L.
2003,2003-07-29,Leiria,Alcobaça,Aljubarrota (Prazeres),MOLIANOS,39.5719302,-8.9442444,NC,134.0,2003-07-29T16:00,31.5,39,16.1,30.9,0.0,0.0,0.0,0.0,0,1017.8,1002.6,0,0,0,0,0.64,2.8,23.9,32.4,349,352,47.5,38.9,25.4,21.9,19.3,0.057,0.085,0.137,0.244,1,3600.0,664.7,571.8,92.9,841.4,664.7,901.6,730.0,628.0,102.0,841.4,730.0,990.2,Tracheophyta; Eucalyptus L'Hér.; Vitis vinifera L.; Magnoliopsida; Pinus pinaster Aiton
2003,2003-07-26,Lisboa,Mafra,Enxara do Bispo,ENXARA DO BISPO,38.991047050000006,-9.23813981603243,NC,143.0,2003-07-26T14:00,26.0,59,17.2,28.0,0.0,0.0,0.0,0.0,0,1018.1,1001.6,4,4,0,0,0.6,1.39,16.4,20.8,299,300,34.2,34.1,24.4,21.8,19.1,0.09,0.169,0.24,0.343,1,3600.0,886.0,752.5,133.5,834.3,886.0,1195.9,909.0,772.0,137.0,834.3,909.0,1226.9,Tracheophyta; Vitis vinifera L.; Magnoliopsida
2003,2003-05-20,Santarém,Alcanena,Malhou,MALHOU,39.408433,-8.657624,NC,40.0,2003-05-20T18:00,22.3,49,11.2,18.4,0.0,0.0,0.0,0.0,0,1025.7,1021.0,0,0,0,0,0.31,1.36,28.8,39.5,351,354,47.2,24.6,20.3,17.2,14.3,0.128,0.253,0.333,0.381,1,3600.0,282.4,221.3,61.1,699.9,282.4,422.4,365.0,286.0,79.0,699.9,365.0,546.0,Eucalyptus L'Hér.; Magnoliopsida; Olea europaea L.; Quercus suber L.; Pinus pinea L.; Quercus L.; Tracheophyta; Pinus pinaster Aiton; 
2003,2003-07-26,Lisboa,Sintra,Casal de Cambra,Casal de Cambra,38.79718845,-9.228319927517482,NC,230.0,2003-07-26T15:00,24.8,60,16.6,26.0,0.0,0.0,0.0,0.0,0,1017.4,991.0,0,0,0,0,0.54,1.24,17.9,22.5,304,305,40.7,29.5,22.9,20.4,18.0,0.125,0.177,0.243,0.342,1,3600.0,798.4,679.2,119.2,830.8,798.4,1084.0,844.0,718.0,126.0,830.8,844.0,1145.8,Tracheophyta; Magnoliopsida; ; Eucalyptus L'Hér.
2003,2003-07-26,Lisboa,Odivelas,Pontinha,Pontinha,38.77702215,-9.199862345373251,NC,35.0,2003-07-26T16:00,25.5,63,17.9,26.3,0.0,0.0,0.0,0.0,0,1017.5,1013.4,0,0,0,0,0.48,1.21,20.2,26.5,305,307,36.0,30.3,24.4,21.7,19.3,0.125,0.177,0.243,0.342,1,3600.0,660.8,561.5,99.3,814.8,660.8,913.6,725.0,616.0,109.0,814.8,725.0,1002.3,Pinus pinea L.; Olea europaea L.; Tracheophyta; Magnoliopsida; ; Pinales
2003,2003-07-27,Lisboa,Sintra,Belas,Serra da Silveira,38.7791754,-9.2525373,NC,209.0,2003-07-27T15:00,22.4,61,14.6,22.5,0.0,0.0,0.0,0.0,0,1019.1,994.8,0,0,0,0,0.51,1.06,20.5,26.4,329,331,46.4,27.6,22.8,20.4,18.0,0.129,0.179,0.245,0.34,1,3600.0,822.0,714.1,107.8,875.0,822.0,1082.2,869.0,755.0,114.0,875.0,869.0,1144.2,Pinus pinaster Aiton; Tracheophyta; Pinales; Eucalyptus L'Hér.; Magnoliopsida; 
2003,2003-05-04,Santarém,Ferreira do Zêzere,Igreja Nova do Sobral,Lamaceiros,39.6843855,-8.3075969,NC,325.0,2003-05-04T14:00,19.3,54,9.8,18.2,0.0,0.0,0.0,0.0,1,1015.2,977.5,41,13,3,91,0.44,1.03,14.0,17.9,241,240,30.6,21.3,15.9,13.4,11.9,0.295,0.341,0.359,0.392,1,3600.0,707.0,405.2,301.8,471.9,707.0,1156.0,731.0,419.0,312.0,471.9,731.0,1195.3,Vitis vinifera L.; Eucalyptus L'Hér.; Tracheophyta; Olea europaea L.
2003,2003-05-21,Santarém,Chamusca,Ulme,ULME,39.31352149999999,-8.412098024265571,NC,38.0,2003-05-21T15:00,33.1,17,4.6,31.1,0.0,0.0,0.0,0.0,0,1023.4,1019.1,0,0,0,0,0.76,4.2,16.3,20.6,62,63,35.6,38.7,23.3,19.1,15.0,0.043,0.124,0.189,0.238,1,3600.0,818.7,713.4,105.3,897.0,818.7,1062.3,871.0,759.0,112.0,897.0,871.0,1130.2,Quercus suber L.; Eucalyptus L'Hér.; Tracheophyta
2003,2003-07-26,Santarém,Ferreira do Zêzere,Beco,BECO,39.7710694,-8.2967646,NC,319.0,2003-07-26T01:00,17.1,97,16.7,17.4,0.0,0.0,0.0,0.0,2,1018.2,980.8,57,63,0,0,0.0,0.05,14.1,24.3,328,335,25.6,19.8,23.5,21.0,18.2,0.099,0.159,0.218,0.342,0,0.0,0.0,0.0,0.0,0.0,0.0,0.0,0.0,0.0,0.0,0.0,0.0,0.0,Magnoliopsida; Eucalyptus L'Hér.; Pinus pinaster Aiton; Tracheophyta
2003,2003-07-24,Leiria,Peniche,Atouguia da Baleia,São Bernardino,39.309091,-9.3405217,NC,54.0,2003-07-24T16:00,22.9,72,17.5,23.3,0.0,0.0,0.0,0.0,1,1019.8,1013.5,21,23,0,0,0.41,0.79,20.9,26.9,331,334,37.1,33.3,23.9,21.5,19.2,0.045,0.083,0.14,0.234,1,3600.0,638.0,496.6,141.5,717.6,638.0,917.0,699.0,544.0,155.0,717.6,699.0,1004.7,Eucalyptus L'Hér.; Magnoliopsida; Tracheophyta; Pinus pinaster Aiton; Pinus pinea L.; 
2003,2003-07-20,Lisboa,Odivelas,Pontinha,Urmeira,38.77477505,-9.195025448949623,NC,31.0,2003-07-20T17:00,22.8,57,13.9,20.7,0.0,0.0,0.0,0.0,0,1016.9,1013.3,0,0,0,1,0.39,1.18,23.8,30.4,322,324,39.6,27.4,23.7,21.3,19.0,0.159,0.175,0.241,0.351,1,3600.0,504.3,420.1,84.2,780.5,504.3,712.9,581.0,484.0,97.0,780.5,581.0,821.3,Pinus pinea L.; Olea europaea L.; Tracheophyta; Magnoliopsida; ; Pinales
2003,2003-07-29,Lisboa,Torres Vedras,Torres Vedras (santa Maria Do Castelo E São Miguel),Casal do Repelão,39.0885917,-9.25274142461584,NC,58.0,2003-07-29T23:00,22.5,75,17.8,22.3,0.0,0.0,0.0,0.0,0,1017.3,1010.5,1,0,0,4,0.06,0.68,20.2,34.8,2,7,37.8,23.8,25.4,22.2,19.3,0.089,0.171,0.242,0.346,0,0.0,0.0,0.0,0.0,0.0,0.0,0.0,0.0,0.0,0.0,0.0,0.0,0.0,Tracheophyta; Magnoliopsida
2003,2003-07-24,Santarém,Santarém,Amiais de Baixo,AMIAIS DE BAIXO,39.44438075,-8.719949365102405,NC,92.0,2003-07-24T15:00,28.1,45,15.0,28.2,0.0,0.0,0.0,0.0,2,1019.2,1008.6,64,71,0,0,0.6,2.1,19.0,23.9,323,323,42.1,32.9,23.6,21.5,19.0,0.08,0.172,0.253,0.35,1,3600.0,750.5,589.8,160.7,726.1,750.5,1076.5,794.0,624.0,170.0,726.1,794.0,1139.0,Quercus suber L.; Pinus pinaster Aiton; Magnoliopsida; Tracheophyta; Eucalyptus L'Hér.; Quercus L.
2003,2003-07-24,Lisboa,Alenquer,Pereiro de Palhacana,Valverde,39.0432393,-9.1106194,NC,229.0,2003-07-24T08:00,20.1,76,15.7,19.2,0.0,0.0,0.0,0.0,0,1021.1,994.3,7,8,0,0,0.17,0.57,19.7,26.9,336,337,39.2,20.9,22.0,21.4,18.7,0.084,0.168,0.24,0.342,1,3600.0,342.5,225.8,116.7,495.8,342.5,603.7,273.0,180.0,93.0,495.8,273.0,481.2,Magnoliopsida; Vitis vinifera L.; Tracheophyta
2003,2003-07-26,Setúbal,Setúbal,São Lourenço,SÃO LOURENÇO,38.5375781,-9.0176938,NC,75.0,2003-07-26T16:00,24.8,64,17.5,25.5,0.0,0.0,0.0,0.0,0,1016.9,1008.2,0,0,0,0,0.47,1.13,19.3,24.8,303,306,40.7,35.1,25.4,22.6,20.1,0.045,0.072,0.127,0.223,1,3600.0,662.2,562.9,99.3,818.3,662.2,912.1,727.0,618.0,109.0,818.3,727.0,1001.4,Tracheophyta; Magnoliopsida
2003,2003-04-24,Santarém,Torres Novas,Zibreira,Almonda,39.4843721,-8.6110195,NC,110.0,2003-04-24T16:00,16.9,61,9.4,13.7,0.0,0.0,0.0,0.0,3,1015.0,1001.9,100,93,71,39,0.19,0.74,20.7,28.9,193,194,38.2,16.0,13.9,13.8,13.0,0.367,0.372,0.382,0.388,1,0.0,192.3,25.0,167.2,41.3,192.3,820.5,215.0,28.0,187.0,41.3,215.0,917.6,Tracheophyta; Olea europaea L.; Magnoliopsida; Quercus L.; Vitis vinifera L.; Pinales; 
2003,2003-07-26,Lisboa,Torres Vedras,Ponte do Rol,Gibraltar,39.0986708,-9.3155463,NC,63.0,2003-07-26T22:00,19.9,94,19.0,21.6,0.0,0.0,0.0,0.0,0,1018.0,1010.6,9,10,0,0,0.0,0.13,11.3,20.2,301,305,20.5,22.8,25.0,21.8,19.1,0.09,0.172,0.244,0.347,0,0.0,0.0,0.0,0.0,0.0,0.0,0.0,0.0,0.0,0.0,0.0,0.0,0.0,Eucalyptus L'Hér.; Magnoliopsida; Vitis vinifera L.; Tracheophyta; 
2003,2003-07-27,Lisboa,Sintra,Casal de Cambra,Casal de Cambra,38.79718845,-9.228319927517482,NC,230.0,2003-07-27T22:00,17.4,75,13.0,15.7,0.0,0.0,0.0,0.0,0,1021.7,994.5,0,0,0,0,0.04,0.49,17.8,29.4,346,349,36.0,20.2,23.0,20.6,18.1,0.124,0.176,0.242,0.342,0,0.0,0.0,0.0,0.0,0.0,0.0,0.0,0.0,0.0,0.0,0.0,0.0,0.0,Tracheophyta; Magnoliopsida; ; Eucalyptus L'Hér.
2003,2003-04-29,Santarém,Sardoal,Sardoal,Vale da Amarela,39.53992435,-8.154597701796611,NC,181.0,2003-04-29T15:00,17.4,52,7.3,14.0,0.0,0.0,0.0,0.0,3,1013.7,992.4,100,82,90,62,0.29,0.97,18.9,25.2,222,222,39.6,17.8,14.8,13.8,12.4,0.221,0.231,0.222,0.264,1,3600.0,405.6,175.7,229.9,234.0,405.6,1013.5,434.0,188.0,246.0,234.0,434.0,1084.4,Tracheophyta; Magnoliopsida; Olea europaea L.; Pinus pinaster Aiton
2003,2003-07-28,Lisboa,Oeiras,Algés,ALGÉS,38.6992118,-9.2270546,NC,6.0,2003-07-28T18:00,24.6,45,12.0,20.9,0.0,0.0,0.0,0.0,0,1020.2,1019.5,0,0,0,0,0.36,1.68,29.5,40.6,351,353,49.7,27.8,24.3,22.0,19.5,0.143,0.17,0.235,0.348,1,3600.0,300.4,239.8,60.5,702.3,300.4,453.0,382.0,305.0,77.0,702.3,382.0,576.1,Tracheophyta; Pinus pinaster Aiton; Pinales; Magnoliopsida; Pinus pinea L.; Vitis vinifera L.; Eucalyptus L'Hér.; Olea europaea L.
2003,2003-04-30,Santarém,Ourém,Fátima,FÁTIMA,39.60322805,-8.663198476923824,NC,353.0,2003-04-30T20:00,11.4,73,6.8,9.5,0.0,0.0,0.0,0.0,0,1022.6,980.3,4,1,3,6,0.03,0.36,6.9,16.6,313,312,16.2,13.4,14.3,13.2,12.1,0.35,0.362,0.373,0.381,0,0.0,0.0,0.0,0.0,0.0,0.0,0.0,5.0,1.0,4.0,13.9,5.0,38.2,Olea europaea L.; Magnoliopsida; Tracheophyta; Eucalyptus L'Hér.
2003,2003-08-03,Lisboa,Torres Vedras,Maxial,Casais de Santo António,39.130701,-9.1617079,NC,173.0,2003-08-03T16:00,26.7,49,15.1,27.0,0.0,0.0,0.0,0.0,0,1013.5,993.8,0,0,0,0,0.53,1.78,16.3,20.9,245,241,34.9,36.4,28.2,23.7,19.4,0.083,0.163,0.232,0.339,1,3600.0,662.4,567.0,95.4,843.8,662.4,892.6,729.0,624.0,105.0,843.8,729.0,982.3,Eucalyptus L'Hér.; Tracheophyta; Magnoliopsida; Vitis vinifera L.; Pinales; Pinus pinaster Aiton; 
2003,2003-07-29,Lisboa,Loures,São Julião do Tojal,São Julião do Tojal,38.8689121,-9.1370841,NC,89.0,2003-07-29T23:00,24.9,62,17.1,24.3,0.0,0.0,0.0,0.0,0,1016.8,1006.5,0,0,0,1,0.11,1.2,22.0,36.9,359,6,39.2,26.1,27.0,22.5,19.5,0.099,0.178,0.248,0.352,0,0.0,0.0,0.0,0.0,0.0,0.0,0.0,0.0,0.0,0.0,0.0,0.0,0.0,Tracheophyta; Magnoliopsida; Eucalyptus L'Hér.; Olea europaea L.; 
2003,2003-08-03,Lisboa,Sobral de Monte Agraço,Santo Quintino,Sabugos,39.0178867,-9.1478721,NC,265.0,2003-08-03T20:00,22.3,65,15.3,23.0,0.0,0.0,0.0,0.0,0,1013.6,983.1,0,0,0,0,0.05,0.95,7.2,10.8,270,270,23.8,27.8,28.7,23.8,19.1,0.082,0.161,0.23,0.337,0,532.97,0.0,0.0,0.0,0.0,0.0,0.0,24.0,12.0,12.0,116.8,24.0,78.0,Tracheophyta; Eucalyptus L'Hér.; Magnoliopsida
2003,2003-08-03,Santarém,Ourém,Formigais,FORMIGAIS,39.71235295,-8.452453428590754,NC,101.0,2003-08-03T03:00,24.0,72,18.6,25.8,0.0,0.0,0.0,0.0,0,1011.9,1000.2,20,0,19,28,0.03,0.84,9.7,20.7,178,173,12.2,24.5,30.3,24.4,20.2,0.075,0.081,0.13,0.243,0,0.0,0.0,0.0,0.0,0.0,0.0,0.0,0.0,0.0,0.0,0.0,0.0,0.0,Olea europaea L.; Tracheophyta; Magnoliopsida; Quercus L.
2003,2003-07-29,Setúbal,Setúbal,Setúbal (são Sebastião),Vale de Mulatos,38.52734715,-8.85704211645389,NC,26.0,2003-07-29T15:00,37.2,20,10.3,37.5,0.0,0.0,0.0,0.0,0,1016.5,1013.6,0,0,0,0,0.76,5.11,11.0,11.5,293,309,19.8,43.3,26.5,22.4,19.5,0.055,0.059,0.083,0.197,1,3600.0,819.7,716.7,102.9,884.9,819.7,1074.5,868.0,759.0,109.0,884.9,868.0,1137.9,Tracheophyta; Pinus pinaster Aiton; Olea europaea L.; Magnoliopsida
2003,2003-08-04,Santarém,Santarém,Casével,CASÉVEL,39.3983154,-8.6219805,NC,88.0,2003-08-04T10:00,29.3,43,15.2,30.0,0.0,0.0,0.0,0.0,0,1016.2,1006.2,0,0,0,0,0.51,2.34,11.3,14.0,158,157,31.7,30.3,26.7,24.5,19.5,0.112,0.16,0.224,0.338,1,3600.0,721.4,603.7,117.7,801.8,721.4,1000.4,656.0,549.0,107.0,801.8,656.0,909.7,Tracheophyta; Olea europaea L.; Magnoliopsida
