year,date,district,municipality,parish,local,latitude,longitude,cause,elevation,hourly.time,hourly.temperature_2m,hourly.relative_humidity_2m,hourly.dew_point_2m,hourly.apparent_temperature,hourly.precipitation,hourly.rain,hourly.snowfall,hourly.snow_depth,hourly.weather_code,hourly.pressure_msl,hourly.surface_pressure,hourly.cloud_cover,hourly.cloud_cover_low,hourly.cloud_cover_mid,hourly.cloud_cover_high,hourly.et0_fao_evapotranspiration,hourly.vapour_pressure_deficit,hourly.wind_speed_10m,hourly.wind_speed_100m,hourly.wind_direction_10m,hourly.wind_direction_100m,hourly.wind_gusts_10m,hourly.soil_temperature_0_to_7cm,hourly.soil_temperature_7_to_28cm,hourly.soil_temperature_28_to_100cm,hourly.soil_temperature_100_to_255cm,hourly.soil_moisture_0_to_7cm,hourly.soil_moisture_7_to_28cm,hourly.soil_moisture_28_to_100cm,hourly.soil_moisture_100_to_255cm,hourly.is_day,hourly.sunshine_duration,hourly.shortwave_radiation_instant,hourly.direct_radiation_instant,hourly.diffuse_radiation_instant,hourly.direct_normal_irradiance_instant,hourly.global_tilted_irradiance_instant,hourly.terrestrial_radiation_instant,hourly.shortwave_radiation,hourly.direct_radiation,hourly.diffuse_radiation,hourly.direct_normal_irradiance,hourly.global_tilted_irradiance,hourly.terrestrial_radiation,scientificNames
2004,2004-11-16,Leiria,Pombal,Albergaria dos Doze,Gaia,39.8149812,-8.562968,NC,202.0,2004-11-16T14:00,15.5,44,3.3,13.0,0.0,0.0,0.0,0.0,0,1027.9,1003.7,0,0,0,0,0.27,0.99,6.9,8.7,118,114,19.4,14.7,10.3,14.1,19.1,0.26,0.288,0.265,0.268,1,3600.0,460.4,387.7,72.7,861.9,460.4,629.3,494.0,416.0,78.0,861.9,494.0,675.3,Pinus pinaster Aiton; Tracheophyta; Magnoliopsida; Eucalyptus L'Hér.
2004,2004-11-16,Leiria,Leiria,Barosa,BAROSA,39.756598,-8.8279064,NC,33.0,2004-11-16T18:00,12.6,67,6.7,10.1,0.0,0.0,0.0,0.0,0,1028.6,1024.6,0,0,0,0,0.05,0.48,10.9,11.9,354,357,15.1,12.3,12.3,14.7,19.2,0.136,0.178,0.159,0.17,0,0.0,0.0,0.0,0.0,0.0,0.0,0.0,3.0,1.0,2.0,17.3,3.0,19.8,Tracheophyta; Pinus pinaster Aiton; Eucalyptus L'Hér.; Magnoliopsida; Acacia Mill.
2004,2004-07-15,Leiria,Alcobaça,Benedita,Ninho de Águia,39.4180447,-8.973796989006033,NC,190.0,2004-07-15T03:00,18.3,89,16.5,20.0,0.0,0.0,0.0,0.0,0,1014.2,991.9,0,0,0,0,0.0,0.23,4.3,8.1,270,302,11.9,20.0,24.8,21.1,17.8,0.094,0.161,0.223,0.314,0,0.0,0.0,0.0,0.0,0.0,0.0,0.0,0.0,0.0,0.0,0.0,0.0,0.0,Tracheophyta; Vitis vinifera L.; Eucalyptus L'Hér.; Magnoliopsida; Olea europaea L.
2004,2004-07-14,Leiria,Nazaré,Famalicão,Raposos,39.5252936,-9.0653113,NC,177.0,2004-07-14T21:00,22.8,58,14.1,23.1,0.0,0.0,0.0,0.0,0,1015.1,994.6,0,0,0,0,0.04,1.17,7.1,15.3,330,352,17.3,25.6,25.7,20.8,17.8,0.084,0.135,0.192,0.282,0,0.0,0.0,0.0,0.0,0.0,0.0,0.0,0.0,0.0,0.0,0.0,0.0,0.0,Magnoliopsida; Tracheophyta; Pinus pinaster Aiton; Eucalyptus L'Hér.
2004,2004-07-15,Leiria,Leiria,Maceira,Maceirinha,39.67685755,-8.909655187954112,NC,179.0,2004-07-15T06:00,16.5,97,16.0,18.2,0.0,0.0,0.0,0.0,0,1014.9,993.7,3,3,0,0,0.01,0.06,1.9,3.9,248,292,8.6,17.2,22.7,19.6,16.9,0.051,0.061,0.106,0.204,1,40.15,35.2,14.1,21.1,134.4,17.7,138.7,15.0,6.0,9.0,67.6,15.0,59.1,Tracheophyta; Pinus pinaster Aiton; Eucalyptus L'Hér.; Magnoliopsida; Acacia Mill.
2004,2004-11-26,Leiria,Peniche,Serra D El-rei,SERRA DE EL REI,39.34135845,-9.269649905,NC,103.0,2004-11-26T14:00,15.9,72,10.9,15.5,0.0,0.0,0.0,0.0,0,1025.3,1012.9,6,0,0,19,0.23,0.5,4.3,5.4,85,90,14.0,18.4,12.7,14.2,18.7,0.114,0.165,0.169,0.2,1,3600.0,421.4,345.7,75.7,799.4,421.4,607.4,451.0,370.0,81.0,799.4,451.0,650.1,Tracheophyta; Eucalyptus L'Hér.; Magnoliopsida
2004,2004-06-22,Leiria,Alcobaça,Alfeizerão,ALFEIZERÃO,39.50173415,-9.10312458670543,NC,19.0,2004-06-22T11:00,23.7,63,16.3,23.1,0.0,0.0,0.0,0.0,2,1017.1,1014.9,76,83,2,0,0.42,1.08,22.4,29.0,224,225,36.0,28.9,22.4,21.6,17.3,0.06,0.096,0.149,0.225,1,3600.0,680.7,437.3,243.4,487.7,680.7,1187.4,646.0,415.0,231.0,487.7,646.0,1126.8,Tracheophyta; Vitis vinifera L.
2004,2004-10-04,Leiria,Óbidos,Vau,Covão dos Mosarenhos,39.3657979,-9.2173555,NC,37.0,2004-10-04T18:00,19.6,73,14.6,18.9,0.0,0.0,0.0,0.0,0,1017.3,1012.9,0,0,0,0,0.08,0.61,15.3,21.6,345,345,25.9,25.3,22.4,22.4,21.8,0.041,0.062,0.106,0.198,1,2888.78,23.4,15.1,8.3,173.0,20.4,45.4,93.0,60.0,33.0,396.4,93.0,180.5,Tracheophyta; Magnoliopsida; Eucalyptus L'Hér.
2004,2004-07-15,Leiria,Alcobaça,Cela,Bica,39.5282088,-9.0567685,NC,176.0,2004-07-15T20:00,20.8,74,15.9,21.2,0.0,0.0,0.0,0.0,0,1014.7,994.2,1,0,1,0,0.05,0.64,11.4,14.8,325,326,23.4,26.9,26.2,21.1,17.8,0.083,0.135,0.191,0.282,1,1991.51,0.0,0.0,0.0,0.0,0.0,0.0,44.0,25.0,19.0,201.9,44.0,109.7,Tracheophyta; Pinus pinaster Aiton; Magnoliopsida; Vitis vinifera L.; Eucalyptus L'Hér.
2004,2004-06-21,Leiria,Pombal,São Simão de Litém,Casal do Gaio,39.8338066,-8.611914483493754,NC,180.0,2004-06-21T00:00,15.8,94,14.8,16.8,0.0,0.0,0.0,0.0,0,1015.2,993.9,11,12,0,0,0.0,0.11,3.6,9.8,307,306,10.1,18.7,22.0,20.8,15.6,0.1,0.155,0.229,0.314,0,0.0,0.0,0.0,0.0,0.0,0.0,0.0,0.0,0.0,0.0,0.0,0.0,0.0,Pinus pinaster Aiton; Magnoliopsida; Tracheophyta; Olea europaea L.; Eucalyptus L'Hér.
2004,2004-10-05,Leiria,Leiria,Caranguejeira,Vale da Rosa,39.7438071,-8.7084194,NC,106.0,2004-10-05T16:00,22.5,69,16.6,22.9,0.0,0.0,0.0,0.0,1,1015.5,1003.2,29,0,0,95,0.26,0.84,12.8,15.9,308,309,28.8,28.6,20.8,21.0,20.2,0.047,0.06,0.076,0.173,1,3600.0,337.0,226.3,110.6,576.9,337.0,536.9,402.0,270.0,132.0,576.9,402.0,640.5,Tracheophyta; Pinus pinaster Aiton; Eucalyptus L'Hér.; Magnoliopsida; Acacia Mill.; Olea europaea L.; Pinales
2004,2004-12-03,Leiria,Alcobaça,São Martinho do Porto,Praia da Gralha,39.525933300000005,-9.130847252695023,NC,0.0,2004-12-03T00:00,9.8,86,7.6,7.4,0.0,0.0,0.0,0.0,0,1014.4,1014.4,10,4,0,20,0.0,0.17,11.8,20.2,67,68,24.1,9.6,12.0,14.7,18.7,0.267,0.275,0.2,0.196,0,0.0,0.0,0.0,0.0,0.0,0.0,0.0,0.0,0.0,0.0,0.0,0.0,0.0,Tracheophyta
2004,2004-11-26,Leiria,Pombal,Carriço,Osso da Baleia,40.00304195,-8.913805702273509,NC,0.0,2004-11-26T14:00,16.4,70,10.9,16.5,0.0,0.0,0.0,0.0,1,1025.6,1025.6,25,0,0,83,0.23,0.56,1.1,2.2,72,99,11.2,18.5,13.1,14.3,18.1,0.109,0.161,0.185,0.19,1,3600.0,410.8,340.9,69.9,812.1,410.8,589.7,441.0,366.0,75.0,812.1,441.0,633.0,Pinus pinaster Aiton; Magnoliopsida
2004,2004-07-24,Leiria,Porto de Mós,Arrimal,ARRIMAL,39.4958428,-8.8797372,NC,367.0,2004-07-24T21:00,24.0,50,12.9,23.6,0.0,0.0,0.0,0.0,0,1020.1,978.1,0,0,0,0,0.07,1.49,9.4,21.3,337,356,23.4,27.4,27.5,21.8,17.8,0.075,0.117,0.172,0.275,0,0.0,0.0,0.0,0.0,0.0,0.0,0.0,0.0,0.0,0.0,0.0,0.0,0.0,Olea europaea L.; Tracheophyta; Magnoliopsida
2004,2004-07-20,Leiria,Caldas da Rainha,Serra do Bouro,Espinheira,39.4513157,-9.177165,Desconhecida,36.0,2004-07-20T16:00,23.7,66,17.0,24.5,0.0,0.0,0.0,0.0,0,1014.9,1010.7,4,3,2,0,0.43,1.0,16.6,20.7,283,283,28.4,36.3,24.9,22.0,19.1,0.045,0.074,0.13,0.214,1,3600.0,626.4,492.2,134.2,709.3,626.4,919.2,686.0,539.0,147.0,709.3,686.0,1006.7,Tracheophyta; Eucalyptus L'Hér.; Magnoliopsida; Pinus pinaster Aiton
2004,2004-07-16,Leiria,Caldas da Rainha,Santa Catarina,Casal Trocano,39.4469306,-9.0155179,NC,89.0,2004-07-16T07:00,18.4,88,16.4,19.9,0.0,0.0,0.0,0.0,0,1013.3,1002.8,20,22,0,0,0.06,0.25,5.2,7.0,326,325,12.2,20.7,24.5,22.1,18.6,0.094,0.16,0.222,0.314,1,3600.0,172.3,95.1,77.2,330.5,172.3,380.8,116.0,64.0,52.0,330.5,116.0,256.4,Eucalyptus L'Hér.; Magnoliopsida; Tracheophyta; Vitis vinifera L.; Pinus pinaster Aiton
2004,2004-06-27,Leiria,Leiria,Santa Catarina da Serra,Quinta da Sardinha,39.6804488,-8.6578726,NC,258.0,2004-06-27T15:00,28.7,46,15.8,29.3,0.0,0.0,0.0,0.0,0,1019.7,990.4,0,0,0,0,0.65,2.15,20.4,26.5,339,342,43.6,34.7,23.8,20.0,15.8,0.063,0.083,0.137,0.228,1,3600.0,825.1,715.3,109.8,864.7,825.1,1094.8,872.0,756.0,116.0,864.7,872.0,1157.0,Tracheophyta; Pinus pinaster Aiton; Eucalyptus L'Hér.; Magnoliopsida; Acacia Mill.; Olea europaea L.
2004,2004-07-26,Leiria,Pombal,Pombal,Senhora de Belém,39.92194355,-8.636895489112948,NC,58.0,2004-07-26T16:00,29.2,44,15.7,29.6,0.0,0.0,0.0,0.0,0,1016.0,1009.4,0,0,0,0,0.58,2.27,17.6,22.4,314,318,35.3,37.6,26.5,21.9,18.4,0.048,0.059,0.088,0.194,1,3600.0,672.4,577.6,94.8,848.3,672.4,902.9,738.0,634.0,104.0,848.3,738.0,991.0,Tracheophyta; Pinus pinaster Aiton; Olea europaea L.; Magnoliopsida; Eucalyptus L'Hér.
2004,2004-07-21,Leiria,Pombal,Pombal,Roussa,39.9114158,-8.6900246,NC,150.0,2004-07-21T01:00,17.3,97,16.7,18.3,0.0,0.0,0.0,0.0,3,1014.6,996.9,100,100,0,36,0.0,0.07,9.2,14.0,312,325,8.6,19.0,23.5,20.8,17.6,0.05,0.06,0.092,0.195,0,0.0,0.0,0.0,0.0,0.0,0.0,0.0,0.0,0.0,0.0,0.0,0.0,0.0,Tracheophyta; Magnoliopsida; Eucalyptus L'Hér.; Olea europaea L.; Pinus pinea L.
2004,2004-07-25,Leiria,Pombal,Pombal,Vicentes,39.92194355,-8.636895489112948,NC,58.0,2004-07-25T22:00,21.5,81,18.1,23.5,0.0,0.0,0.0,0.0,0,1019.1,1012.3,0,0,0,0,0.0,0.49,6.1,12.6,332,355,15.8,24.2,26.9,21.8,18.3,0.048,0.059,0.089,0.195,0,0.0,0.0,0.0,0.0,0.0,0.0,0.0,0.0,0.0,0.0,0.0,0.0,0.0,Tracheophyta; Pinus pinaster Aiton; Olea europaea L.; Magnoliopsida; Eucalyptus L'Hér.
2004,2004-07-26,Leiria,Alcobaça,Aljubarrota (Prazeres),Lagoa do Cão,39.5719302,-8.9442444,Desconhecida,134.0,2004-07-26T14:00,29.6,44,16.0,31.0,0.0,0.0,0.0,0.0,0,1016.6,1001.4,0,0,0,0,0.71,2.33,18.0,22.0,327,328,37.4,40.4,26.6,22.9,19.1,0.055,0.08,0.126,0.225,1,3600.0,917.8,807.7,110.1,900.7,917.8,1189.0,942.0,829.0,113.0,900.7,942.0,1220.4,Tracheophyta; Eucalyptus L'Hér.; Vitis vinifera L.; Magnoliopsida; Pinus pinaster Aiton
2004,2004-10-05,Leiria,Caldas da Rainha,Tornada,Casais do Lavradio,39.4481588,-9.1285891,NC,21.0,2004-10-05T11:00,22.7,67,16.2,24.8,0.0,0.0,0.0,0.0,0,1016.6,1014.1,18,2,0,55,0.37,0.93,2.0,3.5,135,114,16.2,25.5,21.0,22.2,21.6,0.09,0.133,0.172,0.268,1,3600.0,619.4,463.0,156.5,699.0,619.4,906.4,578.0,432.0,146.0,699.0,578.0,845.7,Tracheophyta; Eucalyptus L'Hér.; Magnoliopsida
2004,2004-10-05,Leiria,Óbidos,A dos Negros,Quinta do Carvalhedo,39.3557719,-9.0912728,NC,61.0,2004-10-05T17:00,21.5,75,16.8,21.9,0.0,0.0,0.0,0.0,1,1015.2,1008.1,23,0,0,77,0.16,0.65,14.1,17.9,308,308,28.1,26.5,22.3,22.0,21.3,0.09,0.133,0.172,0.268,1,3600.0,175.5,112.3,63.3,505.8,175.5,303.9,247.0,158.0,89.0,505.8,247.0,427.6,Vitis vinifera L.; Magnoliopsida; Eucalyptus L'Hér.; Tracheophyta
2004,2004-12-14,Leiria,Porto de Mós,Pedreiras,Tremoceira,39.6021124,-8.8625817,NC,157.0,2004-12-14T13:00,15.1,66,8.7,12.2,0.0,0.0,0.0,0.0,0,1022.0,1003.2,0,0,0,0,0.21,0.59,17.3,23.0,90,89,37.8,14.8,11.4,12.1,16.7,0.245,0.24,0.219,0.202,1,3600.0,406.7,296.6,110.1,658.2,406.7,636.1,410.0,299.0,111.0,658.2,410.0,641.3,Tracheophyta; Olea europaea L.; Magnoliopsida; Eucalyptus L'Hér.; Pinus pinaster Aiton
2004,2004-11-26,Leiria,Marinha Grande,Marinha Grande,Ponte Nova,39.7495952,-8.9298895,NC,92.0,2004-11-26T21:00,10.2,92,9.0,8.4,0.0,0.0,0.0,0.0,1,1024.7,1013.4,30,0,0,100,0.0,0.1,10.5,17.8,106,111,15.8,10.1,12.7,13.6,17.9,0.113,0.157,0.164,0.175,0,0.0,0.0,0.0,0.0,0.0,0.0,0.0,0.0,0.0,0.0,0.0,0.0,0.0,Tracheophyta
2004,2004-06-07,Leiria,Porto de Mós,Serro Ventoso,Chão das Pias,39.5565458,-8.8106499,NC,412.0,2004-06-07T10:00,20.1,62,12.6,21.3,0.0,0.0,0.0,0.0,0,1016.8,969.4,0,0,0,0,0.42,0.89,3.8,4.3,287,294,22.7,25.2,20.0,18.1,13.6,0.082,0.157,0.221,0.296,1,3600.0,756.3,631.4,125.0,786.7,756.3,1065.8,696.0,581.0,115.0,786.7,696.0,980.8,Tracheophyta; Magnoliopsida
2004,2004-07-27,Leiria,Pombal,Abiul,ABIUL,39.8746416,-8.538309357312837,NC,205.0,2004-07-27T14:00,31.0,33,12.6,31.5,0.0,0.0,0.0,0.0,0,1014.9,991.8,1,1,0,0,0.74,3.03,15.8,19.9,315,316,36.7,36.6,26.5,23.0,18.3,0.099,0.139,0.192,0.303,1,3600.0,907.3,784.6,122.7,880.2,907.3,1182.3,932.0,806.0,126.0,880.2,932.0,1214.5,Olea europaea L.; Tracheophyta; Pinus pinaster Aiton; Magnoliopsida
2004,2004-07-23,Leiria,Caldas da Rainha,Santa Catarina,Casal Trocano,39.4469306,-9.0155179,NC,89.0,2004-07-23T06:00,17.6,95,16.8,18.7,0.0,0.0,0.0,0.0,0,1018.6,1008.0,0,0,0,0,0.01,0.11,8.8,15.6,71,61,18.0,19.0,23.9,22.7,19.0,0.094,0.158,0.217,0.312,1,0.0,21.9,7.3,14.6,83.9,9.7,111.9,9.0,3.0,6.0,38.2,9.0,45.9,Eucalyptus L'Hér.; Magnoliopsida; Tracheophyta; Vitis vinifera L.; Pinus pinaster Aiton
2004,2004-06-30,Leiria,Alcobaça,Pataias,Vale Furado,39.6851289,-9.0555451,NC,61.0,2004-06-30T19:00,19.2,73,14.2,16.0,0.0,0.0,0.0,0.0,0,1020.6,1013.4,4,4,0,0,0.16,0.61,31.8,41.3,347,347,51.1,24.4,23.3,20.7,17.0,0.05,0.069,0.124,0.219,1,3600.0,143.5,100.6,42.9,534.7,143.5,248.9,214.0,150.0,64.0,534.7,214.0,371.2,Pinus pinaster Aiton; Tracheophyta
2004,2004-10-06,Leiria,Pombal,Ilha,Feteira,39.9478558,-8.8014565,NC,89.0,2004-10-06T03:00,16.2,97,15.7,17.1,0.0,0.0,0.0,0.0,3,1015.9,1005.3,100,79,0,98,0.0,0.06,7.2,12.0,354,9,14.8,17.0,20.5,21.0,20.3,0.047,0.061,0.077,0.175,0,0.0,0.0,0.0,0.0,0.0,0.0,0.0,0.0,0.0,0.0,0.0,0.0,0.0,Pinus pinaster Aiton; Tracheophyta; Eucalyptus L'Hér.
2004,2004-07-23,Leiria,Caldas da Rainha,Serra do Bouro,SERRA DO BOURO,39.45624495,-9.180932897705262,NC,49.0,2004-07-23T21:00,22.7,69,16.8,23.0,0.0,0.0,0.0,0.0,0,1019.7,1013.9,0,0,0,0,0.05,0.85,14.1,23.6,3,7,23.4,26.2,26.5,22.3,19.2,0.044,0.072,0.128,0.214,0,0.0,0.0,0.0,0.0,0.0,0.0,0.0,0.0,0.0,0.0,0.0,0.0,0.0,Tracheophyta; Eucalyptus L'Hér.; Magnoliopsida; Pinus pinaster Aiton
2004,2004-07-02,Leiria,Caldas da Rainha,Alvorninha,Malásia,39.4025698,-9.0740902,NC,47.0,2004-07-02T00:00,16.8,84,14.0,13.8,0.0,0.0,0.0,0.0,0,1021.0,1015.4,7,8,0,0,0.04,0.32,29.5,44.8,351,351,49.3,18.6,22.5,21.4,17.5,0.094,0.15,0.212,0.291,0,0.0,0.0,0.0,0.0,0.0,0.0,0.0,0.0,0.0,0.0,0.0,0.0,0.0,Vitis vinifera L.; Magnoliopsida; Tracheophyta; Eucalyptus L'Hér.; Pinus pinaster Aiton
2004,2004-06-17,Leiria,Leiria,Marrazes,Pinheiros,39.7625962,-8.8059313,NC,99.0,2004-06-17T21:00,20.6,62,13.0,19.9,0.0,0.0,0.0,0.0,1,1016.1,1004.5,29,0,0,96,0.05,0.93,11.6,21.5,334,342,24.5,23.7,24.8,20.0,15.5,0.047,0.067,0.122,0.21,0,0.0,0.0,0.0,0.0,0.0,0.0,0.0,0.0,0.0,0.0,0.0,0.0,0.0,Tracheophyta; Pinus pinaster Aiton; Eucalyptus L'Hér.; Magnoliopsida; Acacia Mill.
2004,2004-10-13,Leiria,Peniche,Serra D El-rei,Sezaredas,39.3566221,-9.3812853,NC,15.0,2004-10-13T16:00,18.9,59,10.6,16.6,0.0,0.0,0.0,0.0,1,1020.3,1018.5,26,10,10,38,0.25,0.9,17.1,21.2,309,310,27.4,24.6,19.7,21.3,22.0,0.087,0.064,0.111,0.203,1,3600.0,340.3,275.9,64.4,767.4,340.3,494.3,412.0,334.0,78.0,767.4,412.0,598.4,Tracheophyta; Magnoliopsida
2004,2004-07-29,Leiria,Alvaiázere,Rego da Murta,Corte do Ordem,39.77939035,-8.354925552031357,Desconhecida,253.0,2004-07-29T17:00,25.9,50,14.8,24.2,0.0,0.0,0.0,0.0,0,1015.5,986.6,2,0,0,6,0.42,1.66,22.3,29.7,322,324,44.6,32.6,25.9,23.6,18.7,0.088,0.139,0.199,0.309,1,3600.0,468.4,384.0,84.4,751.2,468.4,678.3,544.0,446.0,98.0,751.2,544.0,787.8,Magnoliopsida; Tracheophyta; Olea europaea L.; Eucalyptus L'Hér.; Quercus L.
2004,2004-07-06,Leiria,Bombarral,Bombarral,BOMBARRAL,39.2670652,-9.1584324,NC,44.0,2004-07-06T15:00,20.2,65,13.5,16.7,0.0,0.0,0.0,0.0,2,1016.5,1011.3,67,64,0,32,0.39,0.82,36.4,46.7,328,329,61.6,26.3,21.8,20.7,17.7,0.048,0.073,0.128,0.211,1,3600.0,690.6,442.4,248.2,532.2,690.6,1100.0,729.0,467.0,262.0,532.2,729.0,1161.1,Magnoliopsida; Tracheophyta
2004,2004-10-18,Leiria,Alcobaça,São Martinho do Porto,Venda Nova,39.5362168,-9.1143034,NC,114.0,2004-10-18T03:00,13.9,95,13.1,13.6,0.0,0.0,0.0,0.0,2,1009.6,996.0,79,0,81,100,0.0,0.08,8.6,13.0,123,134,13.7,13.6,16.8,19.8,21.4,0.137,0.073,0.107,0.197,0,0.0,0.0,0.0,0.0,0.0,0.0,0.0,0.0,0.0,0.0,0.0,0.0,0.0,Tracheophyta; Pinus pinaster Aiton; Magnoliopsida
2004,2004-12-11,Leiria,Alcobaça,São Martinho do Porto,Serra de Mangues,39.5219543,-9.120685007004628,NC,40.0,2004-12-11T02:00,7.8,89,6.1,5.1,0.0,0.0,0.0,0.0,0,1018.9,1014.0,7,0,0,22,0.0,0.11,11.6,23.2,106,109,21.2,6.7,9.3,12.5,17.6,0.212,0.225,0.21,0.196,0,0.0,0.0,0.0,0.0,0.0,0.0,0.0,0.0,0.0,0.0,0.0,0.0,0.0,Tracheophyta; Vitis vinifera L.; Magnoliopsida; Eucalyptus L'Hér.; Pinus pinaster Aiton
2004,2004-12-16,Leiria,Alcobaça,Vimeiro,Quinta da Mata,39.4753711,-9.0172218,NC,107.0,2004-12-16T17:00,13.5,85,11.1,12.3,0.0,0.0,0.0,0.0,0,1023.3,1010.3,16,18,0,0,0.03,0.23,10.5,20.0,344,346,27.0,13.5,12.4,12.7,17.0,0.288,0.295,0.255,0.255,1,2570.61,13.9,6.7,7.2,77.0,11.4,34.8,60.0,29.0,31.0,223.9,60.0,150.3,Tracheophyta; Vitis vinifera L.; Olea europaea L.; Magnoliopsida
2004,2004-06-19,Leiria,Leiria,Milagres,MILAGRES,39.8073924,-8.7918708,NC,128.0,2004-06-19T18:00,18.7,60,10.9,15.1,0.0,0.0,0.0,0.0,1,1016.5,1001.4,22,17,0,24,0.25,0.85,25.9,35.0,325,326,54.0,24.8,22.4,19.9,15.5,0.05,0.066,0.12,0.21,1,3600.0,302.4,220.3,82.0,600.9,302.4,485.7,376.0,274.0,102.0,600.9,376.0,604.0,Tracheophyta; Pinus pinaster Aiton; Eucalyptus L'Hér.; Magnoliopsida; Acacia Mill.
2004,2004-07-16,Leiria,Leiria,Ortigosa,Monte Agudo,39.8237738,-8.8090652,NC,124.0,2004-07-16T18:00,21.9,68,15.6,21.0,0.0,0.0,0.0,0.0,0,1012.9,998.5,8,9,0,0,0.24,0.85,18.9,24.8,325,327,35.6,29.8,24.7,20.3,17.3,0.049,0.06,0.099,0.198,1,3600.0,284.6,203.1,81.5,564.4,284.6,476.3,356.0,254.0,102.0,564.4,356.0,595.8,Tracheophyta; Pinus pinaster Aiton; Eucalyptus L'Hér.; Magnoliopsida; Acacia Mill.
2004,2004-07-17,Leiria,Caldas da Rainha,Santa Catarina,Casal Trocano,39.4469306,-9.0155179,NC,89.0,2004-07-17T03:00,17.6,91,16.1,16.5,0.0,0.0,0.0,0.0,3,1015.0,1004.5,90,100,0,0,0.01,0.19,22.2,32.3,347,349,37.8,20.5,24.9,22.3,18.6,0.094,0.16,0.221,0.314,0,0.0,0.0,0.0,0.0,0.0,0.0,0.0,0.0,0.0,0.0,0.0,0.0,0.0,Eucalyptus L'Hér.; Magnoliopsida; Tracheophyta; Vitis vinifera L.; Pinus pinaster Aiton
2004,2004-06-19,Leiria,Pombal,Louriçal,Ribeira de Santo Amaro,39.9991831,-8.7570048,NC,42.0,2004-06-19T16:00,20.0,58,11.4,17.5,0.0,0.0,0.0,0.0,1,1016.5,1011.5,21,22,0,4,0.4,0.99,24.7,31.2,323,324,48.6,27.6,22.6,20.3,15.9,0.05,0.067,0.122,0.219,1,3600.0,619.6,453.3,166.3,648.0,619.6,926.6,678.0,496.0,182.0,648.0,678.0,1013.9,Pinus pinaster Aiton; Eucalyptus L'Hér.; Tracheophyta; Pinus pinea L.
2004,2004-11-06,Leiria,Nazaré,Famalicão,Quinta Nova,39.5315015,-9.0858829,NC,37.0,2004-11-06T19:00,18.4,77,14.2,18.2,0.0,0.0,0.0,0.0,1,1017.2,1012.8,21,1,34,0,0.02,0.5,10.8,23.7,53,64,19.4,17.0,17.3,17.4,20.8,0.215,0.238,0.186,0.196,0,0.0,0.0,0.0,0.0,0.0,0.0,0.0,0.0,0.0,0.0,0.0,0.0,0.0,Eucalyptus L'Hér.; Pinus pinaster Aiton; Tracheophyta; Magnoliopsida
2004,2004-11-06,Leiria,Alcobaça,São Martinho do Porto,Praia da Gralha,39.525933300000005,-9.130847252695023,NC,0.0,2004-11-06T23:00,16.8,78,12.9,16.2,0.0,0.0,0.0,0.0,0,1017.2,1017.2,18,0,30,0,0.02,0.43,10.1,21.7,86,96,18.0,15.7,17.2,17.6,21.0,0.215,0.237,0.186,0.196,0,0.0,0.0,0.0,0.0,0.0,0.0,0.0,0.0,0.0,0.0,0.0,0.0,0.0,Tracheophyta
2004,2004-07-27,Leiria,Pombal,Pelariga,Tinto,39.978376,-8.6218681,NC,51.0,2004-07-27T11:00,29.2,41,14.7,31.1,0.0,0.0,0.0,0.0,1,1016.2,1010.4,25,28,0,0,0.6,2.38,8.2,7.9,311,317,22.3,34.8,25.3,22.5,18.6,0.048,0.059,0.085,0.193,1,3600.0,855.2,700.7,154.5,810.1,855.2,1147.0,808.0,662.0,146.0,810.1,808.0,1083.8,Tracheophyta; Pinus pinaster Aiton; Eucalyptus L'Hér.
2004,2004-06-20,Leiria,Pombal,Louriçal,Cavadas,40.0331679,-8.7548161,NC,52.0,2004-06-20T04:00,15.8,77,11.8,14.2,0.0,0.0,0.0,0.0,1,1016.3,1010.1,26,29,0,0,0.03,0.41,14.8,23.4,346,346,27.0,16.7,21.4,20.3,15.9,0.051,0.067,0.122,0.219,0,0.0,0.0,0.0,0.0,0.0,0.0,0.0,0.0,0.0,0.0,0.0,0.0,0.0,Pinus pinaster Aiton; Eucalyptus L'Hér.; Pinales; Oryza sativa L.; Tracheophyta
2004,2004-06-10,Leiria,Bombarral,Bombarral,BOMBARRAL,39.2670652,-9.1584324,NC,44.0,2004-06-10T10:00,22.8,63,15.5,23.4,0.0,0.0,0.0,0.0,0,1021.5,1016.3,4,4,0,0,0.43,1.02,13.8,16.9,353,358,28.4,26.7,21.4,19.3,15.7,0.047,0.092,0.148,0.218,1,3600.0,752.8,619.0,133.8,772.6,752.8,1063.2,692.0,569.0,123.0,772.6,692.0,977.3,Magnoliopsida; Tracheophyta
2004,2004-08-02,Leiria,Ansião,Chão de Couce,Furadouro,39.8866259,-8.3744308,NC,297.0,2004-08-02T19:00,22.4,66,15.7,22.1,0.0,0.0,0.0,0.0,0,1015.6,981.4,10,0,0,34,0.14,0.93,15.6,21.9,310,311,34.9,28.6,27.2,23.5,18.7,0.108,0.15,0.184,0.3,1,3600.0,91.2,61.4,29.8,477.1,91.2,170.9,159.0,107.0,52.0,477.1,159.0,297.9,Tracheophyta; Magnoliopsida; Eucalyptus L'Hér.; Olea europaea L.
2004,2004-12-17,Leiria,Peniche,Atouguia da Baleia,VALE DO GROU,39.34781665,-9.334225849608696,NC,11.0,2004-12-17T19:00,13.8,78,10.0,10.4,0.0,0.0,0.0,0.0,2,1029.3,1028.0,51,57,0,0,0.04,0.35,23.6,34.2,352,352,37.8,12.8,13.2,13.7,17.3,0.205,0.22,0.196,0.199,0,0.0,0.0,0.0,0.0,0.0,0.0,0.0,0.0,0.0,0.0,0.0,0.0,0.0,Eucalyptus L'Hér.; Magnoliopsida; Tracheophyta; Pinus pinaster Aiton; Pinus pinea L.; 
2004,2004-07-02,Leiria,Caldas da Rainha,Caldas Da Rainha (nossa Senhora Do Pópulo),CALDAS DA RAINHA,39.4059714,-9.1346217,NC,59.0,2004-07-02T23:00,17.3,80,13.9,14.5,0.0,0.0,0.0,0.0,0,1021.2,1014.1,0,0,0,0,0.05,0.39,28.1,41.1,357,358,47.9,19.2,22.4,21.3,17.5,0.094,0.149,0.212,0.291,0,0.0,0.0,0.0,0.0,0.0,0.0,0.0,0.0,0.0,0.0,0.0,0.0,0.0,Tracheophyta; Magnoliopsida
2004,2004-06-05,Leiria,Caldas da Rainha,Tornada,Reguengo da Parada,39.44727,-9.136825160541257,NC,7.0,2004-06-05T21:00,17.3,78,13.5,16.8,0.0,0.0,0.0,0.0,0,1016.0,1015.2,7,8,0,0,0.02,0.43,11.4,16.9,332,333,20.9,20.7,22.8,19.3,15.6,0.1,0.176,0.238,0.299,0,0.0,0.0,0.0,0.0,0.0,0.0,0.0,0.0,0.0,0.0,0.0,0.0,0.0,Tracheophyta; Eucalyptus L'Hér.; Magnoliopsida
2004,2004-07-17,Leiria,Pombal,Almagreira,Chãs,39.9898484,-8.6434094,NC,30.0,2004-07-17T00:00,16.9,97,16.4,16.4,0.0,0.0,0.0,0.0,3,1015.6,1012.0,86,96,0,0,0.0,0.06,18.5,28.7,336,342,28.1,19.3,24.8,21.0,17.8,0.049,0.06,0.095,0.201,0,0.0,0.0,0.0,0.0,0.0,0.0,0.0,0.0,0.0,0.0,0.0,0.0,0.0,Magnoliopsida; Tracheophyta; Olea europaea L.; Eucalyptus L'Hér.; Pinus pinaster Aiton
2004,2004-07-29,Leiria,Pombal,Vila Cã,Várzeas,39.8621812,-8.5644898,NC,144.0,2004-07-29T18:00,24.0,63,16.5,22.8,0.0,0.0,0.0,0.0,0,1016.5,999.8,6,1,0,18,0.28,1.11,23.7,32.0,327,329,43.9,30.2,25.2,22.6,18.5,0.068,0.091,0.128,0.236,1,3600.0,282.8,220.9,61.9,665.8,282.8,440.3,361.0,282.0,79.0,665.8,361.0,562.0,Olea europaea L.; Tracheophyta; Pinus pinaster Aiton; Magnoliopsida
2004,2004-07-03,Leiria,Leiria,Monte Redondo,Paul de Baixo,39.8951806,-8.833845,NC,42.0,2004-07-03T19:00,20.3,62,12.9,17.7,0.0,0.0,0.0,0.0,0,1018.5,1013.5,0,0,0,0,0.19,0.9,24.6,34.7,339,341,46.8,25.6,23.0,20.6,17.1,0.049,0.062,0.11,0.207,1,3600.0,144.3,100.9,43.4,542.5,144.3,246.1,216.0,151.0,65.0,542.5,216.0,368.3,Tracheophyta; Pinus pinaster Aiton; Eucalyptus L'Hér.; Magnoliopsida; Acacia Mill.
2004,2004-07-29,Leiria,Porto de Mós,Mendiga,MENDIGA,39.495999350000005,-8.847903068306833,NC,345.0,2004-07-29T21:00,19.0,87,16.7,18.6,0.0,0.0,0.0,0.0,0,1017.6,977.5,14,2,0,39,0.02,0.3,18.5,29.5,333,338,37.1,23.6,25.4,23.1,18.5,0.082,0.146,0.215,0.317,0,0.0,0.0,0.0,0.0,0.0,0.0,0.0,0.0,0.0,0.0,0.0,0.0,0.0,Magnoliopsida; Quercus L.; Olea europaea L.; Tracheophyta
2004,2004-06-08,Leiria,Bombarral,Carvalhal,Casal Novo,39.300323,-9.1099261,NC,176.0,2004-06-08T19:00,21.0,60,12.8,19.5,0.0,0.0,0.0,0.0,0,1018.1,997.5,3,0,3,3,0.16,1.0,16.3,21.8,335,338,34.6,24.9,22.3,18.5,14.7,0.089,0.151,0.215,0.282,1,3600.0,120.9,82.1,38.8,482.1,120.9,226.2,187.0,127.0,60.0,482.1,187.0,349.7,Vitis vinifera L.; Tracheophyta; Magnoliopsida; Eucalyptus L'Hér.; 
2004,2004-07-10,Leiria,Figueiró dos Vinhos,Figueiró dos Vinhos,Telhada,39.9057857,-8.2925586,Desconhecida,393.0,2004-07-10T09:00,18.3,80,14.7,18.6,0.0,0.0,0.0,0.0,3,1019.4,973.7,100,93,16,22,0.18,0.43,8.1,10.5,328,329,16.9,20.5,20.0,20.2,16.4,0.117,0.155,0.212,0.322,1,3600.0,340.8,128.8,212.0,197.2,340.8,864.4,299.0,113.0,186.0,197.2,299.0,758.4,Magnoliopsida; Eucalyptus L'Hér.; Pinus pinaster Aiton; Acacia Mill.; Tracheophyta
2004,2004-07-27,Leiria,Marinha Grande,Marinha Grande,Embra,39.748952,-8.9181192,NC,99.0,2004-07-27T00:00,17.7,96,17.0,18.7,0.0,0.0,0.0,0.0,0,1017.5,1005.7,0,0,0,0,0.0,0.09,9.7,16.3,309,317,11.2,19.5,25.0,21.3,18.1,0.049,0.06,0.098,0.198,0,0.0,0.0,0.0,0.0,0.0,0.0,0.0,0.0,0.0,0.0,0.0,0.0,0.0,Tracheophyta; Eucalyptus L'Hér.; Pinus pinaster Aiton
2004,2004-07-11,Leiria,Alvaiázere,Pussos,Sobreiral,39.8063937,-8.3748009,Desconhecida,292.0,2004-07-11T11:00,24.5,48,12.9,25.2,0.0,0.0,0.0,0.0,0,1017.3,983.9,0,0,0,0,0.56,1.6,12.7,16.2,353,356,30.2,27.8,21.1,20.6,17.0,0.097,0.149,0.222,0.32,1,3600.0,884.1,762.8,121.3,860.4,884.1,1173.2,838.0,723.0,115.0,860.4,838.0,1112.0,Magnoliopsida; Eucalyptus L'Hér.; Olea europaea L.; Quercus L.; Tracheophyta; Pinus pinaster Aiton; Quercus rotundifolia Lam.; Pinus pinea L.; 
2004,2004-07-27,Leiria,Pombal,Pombal,Vale Coimbra,39.8959966,-8.6810197,NC,147.0,2004-07-27T12:00,28.7,43,15.0,30.7,0.0,0.0,0.0,0.0,0,1016.1,999.4,13,14,0,0,0.66,2.22,11.2,12.1,318,323,27.7,36.2,24.6,21.7,18.0,0.048,0.059,0.087,0.191,1,3600.0,928.1,772.9,155.2,837.4,928.1,1224.2,903.0,752.0,151.0,837.4,903.0,1191.1,Eucalyptus L'Hér.; Tracheophyta
2004,2004-06-20,Leiria,Pombal,São Simão de Litém,Bica,39.8231035,-8.6089244,NC,223.0,2004-06-20T13:00,21.6,49,10.4,20.3,0.0,0.0,0.0,0.0,2,1015.3,989.5,77,85,1,0,0.5,1.32,18.3,23.0,324,325,42.5,26.7,21.2,20.6,15.3,0.1,0.156,0.229,0.314,1,3600.0,787.8,486.2,301.5,508.8,787.8,1265.6,789.0,487.0,302.0,508.8,789.0,1267.6,Olea europaea L.; Eucalyptus L'Hér.; Pinus pinaster Aiton; Tracheophyta
2004,2004-07-30,Leiria,Alcobaça,Aljubarrota (Prazeres),Molianos,39.5719302,-8.9442444,Desconhecida,134.0,2004-07-30T17:00,25.7,57,16.6,24.9,0.0,0.0,0.0,0.0,0,1015.9,1000.5,0,0,0,0,0.4,1.41,20.8,26.7,342,344,44.3,34.7,25.9,23.1,19.4,0.054,0.079,0.123,0.224,1,3600.0,479.4,397.5,81.9,770.7,479.4,684.6,556.0,461.0,95.0,770.7,556.0,793.9,Tracheophyta; Eucalyptus L'Hér.; Vitis vinifera L.; Magnoliopsida; Pinus pinaster Aiton
2004,2004-06-07,Leiria,Caldas da Rainha,Caldas Da Rainha (nossa Senhora Do Pópulo),caldas da rainha,39.4059714,-9.1346217,NC,59.0,2004-06-07T18:00,20.3,64,13.3,18.9,0.0,0.0,0.0,0.0,0,1017.5,1010.5,1,0,1,0,0.24,0.86,16.8,20.5,329,329,32.4,26.4,22.5,19.2,15.4,0.097,0.173,0.236,0.298,1,3600.0,305.3,238.4,67.0,670.9,305.3,471.8,383.0,299.0,84.0,670.9,383.0,591.7,Tracheophyta; Magnoliopsida
2004,2004-06-10,Leiria,Nazaré,Nazaré,Vale Fundo,39.612089,-9.058583215115968,NC,116.0,2004-06-10T17:00,22.6,60,14.5,21.1,0.0,0.0,0.0,0.0,0,1020.8,1007.2,0,0,0,0,0.37,1.08,21.1,27.0,343,344,38.9,30.1,22.8,18.9,15.2,0.053,0.088,0.145,0.224,1,3600.0,492.5,405.7,86.9,756.2,492.5,711.9,567.0,467.0,100.0,756.2,567.0,819.5,Magnoliopsida; Pinus pinaster Aiton; Tracheophyta
2004,2004-07-05,Leiria,Pombal,Louriçal,FOITOS,40.0094724,-8.7649012,NC,111.0,2004-07-05T03:00,15.2,94,14.2,14.1,0.0,0.0,0.0,0.0,0,1017.5,1004.2,4,4,0,0,0.0,0.11,17.1,27.9,353,353,24.8,16.1,21.6,20.1,16.6,0.047,0.062,0.111,0.212,0,0.0,0.0,0.0,0.0,0.0,0.0,0.0,0.0,0.0,0.0,0.0,0.0,0.0,Eucalyptus L'Hér.; Tracheophyta; Pinus pinaster Aiton
2004,2004-11-11,Leiria,Alcobaça,São Martinho do Porto,Serra de Mangues,39.5219543,-9.120685007004628,NC,40.0,2004-11-11T20:00,12.7,72,7.8,8.7,0.0,0.0,0.0,0.0,0,1018.1,1013.2,0,0,0,0,0.05,0.41,24.1,39.1,14,15,42.5,12.5,14.5,16.8,20.4,0.177,0.211,0.188,0.196,0,0.0,0.0,0.0,0.0,0.0,0.0,0.0,0.0,0.0,0.0,0.0,0.0,0.0,Tracheophyta; Vitis vinifera L.; Magnoliopsida; Eucalyptus L'Hér.; Pinus pinaster Aiton
2004,2004-11-21,Leiria,Alcobaça,Bárrio,Monte de Bois,39.5556982,-9.000482253440332,NC,168.0,2004-11-21T15:00,15.4,64,8.7,14.0,0.0,0.0,0.0,0.0,1,1023.7,1003.6,29,0,0,97,0.17,0.63,7.4,9.4,151,148,17.6,16.1,12.0,13.7,18.2,0.138,0.177,0.176,0.183,1,3600.0,277.3,156.4,120.9,459.4,277.3,477.3,321.0,181.0,140.0,459.4,321.0,552.4,Vitis vinifera L.; Eucalyptus L'Hér.; Pinus pinaster Aiton; Magnoliopsida; Tracheophyta
2004,2004-06-20,Leiria,Caldas da Rainha,Serra do Bouro,SERRA DO BOURO,39.45624495,-9.180932897705262,NC,49.0,2004-06-20T18:00,20.8,66,14.2,19.9,0.0,0.0,0.0,0.0,3,1015.3,1009.5,86,64,0,93,0.23,0.84,15.6,19.3,293,294,28.1,28.0,23.4,21.4,17.0,0.048,0.09,0.148,0.222,1,3600.0,276.1,176.3,99.8,476.6,276.1,489.9,343.0,219.0,124.0,476.6,343.0,608.6,Tracheophyta; Eucalyptus L'Hér.; Magnoliopsida; Pinus pinaster Aiton
2004,2004-07-08,Leiria,Figueiró dos Vinhos,Figueiró dos Vinhos,Chão  Velho,39.889150400000005,-8.27044355556998,Desconhecida,356.0,2004-07-08T15:00,21.0,39,6.6,17.6,0.0,0.0,0.0,0.0,3,1023.9,982.6,100,83,97,0,0.43,1.52,19.1,25.3,324,324,47.2,26.5,20.9,20.8,16.6,0.115,0.155,0.214,0.323,1,3600.0,566.6,376.5,190.1,457.9,566.6,1087.9,599.0,398.0,201.0,457.9,599.0,1150.1,Eucalyptus L'Hér.; Olea europaea L.; Tracheophyta; Pinus pinaster Aiton; Magnoliopsida
2004,2004-06-22,Leiria,Figueiró dos Vinhos,Figueiró dos Vinhos,Telhada,39.9057857,-8.2925586,Desconhecida,393.0,2004-06-22T18:00,22.7,63,15.3,22.2,0.0,0.0,0.0,0.0,2,1017.6,972.6,61,39,13,61,0.24,1.02,15.3,20.9,261,259,42.5,25.7,22.0,19.9,14.9,0.125,0.169,0.236,0.333,1,3600.0,269.6,193.4,76.2,532.9,269.6,480.6,336.0,241.0,95.0,532.9,336.0,598.9,Magnoliopsida; Eucalyptus L'Hér.; Pinus pinaster Aiton; Acacia Mill.; Tracheophyta
2004,2004-08-08,Leiria,Caldas da Rainha,Santa Catarina,Casal da Coita,39.4469306,-9.0155179,NC,89.0,2004-08-08T01:00,21.4,94,20.5,22.6,0.0,0.0,0.0,0.0,3,1008.6,998.3,91,72,0,86,0.0,0.14,19.7,29.5,232,232,18.4,23.1,26.2,23.9,20.2,0.094,0.154,0.207,0.306,0,0.0,0.0,0.0,0.0,0.0,0.0,0.0,0.0,0.0,0.0,0.0,0.0,0.0,Eucalyptus L'Hér.; Magnoliopsida; Tracheophyta; Vitis vinifera L.; Pinus pinaster Aiton
2004,2004-06-12,Leiria,Alcobaça,Pataias,Paredes vitoria,39.7007363,-9.043814956245818,NC,60.0,2004-06-12T16:00,22.6,74,17.8,23.7,0.0,0.0,0.0,0.0,1,1018.7,1011.7,25,28,0,0,0.42,0.71,17.9,20.8,322,323,29.2,32.3,22.5,19.2,15.6,0.048,0.081,0.14,0.227,1,3600.0,666.4,555.9,110.5,798.3,666.4,923.6,730.0,609.0,121.0,798.3,730.0,1011.8,Pinus pinaster Aiton; Tracheophyta; Magnoliopsida
2004,2004-11-23,Leiria,Porto de Mós,Serro Ventoso,Bezerra,39.5490683,-8.8464718,NC,418.0,2004-11-23T20:00,8.5,91,7.0,6.4,0.0,0.0,0.0,0.0,0,1025.7,975.2,0,0,0,0,0.0,0.1,8.9,10.6,32,18,11.9,9.5,11.0,12.4,17.7,0.24,0.269,0.267,0.278,0,0.0,0.0,0.0,0.0,0.0,0.0,0.0,0.0,0.0,0.0,0.0,0.0,0.0,Magnoliopsida; Pinus pinaster Aiton; Eucalyptus L'Hér.; Tracheophyta
2004,2004-07-29,Leiria,Ansião,Chão de Couce,Ponte do Freixo,39.9117487,-8.3758379,NC,246.0,2004-07-29T00:00,16.8,94,15.8,17.1,0.0,0.0,0.0,0.0,0,1017.6,988.6,16,18,0,0,0.0,0.11,11.4,20.3,325,330,23.8,20.8,25.7,23.6,18.6,0.108,0.15,0.188,0.304,0,0.0,0.0,0.0,0.0,0.0,0.0,0.0,0.0,0.0,0.0,0.0,0.0,0.0,Olea europaea L.; Quercus L.; Tracheophyta; Magnoliopsida
2004,2004-06-22,Leiria,Marinha Grande,Marinha Grande,Amieirinha,39.7495952,-8.9298895,NC,92.0,2004-06-22T21:00,20.2,86,17.8,20.8,0.0,0.0,0.0,0.0,3,1018.5,1007.7,100,89,7,67,0.02,0.32,15.3,22.3,225,232,23.0,22.1,22.2,19.9,16.1,0.062,0.066,0.121,0.213,0,0.0,0.0,0.0,0.0,0.0,0.0,0.0,0.0,0.0,0.0,0.0,0.0,0.0,Tracheophyta
2004,2004-07-24,Leiria,Alvaiázere,Pussos,Sobreiral,39.8063937,-8.3748009,Desconhecida,292.0,2004-07-24T10:00,33.9,29,13.3,35.3,0.0,0.0,0.0,0.0,0,1021.2,988.7,0,0,0,0,0.52,3.76,3.5,4.0,24,27,15.5,33.6,26.0,22.5,18.0,0.088,0.141,0.206,0.312,1,3600.0,746.8,639.5,107.3,830.4,746.8,1020.7,682.0,584.0,98.0,830.4,682.0,932.2,Magnoliopsida; Eucalyptus L'Hér.; Olea europaea L.; Quercus L.; Tracheophyta; Pinus pinaster Aiton; Quercus rotundifolia Lam.; Pinus pinea L.; 
2004,2004-08-02,Leiria,Ansião,Chão de Couce,Mó \ POV,39.8923985,-8.3696454,NC,268.0,2004-08-02T16:00,26.1,49,14.7,26.1,0.0,0.0,0.0,0.0,0,1015.2,984.7,4,0,0,12,0.51,1.72,16.4,20.9,296,297,37.1,34.0,27.1,23.6,18.9,0.108,0.15,0.184,0.3,1,3600.0,637.0,539.9,97.1,814.2,637.0,880.8,702.0,595.0,107.0,814.2,702.0,970.7,Magnoliopsida; Tracheophyta; Olea europaea L.; Eucalyptus L'Hér.; Quercus suber L.; Quercus L.
2004,2004-07-31,Leiria,Pombal,Abiul,Vale da Figueira,39.8298624,-8.5015297,NC,197.0,2004-07-31T16:00,32.0,37,15.5,32.9,0.0,0.0,0.0,0.0,0,1014.2,992.1,0,0,0,0,0.58,2.99,12.0,14.5,303,305,23.4,38.1,26.8,23.3,18.8,0.096,0.134,0.183,0.294,1,3600.0,631.4,538.8,92.7,805.5,631.4,887.9,695.0,593.0,102.0,805.5,695.0,977.3,Eucalyptus L'Hér.; Olea europaea L.; Magnoliopsida; Pinus pinaster Aiton
2004,2004-06-10,Leiria,Caldas da Rainha,A dos Francos,Broeiras,39.3126789,-9.0868858,NC,118.0,2004-06-10T15:00,25.9,48,14.0,26.0,0.0,0.0,0.0,0.0,0,1020.3,1006.7,0,0,0,0,0.6,1.75,18.9,23.5,329,331,38.5,31.6,22.8,19.1,15.2,0.088,0.149,0.213,0.281,1,3600.0,810.8,695.5,115.3,844.5,810.8,1092.7,858.0,736.0,122.0,844.5,858.0,1156.4,Eucalyptus L'Hér.; Tracheophyta; Vitis vinifera L.; Magnoliopsida
2004,2004-08-04,Leiria,Caldas da Rainha,Santa Catarina,Casal da Coita,39.4469306,-9.0155179,NC,89.0,2004-08-04T01:00,19.6,95,18.9,20.3,0.0,0.0,0.0,0.0,2,1017.3,1006.8,50,56,0,0,0.0,0.1,17.7,27.1,340,343,26.3,22.0,25.7,23.9,19.9,0.101,0.155,0.209,0.307,0,0.0,0.0,0.0,0.0,0.0,0.0,0.0,0.0,0.0,0.0,0.0,0.0,0.0,Eucalyptus L'Hér.; Magnoliopsida; Tracheophyta; Vitis vinifera L.; Pinus pinaster Aiton
2004,2004-06-27,Leiria,Pombal,Vermoil,Matos da Ranha,39.873537,-8.6862497,NC,168.0,2004-06-27T06:00,17.5,98,17.3,17.7,0.0,0.0,0.0,0.0,3,1020.4,1000.5,87,97,0,0,0.01,0.03,16.7,27.8,354,356,30.6,18.5,22.6,20.0,16.0,0.055,0.064,0.112,0.208,1,69.9,52.1,15.9,36.2,114.5,30.2,183.3,23.0,7.0,16.0,66.4,23.0,80.9,Eucalyptus L'Hér.; Tracheophyta; Olea europaea L.; Pinus pinaster Aiton
2004,2004-07-11,Leiria,Pombal,Vermoil,Calvaria,39.8289166,-8.6598627,NC,263.0,2004-07-11T07:00,15.2,93,14.1,15.1,0.0,0.0,0.0,0.0,3,1018.2,987.1,84,93,0,0,0.05,0.12,9.9,13.4,350,352,20.9,16.8,19.7,19.4,16.4,0.089,0.106,0.163,0.259,1,3366.84,153.2,52.0,101.1,172.2,153.2,399.7,106.0,36.0,70.0,172.2,106.0,276.6,Pinus pinaster Aiton; Tracheophyta; Magnoliopsida; Eucalyptus L'Hér.
2004,2004-08-06,Leiria,Pombal,Carriço,Guarda do Juncal Gordo \ CAS,39.9849505,-8.8013235,NC,108.0,2004-08-06T14:00,25.1,61,17.0,25.8,0.0,0.0,0.0,0.0,1,1012.6,1000.2,27,0,0,90,0.55,1.25,22.1,27.7,323,325,38.5,33.2,23.6,21.5,18.5,0.052,0.059,0.09,0.196,1,3600.0,836.6,661.5,175.1,756.7,836.6,1162.4,860.0,680.0,180.0,756.7,860.0,1194.9,Pinus pinaster Aiton; Tracheophyta; Eucalyptus L'Hér.
2004,2004-08-07,Leiria,Alcobaça,Benedita,Venda das Raparigas,39.4257209,-8.9800702,NC,207.0,2004-08-07T19:00,23.4,68,17.3,24.1,0.0,0.0,0.0,0.0,1,1009.6,985.9,28,2,0,88,0.12,0.91,13.2,17.2,281,281,28.8,28.8,26.1,23.0,19.4,0.094,0.154,0.207,0.306,1,3600.0,72.1,33.3,38.8,285.3,72.1,155.4,132.0,61.0,71.0,285.3,132.0,284.4,Tracheophyta; Magnoliopsida; Pinus pinaster Aiton
2004,2004-06-29,Leiria,Porto de Mós,Arrimal,ARRIMAL,39.4958428,-8.8797372,NC,367.0,2004-06-29T18:00,23.8,50,12.6,22.2,0.0,0.0,0.0,0.0,0,1018.9,976.9,0,0,0,0,0.32,1.49,16.8,22.2,329,331,44.3,31.1,25.3,20.7,16.0,0.077,0.127,0.193,0.286,1,3600.0,330.8,263.2,67.6,711.4,330.8,489.6,411.0,327.0,84.0,711.4,411.0,608.2,Olea europaea L.; Tracheophyta; Magnoliopsida
2004,2004-08-02,Leiria,Caldas da Rainha,Serra do Bouro,Espinheira,39.4513157,-9.177165,NC,36.0,2004-08-02T11:00,23.5,64,16.4,25.2,0.0,0.0,0.0,0.0,0,1016.6,1012.4,6,7,0,0,0.49,1.04,12.4,14.8,330,334,25.2,32.2,24.9,23.2,19.9,0.041,0.069,0.123,0.211,1,3600.0,828.4,694.8,133.7,812.0,828.4,1136.4,781.0,655.0,126.0,812.0,781.0,1071.3,Tracheophyta; Eucalyptus L'Hér.; Magnoliopsida; Pinus pinaster Aiton
2004,2004-08-08,Leiria,Marinha Grande,Marinha Grande,Pero Neto,39.7546124,-8.8978131,NC,94.0,2004-08-08T02:00,20.3,96,19.7,21.1,0.0,0.0,0.0,0.0,3,1007.6,996.6,94,69,5,96,0.0,0.09,20.2,28.8,220,223,22.3,20.7,23.7,21.3,18.5,0.052,0.06,0.095,0.197,0,0.0,0.0,0.0,0.0,0.0,0.0,0.0,0.0,0.0,0.0,0.0,0.0,0.0,Pinus pinaster Aiton; Eucalyptus L'Hér.; Tracheophyta
2004,2004-07-15,Leiria,Leiria,Barreira,Casal da Charneca,39.7167083,-8.8005046,NC,109.0,2004-07-15T08:00,22.7,69,16.8,24.2,0.0,0.0,0.0,0.0,0,1015.5,1002.8,0,0,0,0,0.2,0.84,6.2,8.7,159,156,15.5,23.8,23.9,20.6,17.6,0.049,0.06,0.101,0.199,1,3600.0,394.3,299.1,95.2,630.8,394.3,627.7,319.0,242.0,77.0,630.8,319.0,507.8,Tracheophyta; Pinus pinaster Aiton; Eucalyptus L'Hér.; Magnoliopsida; Acacia Mill.
2004,2004-06-26,Leiria,Porto de Mós,Alcaria,Cabeça Gorda,39.5722206,-8.7873277,NC,262.0,2004-06-26T22:00,19.6,88,17.5,20.1,0.0,0.0,0.0,0.0,0,1020.1,989.5,0,0,0,0,0.01,0.27,14.9,26.9,340,344,36.4,22.7,25.0,21.0,16.4,0.084,0.129,0.197,0.287,0,0.0,0.0,0.0,0.0,0.0,0.0,0.0,0.0,0.0,0.0,0.0,0.0,0.0,Olea europaea L.; Magnoliopsida; Quercus L.; Eucalyptus L'Hér.; Pinus pinaster Aiton
2004,2004-11-27,Leiria,Peniche,Peniche (conceição),PENICHE,39.36044355,-9.380148755432105,NC,8.0,2004-11-27T16:00,15.7,82,12.6,13.4,0.0,0.0,0.0,0.0,2,1017.5,1016.5,71,0,69,100,0.07,0.33,21.7,33.3,133,135,34.6,14.9,13.3,14.8,19.2,0.125,0.163,0.169,0.2,1,0.0,46.3,0.7,45.6,3.7,46.3,276.2,63.0,1.0,62.0,3.7,63.0,375.7,Tracheophyta; Magnoliopsida
2004,2004-07-18,Leiria,Caldas da Rainha,Alvorninha,Chãos,39.3906191,-9.0318409,NC,155.0,2004-07-18T20:00,19.7,82,16.5,19.9,0.0,0.0,0.0,0.0,1,1018.3,1000.1,29,0,0,95,0.05,0.42,14.6,20.3,322,323,30.6,24.3,24.5,21.9,18.3,0.094,0.159,0.22,0.313,1,0.0,0.0,0.0,0.0,0.0,0.0,0.0,33.0,6.0,27.0,49.3,33.0,103.2,Magnoliopsida; Tracheophyta; Eucalyptus L'Hér.; Vitis vinifera L.
2004,2004-06-14,Leiria,Alcobaça,Benedita,Ninho de Águia,39.4180447,-8.973796989006033,NC,190.0,2004-06-14T12:00,32.1,21,7.3,32.0,0.0,0.0,0.0,0.0,0,1018.1,996.7,8,0,0,25,0.76,3.77,11.6,14.3,60,65,32.4,34.1,23.6,20.0,15.3,0.095,0.179,0.25,0.324,1,3600.0,966.8,846.0,120.9,888.7,966.8,1262.0,944.0,826.0,118.0,888.7,944.0,1232.2,Tracheophyta; Vitis vinifera L.; Eucalyptus L'Hér.; Magnoliopsida; Olea europaea L.
2004,2004-08-10,Leiria,Pombal,Carriço,Fonte da Pedra,39.9849505,-8.8013235,NC,108.0,2004-08-10T12:00,21.1,76,16.8,20.5,0.0,0.0,0.0,0.0,1,1013.6,1001.0,37,18,24,22,0.27,0.6,20.4,26.7,225,224,44.6,22.7,20.4,21.3,18.7,0.189,0.08,0.09,0.195,1,3600.0,446.5,249.0,197.5,277.3,446.5,1195.5,434.0,242.0,192.0,277.3,434.0,1162.0,Pinus pinaster Aiton; Tracheophyta; Eucalyptus L'Hér.
2004,2004-08-13,Leiria,Pombal,Louriçal,Cavadas,40.0331679,-8.7548161,NC,52.0,2004-08-13T02:00,16.8,96,16.2,17.8,0.0,0.0,0.0,0.0,0,1019.5,1013.3,0,0,0,0,0.0,0.07,7.6,16.2,5,359,13.0,17.9,21.5,21.4,19.1,0.158,0.087,0.09,0.195,0,0.0,0.0,0.0,0.0,0.0,0.0,0.0,0.0,0.0,0.0,0.0,0.0,0.0,Pinus pinaster Aiton; Eucalyptus L'Hér.; Pinales; Oryza sativa L.; Tracheophyta
2004,2004-11-27,Leiria,Caldas da Rainha,Salir do Porto,SALIR DO PORTO,39.4924358,-9.1472141,NC,9.0,2004-11-27T17:00,15.3,81,12.0,13.0,0.0,0.0,0.0,0.0,2,1017.6,1016.5,70,0,67,99,0.06,0.34,19.9,32.9,135,137,34.2,14.1,13.4,14.6,19.0,0.145,0.171,0.186,0.196,1,0.0,8.9,0.5,8.4,5.7,7.5,39.0,36.0,2.0,34.0,14.9,36.0,157.7,Pinus pinaster Aiton; Magnoliopsida; Tracheophyta
2004,2004-08-14,Leiria,Alcobaça,Aljubarrota (Prazeres),Carrascal,39.5719302,-8.9442444,NC,134.0,2004-08-14T14:00,26.4,60,18.1,28.3,0.0,0.0,0.0,0.0,0,1019.0,1003.6,0,0,0,0,0.59,1.36,18.8,23.2,340,341,37.8,33.6,23.8,22.6,20.3,0.094,0.084,0.118,0.219,1,3600.0,860.8,751.0,109.8,874.6,860.8,1144.9,886.0,773.0,113.0,874.6,886.0,1178.4,Tracheophyta; Eucalyptus L'Hér.; Vitis vinifera L.; Magnoliopsida; Pinus pinaster Aiton
2004,2004-07-04,Leiria,Caldas da Rainha,Caldas Da Rainha (nossa Senhora Do Pópulo),Crocha,39.40630015,-9.12334446748126,NC,116.0,2004-07-04T14:00,23.9,56,14.7,23.2,0.0,0.0,0.0,0.0,0,1017.3,1003.8,6,7,0,0,0.58,1.3,27.7,35.6,347,349,52.9,29.6,22.1,20.7,17.2,0.093,0.149,0.21,0.291,1,3600.0,925.0,801.2,123.8,874.5,925.0,1212.2,949.0,822.0,127.0,874.5,949.0,1243.6,Tracheophyta; Magnoliopsida
2004,2004-07-26,Leiria,Figueiró dos Vinhos,Figueiró dos Vinhos,Aldeia de Ana de Aviz,39.9188506,-8.28417324830827,Desconhecida,385.0,2004-07-26T02:00,17.9,87,15.7,19.2,0.0,0.0,0.0,0.0,0,1018.0,973.2,0,0,0,0,0.0,0.26,4.5,10.2,29,337,15.8,21.6,27.3,22.7,17.7,0.106,0.15,0.192,0.31,0,0.0,0.0,0.0,0.0,0.0,0.0,0.0,0.0,0.0,0.0,0.0,0.0,0.0,Tracheophyta; Quercus suber L.; Eucalyptus L'Hér.; Pinus pinaster Aiton
2004,2004-08-15,Leiria,Pombal,Meirinhas,Meirinhas,39.847072,-8.697362,NC,189.0,2004-08-15T04:00,17.8,100,17.8,19.4,0.0,0.0,0.0,0.0,3,1018.8,996.5,84,93,0,0,0.0,0.01,8.4,15.9,353,354,18.0,19.4,22.3,21.3,18.9,0.141,0.118,0.139,0.244,0,0.0,0.0,0.0,0.0,0.0,0.0,0.0,0.0,0.0,0.0,0.0,0.0,0.0,Eucalyptus L'Hér.; Olea europaea L.; Tracheophyta; Pinus pinaster Aiton
2004,2004-08-15,Leiria,Alvaiázere,Pussos,Casalinhos,39.8072423,-8.3667995,NC,339.0,2004-08-15T11:00,23.9,66,17.1,25.3,0.0,0.0,0.0,0.0,0,1019.5,980.7,3,3,0,0,0.46,1.01,14.3,18.2,319,321,31.0,26.2,22.2,21.6,19.3,0.19,0.177,0.181,0.296,1,3600.0,777.8,644.1,133.7,774.1,777.8,1109.7,733.0,607.0,126.0,774.1,733.0,1045.7,Magnoliopsida; Eucalyptus L'Hér.; Olea europaea L.; Quercus L.; Tracheophyta; Pinus pinaster Aiton; Quercus rotundifolia Lam.; Pinus pinea L.; 
2004,2004-07-20,Leiria,Alvaiázere,Maçãs de Caminho,Mosqueiro,39.84310120000001,-8.384443545469951,Desconhecida,357.0,2004-07-20T01:00,15.9,99,15.6,16.8,0.0,0.0,0.0,0.0,3,1017.0,975.1,81,90,0,0,0.0,0.02,6.6,9.8,315,324,14.8,19.2,23.8,21.9,17.4,0.107,0.151,0.199,0.315,0,0.0,0.0,0.0,0.0,0.0,0.0,0.0,0.0,0.0,0.0,0.0,0.0,0.0,Tracheophyta; Olea europaea L.; Eucalyptus L'Hér.; Pinus pinaster Aiton; Magnoliopsida
2004,2004-07-20,Leiria,Alvaiázere,Maçãs de Caminho,Carregal,39.84310120000001,-8.384443545469951,Desconhecida,357.0,2004-07-20T00:00,16.0,97,15.6,17.0,0.0,0.0,0.0,0.0,2,1017.1,975.3,79,88,0,0,0.0,0.05,5.9,8.9,317,328,13.0,19.6,24.0,21.9,17.4,0.107,0.151,0.199,0.315,0,0.0,0.0,0.0,0.0,0.0,0.0,0.0,0.0,0.0,0.0,0.0,0.0,0.0,Tracheophyta; Olea europaea L.; Eucalyptus L'Hér.; Pinus pinaster Aiton; Magnoliopsida
2004,2004-12-31,Leiria,Caldas da Rainha,Serra do Bouro,Espinheira,39.4513157,-9.177165,NC,36.0,2004-12-31T19:00,11.5,88,9.6,9.6,0.0,0.0,0.0,0.0,0,1032.1,1027.7,0,0,0,0,0.0,0.16,12.3,21.2,357,359,19.1,10.8,11.7,12.4,16.1,0.179,0.195,0.191,0.193,0,0.0,0.0,0.0,0.0,0.0,0.0,0.0,0.0,0.0,0.0,0.0,0.0,0.0,Tracheophyta; Eucalyptus L'Hér.; Magnoliopsida; Pinus pinaster Aiton
2004,2004-08-14,Leiria,Caldas da Rainha,Santa Catarina,Casal Trocano,39.4469306,-9.0155179,NC,89.0,2004-08-14T21:00,21.0,87,18.8,22.1,0.0,0.0,0.0,0.0,0,1020.4,1009.9,4,5,0,0,0.01,0.32,14.3,23.6,350,352,24.1,23.6,25.2,23.1,20.6,0.123,0.155,0.205,0.305,0,0.0,0.0,0.0,0.0,0.0,0.0,0.0,0.0,0.0,0.0,0.0,0.0,0.0,Eucalyptus L'Hér.; Magnoliopsida; Tracheophyta; Vitis vinifera L.; Pinus pinaster Aiton
2004,2004-07-27,Leiria,Alvaiázere,Almoster,ALMOSTER,39.84576025,-8.44860068373471,NC,195.0,2004-07-27T15:00,32.0,27,10.9,31.3,0.0,0.0,0.0,0.0,0,1015.0,993.1,1,1,0,0,0.72,3.46,17.3,22.2,312,313,38.2,38.7,28.0,23.9,18.9,0.088,0.139,0.201,0.31,1,3600.0,801.7,686.5,115.2,854.2,801.7,1065.9,849.0,727.0,122.0,854.2,849.0,1128.8,Pinus pinaster Aiton; Olea europaea L.; Quercus L.; Tracheophyta
2004,2004-06-11,Leiria,Figueiró dos Vinhos,Bairradas,Bairradas,39.8699787,-8.2425113,Desconhecida,362.0,2004-06-11T15:00,29.0,41,14.6,29.6,0.0,0.0,0.0,0.0,0,1019.4,978.7,0,0,0,0,0.66,2.36,17.4,22.4,322,323,34.9,33.1,23.9,19.4,13.9,0.119,0.204,0.258,0.345,1,3600.0,818.3,711.7,106.7,871.2,818.3,1083.7,867.0,754.0,113.0,871.2,867.0,1148.2,Eucalyptus L'Hér.; Tracheophyta; Olea europaea L.; Magnoliopsida; Pinus pinaster Aiton
2004,2004-07-25,Leiria,Leiria,Leiria,LEIRIA,39.7437902,-8.8071119,NC,32.0,2004-07-25T17:00,25.9,67,19.3,26.9,0.0,0.0,0.0,0.0,0,1018.6,1014.9,1,1,0,0,0.39,1.1,18.2,24.8,322,327,29.2,33.7,25.5,21.1,18.2,0.049,0.061,0.101,0.203,1,3600.0,493.3,412.0,81.4,784.5,493.3,696.3,570.0,476.0,94.0,784.5,570.0,804.5,Tracheophyta; Pinus pinaster Aiton; Eucalyptus L'Hér.; Magnoliopsida; Acacia Mill.; 
2004,2004-08-15,Leiria,Caldas da Rainha,Santa Catarina,Casal Trocano,39.4469306,-9.0155179,NC,89.0,2004-08-15T17:00,25.6,66,18.8,26.3,0.0,0.0,0.0,0.0,1,1018.8,1008.5,32,32,0,9,0.33,1.11,16.9,21.1,294,293,34.9,31.1,25.6,23.1,20.6,0.114,0.155,0.204,0.304,1,3600.0,391.2,288.8,102.5,616.0,391.2,625.3,462.0,341.0,121.0,616.0,462.0,738.4,Eucalyptus L'Hér.; Magnoliopsida; Tracheophyta; Vitis vinifera L.; Pinus pinaster Aiton
2004,2004-07-08,Leiria,Alcobaça,Maiorga,Bemposta,39.5623937,-8.9739848,NC,118.0,2004-07-08T13:00,20.2,54,10.5,19.4,0.0,0.0,0.0,0.0,0,1024.8,1010.8,4,5,0,0,0.53,1.1,19.9,24.7,338,339,46.1,27.0,20.4,20.1,17.3,0.075,0.073,0.121,0.213,1,3600.0,935.4,764.3,171.1,802.0,935.4,1261.1,935.0,764.0,171.0,802.0,935.0,1260.5,Magnoliopsida; Tracheophyta; Vitis vinifera L.; Eucalyptus L'Hér.
2004,2004-07-09,Leiria,Figueiró dos Vinhos,Aguda,Abrunheira \ POV,39.909866,-8.3616065,NC,244.0,2004-07-09T15:00,23.2,36,7.5,21.8,0.0,0.0,0.0,0.0,0,1020.8,992.6,1,0,1,0,0.58,1.81,16.4,20.9,310,311,37.4,29.5,21.5,20.9,17.1,0.115,0.155,0.21,0.318,1,3600.0,814.7,705.9,108.8,858.1,814.7,1088.5,861.0,746.0,115.0,858.1,861.0,1150.4,Tracheophyta; Olea europaea L.; Magnoliopsida
2004,2004-08-26,Leiria,Pombal,Pelariga,Folgado,39.9648432,-8.6205386,NC,105.0,2004-08-26T00:00,16.5,96,15.8,16.3,0.0,0.0,0.0,0.0,0,1021.7,1009.1,0,0,0,0,0.0,0.08,15.5,27.5,342,346,27.7,18.4,23.1,21.4,19.7,0.06,0.088,0.078,0.183,0,0.0,0.0,0.0,0.0,0.0,0.0,0.0,0.0,0.0,0.0,0.0,0.0,0.0,Eucalyptus L'Hér.; Tracheophyta; Pinus pinaster Aiton; Olea europaea L.
2004,2004-07-24,Leiria,Pombal,Carriço,CARRIÇO,39.979985,-8.8109557,NC,92.0,2004-07-24T07:00,20.3,85,17.7,22.0,0.0,0.0,0.0,0.0,0,1020.7,1009.8,0,0,0,0,0.07,0.36,7.4,13.9,51,37,13.3,19.5,23.3,20.8,17.8,0.047,0.06,0.098,0.203,1,3600.0,188.6,121.7,66.9,442.3,188.6,364.6,124.0,80.0,44.0,442.3,124.0,239.8,Tracheophyta; Pinus pinaster Aiton; Eucalyptus L'Hér.
2004,2004-09-28,Leiria,Peniche,Serra D El-rei,CEZAREDA,39.3566221,-9.3812853,NC,15.0,2004-09-28T17:00,23.4,66,16.7,23.6,0.0,0.0,0.0,0.0,0,1016.8,1015.0,0,0,0,0,0.21,0.98,14.4,19.2,328,334,23.8,32.6,24.6,22.8,21.9,0.042,0.065,0.112,0.205,1,3600.0,217.4,149.6,67.7,570.4,217.4,357.6,292.0,201.0,91.0,570.4,292.0,480.4,Tracheophyta; Magnoliopsida
2004,2004-07-29,Leiria,Óbidos,Óbidos (são Pedro),Casais da Navalha,39.3390544,-9.1444641,NC,182.0,2004-07-29T15:00,24.4,58,15.7,24.2,0.0,0.0,0.0,0.0,0,1017.1,996.1,16,16,0,4,0.52,1.27,23.4,29.6,331,333,47.2,30.4,23.7,22.0,18.3,0.086,0.124,0.175,0.267,1,3600.0,758.9,626.6,132.3,776.2,758.9,1071.1,803.0,663.0,140.0,776.2,803.0,1133.4,Magnoliopsida; Tracheophyta
2004,2004-06-09,Leiria,Caldas da Rainha,Caldas Da Rainha (nossa Senhora Do Pópulo),Imaginário,39.401913,-9.1027328,NC,91.0,2004-06-09T17:00,23.9,51,13.3,21.9,0.0,0.0,0.0,0.0,0,1019.3,1008.7,1,0,1,0,0.4,1.45,21.1,26.7,343,344,38.5,29.5,23.2,19.2,15.3,0.095,0.17,0.233,0.298,1,3600.0,474.9,381.1,93.8,711.0,474.9,711.5,547.0,439.0,108.0,711.0,547.0,819.5,Magnoliopsida; Tracheophyta; Eucalyptus L'Hér.; Vitis vinifera L.; Pinus pinaster Aiton
2004,2004-09-28,Leiria,Nazaré,Nazaré,Serra de Baixo,39.612089,-9.058583215115968,NC,116.0,2004-09-28T00:00,19.2,71,13.7,19.1,0.0,0.0,0.0,0.0,0,1018.4,1004.7,0,0,0,0,0.02,0.65,8.6,13.6,2,22,13.0,18.9,23.7,21.6,20.4,0.053,0.068,0.092,0.188,0,0.0,0.0,0.0,0.0,0.0,0.0,0.0,0.0,0.0,0.0,0.0,0.0,0.0,Magnoliopsida; Pinus pinaster Aiton; Tracheophyta
2004,2004-07-29,Leiria,Pombal,Carnide,Picotos,39.88640445,-8.728002501029605,NC,79.0,2004-07-29T22:00,19.1,91,17.6,19.6,0.0,0.0,0.0,0.0,1,1018.7,1009.3,21,4,0,58,0.0,0.19,15.7,25.1,349,353,30.2,21.6,24.7,22.2,18.5,0.048,0.059,0.086,0.19,0,0.0,0.0,0.0,0.0,0.0,0.0,0.0,0.0,0.0,0.0,0.0,0.0,0.0,Magnoliopsida; Eucalyptus L'Hér.; Pinus pinaster Aiton; Tracheophyta
2004,2004-07-16,Leiria,Nazaré,Famalicão,Raposos,39.5252936,-9.0653113,NC,177.0,2004-07-16T19:00,19.8,76,15.5,18.5,0.0,0.0,0.0,0.0,0,1013.5,992.8,13,14,0,0,0.13,0.56,22.1,29.1,341,342,41.0,27.3,25.6,21.3,17.9,0.083,0.134,0.19,0.282,1,3600.0,127.3,84.4,42.9,485.3,127.3,230.3,196.0,130.0,66.0,485.3,196.0,354.6,Magnoliopsida; Tracheophyta; Pinus pinaster Aiton; Eucalyptus L'Hér.
2004,2004-07-25,Leiria,Porto de Mós,São Bento,Cabeça das Pombas,39.4958995,-8.7937239,NC,437.0,2004-07-25T12:00,31.1,32,12.6,31.4,0.0,0.0,0.0,0.0,0,1018.7,970.1,0,0,0,0,0.74,3.05,16.3,21.0,335,338,38.5,34.6,25.8,21.7,17.3,0.09,0.14,0.203,0.305,1,3600.0,945.8,827.6,118.2,891.9,945.8,1230.1,920.0,805.0,115.0,891.9,920.0,1196.6,Olea europaea L.; Magnoliopsida; Quercus suber L.; Pinus pinea L.
2004,2004-08-27,Leiria,Caldas da Rainha,Landal,Amiães,39.4071857,-9.1346004,NC,56.0,2004-08-27T13:00,23.4,60,15.3,23.5,0.0,0.0,0.0,0.0,0,1017.8,1011.3,3,3,0,0,0.52,1.14,21.7,26.3,345,347,37.8,29.4,22.7,22.2,20.6,0.103,0.138,0.182,0.277,1,3600.0,839.0,644.3,194.8,743.8,839.0,1161.0,840.0,645.0,195.0,743.8,840.0,1162.4,Tracheophyta; Magnoliopsida
2004,2004-07-17,Leiria,Caldas da Rainha,Alvorninha,Pego,39.3829834,-9.0363194,NC,113.0,2004-07-17T15:00,24.1,52,13.7,22.6,0.0,0.0,0.0,0.0,1,1016.3,1003.2,28,1,0,90,0.53,1.43,26.1,33.1,340,341,47.2,31.9,24.8,22.1,18.5,0.094,0.16,0.221,0.313,1,3600.0,749.9,528.3,221.6,641.8,749.9,1090.1,792.0,558.0,234.0,641.8,792.0,1151.3,Magnoliopsida; Tracheophyta; Eucalyptus L'Hér.; Olea europaea L.
2004,2004-07-26,Leiria,Pombal,Carnide,CARNIDE,39.8991851,-8.7284017,NC,120.0,2004-07-26T14:00,29.8,45,16.6,31.6,0.0,0.0,0.0,0.0,0,1016.6,1003.0,0,0,0,0,0.71,2.31,17.4,21.1,310,313,35.3,38.8,25.8,21.7,18.1,0.048,0.059,0.088,0.192,1,3600.0,913.6,801.6,112.0,896.7,913.6,1185.4,938.0,823.0,115.0,896.7,938.0,1217.0,Pinus pinaster Aiton; Eucalyptus L'Hér.; Tracheophyta; Pinales; Magnoliopsida
2004,2004-02-19,Leiria,Figueiró dos Vinhos,Figueiró dos Vinhos,Lavandeira,39.8974834,-8.2611381,Desconhecida,367.0,2004-02-19T10:00,8.0,54,-0.8,3.3,0.0,0.0,0.0,0.0,0,1009.6,965.8,0,0,0,0,0.16,0.5,16.9,24.1,78,80,40.7,8.7,8.9,10.7,12.0,0.292,0.32,0.377,0.368,1,3600.0,431.1,355.6,75.4,819.6,431.1,607.7,360.0,297.0,63.0,819.6,360.0,507.5,Eucalyptus L'Hér.; Pinus pinaster Aiton; Tracheophyta; Acacia Mill.; Olea europaea L.; Magnoliopsida
2004,2004-02-20,Leiria,Alcobaça,Aljubarrota (São Vicente),Ataija de Baixo,39.5663818,-8.9305256,NC,187.0,2004-02-20T13:00,11.5,48,1.0,8.3,0.0,0.0,0.0,0.0,1,999.0,976.9,22,0,0,72,0.3,0.7,11.5,13.7,20,23,28.1,14.3,9.8,11.9,13.1,0.177,0.221,0.274,0.267,1,3600.0,643.2,492.2,151.0,775.9,643.2,888.0,639.0,489.0,150.0,775.9,639.0,882.2,Tracheophyta; Magnoliopsida; Eucalyptus L'Hér.; Vitis vinifera L.; Olea europaea L.
2004,2004-09-30,Leiria,Óbidos,Vau,VAU,39.3619194,-9.211926128969491,NC,38.0,2004-09-30T19:00,18.6,87,16.4,17.9,0.0,0.0,0.0,0.0,1,1019.6,1015.1,31,34,0,0,0.04,0.28,20.3,28.6,354,354,33.5,22.3,23.3,22.8,21.7,0.042,0.062,0.106,0.198,0,0.0,0.0,0.0,0.0,0.0,0.0,0.0,3.0,1.0,2.0,15.8,3.0,27.0,Eucalyptus L'Hér.; Magnoliopsida; Tracheophyta; Vitis vinifera L.
2004,2004-07-26,Leiria,Marinha Grande,Marinha Grande,Embra,39.748952,-8.9181192,NC,99.0,2004-07-26T23:00,18.5,92,17.2,19.8,0.0,0.0,0.0,0.0,0,1017.4,1005.7,0,0,0,0,0.0,0.17,8.5,13.2,298,313,11.5,20.6,25.2,21.3,18.1,0.049,0.06,0.098,0.198,0,0.0,0.0,0.0,0.0,0.0,0.0,0.0,0.0,0.0,0.0,0.0,0.0,0.0,Tracheophyta; Eucalyptus L'Hér.; Pinus pinaster Aiton
2004,2004-07-16,Leiria,Figueiró dos Vinhos,Figueiró dos Vinhos,Telhada,39.9057857,-8.2925586,Desconhecida,393.0,2004-07-16T20:00,21.6,61,13.8,21.5,0.0,0.0,0.0,0.0,0,1013.1,968.2,0,0,0,0,0.06,1.0,8.8,13.3,305,311,22.3,27.1,26.9,21.4,16.9,0.107,0.152,0.202,0.317,1,1843.32,0.0,0.0,0.0,0.0,0.0,0.0,44.0,24.0,20.0,200.3,44.0,99.9,Magnoliopsida; Eucalyptus L'Hér.; Pinus pinaster Aiton; Acacia Mill.; Tracheophyta
2004,2004-10-02,Leiria,Óbidos,Vau,VAU,39.3619194,-9.211926128969491,NC,38.0,2004-10-02T02:00,16.0,92,14.7,14.7,0.0,0.0,0.0,0.0,0,1022.4,1017.8,7,0,0,24,0.01,0.15,19.8,30.2,359,359,32.0,15.9,21.8,22.7,21.8,0.042,0.062,0.106,0.198,0,0.0,0.0,0.0,0.0,0.0,0.0,0.0,0.0,0.0,0.0,0.0,0.0,0.0,Eucalyptus L'Hér.; Magnoliopsida; Tracheophyta; Vitis vinifera L.
2004,2004-07-18,Leiria,Pombal,Pombal,POMBAL,39.92194355,-8.636895489112948,NC,58.0,2004-07-18T08:00,17.9,89,16.1,18.2,0.0,0.0,0.0,0.0,3,1018.4,1011.5,90,100,0,0,0.09,0.22,12.3,16.6,355,355,24.8,20.1,22.8,21.2,17.9,0.05,0.06,0.094,0.199,1,490.15,200.6,35.9,164.7,76.3,200.6,623.0,162.0,29.0,133.0,76.3,162.0,503.0,Tracheophyta; Pinus pinaster Aiton; Olea europaea L.; Magnoliopsida; Eucalyptus L'Hér.
2004,2004-06-10,Leiria,Pombal,Vila Cã,Fontinha,39.8305622,-8.5425839,NC,270.0,2004-06-10T19:00,22.4,58,13.7,21.2,0.0,0.0,0.0,0.0,0,1020.6,989.3,0,0,0,0,0.18,1.14,16.2,23.4,328,331,36.0,27.1,24.0,18.9,14.1,0.109,0.189,0.25,0.322,1,3600.0,127.0,87.5,39.5,515.2,127.0,225.2,196.0,135.0,61.0,515.2,196.0,347.7,Pinus pinaster Aiton; Eucalyptus L'Hér.; Magnoliopsida; Tracheophyta
2004,2004-06-29,Leiria,Óbidos,Olho Marinho,OLHO MARINHO,39.3301388,-9.2272165,NC,35.0,2004-06-29T00:00,20.0,87,17.7,20.2,0.0,0.0,0.0,0.0,0,1020.5,1016.3,0,0,0,0,0.02,0.31,18.0,31.3,358,2,31.7,20.5,23.8,21.0,17.2,0.051,0.077,0.133,0.213,0,0.0,0.0,0.0,0.0,0.0,0.0,0.0,0.0,0.0,0.0,0.0,0.0,0.0,Tracheophyta; Magnoliopsida
2004,2004-07-04,Leiria,Pombal,Abiul,Zambujais,39.8936702,-8.4900713,NC,232.0,2004-07-04T02:00,14.7,93,13.6,14.2,0.0,0.0,0.0,0.0,0,1018.4,990.8,0,0,0,0,0.0,0.11,11.2,22.1,339,344,20.9,17.9,22.8,21.0,16.5,0.101,0.15,0.22,0.318,0,0.0,0.0,0.0,0.0,0.0,0.0,0.0,0.0,0.0,0.0,0.0,0.0,0.0,Eucalyptus L'Hér.; Magnoliopsida; Pinus pinaster Aiton; Tracheophyta; Vitis vinifera L.; Olea europaea L.
2004,2004-07-30,Leiria,Pombal,Louriçal,Valarinho,40.032675,-8.7468338,NC,48.0,2004-07-30T03:00,17.7,98,17.4,18.6,0.0,0.0,0.0,0.0,2,1016.9,1011.2,51,49,0,23,0.0,0.03,11.9,21.2,357,1,21.6,18.9,24.0,22.2,18.6,0.048,0.059,0.087,0.193,0,0.0,0.0,0.0,0.0,0.0,0.0,0.0,0.0,0.0,0.0,0.0,0.0,0.0,Eucalyptus L'Hér.; Pinus pinaster Aiton; Oryza sativa L.; Pinales; Tracheophyta
2004,2004-07-04,Leiria,Leiria,Santa Catarina da Serra,Vale Sumo,39.7089415,-8.6960339,NC,153.0,2004-07-04T14:00,27.2,46,14.5,26.9,0.0,0.0,0.0,0.0,0,1017.0,999.5,0,0,0,0,0.68,1.95,24.8,32.0,336,339,51.5,34.1,23.0,21.0,17.0,0.058,0.08,0.13,0.225,1,3600.0,924.5,801.7,122.7,877.6,924.5,1208.7,949.0,823.0,126.0,877.6,949.0,1240.7,Tracheophyta; Pinus pinaster Aiton; Eucalyptus L'Hér.; Magnoliopsida; Acacia Mill.; Olea europaea L.
2004,2004-07-19,Leiria,Pombal,Louriçal,Moita do Boi,40.0031383,-8.7387872,NC,25.0,2004-07-19T07:00,18.1,97,17.6,19.7,0.0,0.0,0.0,0.0,2,1017.2,1014.2,73,81,0,1,0.04,0.07,7.9,11.5,317,321,14.8,19.0,22.9,21.4,18.2,0.051,0.06,0.094,0.199,1,1138.65,108.2,28.2,80.0,98.0,108.2,380.7,73.0,19.0,54.0,98.0,73.0,256.9,Tracheophyta; Pinus pinaster Aiton; Magnoliopsida; Eucalyptus L'Hér.
2004,2004-07-20,Leiria,Leiria,Barosa,Matos de Além,39.7559944,-8.8429996,NC,41.0,2004-07-20T11:00,23.5,55,14.0,25.6,0.0,0.0,0.0,0.0,0,1015.6,1010.8,0,0,0,0,0.51,1.3,4.5,4.9,299,306,25.9,30.6,22.5,21.1,18.0,0.05,0.06,0.098,0.197,1,3600.0,830.3,693.8,136.4,793.4,830.3,1158.3,785.0,656.0,129.0,793.4,785.0,1095.2,Tracheophyta; Pinus pinaster Aiton; Eucalyptus L'Hér.; Magnoliopsida; Acacia Mill.
2004,2004-03-23,Leiria,Alcobaça,Benedita,Fonte Quente,39.42484515,-8.990800450143992,NC,147.0,2004-03-23T10:00,11.3,60,3.9,6.6,0.0,0.0,0.0,0.0,0,1027.6,1009.6,0,0,0,0,0.23,0.53,22.3,29.3,10,11,46.1,12.5,11.5,12.8,12.7,0.252,0.303,0.345,0.34,1,3600.0,601.2,508.0,93.2,846.3,601.2,826.8,529.0,447.0,82.0,846.3,529.0,727.5,Magnoliopsida; Olea europaea L.; Eucalyptus L'Hér.; Pinus pinaster Aiton; Tracheophyta
2004,2004-07-29,Leiria,Alvaiázere,Pussos,Cabaços,39.8082471,-8.3365051,NC,417.0,2004-07-29T02:00,15.3,96,14.6,15.6,0.0,0.0,0.0,0.0,2,1017.5,968.7,77,86,0,0,0.0,0.07,8.4,14.4,317,323,20.9,19.1,25.0,23.3,18.1,0.106,0.15,0.191,0.312,0,0.0,0.0,0.0,0.0,0.0,0.0,0.0,0.0,0.0,0.0,0.0,0.0,0.0,Magnoliopsida; Eucalyptus L'Hér.; Olea europaea L.; Quercus L.; Tracheophyta; Pinus pinaster Aiton; Quercus rotundifolia Lam.; Pinus pinea L.; 
2004,2004-08-31,Leiria,Ansião,Santiago da Guarda,Casal da Arouca,39.9578367,-8.494124,NC,271.0,2004-08-31T15:00,24.0,53,13.7,24.3,0.0,0.0,0.0,0.0,0,1015.4,984.3,0,0,0,0,0.49,1.41,12.9,16.0,306,306,33.8,31.1,22.5,21.0,19.3,0.076,0.12,0.123,0.231,1,3600.0,695.0,596.3,98.8,847.2,695.0,945.2,746.0,640.0,106.0,847.2,746.0,1014.5,Tracheophyta; Olea europaea L.; Magnoliopsida; Pinus pinaster Aiton; Eucalyptus L'Hér.
2004,2004-07-26,Leiria,Leiria,Regueira de Pontes,Ponte da Pedra,39.7873395,-8.8262375,NC,32.0,2004-07-26T17:00,27.4,53,17.0,27.6,0.0,0.0,0.0,0.0,0,1016.1,1012.4,0,0,0,0,0.44,1.71,16.8,22.0,325,328,27.7,35.3,26.3,21.8,18.4,0.048,0.06,0.093,0.193,1,3600.0,499.9,419.5,80.4,801.7,499.9,693.8,578.0,485.0,93.0,801.7,578.0,802.2,Tracheophyta; Pinus pinaster Aiton; Eucalyptus L'Hér.; Magnoliopsida; Acacia Mill.; Olea europaea L.
2004,2004-07-27,Leiria,Pombal,Vila Cã,Vale Bom,39.8621812,-8.5644898,NC,144.0,2004-07-27T01:00,16.9,95,16.2,17.6,0.0,0.0,0.0,0.0,0,1016.7,999.6,0,0,0,0,0.0,0.09,10.1,21.6,325,327,18.0,20.0,26.6,22.4,18.3,0.068,0.091,0.13,0.237,0,0.0,0.0,0.0,0.0,0.0,0.0,0.0,0.0,0.0,0.0,0.0,0.0,0.0,Olea europaea L.; Tracheophyta; Pinus pinaster Aiton; Magnoliopsida
2004,2004-07-27,Leiria,Alvaiázere,Maçãs de Dona Maria,MAÇAS DE DONA MARIA,39.879821,-8.3417046537182,Desconhecida,291.0,2004-07-27T02:00,17.0,88,15.1,17.9,0.0,0.0,0.0,0.0,0,1016.4,982.3,0,0,0,0,0.0,0.23,5.9,10.8,346,334,14.4,21.1,27.4,23.5,18.4,0.106,0.15,0.191,0.309,0,0.0,0.0,0.0,0.0,0.0,0.0,0.0,0.0,0.0,0.0,0.0,0.0,0.0,Eucalyptus L'Hér.; Pinus pinaster Aiton; Olea europaea L.; Tracheophyta; Vitis vinifera L.; Magnoliopsida
2004,2004-10-05,Leiria,Bombarral,Carvalhal,CARVALHAL,39.299144,-9.1329829,NC,116.0,2004-10-05T18:00,20.1,81,16.9,20.7,0.0,0.0,0.0,0.0,1,1015.7,1002.1,30,3,0,91,0.06,0.44,12.7,17.8,317,318,23.8,24.0,22.0,21.6,21.0,0.085,0.12,0.154,0.252,1,2794.68,17.4,7.9,9.5,91.2,14.9,38.3,79.0,36.0,43.0,242.1,79.0,173.4,Vitis vinifera L.; Tracheophyta; Magnoliopsida; Eucalyptus L'Hér.; 
2004,2004-07-29,Leiria,Leiria,Maceira,Mouratos \ POV,39.6847926,-8.8944977,NC,161.0,2004-07-29T01:00,17.0,93,15.8,16.2,0.0,0.0,0.0,0.0,0,1017.9,998.8,8,9,0,1,0.0,0.14,19.0,27.1,335,337,28.1,18.2,23.1,21.1,17.8,0.049,0.06,0.097,0.197,0,0.0,0.0,0.0,0.0,0.0,0.0,0.0,0.0,0.0,0.0,0.0,0.0,0.0,Tracheophyta; Pinus pinaster Aiton; Eucalyptus L'Hér.; Magnoliopsida; Acacia Mill.; Olea europaea L.
2004,2004-07-08,Leiria,Caldas da Rainha,Santa Catarina,Casal Trocano,39.4469306,-9.0155179,NC,89.0,2004-07-08T22:00,16.4,81,13.1,14.8,0.0,0.0,0.0,0.0,0,1026.1,1015.4,0,0,0,0,0.03,0.35,17.7,27.8,348,350,34.6,19.2,22.3,21.4,18.1,0.109,0.163,0.228,0.316,0,0.0,0.0,0.0,0.0,0.0,0.0,0.0,0.0,0.0,0.0,0.0,0.0,0.0,Eucalyptus L'Hér.; Magnoliopsida; Tracheophyta; Vitis vinifera L.; Pinus pinaster Aiton
2004,2004-10-06,Leiria,Alcobaça,Évora de Alcobaça,Ninho de Águia,39.51283735,-8.964949436072875,NC,122.0,2004-10-06T01:00,17.1,97,16.6,17.9,0.0,0.0,0.0,0.0,3,1016.8,1002.3,91,68,0,98,0.0,0.06,10.6,17.7,10,13,17.3,18.6,21.9,22.1,21.4,0.082,0.127,0.161,0.259,0,0.0,0.0,0.0,0.0,0.0,0.0,0.0,0.0,0.0,0.0,0.0,0.0,0.0,Tracheophyta; Magnoliopsida; Olea europaea L.; Vitis vinifera L.
2004,2004-06-29,Leiria,Leiria,Amor,AMOR,39.7989245,-8.858602543038133,NC,28.0,2004-06-29T14:00,25.4,57,16.4,26.2,0.0,0.0,0.0,0.0,0,1019.9,1016.6,4,5,0,0,0.61,1.38,22.9,27.1,344,346,36.7,33.2,23.4,20.4,16.8,0.051,0.065,0.118,0.213,1,3600.0,938.1,821.2,116.9,897.9,938.1,1210.3,963.0,843.0,120.0,897.9,963.0,1242.3,Tracheophyta; Pinus pinaster Aiton; Eucalyptus L'Hér.; Magnoliopsida; Acacia Mill.
2004,2004-07-30,Leiria,Pombal,Louriçal,ANTOES,39.9712333,-8.770566,NC,120.0,2004-07-30T03:00,17.5,97,17.0,18.2,0.0,0.0,0.0,0.0,2,1016.9,1002.7,51,49,0,23,0.0,0.06,11.9,21.2,357,1,21.6,18.4,23.0,21.2,18.0,0.047,0.06,0.094,0.199,0,0.0,0.0,0.0,0.0,0.0,0.0,0.0,0.0,0.0,0.0,0.0,0.0,0.0,Eucalyptus L'Hér.; Pinus pinaster Aiton; Tracheophyta
2004,2004-07-01,Leiria,Pombal,São Simão de Litém,SÃO SIMÃO DE LITÉM,39.8411757,-8.6327657,NC,145.0,2004-07-01T06:00,15.5,98,15.1,13.9,0.0,0.0,0.0,0.0,3,1019.5,1002.2,91,99,0,5,0.01,0.04,23.0,34.9,343,344,37.4,18.1,23.0,21.5,16.7,0.1,0.147,0.217,0.309,1,178.72,47.8,18.2,29.6,136.5,27.2,176.3,21.0,8.0,13.0,77.8,21.0,77.5,Tracheophyta; Magnoliopsida; Eucalyptus L'Hér.; Pinus pinaster Aiton; Olea europaea L.
2004,2004-07-24,Leiria,Caldas da Rainha,Santa Catarina,Casal Trocano,39.4469306,-9.0155179,NC,89.0,2004-07-24T00:00,22.7,69,16.6,23.5,0.0,0.0,0.0,0.0,0,1020.4,1010.0,0,0,0,0,0.04,0.86,9.7,20.2,15,19,16.9,24.4,27.1,22.8,19.1,0.093,0.158,0.216,0.311,0,0.0,0.0,0.0,0.0,0.0,0.0,0.0,0.0,0.0,0.0,0.0,0.0,0.0,Eucalyptus L'Hér.; Magnoliopsida; Tracheophyta; Vitis vinifera L.; Pinus pinaster Aiton
2004,2004-10-06,Leiria,Óbidos,Vau,Lagoa de Óbidos,39.3657979,-9.2173555,NC,37.0,2004-10-06T09:00,17.9,85,15.4,17.9,0.0,0.0,0.0,0.0,1,1017.0,1012.6,21,4,1,55,0.1,0.3,12.5,15.6,18,19,24.5,19.4,21.4,22.3,21.8,0.041,0.062,0.106,0.197,1,3135.04,221.7,69.8,152.0,164.5,221.7,580.6,178.0,56.0,122.0,164.5,178.0,466.1,Tracheophyta; Magnoliopsida; Eucalyptus L'Hér.
2004,2004-07-01,Leiria,Alcobaça,Aljubarrota (São Vicente),Chãos,39.5663818,-8.9305256,NC,187.0,2004-07-01T09:00,18.7,74,13.9,15.3,0.0,0.0,0.0,0.0,2,1020.4,998.3,52,51,0,21,0.23,0.57,31.9,42.1,349,350,56.9,21.8,22.5,21.4,17.2,0.057,0.088,0.143,0.235,1,3600.0,483.0,280.2,202.7,426.4,483.0,869.5,424.0,246.0,178.0,426.4,424.0,763.4,Tracheophyta; Magnoliopsida; Eucalyptus L'Hér.; Vitis vinifera L.; Olea europaea L.
2004,2004-06-17,Leiria,Alcobaça,Aljubarrota (Prazeres),Chiqueda de Baixo,39.5719302,-8.9442444,NC,134.0,2004-06-17T16:00,27.7,37,11.7,26.0,0.0,0.0,0.0,0.0,0,1016.2,1000.9,4,0,0,12,0.6,2.33,21.7,27.9,336,336,42.8,36.8,26.0,21.3,16.3,0.054,0.096,0.153,0.24,1,3600.0,692.5,593.8,98.7,847.8,692.5,928.1,758.0,650.0,108.0,847.8,758.0,1015.8,Tracheophyta; Eucalyptus L'Hér.; Vitis vinifera L.; Magnoliopsida; Pinus pinaster Aiton
2004,2004-09-01,Leiria,Alcobaça,São Martinho do Porto,Serra de Mangues,39.5219543,-9.120685007004628,Desconhecida,40.0,2004-09-01T04:00,17.6,91,16.0,17.6,0.0,0.0,0.0,0.0,2,1014.9,1010.1,58,64,0,0,0.0,0.19,14.2,21.3,333,334,21.6,17.5,23.0,22.6,21.3,0.045,0.069,0.115,0.206,0,0.0,0.0,0.0,0.0,0.0,0.0,0.0,0.0,0.0,0.0,0.0,0.0,0.0,Tracheophyta; Vitis vinifera L.; Magnoliopsida; Eucalyptus L'Hér.; Pinus pinaster Aiton
2004,2004-03-24,Leiria,Pombal,Pelariga,Água Travessa,39.9648432,-8.6205386,NC,105.0,2004-03-24T15:00,13.9,60,6.3,12.1,0.1,0.1,0.0,0.0,51,1011.7,999.1,58,35,39,9,0.22,0.63,5.6,5.8,333,338,17.3,16.2,12.4,12.1,11.8,0.146,0.188,0.224,0.251,1,3600.0,361.3,172.7,188.5,266.5,361.3,892.3,389.0,186.0,203.0,266.5,389.0,960.8,Eucalyptus L'Hér.; Tracheophyta; Pinus pinaster Aiton; Olea europaea L.
2004,2004-06-14,Leiria,Caldas da Rainha,Salir de Matos,Cabreiros,39.433046,-9.0962527,NC,62.0,2004-06-14T18:00,28.0,35,11.3,25.4,0.0,0.0,0.0,0.0,0,1015.3,1008.2,9,0,0,30,0.41,2.45,20.8,30.1,350,352,42.5,31.8,25.6,20.2,15.9,0.092,0.163,0.227,0.296,1,3600.0,322.4,251.0,71.4,689.5,322.4,482.7,402.0,313.0,89.0,689.5,402.0,601.8,Tracheophyta; Magnoliopsida; Eucalyptus L'Hér.; Vitis vinifera L.; Olea europaea L.
2004,2004-07-24,Leiria,Porto de Mós,São Bento,Fontainhas,39.4898339,-8.7769158,NC,381.0,2004-07-24T14:00,35.3,26,12.9,36.6,0.0,0.0,0.0,0.0,0,1019.7,977.7,0,0,0,0,0.79,4.24,12.0,14.6,321,322,34.6,40.5,26.9,22.0,17.8,0.081,0.148,0.22,0.319,1,3600.0,909.9,801.7,108.1,891.6,909.9,1191.9,934.0,823.0,111.0,891.6,934.0,1223.6,Magnoliopsida; Olea europaea L.; Tracheophyta
2004,2004-07-26,Leiria,Alvaiázere,Maçãs de Dona Maria,Vendas D. Maria,39.8801823,-8.3529518,NC,249.0,2004-07-26T11:00,31.7,30,12.0,33.2,0.0,0.0,0.0,0.0,0,1017.2,989.3,0,0,0,0,0.63,3.27,5.6,6.6,345,347,19.8,34.2,26.6,23.3,18.4,0.108,0.15,0.19,0.306,1,3600.0,873.6,761.5,112.1,877.2,873.6,1151.2,826.0,720.0,106.0,877.2,826.0,1088.4,Magnoliopsida; Olea europaea L.; Pinus pinaster Aiton; Tracheophyta; Eucalyptus L'Hér.
2004,2004-07-26,Leiria,Porto de Mós,Mendiga,Casais do Chão,39.4997665,-8.8334563,Desconhecida,538.0,2004-07-26T14:00,29.9,32,11.4,29.7,0.0,0.0,0.0,0.0,0,1015.9,956.5,0,0,0,0,0.75,2.88,17.8,22.7,315,316,39.2,36.0,25.3,21.3,16.7,0.089,0.14,0.202,0.304,1,3600.0,920.4,810.4,110.1,903.9,920.4,1188.8,945.0,832.0,113.0,903.9,945.0,1220.5,Magnoliopsida; Tracheophyta
2004,2004-07-15,Leiria,Caldas da Rainha,Tornada,TORNADA,39.4465914,-9.1294993,NC,22.0,2004-07-15T19:00,22.9,68,16.7,23.3,0.0,0.0,0.0,0.0,0,1014.7,1012.1,5,5,1,0,0.15,0.88,13.8,17.9,317,322,25.2,29.3,26.2,21.4,18.4,0.093,0.144,0.203,0.288,1,3600.0,129.2,87.5,41.8,495.7,129.2,233.6,198.0,134.0,64.0,495.7,198.0,357.9,Tracheophyta; Eucalyptus L'Hér.
2004,2004-08-01,Leiria,Óbidos,Olho Marinho,OLHO MARINHO,39.3301388,-9.2272165,NC,35.0,2004-08-01T14:00,26.6,61,18.5,29.6,0.0,0.0,0.0,0.0,0,1014.2,1010.2,1,1,0,0,0.6,1.36,13.7,15.6,330,334,25.9,36.6,24.8,22.3,19.2,0.045,0.065,0.113,0.203,1,3600.0,868.9,727.6,141.2,818.3,868.9,1180.7,892.0,747.0,145.0,818.3,892.0,1212.2,Tracheophyta; Magnoliopsida
2004,2004-10-14,Leiria,Leiria,Amor,Casal Novo,39.7971201,-8.8647226,NC,20.0,2004-10-14T16:00,17.2,72,12.1,14.6,0.1,0.1,0.0,0.0,51,1019.6,1017.2,82,24,56,89,0.16,0.55,22.1,27.4,296,297,33.1,19.2,17.9,19.9,20.5,0.139,0.07,0.083,0.181,1,3600.0,201.9,75.5,126.4,218.3,201.9,475.7,246.0,92.0,154.0,218.3,246.0,579.7,Tracheophyta; Pinus pinaster Aiton; Eucalyptus L'Hér.; Magnoliopsida; Acacia Mill.
2004,2004-07-25,Leiria,Porto de Mós,São Bento,Cabeça das Pombas \ POV,39.51776705,-8.778642467020365,NC,528.0,2004-07-25T12:00,30.5,32,12.0,30.7,0.0,0.0,0.0,0.0,0,1018.7,960.3,0,0,0,0,0.73,2.96,16.3,21.0,335,338,38.5,34.0,25.2,21.1,16.7,0.09,0.14,0.203,0.305,1,3600.0,945.6,827.4,118.2,891.8,945.6,1229.9,920.0,805.0,115.0,891.8,920.0,1196.6,Tracheophyta; Olea europaea L.; Magnoliopsida
2004,2004-08-04,Leiria,Leiria,Coimbrão,Ervedeira,39.8974114,-8.88276,NC,37.0,2004-08-04T15:00,22.6,60,14.5,22.4,0.0,0.0,0.0,0.0,0,1016.9,1012.6,0,0,0,0,0.49,1.08,19.9,23.7,315,317,38.9,30.3,23.4,21.5,18.7,0.064,0.062,0.106,0.209,1,3600.0,761.5,633.2,128.3,799.6,761.5,1052.3,807.0,671.0,136.0,799.6,807.0,1115.2,Tracheophyta; Pinus pinaster Aiton; Eucalyptus L'Hér.; Magnoliopsida; Acacia Mill.
2004,2004-08-02,Leiria,Caldas da Rainha,Santa Catarina,Casal da Coita,39.4469306,-9.0155179,Desconhecida,89.0,2004-08-02T14:00,26.1,53,15.8,27.4,0.0,0.0,0.0,0.0,0,1015.9,1005.6,0,0,0,0,0.62,1.59,17.1,20.4,312,312,37.1,35.1,26.3,23.9,19.8,0.093,0.155,0.209,0.308,1,3600.0,885.0,766.2,118.8,865.1,885.0,1176.3,909.0,787.0,122.0,865.1,909.0,1208.3,Eucalyptus L'Hér.; Magnoliopsida; Tracheophyta; Vitis vinifera L.; Pinus pinaster Aiton
2004,2004-02-20,Leiria,Caldas da Rainha,Serra do Bouro,SERRA DO BOURO,39.45624495,-9.180932897705262,NC,49.0,2004-02-20T20:00,9.7,62,2.8,4.2,0.0,0.0,0.0,0.0,1,997.3,991.4,33,1,3,100,0.07,0.46,26.1,37.6,12,12,40.3,9.8,11.6,12.7,13.9,0.155,0.201,0.25,0.241,0,0.0,0.0,0.0,0.0,0.0,0.0,0.0,0.0,0.0,0.0,0.0,0.0,0.0,Tracheophyta; Eucalyptus L'Hér.; Magnoliopsida; Pinus pinaster Aiton
2004,2004-11-16,Leiria,Figueiró dos Vinhos,Aguda,Saonda,39.908487,-8.3199907,NC,246.0,2004-11-16T09:00,6.1,72,1.4,2.4,0.0,0.0,0.0,0.0,0,1029.8,999.4,0,0,0,0,0.06,0.27,12.0,22.9,83,83,25.9,5.7,8.1,13.8,19.4,0.292,0.317,0.327,0.289,1,3600.0,215.2,154.4,60.9,586.4,215.2,368.3,152.0,109.0,43.0,586.4,152.0,260.1,Olea europaea L.; Magnoliopsida; Eucalyptus L'Hér.; Tracheophyta; Castanea sativa Mill.; Pinus pinaster Aiton
2004,2004-03-03,Leiria,Pedrógão Grande,Pedrógão Grande,Conhal,40.0024878,-8.1393007,NC,403.0,2004-03-03T15:00,10.8,47,-0.1,7.6,0.0,0.0,0.0,0.0,3,1032.1,983.5,94,8,99,91,0.15,0.69,7.6,10.5,172,172,22.3,10.1,7.1,8.5,11.2,0.332,0.353,0.366,0.373,1,0.0,202.7,31.3,171.4,56.0,202.7,778.5,220.0,34.0,186.0,56.0,220.0,845.0,Pinus pinaster Aiton; Magnoliopsida; Eucalyptus L'Hér.
2004,2004-03-16,Leiria,Pombal,Vermoil,Calvaria,39.8289166,-8.6598627,NC,263.0,2004-03-16T18:00,18.1,68,12.1,18.1,0.0,0.0,0.0,0.0,2,1025.8,994.7,51,19,44,26,0.08,0.66,4.3,9.2,355,349,13.3,17.1,13.6,10.9,11.4,0.27,0.296,0.302,0.293,1,3600.0,80.3,51.3,29.1,401.2,80.3,176.7,141.0,90.0,51.0,401.2,141.0,310.1,Pinus pinaster Aiton; Tracheophyta; Magnoliopsida; Eucalyptus L'Hér.
2004,2004-08-04,Leiria,Bombarral,Pó,Pó,39.3099292,-9.2170303,NC,50.0,2004-08-04T17:00,22.8,59,14.5,21.4,0.0,0.0,0.0,0.0,0,1016.8,1011.0,1,0,1,0,0.36,1.13,20.2,25.0,329,330,37.4,30.2,24.7,22.4,19.3,0.049,0.064,0.111,0.202,1,3600.0,463.0,379.7,83.3,750.2,463.0,672.6,539.0,442.0,97.0,750.2,539.0,783.0,Magnoliopsida; Eucalyptus L'Hér.; Vitis vinifera L.; Tracheophyta; 
2004,2004-07-08,Leiria,Caldas da Rainha,Santa Catarina,Relvas,39.430354,-9.0051613,NC,94.0,2004-07-08T15:00,21.3,47,9.6,19.4,0.0,0.0,0.0,0.0,0,1024.9,1013.8,5,6,0,0,0.54,1.34,23.0,28.7,335,336,48.6,28.4,22.1,21.4,18.1,0.11,0.163,0.228,0.316,1,3600.0,833.4,716.9,116.5,865.2,833.4,1096.4,880.0,757.0,123.0,865.2,880.0,1157.7,Magnoliopsida; Tracheophyta; Pinus pinaster Aiton
2004,2004-11-19,Leiria,Caldas da Rainha,Santa Catarina,Portela,39.4418525,-9.0136019,NC,80.0,2004-11-19T13:00,13.5,71,8.3,11.6,0.0,0.0,0.0,0.0,0,1026.1,1016.4,0,0,0,0,0.24,0.45,9.7,11.6,15,16,28.8,15.3,12.3,14.8,19.9,0.247,0.281,0.256,0.288,1,3600.0,497.6,404.0,93.6,801.6,497.6,706.0,505.0,410.0,95.0,801.6,505.0,716.5,Eucalyptus L'Hér.; Tracheophyta; Magnoliopsida; Vitis vinifera L.; Pinus pinaster Aiton
2004,2004-11-19,Leiria,Peniche,Ferrel,Ferrel,39.3573505,-9.3206063,NC,10.0,2004-11-19T18:00,12.3,82,9.3,10.2,0.0,0.0,0.0,0.0,0,1025.6,1024.4,0,0,0,0,0.03,0.25,13.0,20.3,6,7,23.0,12.9,13.9,15.3,19.9,0.129,0.177,0.17,0.2,0,0.0,0.0,0.0,0.0,0.0,0.0,0.0,3.0,1.0,2.0,17.1,3.0,21.2,Tracheophyta
2004,2004-07-17,Leiria,Figueiró dos Vinhos,Figueiró dos Vinhos,Castanheira de Figueiró,39.9162661,-8.2632291,Desconhecida,454.0,2004-07-17T15:00,26.6,42,12.5,25.7,0.0,0.0,0.0,0.0,1,1015.1,964.2,28,0,0,92,0.59,2.02,19.6,25.5,317,317,41.8,33.3,25.0,21.1,16.6,0.107,0.152,0.201,0.316,1,3600.0,743.2,558.8,184.4,685.0,743.2,1080.2,786.0,591.0,195.0,685.0,786.0,1142.4,Eucalyptus L'Hér.; Pinus pinaster Aiton; Magnoliopsida; Tracheophyta
2004,2004-08-06,Leiria,Peniche,Peniche (são Pedro),PENICHE,39.362051300000005,-9.387688228092872,NC,12.0,2004-08-06T19:00,22.2,79,18.4,22.0,0.0,0.0,0.0,0.0,0,1012.6,1011.2,0,0,0,0,0.12,0.55,22.3,30.6,346,348,38.5,28.3,26.2,23.5,20.4,0.044,0.07,0.125,0.217,1,3600.0,88.9,58.5,30.4,469.5,88.9,165.7,158.0,104.0,54.0,469.5,158.0,294.6,Magnoliopsida; Tracheophyta
2004,2004-07-29,Leiria,Alvaiázere,Maçãs de Dona Maria,Porto de São Simão,39.87896715,-8.343307888204697,NC,285.0,2004-07-29T16:00,27.1,47,14.8,26.6,0.0,0.0,0.0,0.0,0,1016.0,983.7,4,0,0,13,0.53,1.9,19.5,25.8,322,324,45.0,33.4,25.9,23.7,18.7,0.107,0.15,0.188,0.307,1,3600.0,645.2,547.1,98.1,816.0,645.2,889.6,710.0,602.0,108.0,816.0,710.0,979.0,Pinus pinaster Aiton; Olea europaea L.; Eucalyptus L'Hér.; Tracheophyta; Vitis vinifera L.; Magnoliopsida
2004,2004-07-18,Leiria,Pombal,Pombal,Mouriscas,39.92194355,-8.636895489112948,NC,58.0,2004-07-18T06:00,16.5,99,16.3,17.0,0.0,0.0,0.0,0.0,3,1017.5,1010.6,100,100,0,35,0.01,0.02,11.6,17.6,344,349,19.1,18.0,23.0,21.2,17.9,0.05,0.06,0.094,0.199,1,0.0,16.5,0.0,16.5,0.0,8.1,133.7,7.0,0.0,7.0,0.0,7.0,56.6,Tracheophyta; Pinus pinaster Aiton; Olea europaea L.; Magnoliopsida; Eucalyptus L'Hér.
2004,2004-07-18,Leiria,Leiria,Coimbrão,Pedrogão,39.92736365,-8.94837791272614,Desconhecida,0.0,2004-07-18T16:00,22.5,73,17.3,23.1,0.0,0.0,0.0,0.0,1,1017.4,1017.4,20,0,0,67,0.41,0.74,18.8,24.5,306,310,34.6,30.1,22.7,20.6,18.0,0.053,0.064,0.115,0.216,1,3600.0,645.0,520.7,124.2,750.4,645.0,918.9,706.0,570.0,136.0,750.4,706.0,1005.9,Tracheophyta; Pinus pinaster Aiton; Eucalyptus L'Hér.; Magnoliopsida; Acacia Mill.
2004,2004-11-27,Leiria,Alcobaça,São Martinho do Porto,Serra de Mangues,39.5219543,-9.120685007004628,NC,40.0,2004-11-27T04:00,11.1,90,9.5,9.0,0.0,0.0,0.0,0.0,1,1022.6,1017.7,37,0,12,100,0.0,0.13,13.5,24.5,124,130,23.8,10.4,12.6,14.4,18.9,0.126,0.171,0.186,0.196,0,0.0,0.0,0.0,0.0,0.0,0.0,0.0,0.0,0.0,0.0,0.0,0.0,0.0,Tracheophyta; Vitis vinifera L.; Magnoliopsida; Eucalyptus L'Hér.; Pinus pinaster Aiton
2004,2004-06-11,Leiria,Alcobaça,Pataias,Vale Furado,39.6851289,-9.0555451,NC,61.0,2004-06-11T20:00,18.0,81,14.6,16.4,0.0,0.0,0.0,0.0,0,1020.2,1012.9,9,10,0,0,0.06,0.4,21.0,28.6,354,354,36.0,22.2,22.5,19.2,15.6,0.048,0.082,0.141,0.227,1,2045.18,0.0,0.0,0.0,0.0,0.0,0.0,49.0,26.0,23.0,209.4,49.0,113.2,Pinus pinaster Aiton; Tracheophyta
2004,2004-08-13,Leiria,Caldas da Rainha,Caldas Da Rainha (santo Onofre),zona industrial,39.4067465,-9.1402586,NC,48.0,2004-08-13T11:00,23.2,60,15.0,23.6,0.0,0.0,0.0,0.0,0,1019.4,1013.8,0,0,0,0,0.48,1.13,16.2,19.1,356,358,29.2,26.9,22.6,22.6,20.1,0.146,0.138,0.187,0.28,1,3600.0,820.6,704.7,115.9,844.3,820.6,1112.5,772.0,663.0,109.0,844.3,772.0,1046.6,Tracheophyta; Magnoliopsida
2004,2004-08-07,Leiria,Pombal,Abiul,Casais Novos,39.9161851,-8.6279171,Desconhecida,69.0,2004-08-07T13:00,26.8,54,16.8,29.5,0.0,0.0,0.0,0.0,1,1011.2,1003.3,21,0,0,69,0.63,1.6,11.7,13.3,288,289,26.3,35.7,24.2,22.2,19.0,0.051,0.059,0.083,0.189,1,3600.0,915.1,796.1,119.0,871.7,915.1,1214.8,915.0,796.0,119.0,871.7,915.0,1214.6,Tracheophyta; Magnoliopsida
2004,2004-12-05,Leiria,Figueiró dos Vinhos,Arega,Casalinho,39.8461379,-8.321482133686711,NC,440.0,2004-12-05T17:00,11.3,70,6.1,9.0,0.0,0.0,0.0,0.0,0,1021.6,969.3,0,0,0,0,0.04,0.4,9.3,12.8,36,52,15.8,10.4,9.1,11.0,16.2,0.355,0.365,0.326,0.283,1,2230.81,5.4,3.4,2.0,39.0,4.0,11.2,62.0,39.0,23.0,318.0,62.0,128.8,Tracheophyta; Eucalyptus L'Hér.; Pinus pinaster Aiton; Magnoliopsida
2004,2004-07-19,Leiria,Figueiró dos Vinhos,Bairradas,pedra do moinho,39.8699787,-8.2425113,Desconhecida,362.0,2004-07-19T02:00,16.4,97,15.9,16.8,0.0,0.0,0.0,0.0,0,1017.2,974.8,4,5,0,0,0.0,0.06,11.3,21.6,323,327,21.6,19.9,24.6,22.3,17.5,0.106,0.152,0.202,0.32,0,0.0,0.0,0.0,0.0,0.0,0.0,0.0,0.0,0.0,0.0,0.0,0.0,0.0,Eucalyptus L'Hér.; Tracheophyta; Olea europaea L.; Magnoliopsida; Pinus pinaster Aiton
2004,2004-08-15,Leiria,Marinha Grande,Vieira de Leiria,VIEIRA,39.86647675,-8.925586268586265,NC,49.0,2004-08-15T17:00,23.6,80,19.8,25.2,0.0,0.0,0.0,0.0,0,1018.8,1013.1,9,6,0,13,0.27,0.6,14.9,19.3,285,284,24.1,28.1,23.7,21.1,19.1,0.102,0.086,0.103,0.206,1,3600.0,369.4,252.5,116.9,539.9,369.4,623.7,436.0,298.0,138.0,539.9,436.0,736.2,Tracheophyta; Pinus pinaster Aiton; Eucalyptus L'Hér.; Magnoliopsida; Acacia Mill.; 
2004,2004-06-13,Leiria,Leiria,Carvide,Moinhos,39.8508291,-8.908748,NC,24.0,2004-06-13T15:00,24.5,69,18.5,26.7,0.0,0.0,0.0,0.0,0,1018.0,1015.2,0,0,0,0,0.53,0.94,17.1,19.4,312,317,28.4,32.8,22.4,19.1,15.6,0.051,0.085,0.14,0.231,1,3600.0,820.6,708.1,112.5,860.2,820.6,1091.5,868.0,749.0,119.0,860.2,868.0,1154.6,Tracheophyta; Pinus pinaster Aiton; Eucalyptus L'Hér.; Magnoliopsida; Acacia Mill.
2004,2004-12-10,Leiria,Peniche,Serra D El-rei,SERRA DE EL REI,39.34135845,-9.269649905,NC,103.0,2004-12-10T18:00,11.2,78,7.5,9.0,0.0,0.0,0.0,0.0,1,1019.6,1007.1,29,0,0,98,0.03,0.29,10.2,18.7,98,101,17.3,10.1,10.5,12.7,17.4,0.204,0.22,0.193,0.199,0,0.0,0.0,0.0,0.0,0.0,0.0,0.0,1.0,0.0,1.0,0.0,1.0,8.3,Tracheophyta; Eucalyptus L'Hér.; Magnoliopsida
2004,2004-03-26,Leiria,Caldas da Rainha,Carvalhal Benfeito,Mestras,39.4628521,-9.0634612,NC,77.0,2004-03-26T12:00,13.9,36,-0.8,8.8,0.0,0.0,0.0,0.0,3,1006.7,997.5,88,0,98,98,0.33,1.01,19.9,26.2,70,72,38.5,15.8,12.2,13.0,12.8,0.118,0.183,0.225,0.244,1,3600.0,592.3,310.6,281.6,395.5,592.3,1080.0,572.0,300.0,272.0,395.5,572.0,1043.0,Magnoliopsida; Tracheophyta; Pinus pinaster Aiton; Eucalyptus L'Hér.
2004,2004-12-12,Leiria,Caldas da Rainha,Serra do Bouro,Serra do Bouro,39.45624495,-9.180932897705262,NC,49.0,2004-12-12T20:00,14.2,73,9.4,9.9,0.0,0.0,0.0,0.0,3,1012.8,1006.9,82,8,74,100,0.06,0.44,28.7,45.1,120,122,46.1,12.4,12.2,12.8,17.6,0.194,0.212,0.189,0.193,0,0.0,0.0,0.0,0.0,0.0,0.0,0.0,0.0,0.0,0.0,0.0,0.0,0.0,Tracheophyta; Eucalyptus L'Hér.; Magnoliopsida; Pinus pinaster Aiton
2004,2004-08-02,Leiria,Pombal,São Simão de Litém,Bica,39.8231035,-8.6089244,NC,223.0,2004-08-02T01:00,17.7,95,17.0,18.5,0.0,0.0,0.0,0.0,2,1014.8,988.6,71,79,0,0,0.0,0.09,11.6,19.2,324,332,18.7,21.6,26.2,22.9,18.5,0.096,0.135,0.184,0.292,0,0.0,0.0,0.0,0.0,0.0,0.0,0.0,0.0,0.0,0.0,0.0,0.0,0.0,Olea europaea L.; Eucalyptus L'Hér.; Pinus pinaster Aiton; Tracheophyta
2004,2004-08-10,Leiria,Porto de Mós,Mendiga,MENDIGA,39.495999350000005,-8.847903068306833,NC,345.0,2004-08-10T14:00,23.0,63,15.6,22.9,0.0,0.0,0.0,0.0,1,1013.7,974.3,49,32,33,0,0.42,1.04,17.4,22.8,232,232,46.1,27.1,22.0,22.8,19.3,0.185,0.145,0.21,0.313,1,3600.0,630.9,419.9,210.9,483.5,630.9,1156.4,649.0,432.0,217.0,483.5,649.0,1189.6,Magnoliopsida; Quercus L.; Olea europaea L.; Tracheophyta
2004,2004-12-19,Leiria,Caldas da Rainha,Serra do Bouro,SERRA DO BOURO,39.45624495,-9.180932897705262,NC,49.0,2004-12-19T17:00,13.3,78,9.5,9.1,0.0,0.0,0.0,0.0,3,1024.0,1018.0,83,92,0,0,0.07,0.34,28.2,39.3,335,335,46.8,13.6,13.4,13.6,17.0,0.208,0.213,0.192,0.193,1,1371.79,11.1,4.2,6.9,48.5,9.3,41.3,42.0,16.0,26.0,121.7,42.0,156.2,Tracheophyta; Eucalyptus L'Hér.; Magnoliopsida; Pinus pinaster Aiton
2004,2004-08-21,Leiria,Caldas da Rainha,Caldas Da Rainha (nossa Senhora Do Pópulo),São Cristovao,39.3905011,-9.1301079,NC,61.0,2004-08-21T14:00,24.7,56,15.3,26.0,0.0,0.0,0.0,0.0,0,1018.3,1011.2,19,0,0,64,0.57,1.37,15.2,17.5,338,341,33.1,30.0,22.7,22.4,20.3,0.154,0.139,0.184,0.278,1,3600.0,854.7,724.7,130.0,862.4,854.7,1123.4,881.0,747.0,134.0,862.4,881.0,1158.0,Tracheophyta; Magnoliopsida; Vitis vinifera L.; Eucalyptus L'Hér.
2004,2004-12-21,Leiria,Óbidos,Vau,Lagoa de Óbidos,39.3657979,-9.2173555,NC,37.0,2004-12-21T16:00,12.1,67,6.1,6.8,0.0,0.0,0.0,0.0,0,1023.1,1018.6,4,4,1,0,0.13,0.47,29.7,39.3,11,12,49.3,13.2,12.3,13.6,16.9,0.187,0.208,0.192,0.193,1,3600.0,169.2,124.6,44.5,647.7,169.2,272.0,228.0,168.0,60.0,647.7,228.0,366.6,Tracheophyta; Magnoliopsida; Eucalyptus L'Hér.
2004,2004-08-25,Leiria,Batalha,São Mamede,Casal Vieiro,39.6042182,-8.7015489,NC,483.0,2004-08-25T14:00,27.0,41,12.8,26.2,0.0,0.0,0.0,0.0,0,1020.1,965.8,0,0,0,0,0.64,2.09,21.7,28.5,349,350,41.8,29.9,21.7,20.6,18.8,0.122,0.152,0.189,0.294,1,3600.0,836.7,733.1,103.6,889.1,836.7,1104.2,864.0,757.0,107.0,889.1,864.0,1140.3,Tracheophyta; Magnoliopsida; Pinus pinaster Aiton; Olea europaea L.
2004,2004-08-25,Leiria,Óbidos,Olho Marinho,OLHO MARINHO,39.3301388,-9.2272165,NC,35.0,2004-08-25T17:00,23.1,66,16.3,21.2,0.0,0.0,0.0,0.0,0,1020.2,1016.1,0,0,0,0,0.32,0.97,28.2,37.0,6,7,48.6,28.4,23.3,22.0,20.3,0.059,0.066,0.105,0.198,1,3600.0,396.0,323.4,72.5,747.6,396.0,579.4,475.0,388.0,87.0,747.6,475.0,695.1,Tracheophyta; Magnoliopsida
2004,2004-07-28,Leiria,Pombal,Albergaria dos Doze,CARTARIA,39.8041312,-8.5749076,NC,230.0,2004-07-28T23:00,16.9,91,15.4,16.1,0.0,0.0,0.0,0.0,0,1017.4,990.3,14,15,0,0,0.01,0.17,18.0,29.9,323,326,32.0,20.9,25.0,22.7,18.1,0.096,0.135,0.187,0.294,0,0.0,0.0,0.0,0.0,0.0,0.0,0.0,0.0,0.0,0.0,0.0,0.0,0.0,Eucalyptus L'Hér.; Magnoliopsida; Pinus pinaster Aiton; Olea europaea L.; Tracheophyta
2004,2004-08-04,Leiria,Alvaiázere,Maçãs de Dona Maria,Porto de São Simão,39.87896715,-8.343307888204697,NC,285.0,2004-08-04T16:00,24.9,48,13.2,23.9,0.0,0.0,0.0,0.0,0,1015.8,983.3,0,0,0,0,0.49,1.64,19.1,25.5,316,317,44.6,31.6,25.5,23.9,19.2,0.119,0.15,0.184,0.303,1,3600.0,632.5,542.8,89.7,825.9,632.5,873.5,698.0,599.0,99.0,825.9,698.0,963.9,Pinus pinaster Aiton; Olea europaea L.; Eucalyptus L'Hér.; Tracheophyta; Vitis vinifera L.; Magnoliopsida
2004,2004-04-11,Leiria,Batalha,Batalha,Calvaria de Baixo,39.6574463,-8.831880239865573,NC,83.0,2004-04-11T13:00,16.3,40,2.8,15.7,0.0,0.0,0.0,0.0,0,1019.1,1009.2,5,0,9,0,0.51,1.11,8.2,9.9,337,341,25.9,20.4,13.1,13.0,12.4,0.126,0.184,0.208,0.235,1,3600.0,918.4,809.5,108.8,950.2,918.4,1160.7,920.0,811.0,109.0,950.2,920.0,1162.8,Pinus pinaster Aiton; Eucalyptus L'Hér.; Tracheophyta; Magnoliopsida
2004,2004-07-29,Leiria,Alcobaça,Cela,Bica,39.5282088,-9.0567685,NC,176.0,2004-07-29T12:00,23.7,60,15.5,24.1,0.0,0.0,0.0,0.0,0,1017.9,997.5,7,1,0,19,0.53,1.18,20.4,25.3,339,340,43.9,30.6,23.8,22.7,18.7,0.082,0.131,0.181,0.277,1,3600.0,879.5,707.7,171.8,768.0,879.5,1222.7,855.0,688.0,167.0,768.0,855.0,1188.6,Tracheophyta; Pinus pinaster Aiton; Magnoliopsida; Vitis vinifera L.; Eucalyptus L'Hér.
2004,2004-07-29,Leiria,Figueiró dos Vinhos,Figueiró dos Vinhos,Telhada,39.9057857,-8.2925586,Desconhecida,393.0,2004-07-29T13:00,26.4,44,13.3,27.1,0.0,0.0,0.0,0.0,0,1016.7,972.3,11,0,0,37,0.66,1.92,16.1,20.3,331,333,45.0,32.0,24.3,23.0,18.0,0.107,0.15,0.189,0.307,1,3600.0,935.8,816.8,119.0,879.5,935.8,1232.3,936.0,817.0,119.0,879.5,936.0,1232.5,Magnoliopsida; Eucalyptus L'Hér.; Pinus pinaster Aiton; Acacia Mill.; Tracheophyta
