year,date,district,municipality,parish,local,latitude,longitude,cause,elevation,hourly.time,hourly.temperature_2m,hourly.relative_humidity_2m,hourly.dew_point_2m,hourly.apparent_temperature,hourly.precipitation,hourly.rain,hourly.snowfall,hourly.snow_depth,hourly.weather_code,hourly.pressure_msl,hourly.surface_pressure,hourly.cloud_cover,hourly.cloud_cover_low,hourly.cloud_cover_mid,hourly.cloud_cover_high,hourly.et0_fao_evapotranspiration,hourly.vapour_pressure_deficit,hourly.wind_speed_10m,hourly.wind_speed_100m,hourly.wind_direction_10m,hourly.wind_direction_100m,hourly.wind_gusts_10m,hourly.soil_temperature_0_to_7cm,hourly.soil_temperature_7_to_28cm,hourly.soil_temperature_28_to_100cm,hourly.soil_temperature_100_to_255cm,hourly.soil_moisture_0_to_7cm,hourly.soil_moisture_7_to_28cm,hourly.soil_moisture_28_to_100cm,hourly.soil_moisture_100_to_255cm,hourly.is_day,hourly.sunshine_duration,hourly.shortwave_radiation_instant,hourly.direct_radiation_instant,hourly.diffuse_radiation_instant,hourly.direct_normal_irradiance_instant,hourly.global_tilted_irradiance_instant,hourly.terrestrial_radiation_instant,hourly.shortwave_radiation,hourly.direct_radiation,hourly.diffuse_radiation,hourly.direct_normal_irradiance,hourly.global_tilted_irradiance,hourly.terrestrial_radiation,scientificNames
2004,2004-07-31,Viana do Castelo,Arcos de Valdevez,Gondoriz,Vila Boa,41.8981777,-8.3776674,NC,394.0,2004-07-31T15:00,29.7,47,17.3,33.2,0.0,0.0,0.0,0.0,0,1015.9,971.9,17,4,13,20,0.59,2.2,5.1,5.7,262,252,27.7,34.5,24.9,21.1,16.7,0.1,0.16,0.239,0.344,1,3600.0,755.7,620.7,135.1,788.5,755.7,1045.0,800.0,657.0,143.0,788.5,800.0,1106.2,Magnoliopsida; Eucalyptus L'Hér.
2004,2004-06-20,Viana do Castelo,Viana do Castelo,Chafé,CHAFÉ,41.6500875,-8.7777831,Desconhecida,29.0,2004-06-20T22:00,17.7,80,14.3,17.5,0.0,0.0,0.0,0.0,3,1014.7,1011.3,86,58,51,12,0.01,0.39,10.7,15.0,192,197,19.8,20.1,21.8,20.4,15.5,0.1,0.19,0.281,0.364,0,0.0,0.0,0.0,0.0,0.0,0.0,0.0,0.0,0.0,0.0,0.0,0.0,0.0,Tracheophyta; Magnoliopsida; Pinus pinaster Aiton
2004,2004-07-25,Viana do Castelo,Melgaço,Cristoval,São Gregório,42.141178,-8.1968025,NC,230.0,2004-07-25T16:00,33.0,40,17.5,34.8,0.0,0.0,0.0,0.0,0,1018.8,993.0,0,0,0,0,0.6,3.02,12.3,16.3,5,8,34.9,36.1,26.3,20.8,16.2,0.192,0.27,0.315,0.424,1,3600.0,658.6,567.4,91.2,844.3,658.6,891.0,722.0,622.0,100.0,844.3,722.0,976.7,Quercus L.; Magnoliopsida; Vitis vinifera L.; Pinus pinaster Aiton
2004,2004-07-29,Viana do Castelo,Ponte de Lima,Rendufe,Igreja,41.85427535,-8.542695400438783,NC,528.0,2004-07-29T17:00,23.7,57,14.8,23.4,0.0,0.0,0.0,0.0,0,1016.5,956.9,7,4,5,0,0.36,1.25,12.8,17.1,310,316,31.7,29.4,23.1,20.1,15.7,0.102,0.163,0.242,0.346,1,3600.0,459.1,359.6,99.4,705.0,459.1,676.9,531.0,416.0,115.0,705.0,531.0,783.0,Magnoliopsida; Eucalyptus L'Hér.; Quercus L.
2004,2004-07-31,Viana do Castelo,Caminha,Vilarelho,VILARELHO,41.874058,-8.8342666,NC,8.0,2004-07-31T01:00,19.3,93,18.1,21.1,0.0,0.0,0.0,0.0,0,1016.3,1015.4,0,0,0,0,0.0,0.16,7.6,10.5,329,344,14.0,21.2,24.9,22.5,18.6,0.08,0.166,0.245,0.344,0,0.0,0.0,0.0,0.0,0.0,0.0,0.0,0.0,0.0,0.0,0.0,0.0,0.0,Tracheophyta; Eucalyptus L'Hér.; Pinus pinaster Aiton
2004,2004-07-25,Viana do Castelo,Ponte da Barca,Touvedo (São Lourenço),São Lourenço,41.79690175,-8.35457776679388,NC,219.0,2004-07-25T17:00,31.9,42,17.5,32.6,0.0,0.0,0.0,0.0,0,1017.7,993.1,0,0,0,0,0.48,2.72,13.5,17.7,304,309,31.7,34.4,25.6,20.5,16.5,0.099,0.162,0.242,0.346,1,3600.0,478.9,389.5,89.4,748.8,478.9,689.7,552.0,449.0,103.0,748.8,552.0,795.0,Eucalyptus L'Hér.; Magnoliopsida; Pinus pinaster Aiton; Vitis vinifera L.
2004,2004-07-30,Viana do Castelo,Valença,Cristelo Covo,CRISTÊLO,42.01371525,-8.65354993606758,NC,15.0,2004-07-30T19:00,24.0,70,18.3,25.2,0.0,0.0,0.0,0.0,0,1015.9,1014.2,0,0,0,0,0.14,0.89,13.0,17.4,326,330,25.2,29.1,25.7,22.2,18.0,0.098,0.151,0.227,0.338,1,3600.0,110.4,74.8,35.6,489.8,110.4,202.8,177.0,120.0,57.0,489.8,177.0,325.2,Tracheophyta; Magnoliopsida
2004,2004-08-01,Viana do Castelo,Vila Nova de Cerveira,Campos,CAMPOS,41.97684075,-8.694188948824348,NC,14.0,2004-08-01T17:00,26.8,57,17.6,28.3,0.0,0.0,0.0,0.0,0,1013.8,1012.2,5,0,0,18,0.38,1.51,8.5,8.4,282,277,20.5,33.2,26.4,22.4,18.1,0.097,0.149,0.225,0.337,1,3600.0,463.2,379.3,83.8,747.7,463.2,673.7,536.0,439.0,97.0,747.7,536.0,779.6,Tracheophyta; Pinus pinaster Aiton; Eucalyptus L'Hér.; Magnoliopsida
2004,2004-07-29,Viana do Castelo,Valença,Gandra,Picões,42.0055903,-8.6164853,NC,96.0,2004-07-29T20:00,20.8,82,17.6,21.5,0.0,0.0,0.0,0.0,0,1017.8,1006.5,2,0,0,6,0.04,0.44,13.8,21.3,332,336,33.1,25.2,24.6,21.6,17.4,0.098,0.153,0.229,0.339,0,1094.92,0.0,0.0,0.0,0.0,0.0,0.0,33.0,16.0,17.0,140.3,33.0,92.6,Magnoliopsida; Eucalyptus L'Hér.; Tracheophyta; Vitis vinifera L.; Pinus pinaster Aiton; Acacia Mill.; 
2004,2004-07-25,Viana do Castelo,Viana do Castelo,Meadela,MEADELA,41.7136225,-8.797047,NC,26.0,2004-07-25T23:00,23.2,73,18.1,25.0,0.0,0.0,0.0,0.0,0,1018.5,1015.5,0,0,0,0,0.02,0.77,8.1,12.0,45,39,18.0,24.2,25.8,21.4,17.8,0.088,0.176,0.25,0.347,0,0.0,0.0,0.0,0.0,0.0,0.0,0.0,0.0,0.0,0.0,0.0,0.0,0.0,Tracheophyta; Magnoliopsida; Eucalyptus L'Hér.
2004,2004-07-30,Viana do Castelo,Viana do Castelo,Vila Fria,VILA FRIA,41.66066935,-8.760610979887733,NC,39.0,2004-07-30T22:00,19.7,86,17.4,21.0,0.0,0.0,0.0,0.0,0,1016.7,1012.1,0,0,0,1,0.0,0.31,9.7,17.6,338,349,16.9,22.8,24.9,22.0,18.1,0.085,0.168,0.245,0.344,0,0.0,0.0,0.0,0.0,0.0,0.0,0.0,0.0,0.0,0.0,0.0,0.0,0.0,Eucalyptus L'Hér.; Tracheophyta; Magnoliopsida
2004,2004-07-29,Viana do Castelo,Vila Nova de Cerveira,Covas,Presa,41.8717901,-8.6897373,NC,160.0,2004-07-29T22:00,18.9,91,17.4,20.0,0.0,0.0,0.0,0.0,0,1018.7,999.8,0,0,0,0,0.0,0.2,10.9,20.2,351,356,23.4,22.1,24.1,21.5,17.5,0.1,0.157,0.232,0.34,0,0.0,0.0,0.0,0.0,0.0,0.0,0.0,0.0,0.0,0.0,0.0,0.0,0.0,Pinus pinaster Aiton; Magnoliopsida; Eucalyptus L'Hér.
2004,2004-08-01,Viana do Castelo,Monção,Barbeita,Merim,42.0462163,-8.4010392,NC,164.0,2004-08-01T23:00,18.7,98,18.4,20.7,0.0,0.0,0.0,0.0,2,1015.5,996.2,78,81,2,13,0.0,0.04,7.4,10.6,331,336,9.7,22.4,25.4,21.5,17.0,0.098,0.15,0.226,0.338,0,0.0,0.0,0.0,0.0,0.0,0.0,0.0,0.0,0.0,0.0,0.0,0.0,0.0,Tracheophyta; Vitis vinifera L.; Eucalyptus L'Hér.; Magnoliopsida; Pinus pinaster Aiton; 
2004,2004-08-01,Viana do Castelo,Valença,Fontoura,FONTOURA,41.96485725,-8.637014373185956,NC,52.0,2004-08-01T18:00,25.1,64,17.8,26.4,0.0,0.0,0.0,0.0,0,1013.8,1007.8,1,1,0,0,0.25,1.15,10.6,12.4,294,296,22.0,31.4,26.3,22.2,17.9,0.097,0.149,0.225,0.337,1,3600.0,279.6,215.8,63.8,651.9,279.6,439.6,355.0,274.0,81.0,651.9,355.0,558.2,Pinus pinaster Aiton; Magnoliopsida; Tracheophyta
2004,2004-08-01,Viana do Castelo,Ponte de Lima,Refóios do Lima,REFÓIOS DO LIMA,41.779262,-8.5633595,NC,28.0,2004-08-01T18:00,25.5,59,16.8,26.0,0.0,0.0,0.0,0.0,0,1013.7,1010.5,0,0,0,0,0.27,1.34,13.0,15.3,298,300,24.5,31.1,26.2,22.4,18.4,0.099,0.156,0.229,0.338,1,3600.0,280.9,216.4,64.5,654.8,280.9,438.9,357.0,275.0,82.0,654.8,357.0,557.7,Tracheophyta; Magnoliopsida; Pinus pinaster Aiton
2004,2004-07-31,Viana do Castelo,Ponte de Lima,Fornelos,FORNELOS,41.7501969,-8.5733712,NC,111.0,2004-07-31T07:00,19.2,93,18.0,21.6,0.0,0.0,0.0,0.0,0,1015.6,1002.5,0,0,0,0,0.05,0.16,4.0,5.4,333,360,10.1,20.2,23.1,21.6,17.7,0.1,0.159,0.232,0.339,1,3600.0,172.1,104.5,67.6,393.7,172.1,352.2,112.0,68.0,44.0,393.7,112.0,229.2,Magnoliopsida; Tracheophyta; Pinus pinaster Aiton; Eucalyptus L'Hér.
2004,2004-07-31,Viana do Castelo,Ponte de Lima,Calheiros,Arcela,41.8064192,-8.570225,NC,160.0,2004-07-31T15:00,27.4,57,18.2,30.8,0.0,0.0,0.0,0.0,0,1015.3,997.0,3,0,4,3,0.59,1.57,8.9,10.6,256,252,22.7,33.7,24.5,21.4,17.4,0.1,0.158,0.231,0.338,1,3600.0,795.8,692.8,103.0,877.4,795.8,1048.1,842.0,733.0,109.0,877.4,842.0,1109.0,Eucalyptus L'Hér.; Magnoliopsida; Tracheophyta; Olea europaea L.
2004,2004-07-25,Viana do Castelo,Viana do Castelo,Meixedo,Balteiro,41.7562475,-8.7011547,Desconhecida,59.0,2004-07-25T15:00,28.4,53,17.9,30.6,0.0,0.0,0.0,0.0,0,1018.7,1011.9,0,0,0,0,0.61,1.82,15.8,19.5,317,322,28.8,35.0,25.1,21.1,17.6,0.089,0.176,0.251,0.347,1,3600.0,804.3,703.1,101.2,878.0,804.3,1061.6,850.0,743.0,107.0,878.0,850.0,1121.9,Eucalyptus L'Hér.; Magnoliopsida; Pinales; Pinus pinaster Aiton
2004,2004-07-26,Viana do Castelo,Monção,Sago,SAGO,42.0331768,-8.4556243,NC,217.0,2004-07-26T00:00,21.5,77,17.2,22.6,0.0,0.0,0.0,0.0,0,1018.3,993.1,0,0,0,0,0.02,0.6,10.5,13.5,49,56,19.8,23.1,25.6,20.6,16.6,0.103,0.162,0.238,0.343,0,0.0,0.0,0.0,0.0,0.0,0.0,0.0,0.0,0.0,0.0,0.0,0.0,0.0,Magnoliopsida; Pinus pinaster Aiton; Quercus L.; Vitis vinifera L.; 
2004,2004-06-05,Viana do Castelo,Ponte de Lima,Rebordões (souto),Souto,41.72244325,-8.56183229916097,NC,107.0,2004-06-05T23:00,15.3,93,14.2,16.0,0.0,0.0,0.0,0.0,3,1016.4,1003.6,89,99,0,0,0.0,0.12,4.2,4.9,301,306,7.6,18.8,21.8,18.0,13.4,0.165,0.249,0.311,0.373,0,0.0,0.0,0.0,0.0,0.0,0.0,0.0,0.0,0.0,0.0,0.0,0.0,0.0,Eucalyptus L'Hér.; Magnoliopsida; Pinus pinaster Aiton; Tracheophyta
2004,2004-08-02,Viana do Castelo,Ponte de Lima,Freixo,Paço,41.6532383,-8.605341047025863,NC,145.0,2004-08-02T17:00,23.9,59,15.4,23.9,0.0,0.0,0.0,0.0,1,1015.0,998.2,23,0,0,77,0.36,1.22,12.2,15.0,284,287,30.6,30.9,25.3,22.1,17.8,0.098,0.152,0.224,0.335,1,3600.0,459.4,374.1,85.3,744.0,459.4,667.9,533.0,434.0,99.0,744.0,533.0,774.8,Eucalyptus L'Hér.; Vitis vinifera L.; Tracheophyta; Pinus pinaster Aiton; Magnoliopsida
2004,2004-02-09,Viana do Castelo,Arcos de Valdevez,Extremo,Mourisca,41.9654069,-8.4498403,NC,568.0,2004-02-09T21:00,5.5,80,2.3,2.8,0.0,0.0,0.0,0.0,0,1025.1,956.6,0,0,0,0,0.0,0.18,6.6,13.3,77,93,22.0,6.9,9.5,9.6,10.5,0.393,0.409,0.436,0.463,0,0.0,0.0,0.0,0.0,0.0,0.0,0.0,0.0,0.0,0.0,0.0,0.0,0.0,Magnoliopsida; Tracheophyta; Quercus L.; Eucalyptus L'Hér.
2004,2004-07-31,Viana do Castelo,Monção,Longos Vales,Guimil,42.0496148,-8.4404588,NC,193.0,2004-07-31T16:00,28.5,58,19.3,31.9,0.0,0.0,0.0,0.0,0,1015.8,993.9,6,5,3,0,0.48,1.65,5.9,4.3,281,265,22.3,34.0,25.0,21.1,16.7,0.098,0.151,0.228,0.338,1,3600.0,608.9,479.7,129.2,725.6,608.9,877.6,669.0,527.0,142.0,725.6,669.0,964.2,Vitis vinifera L.; Pinus pinaster Aiton; Tracheophyta; Magnoliopsida; Quercus L.; Eucalyptus L'Hér.; Acacia Mill.; 
2004,2004-07-29,Viana do Castelo,Valença,São Pedro da Torre,Chamosinhos,41.985474,-8.6755309,NC,19.0,2004-07-29T23:00,19.7,90,18.1,21.1,0.0,0.0,0.0,0.0,0,1018.5,1016.2,0,0,0,0,0.0,0.22,10.9,20.5,351,359,22.7,22.3,24.8,22.2,17.9,0.098,0.153,0.229,0.339,0,0.0,0.0,0.0,0.0,0.0,0.0,0.0,0.0,0.0,0.0,0.0,0.0,0.0,Pinus pinaster Aiton; Tracheophyta; Eucalyptus L'Hér.; Magnoliopsida; 
2004,2004-07-31,Viana do Castelo,Paredes de Coura,Mozelos,MOSELOS,41.9280328,-8.552439,NC,394.0,2004-07-31T20:00,21.7,81,18.3,24.3,0.0,0.0,0.0,0.0,0,1015.7,970.6,1,0,1,0,0.02,0.49,3.2,3.1,297,306,10.4,26.2,24.8,20.6,16.3,0.098,0.152,0.226,0.337,0,817.75,0.0,0.0,0.0,0.0,0.0,0.0,28.0,14.0,14.0,128.2,28.0,86.4,Tracheophyta; Magnoliopsida; Eucalyptus L'Hér.; Quercus L.; ; Pinus pinaster Aiton
2004,2004-08-02,Viana do Castelo,Valença,Gandra,GANDRA,42.0156094,-8.620661185438873,NC,79.0,2004-08-02T00:00,18.6,99,18.5,20.5,0.0,0.0,0.0,0.0,3,1014.5,1005.2,88,95,0,9,0.0,0.02,8.5,13.8,348,354,11.5,21.8,25.5,22.1,17.7,0.097,0.149,0.225,0.337,0,0.0,0.0,0.0,0.0,0.0,0.0,0.0,0.0,0.0,0.0,0.0,0.0,0.0,Magnoliopsida; Eucalyptus L'Hér.; Tracheophyta; Vitis vinifera L.; Pinus pinaster Aiton; Acacia Mill.; 
2004,2004-08-02,Viana do Castelo,Valença,Silva,SILVA,41.96046844999999,-8.657965168941587,NC,63.0,2004-08-02T00:00,18.7,99,18.6,20.8,0.0,0.0,0.0,0.0,2,1014.6,1007.2,73,77,0,11,0.0,0.02,7.3,11.6,349,355,9.7,21.9,25.6,22.2,17.8,0.097,0.149,0.225,0.337,0,0.0,0.0,0.0,0.0,0.0,0.0,0.0,0.0,0.0,0.0,0.0,0.0,0.0,Pinus pinaster Aiton; Tracheophyta; Vitis vinifera L.; Magnoliopsida; Eucalyptus L'Hér.; 
2004,2004-08-06,Viana do Castelo,Ponte de Lima,Santa Cruz Do Lima,SANTA CRUZ DO LIMA,41.7878368,-8.4813554,NC,62.0,2004-08-06T22:00,19.8,93,18.6,21.2,0.0,0.0,0.0,0.0,0,1013.0,1005.7,0,0,0,0,0.0,0.17,12.5,21.1,319,323,20.9,22.2,24.0,22.1,18.4,0.172,0.152,0.224,0.335,0,0.0,0.0,0.0,0.0,0.0,0.0,0.0,0.0,0.0,0.0,0.0,0.0,0.0,Eucalyptus L'Hér.; Vitis vinifera L.; Magnoliopsida; Tracheophyta
2004,2004-08-04,Viana do Castelo,Arcos de Valdevez,Rio Frio,Enxerto,41.8593809,-8.4742031,NC,187.0,2004-08-04T18:00,20.1,72,15.0,20.0,0.0,0.0,0.0,0.0,0,1016.7,994.8,7,7,1,0,0.19,0.65,11.8,14.1,308,308,24.5,24.3,22.7,21.6,17.6,0.237,0.154,0.226,0.337,1,3600.0,244.5,174.9,69.5,546.1,244.5,425.7,313.0,224.0,89.0,546.1,313.0,545.1,Magnoliopsida; Quercus L.; Pinales
2004,2004-08-06,Viana do Castelo,Vila Nova de Cerveira,Campos,Cortinhal,41.9710284,-8.7009244,NC,21.0,2004-08-06T09:00,22.3,81,18.8,24.3,0.0,0.0,0.0,0.0,1,1014.3,1011.8,25,0,0,82,0.27,0.52,8.5,10.8,348,356,18.0,23.4,21.7,22.1,18.5,0.207,0.154,0.223,0.335,1,3600.0,523.9,410.6,113.3,687.8,523.9,793.7,453.0,355.0,98.0,687.8,453.0,686.3,Tracheophyta; Pinus pinaster Aiton; Eucalyptus L'Hér.; Magnoliopsida
2004,2004-07-31,Viana do Castelo,Arcos de Valdevez,Gondoriz,Sé,41.905206,-8.4075995,NC,324.0,2004-07-31T13:00,29.2,53,18.6,33.8,0.0,0.0,0.0,0.0,0,1016.2,979.8,13,4,8,14,0.66,1.91,5.5,6.2,247,234,24.1,33.8,24.2,21.1,16.7,0.098,0.156,0.236,0.343,1,3600.0,907.1,773.1,134.0,847.7,907.1,1210.8,907.0,773.0,134.0,847.7,907.0,1210.6,Eucalyptus L'Hér.; Magnoliopsida; Tracheophyta; Vitis vinifera L.; Quercus L.
2004,2004-07-30,Viana do Castelo,Caminha,Arga de São João,ARGA DE SÃO JOÃO,41.8383703,-8.732475380313588,NC,415.0,2004-07-30T10:00,24.2,56,15.0,26.2,0.0,0.0,0.0,0.0,0,1017.5,970.3,0,0,0,0,0.43,1.31,1.8,2.3,11,39,15.5,26.7,21.6,20.3,16.1,0.1,0.155,0.229,0.338,1,3600.0,716.6,607.0,109.6,809.3,716.6,995.4,654.0,554.0,100.0,809.3,654.0,908.5,Magnoliopsida
2004,2004-07-31,Viana do Castelo,Valença,Gandra,GANDRA,42.0156094,-8.620661185438873,NC,79.0,2004-07-31T14:00,28.3,62,20.2,33.0,0.0,0.0,0.0,0.0,0,1015.7,1006.7,1,0,1,0,0.59,1.48,6.6,6.1,257,242,20.2,34.3,24.9,21.8,17.6,0.097,0.151,0.227,0.338,1,3600.0,808.4,664.2,144.1,760.9,808.4,1158.9,830.0,682.0,148.0,760.9,830.0,1189.9,Magnoliopsida; Eucalyptus L'Hér.; Tracheophyta; Vitis vinifera L.; Pinus pinaster Aiton; Acacia Mill.; 
2004,2004-07-26,Viana do Castelo,Vila Nova de Cerveira,Covas,Presa,41.8717901,-8.6897373,NC,160.0,2004-07-26T16:00,29.7,43,15.7,30.5,0.0,0.0,0.0,0.0,0,1016.1,998.0,0,0,0,0,0.55,2.39,13.3,16.9,303,308,29.5,34.4,25.9,21.0,17.2,0.102,0.162,0.236,0.342,1,3600.0,635.3,513.0,122.3,759.5,635.3,895.6,696.0,562.0,134.0,759.5,696.0,981.2,Pinus pinaster Aiton; Magnoliopsida; Eucalyptus L'Hér.
2004,2004-07-31,Viana do Castelo,Valença,Taião,TAIÃO,42.0156094,-8.620661185438873,NC,79.0,2004-07-31T14:00,28.3,62,20.2,33.0,0.0,0.0,0.0,0.0,0,1015.7,1006.7,1,0,1,0,0.59,1.48,6.6,6.1,257,242,20.2,34.3,24.9,21.8,17.6,0.097,0.151,0.227,0.338,1,3600.0,808.4,664.2,144.1,760.9,808.4,1158.9,830.0,682.0,148.0,760.9,830.0,1189.9,Magnoliopsida; Eucalyptus L'Hér.; Tracheophyta; Vitis vinifera L.; Pinus pinaster Aiton; Acacia Mill.; 
2004,2004-08-02,Viana do Castelo,Ponte de Lima,Refóios do Lima,Cedofeita,41.7933146,-8.542976,NC,68.0,2004-08-02T14:00,25.6,55,15.9,27.4,0.0,0.0,0.0,0.0,0,1015.3,1007.4,7,8,0,0,0.59,1.47,14.0,16.1,282,286,27.7,32.8,25.1,22.5,18.1,0.097,0.15,0.226,0.337,1,3600.0,861.4,729.1,132.4,838.2,861.4,1155.2,885.0,749.0,136.0,838.2,885.0,1186.8,Magnoliopsida; Eucalyptus L'Hér.; Tracheophyta; Vitis vinifera L.
2004,2004-07-30,Viana do Castelo,Arcos de Valdevez,Miranda,MIRANDA,41.8352451,-8.4993839,NC,471.0,2004-07-30T16:00,26.8,52,16.2,28.4,0.0,0.0,0.0,0.0,0,1015.7,962.9,2,0,3,0,0.5,1.67,9.5,11.5,279,284,29.9,32.5,23.8,20.5,16.1,0.101,0.161,0.241,0.345,1,3600.0,639.9,547.1,92.9,824.4,639.9,880.8,703.0,601.0,102.0,824.4,703.0,967.5,Magnoliopsida; Eucalyptus L'Hér.; Tracheophyta; Quercus L.; Pinus pinaster Aiton
2004,2004-07-31,Viana do Castelo,Arcos de Valdevez,Vale,VALE,41.8612023,-8.3462363,NC,508.0,2004-07-31T22:00,21.2,83,18.2,24.0,0.0,0.0,0.0,0.0,0,1016.1,958.2,4,0,6,0,0.0,0.43,1.5,2.9,14,330,7.9,23.8,24.8,20.5,15.9,0.1,0.159,0.239,0.344,0,0.0,0.0,0.0,0.0,0.0,0.0,0.0,0.0,0.0,0.0,0.0,0.0,0.0,Vitis vinifera L.; Pinus pinaster Aiton; Tracheophyta; Magnoliopsida; Quercus L.; Eucalyptus L'Hér.; Acacia Mill.; 
2004,2004-08-05,Viana do Castelo,Caminha,Azevedo,AZEVEDO,41.83898425,-8.813867019347583,NC,75.0,2004-08-05T10:00,20.7,74,15.8,22.0,0.1,0.1,0.0,0.0,51,1016.0,1007.2,84,67,21,37,0.23,0.64,4.3,5.1,180,176,13.3,22.7,21.4,22.1,18.6,0.184,0.164,0.241,0.342,1,3600.0,381.2,240.6,140.6,326.3,381.2,980.2,347.0,219.0,128.0,326.3,347.0,892.3,Eucalyptus L'Hér.; Pinus pinaster Aiton; Magnoliopsida
2004,2004-07-26,Viana do Castelo,Ponte de Lima,Refóios do Lima,Vacariça,41.8138749,-8.5290981,NC,541.0,2004-07-26T19:00,26.5,47,14.3,26.6,0.0,0.0,0.0,0.0,0,1016.3,955.8,0,0,0,0,0.17,1.82,8.4,13.7,290,300,30.6,29.5,25.2,19.6,15.3,0.103,0.168,0.246,0.348,1,3600.0,118.1,82.7,35.4,524.9,118.1,209.0,187.0,131.0,56.0,524.9,187.0,330.9,Magnoliopsida; Quercus L.; Olea europaea L.; Eucalyptus L'Hér.
2004,2004-07-30,Viana do Castelo,Ponte da Barca,Oleiros,OLEIROS,41.7934885,-8.4332085,NC,172.0,2004-07-30T16:00,27.6,51,16.4,28.6,0.0,0.0,0.0,0.0,0,1016.3,996.7,0,0,0,0,0.51,1.82,13.8,17.1,309,316,25.9,33.4,24.7,21.4,17.2,0.098,0.154,0.23,0.339,1,3600.0,639.4,544.7,94.7,817.7,639.4,884.2,702.0,598.0,104.0,817.7,702.0,970.6,Eucalyptus L'Hér.; Castanea sativa Mill.; Magnoliopsida; Quercus L.; Tracheophyta; Vitis vinifera L.; Pinus pinaster Aiton
2004,2004-08-01,Viana do Castelo,Monção,Longos Vales,LONGOS VALES,42.0496148,-8.4404588,NC,193.0,2004-08-01T02:00,19.2,97,18.7,22.0,0.0,0.0,0.0,0.0,2,1014.5,991.9,68,53,0,69,0.0,0.07,3.4,3.9,108,112,10.1,21.4,24.7,21.2,16.8,0.098,0.151,0.228,0.338,0,0.0,0.0,0.0,0.0,0.0,0.0,0.0,0.0,0.0,0.0,0.0,0.0,0.0,Vitis vinifera L.; Pinus pinaster Aiton; Tracheophyta; Magnoliopsida; Quercus L.; Eucalyptus L'Hér.; Acacia Mill.; 
2004,2004-06-19,Viana do Castelo,Ponte de Lima,Refóios do Lima,Ribeiro de Lourido,41.8141984,-8.5375255,NC,416.0,2004-06-19T19:00,15.9,68,10.0,13.6,0.0,0.0,0.0,0.0,3,1016.0,967.5,82,57,2,98,0.12,0.58,16.3,23.5,317,319,44.6,20.5,20.6,18.8,13.3,0.123,0.21,0.3,0.37,1,3600.0,106.8,55.1,51.7,289.8,106.8,251.9,157.0,81.0,76.0,289.8,157.0,370.3,Magnoliopsida; Quercus L.; Eucalyptus L'Hér.; Olea europaea L.; Tracheophyta
2004,2004-08-01,Viana do Castelo,Viana do Castelo,Afife,AFIFE,41.7756217,-8.8616099,NC,22.0,2004-08-01T10:00,22.6,75,17.9,24.5,0.0,0.0,0.0,0.0,2,1015.2,1012.6,52,38,0,59,0.36,0.69,7.6,8.4,301,301,19.1,27.3,24.1,22.3,18.4,0.085,0.166,0.244,0.343,1,3600.0,631.0,402.7,228.2,540.9,631.0,988.7,575.0,367.0,208.0,540.9,575.0,901.0,Magnoliopsida; Tracheophyta
2004,2004-07-31,Viana do Castelo,Ponte de Lima,Facha,Borgonha,41.7138908,-8.6170908,NC,85.0,2004-07-31T00:00,18.9,92,17.5,20.3,0.0,0.0,0.0,0.0,0,1016.6,1006.6,0,0,0,0,0.0,0.18,9.0,13.7,337,346,15.5,21.4,24.5,21.8,17.9,0.099,0.149,0.222,0.334,0,0.0,0.0,0.0,0.0,0.0,0.0,0.0,0.0,0.0,0.0,0.0,0.0,0.0,Tracheophyta; Pinus pinaster Aiton; Magnoliopsida; Eucalyptus L'Hér.
2004,2004-07-26,Viana do Castelo,Valença,Taião,Taião de Cima,41.9969898,-8.592612183267017,NC,344.0,2004-07-26T14:00,30.1,41,15.4,32.7,0.0,0.0,0.0,0.0,0,1016.9,978.4,17,0,28,0,0.69,2.52,9.4,11.2,274,274,25.6,34.3,24.4,19.8,15.9,0.103,0.16,0.237,0.343,1,3600.0,890.2,776.3,114.0,881.6,890.2,1167.6,914.0,797.0,117.0,881.6,914.0,1198.8,Magnoliopsida; Eucalyptus L'Hér.; Tracheophyta; Vitis vinifera L.; Pinus pinaster Aiton; Acacia Mill.; 
2004,2004-08-01,Viana do Castelo,Viana do Castelo,Vila Fria,VILA FRIA,41.66066935,-8.760610979887733,NC,39.0,2004-08-01T14:00,25.4,60,17.0,28.8,0.0,0.0,0.0,0.0,0,1014.5,1010.0,5,1,0,15,0.59,1.32,7.6,7.6,267,262,20.9,33.9,24.9,22.1,18.2,0.084,0.166,0.243,0.343,1,3600.0,852.9,729.3,123.7,835.3,852.9,1159.3,876.0,749.0,127.0,835.3,876.0,1190.7,Eucalyptus L'Hér.; Tracheophyta; Magnoliopsida
2004,2004-06-21,Viana do Castelo,Arcos de Valdevez,Senharei,SENHAREI,41.8891366,-8.4897069,NC,558.0,2004-06-21T00:00,14.7,81,11.5,13.7,0.0,0.0,0.0,0.0,3,1014.7,950.1,100,95,35,56,0.01,0.31,9.5,14.2,209,210,24.5,16.5,18.4,17.6,12.5,0.125,0.208,0.298,0.369,0,0.0,0.0,0.0,0.0,0.0,0.0,0.0,0.0,0.0,0.0,0.0,0.0,0.0,Magnoliopsida; Quercus L.; Tracheophyta
2004,2004-08-01,Viana do Castelo,Arcos de Valdevez,Gondoriz,Vila Boa,41.8981777,-8.3776674,NC,394.0,2004-08-01T15:00,27.8,50,16.3,30.0,0.0,0.0,0.0,0.0,0,1014.1,969.9,5,0,3,11,0.54,1.87,7.8,8.8,257,251,24.5,33.5,25.2,21.3,16.8,0.1,0.158,0.238,0.344,1,3600.0,698.9,577.1,121.8,735.0,698.9,1042.5,740.0,611.0,129.0,735.0,740.0,1103.8,Magnoliopsida; Eucalyptus L'Hér.
2004,2004-07-26,Viana do Castelo,Ponte de Lima,Gondufe,GONDUFE,41.7680361,-8.5111694,NC,119.0,2004-07-26T17:00,31.5,40,16.3,31.8,0.0,0.0,0.0,0.0,0,1015.7,1002.3,0,0,0,0,0.46,2.77,12.6,17.1,307,314,30.2,34.7,26.6,21.3,17.2,0.099,0.16,0.236,0.342,1,3600.0,464.9,366.9,98.0,706.1,464.9,689.0,536.0,423.0,113.0,706.1,536.0,794.4,Tracheophyta; Magnoliopsida; Eucalyptus L'Hér.; Vitis vinifera L.
2004,2004-08-02,Viana do Castelo,Ponte de Lima,Refóios do Lima,Ranhados,41.7933146,-8.542976,NC,68.0,2004-08-02T15:00,25.4,55,15.7,26.4,0.0,0.0,0.0,0.0,0,1015.5,1007.6,13,6,0,24,0.55,1.46,15.9,18.8,283,287,28.4,33.0,25.4,22.5,18.1,0.097,0.15,0.226,0.337,1,3600.0,769.7,640.3,129.4,816.2,769.7,1041.9,815.0,678.0,137.0,816.2,815.0,1103.3,Magnoliopsida; Eucalyptus L'Hér.; Tracheophyta; Vitis vinifera L.
2004,2004-07-31,Viana do Castelo,Arcos de Valdevez,Gavieira,Tibo,41.95766785,-8.251436237853973,NC,644.0,2004-07-31T12:00,27.9,54,17.9,32.1,0.0,0.0,0.0,0.0,0,1016.0,944.9,0,0,0,0,0.63,1.71,5.4,6.7,222,216,27.0,32.2,23.1,20.1,15.5,0.099,0.159,0.237,0.343,1,3600.0,903.8,789.8,114.0,873.6,903.8,1200.2,880.0,769.0,111.0,873.6,880.0,1168.5,Magnoliopsida; Pinus pinaster Aiton; Quercus L.
2004,2004-08-02,Viana do Castelo,Valença,Gandra,Valajota,42.0055903,-8.6164853,NC,96.0,2004-08-02T18:00,22.1,67,15.8,22.1,0.0,0.0,0.0,0.0,0,1015.4,1004.2,9,1,0,26,0.23,0.87,13.8,18.1,279,283,25.2,28.9,25.2,22.0,17.7,0.098,0.148,0.224,0.336,1,3600.0,273.6,203.6,70.0,620.0,273.6,436.3,348.0,259.0,89.0,620.0,348.0,554.9,Magnoliopsida; Eucalyptus L'Hér.; Tracheophyta; Vitis vinifera L.; Pinus pinaster Aiton; Acacia Mill.; 
2004,2004-08-02,Viana do Castelo,Ponte de Lima,Freixo,Paço,41.6532383,-8.605341047025863,NC,145.0,2004-08-02T00:00,18.0,98,17.6,20.0,0.0,0.0,0.0,0.0,2,1014.4,997.3,59,62,0,10,0.0,0.05,5.2,9.3,326,344,11.2,21.6,25.5,22.0,17.7,0.098,0.153,0.225,0.336,0,0.0,0.0,0.0,0.0,0.0,0.0,0.0,0.0,0.0,0.0,0.0,0.0,0.0,Eucalyptus L'Hér.; Vitis vinifera L.; Tracheophyta; Pinus pinaster Aiton; Magnoliopsida
2004,2004-08-07,Viana do Castelo,Arcos de Valdevez,Rio Frio,Torre,41.8593809,-8.4742031,NC,187.0,2004-08-07T13:00,25.5,62,17.6,28.3,0.0,0.0,0.0,0.0,1,1010.7,989.4,27,2,0,83,0.58,1.25,12.5,15.5,229,226,31.7,29.1,22.6,21.3,17.8,0.178,0.155,0.224,0.335,1,3600.0,883.1,741.1,142.0,824.3,883.1,1195.8,883.0,741.0,142.0,824.3,883.0,1195.7,Magnoliopsida; Quercus L.; Pinales
2004,2004-08-07,Viana do Castelo,Ponte de Lima,Gondufe,GONDUFE,41.7680361,-8.5111694,NC,119.0,2004-08-07T10:00,23.7,70,17.8,26.3,0.0,0.0,0.0,0.0,0,1011.2,997.5,17,17,3,1,0.41,0.88,4.6,4.9,225,216,13.3,26.0,22.2,21.7,18.1,0.169,0.152,0.224,0.335,1,3600.0,692.3,575.8,116.5,783.7,692.3,977.3,630.0,524.0,106.0,783.7,630.0,889.3,Tracheophyta; Magnoliopsida; Eucalyptus L'Hér.; Vitis vinifera L.
2004,2004-02-10,Viana do Castelo,Melgaço,São Paio,Cavaleiro Alvo,42.0931519,-8.2597106,NC,253.0,2004-02-10T22:00,7.1,74,2.9,4.5,0.0,0.0,0.0,0.0,0,1024.1,993.1,0,0,0,0,0.0,0.26,6.7,10.9,74,107,18.4,6.3,9.3,10.0,10.9,0.359,0.372,0.394,0.419,0,0.0,0.0,0.0,0.0,0.0,0.0,0.0,0.0,0.0,0.0,0.0,0.0,0.0,Tracheophyta; Vitis vinifera L.
2004,2004-08-07,Viana do Castelo,Monção,Riba de Mouro,RIBA DE MOURO,42.0359786,-8.3344925,NC,241.0,2004-08-07T01:00,19.2,92,17.9,21.4,0.0,0.0,0.0,0.0,0,1012.1,984.1,0,0,0,0,0.0,0.17,4.3,5.2,85,78,7.9,19.0,22.6,21.1,17.2,0.187,0.156,0.226,0.337,0,0.0,0.0,0.0,0.0,0.0,0.0,0.0,0.0,0.0,0.0,0.0,0.0,0.0,Pinus pinaster Aiton; Magnoliopsida; Quercus L.; Tracheophyta; Vitis vinifera L.; Eucalyptus L'Hér.; 
2004,2004-08-07,Viana do Castelo,Arcos de Valdevez,Padreiro (Santa Cristina),Costa,41.8253325,-8.4924707,NC,435.0,2004-08-07T15:00,25.2,59,16.6,26.9,0.0,0.0,0.0,0.0,1,1009.7,960.9,29,1,0,93,0.51,1.31,11.8,14.8,230,227,37.1,29.1,22.7,20.7,17.0,0.18,0.163,0.233,0.341,1,3600.0,718.1,565.5,152.7,733.5,718.1,1025.4,762.0,600.0,162.0,733.5,762.0,1088.1,Magnoliopsida; Pinus pinaster Aiton; Quercus L.; Eucalyptus L'Hér.; Tracheophyta
2004,2004-08-24,Viana do Castelo,Ponte de Lima,Gondufe,Aguieiro,41.7655223,-8.5126716,NC,154.0,2004-08-24T18:00,21.6,67,15.1,21.2,0.0,0.0,0.0,0.0,1,1019.8,1001.8,22,0,0,72,0.19,0.87,14.8,25.0,326,333,32.8,22.7,20.9,19.5,18.6,0.302,0.335,0.323,0.331,1,3600.0,188.5,119.9,68.6,496.8,188.5,323.1,261.0,166.0,95.0,496.8,261.0,447.3,Magnoliopsida; Eucalyptus L'Hér.; Vitis vinifera L.; Tracheophyta
2004,2004-08-07,Viana do Castelo,Arcos de Valdevez,São Jorge,Lodeiro,41.822374,-8.3769036,NC,77.0,2004-08-07T21:00,20.7,88,18.6,22.4,0.0,0.0,0.0,0.0,0,1008.7,999.7,7,6,1,3,0.0,0.3,10.1,16.9,178,191,16.2,23.4,24.4,22.0,18.4,0.154,0.152,0.223,0.335,0,0.0,0.0,0.0,0.0,0.0,0.0,0.0,0.0,0.0,0.0,0.0,0.0,0.0,Tracheophyta; Pinus pinaster Aiton; Vitis vinifera L.; Magnoliopsida
2004,2004-08-07,Viana do Castelo,Paredes de Coura,Ferreira,Vilares,41.9305132,-8.5932664,NC,297.0,2004-08-07T15:00,24.6,63,17.0,26.5,0.0,0.0,0.0,0.0,1,1009.7,976.0,29,1,0,93,0.5,1.15,11.8,14.8,230,227,37.1,29.3,22.9,21.0,17.5,0.165,0.153,0.222,0.334,1,3600.0,718.6,565.9,152.8,732.8,718.6,1027.1,762.0,600.0,162.0,732.8,762.0,1089.1,Tracheophyta; Eucalyptus L'Hér.; Magnoliopsida; Quercus L.; Pinus pinaster Aiton; 
2004,2004-08-07,Viana do Castelo,Ponte da Barca,Cuide de Vila Verde,Danaia,41.7780312,-8.4172177,NC,71.0,2004-08-07T21:00,20.7,88,18.6,22.4,0.0,0.0,0.0,0.0,0,1008.7,1000.4,7,6,1,3,0.0,0.3,10.1,16.9,178,191,16.2,23.5,24.5,22.0,18.4,0.154,0.152,0.223,0.335,0,0.0,0.0,0.0,0.0,0.0,0.0,0.0,0.0,0.0,0.0,0.0,0.0,0.0,Vitis vinifera L.; Tracheophyta; Magnoliopsida; Pinus pinaster Aiton
2004,2004-08-14,Viana do Castelo,Ponte de Lima,Correlhã,CORRELHÃ,41.7453398,-8.6083863,NC,36.0,2004-08-14T15:00,24.9,72,19.5,27.5,0.0,0.0,0.0,0.0,0,1019.5,1015.3,0,0,0,0,0.49,0.87,16.0,19.9,314,318,24.8,27.3,22.3,21.0,19.1,0.295,0.317,0.221,0.328,1,3600.0,745.1,643.5,101.6,853.1,745.1,1005.7,792.0,684.0,108.0,853.1,792.0,1069.0,Magnoliopsida; Tracheophyta; Vitis vinifera L.; Pinus pinaster Aiton
2004,2004-08-16,Viana do Castelo,Valença,Cerdal,Pedreira,41.9789,-8.622752,NC,50.0,2004-08-16T21:00,18.8,93,17.6,19.3,0.4,0.4,0.0,0.0,51,1010.9,1005.0,73,19,61,63,0.0,0.15,15.4,25.2,196,202,30.2,20.7,22.0,20.9,18.8,0.373,0.334,0.232,0.331,0,0.0,0.0,0.0,0.0,0.0,0.0,0.0,0.0,0.0,0.0,0.0,0.0,0.0,Magnoliopsida; Tracheophyta; Pinus pinaster Aiton; Eucalyptus L'Hér.; Vitis vinifera L.; 
2004,2004-02-12,Viana do Castelo,Caminha,Venade,VENADE,41.85711125,-8.81171916984287,NC,19.0,2004-02-12T21:00,11.4,92,10.2,9.5,0.0,0.0,0.0,0.0,0,1026.5,1024.2,2,2,0,0,0.0,0.11,13.8,20.4,351,351,20.2,11.3,12.4,12.6,13.4,0.349,0.364,0.389,0.417,0,0.0,0.0,0.0,0.0,0.0,0.0,0.0,0.0,0.0,0.0,0.0,0.0,0.0,Pinus pinaster Aiton; Tracheophyta; Magnoliopsida
2004,2004-08-03,Viana do Castelo,Viana do Castelo,Alvarães,ALVARÃES,41.6484261,-8.7396176,NC,75.0,2004-08-03T01:00,19.2,95,18.4,21.9,0.0,0.0,0.0,0.0,1,1016.0,1007.1,41,15,0,92,0.0,0.12,3.1,1.1,126,198,6.1,21.0,24.4,22.2,18.2,0.099,0.147,0.218,0.332,0,0.0,0.0,0.0,0.0,0.0,0.0,0.0,0.0,0.0,0.0,0.0,0.0,0.0,Tracheophyta; Eucalyptus L'Hér.; Pinus pinaster Aiton; Magnoliopsida
2004,2004-08-07,Viana do Castelo,Valença,Cerdal,Gondim,41.9671706,-8.6062365,NC,166.0,2004-08-07T22:00,20.0,90,18.3,21.3,0.0,0.0,0.0,0.0,1,1008.0,988.7,49,20,3,97,0.0,0.23,12.1,20.3,170,174,28.4,22.1,23.7,21.5,18.0,0.169,0.155,0.224,0.335,0,0.0,0.0,0.0,0.0,0.0,0.0,0.0,0.0,0.0,0.0,0.0,0.0,0.0,Magnoliopsida; Tracheophyta; Pinus pinaster Aiton; Eucalyptus L'Hér.; Vitis vinifera L.; 
2004,2004-08-03,Viana do Castelo,Viana do Castelo,Alvarães,Costeira,41.6272244,-8.7482233,NC,43.0,2004-08-03T09:00,21.0,92,19.6,23.2,0.4,0.4,0.0,0.0,51,1015.6,1010.5,100,100,25,98,0.09,0.21,10.0,14.2,201,207,23.0,22.8,23.6,22.4,18.4,0.104,0.147,0.219,0.332,1,0.0,157.0,3.5,153.5,5.7,157.0,803.6,136.0,3.0,133.0,5.7,136.0,696.2,Tracheophyta; Eucalyptus L'Hér.; Pinus pinaster Aiton
2004,2004-08-26,Viana do Castelo,Valença,Ganfei,Vilar,42.0253228,-8.6083015,NC,246.0,2004-08-26T01:00,13.7,89,12.0,13.0,0.0,0.0,0.0,0.0,0,1022.6,993.2,0,0,0,0,0.0,0.17,9.3,23.3,28,32,27.7,16.0,19.2,19.1,18.1,0.287,0.318,0.288,0.331,0,0.0,0.0,0.0,0.0,0.0,0.0,0.0,0.0,0.0,0.0,0.0,0.0,0.0,Magnoliopsida; Eucalyptus L'Hér.; Pinus pinaster Aiton; Tracheophyta; Vitis vinifera L.; ; Acacia Mill.
2004,2004-07-31,Viana do Castelo,Paredes de Coura,Ferreira,Venade,41.9456186,-8.5648029,NC,525.0,2004-07-31T14:00,27.3,54,17.2,29.0,0.0,0.0,0.0,0.0,0,1015.9,957.4,6,3,4,3,0.52,1.67,11.3,13.8,233,231,30.2,32.6,23.1,19.8,15.4,0.097,0.153,0.231,0.34,1,3600.0,676.4,483.7,192.7,554.9,676.4,1157.2,695.0,497.0,198.0,554.9,695.0,1189.1,Tracheophyta; Eucalyptus L'Hér.; Magnoliopsida; Quercus L.; Pinus pinaster Aiton; 
2004,2004-08-07,Viana do Castelo,Valença,Cerdal,Gondelim,41.966323,-8.5815508,NC,480.0,2004-08-07T14:00,24.4,59,15.9,26.5,0.0,0.0,0.0,0.0,1,1009.8,955.9,20,0,0,68,0.57,1.25,12.1,15.1,243,242,36.4,28.4,21.5,19.9,16.2,0.171,0.155,0.225,0.336,1,3600.0,849.9,727.4,122.5,848.1,849.9,1140.8,874.0,748.0,126.0,848.1,874.0,1173.1,Magnoliopsida; Tracheophyta; Pinus pinaster Aiton; Eucalyptus L'Hér.; Vitis vinifera L.; 
2004,2004-08-07,Viana do Castelo,Valença,Verdoejo,VERDOEJO,42.044096550000006,-8.588472638220246,NC,47.0,2004-08-07T16:00,24.4,68,18.2,26.1,0.0,0.0,0.0,0.0,1,1009.2,1003.8,28,1,0,91,0.41,0.97,12.8,17.0,218,216,28.8,29.3,23.9,21.8,18.4,0.167,0.152,0.221,0.334,1,3600.0,581.5,433.7,147.9,672.7,581.5,857.6,641.0,478.0,163.0,672.7,641.0,945.2,Magnoliopsida; Vitis vinifera L.; Pinus pinaster Aiton; Tracheophyta; Eucalyptus L'Hér.; 
2004,2004-08-15,Viana do Castelo,Viana do Castelo,Vila Fria,Outeiro,41.6625255,-8.7617649,NC,44.0,2004-08-15T17:00,22.1,81,18.6,23.5,0.0,0.0,0.0,0.0,2,1018.2,1013.0,61,13,34,96,0.19,0.52,12.1,16.7,210,213,29.2,25.0,22.9,20.9,19.0,0.274,0.312,0.249,0.338,1,3600.0,241.1,97.6,143.5,211.0,241.1,617.1,284.0,115.0,169.0,211.0,284.0,726.8,Eucalyptus L'Hér.; Tracheophyta; Magnoliopsida; Pinus pinaster Aiton
2004,2004-08-07,Viana do Castelo,Ponte da Barca,Lindoso,LINDOSO,41.8638761,-8.2185888,NC,349.0,2004-08-07T23:00,18.5,95,17.7,20.1,0.0,0.0,0.0,0.0,2,1007.9,967.7,74,38,16,99,0.0,0.1,8.1,16.0,167,172,29.5,21.1,23.6,21.3,17.5,0.179,0.158,0.226,0.343,0,0.0,0.0,0.0,0.0,0.0,0.0,0.0,0.0,0.0,0.0,0.0,0.0,0.0,Magnoliopsida; Eucalyptus L'Hér.; Vitis vinifera L.; Tracheophyta
2004,2004-08-08,Viana do Castelo,Ponte da Barca,Cuide de Vila Verde,Danaia,41.7780312,-8.4172177,NC,71.0,2004-08-08T00:00,19.6,95,18.7,20.2,0.0,0.0,0.0,0.0,3,1007.5,999.2,100,100,20,100,0.0,0.12,17.5,26.6,161,167,25.6,21.5,24.1,22.1,18.5,0.154,0.152,0.223,0.335,0,0.0,0.0,0.0,0.0,0.0,0.0,0.0,0.0,0.0,0.0,0.0,0.0,0.0,Vitis vinifera L.; Tracheophyta; Magnoliopsida; Pinus pinaster Aiton
2004,2004-02-13,Viana do Castelo,Melgaço,Castro Laboreiro,Portela,42.0305322,-8.1593375,NC,941.0,2004-02-13T11:00,10.1,61,2.9,7.8,0.0,0.0,0.0,0.0,0,1025.6,916.7,2,0,0,8,0.21,0.49,5.2,6.6,115,112,19.8,7.7,4.9,7.3,8.9,0.408,0.429,0.464,0.496,1,3600.0,509.6,427.3,82.3,873.2,509.6,686.9,458.0,384.0,74.0,873.2,458.0,617.3,Quercus L.; Magnoliopsida
2004,2004-08-01,Viana do Castelo,Ponte de Lima,Vitorino das Donas,Barco,41.7311811,-8.6482913,NC,32.0,2004-08-01T17:00,26.4,53,16.1,27.2,0.0,0.0,0.0,0.0,0,1013.8,1010.1,5,0,0,18,0.38,1.61,8.5,8.4,282,277,20.5,32.5,25.9,22.3,18.4,0.099,0.147,0.219,0.333,1,3600.0,462.8,379.1,83.8,747.7,462.8,673.2,536.0,439.0,97.0,747.7,536.0,779.7,Tracheophyta; Pinus pinaster Aiton; Magnoliopsida; Eucalyptus L'Hér.
2004,2004-08-03,Viana do Castelo,Viana do Castelo,Carvoeiro,Monte de Padela,41.6509991,-8.6636379,NC,98.0,2004-08-03T10:00,20.9,92,19.5,23.0,1.5,1.5,0.0,0.0,61,1015.5,1004.0,100,100,39,98,0.14,0.2,10.5,14.2,202,204,27.0,23.2,23.3,22.1,18.0,0.121,0.155,0.229,0.337,1,0.0,244.8,6.6,238.2,8.9,244.8,986.6,223.0,6.0,217.0,8.9,223.0,898.7,Tracheophyta; Eucalyptus L'Hér.; Vitis vinifera L.; Magnoliopsida; Pinus pinaster Aiton
2004,2004-08-24,Viana do Castelo,Ponte de Lima,Ribeira,Penedo do Cavalo,41.7633736,-8.555046,NC,85.0,2004-08-24T20:00,18.5,79,14.8,17.2,0.0,0.0,0.0,0.0,0,1020.3,1010.2,6,0,0,19,0.06,0.45,20.2,33.5,341,348,37.8,20.3,21.2,20.1,19.0,0.298,0.329,0.298,0.331,0,0.0,0.0,0.0,0.0,0.0,0.0,0.0,3.0,1.0,2.0,16.1,3.0,24.7,Tracheophyta; Magnoliopsida; Eucalyptus L'Hér.; Pinus pinaster Aiton
2004,2004-08-27,Viana do Castelo,Arcos de Valdevez,Eiras,Barro,41.9275293,-8.4695452,NC,329.0,2004-08-27T15:00,25.1,64,17.8,27.6,0.0,0.0,0.0,0.0,0,1016.9,979.4,0,0,0,0,0.5,1.14,10.6,13.4,325,329,26.3,26.2,20.4,18.9,18.0,0.259,0.305,0.306,0.331,1,3600.0,711.1,614.8,96.2,871.2,711.1,946.0,761.0,658.0,103.0,871.2,761.0,1012.4,Quercus L.; Magnoliopsida; Eucalyptus L'Hér.; Pinus pinaster Aiton; Tracheophyta; 
2004,2004-08-27,Viana do Castelo,Ponte de Lima,Refóios do Lima,Cedofeita,41.7933146,-8.542976,NC,68.0,2004-08-27T16:00,25.9,66,19.1,26.6,0.0,0.0,0.0,0.0,0,1016.3,1008.4,0,0,0,0,0.42,1.13,21.8,28.8,329,334,34.6,27.0,21.9,20.1,19.2,0.259,0.306,0.32,0.331,1,3600.0,564.2,478.5,85.7,831.8,564.2,771.1,632.0,536.0,96.0,831.8,632.0,863.7,Magnoliopsida; Eucalyptus L'Hér.; Tracheophyta; Vitis vinifera L.
2004,2004-08-23,Viana do Castelo,Ponte de Lima,Gondufe,Paraíso,41.7655223,-8.5126716,NC,154.0,2004-08-23T18:00,19.8,75,15.2,19.5,0.0,0.0,0.0,0.0,0,1017.9,999.8,1,1,0,0,0.17,0.58,13.7,19.6,315,319,32.8,22.5,21.0,19.5,18.5,0.319,0.346,0.324,0.331,1,3600.0,204.1,153.3,50.8,623.2,204.1,329.1,281.0,211.0,70.0,623.2,281.0,453.0,Magnoliopsida; Eucalyptus L'Hér.; Vitis vinifera L.; Tracheophyta
2004,2004-07-28,Viana do Castelo,Paredes de Coura,Ferreira,Centieira,41.9305132,-8.5932664,NC,297.0,2004-07-28T14:00,23.8,59,15.3,25.5,0.0,0.0,0.0,0.0,1,1015.8,981.8,45,50,0,0,0.56,1.21,12.4,15.4,306,307,32.8,30.8,23.8,21.0,16.7,0.101,0.157,0.231,0.34,1,3600.0,850.3,693.5,156.8,789.7,850.3,1165.0,873.0,712.0,161.0,789.7,873.0,1196.1,Tracheophyta; Eucalyptus L'Hér.; Magnoliopsida; Quercus L.; Pinus pinaster Aiton; 
2004,2004-08-28,Viana do Castelo,Arcos de Valdevez,Couto,COUTO,41.8737745,-8.4065703,NC,135.0,2004-08-28T21:00,18.3,90,16.6,18.4,0.0,0.0,0.0,0.0,0,1018.3,1002.3,0,0,0,0,0.01,0.21,15.5,27.1,335,341,31.0,20.2,21.5,19.9,18.9,0.239,0.289,0.284,0.33,0,0.0,0.0,0.0,0.0,0.0,0.0,0.0,0.0,0.0,0.0,0.0,0.0,0.0,Pinus pinaster Aiton; Eucalyptus L'Hér.; Magnoliopsida; Tracheophyta; Vitis vinifera L.
2004,2004-08-02,Viana do Castelo,Arcos de Valdevez,Eiras,Andevizo \ POV,41.9275293,-8.4695452,NC,329.0,2004-08-02T15:00,24.1,57,15.1,25.4,0.0,0.0,0.0,0.0,0,1015.3,977.8,3,0,0,10,0.52,1.28,12.1,14.8,280,283,33.1,31.8,24.4,21.3,16.8,0.097,0.151,0.228,0.338,1,3600.0,757.3,618.5,138.8,789.9,757.3,1039.9,802.0,655.0,147.0,789.9,802.0,1101.4,Quercus L.; Magnoliopsida; Eucalyptus L'Hér.; Pinus pinaster Aiton; Tracheophyta; 
2004,2004-02-13,Viana do Castelo,Paredes de Coura,Porreiras,PORREIRAS,41.9623936,-8.553217477186966,NC,563.0,2004-02-13T22:00,6.4,90,5.0,4.8,0.0,0.0,0.0,0.0,1,1024.5,956.8,29,0,0,97,0.0,0.09,2.6,1.6,74,207,7.6,5.4,8.1,8.4,9.4,0.347,0.36,0.385,0.417,0,0.0,0.0,0.0,0.0,0.0,0.0,0.0,0.0,0.0,0.0,0.0,0.0,0.0,Quercus L.; Magnoliopsida; Eucalyptus L'Hér.; Pinus pinaster Aiton; Tracheophyta; 
2004,2004-08-04,Viana do Castelo,Valença,Arão,ARÂO,42.0055872,-8.645649902791623,NC,8.0,2004-08-04T22:00,18.0,90,16.3,19.3,0.0,0.0,0.0,0.0,0,1017.4,1016.4,9,5,7,0,0.0,0.21,6.2,7.8,339,338,13.0,20.4,23.1,22.4,18.4,0.23,0.152,0.223,0.335,0,0.0,0.0,0.0,0.0,0.0,0.0,0.0,0.0,0.0,0.0,0.0,0.0,0.0,Tracheophyta; Magnoliopsida; Eucalyptus L'Hér.; Pinus pinaster Aiton
2004,2004-08-28,Viana do Castelo,Arcos de Valdevez,Cabreiro,Branda de Real,41.9327534,-8.4151051,NC,150.0,2004-08-28T14:00,24.9,63,17.3,25.6,0.0,0.0,0.0,0.0,0,1017.7,1000.4,7,0,0,24,0.51,1.17,21.4,28.7,333,338,41.8,26.0,20.6,19.8,18.8,0.244,0.292,0.285,0.33,1,3600.0,766.2,613.3,152.8,772.4,766.2,1064.8,792.0,634.0,158.0,772.4,792.0,1100.7,Magnoliopsida; Pinus pinaster Aiton; Eucalyptus L'Hér.
2004,2004-08-26,Viana do Castelo,Arcos de Valdevez,Eiras,Barro,41.9275293,-8.4695452,NC,329.0,2004-08-26T05:00,12.4,92,11.2,11.4,0.0,0.0,0.0,0.0,0,1022.4,983.1,20,22,0,0,0.0,0.11,9.7,22.3,51,52,32.8,14.7,18.2,18.9,17.9,0.29,0.321,0.308,0.332,0,0.0,0.0,0.0,0.0,0.0,0.0,0.0,0.0,0.0,0.0,0.0,0.0,0.0,Quercus L.; Magnoliopsida; Eucalyptus L'Hér.; Pinus pinaster Aiton; Tracheophyta; 
2004,2004-08-22,Viana do Castelo,Arcos de Valdevez,Paçô,Prova,41.8124731,-8.420004,NC,52.0,2004-08-22T16:00,22.9,58,14.2,22.6,0.0,0.0,0.0,0.0,1,1016.0,1009.9,29,0,0,98,0.34,1.17,11.1,12.8,306,310,22.7,24.3,20.9,20.2,19.2,0.337,0.359,0.324,0.331,1,3600.0,442.3,198.3,244.0,332.9,442.3,796.5,493.0,221.0,272.0,332.9,493.0,887.9,Magnoliopsida; Vitis vinifera L.; Pinus pinaster Aiton; Eucalyptus L'Hér.; Tracheophyta
2004,2004-08-02,Viana do Castelo,Ponte de Lima,Facha,Borgonha,41.7138908,-8.6170908,NC,85.0,2004-08-02T18:00,22.7,67,16.3,22.5,0.0,0.0,0.0,0.0,0,1015.4,1005.5,9,2,0,24,0.24,0.91,16.4,21.0,279,282,26.6,28.9,25.2,22.1,18.1,0.099,0.147,0.218,0.332,1,3600.0,273.9,207.2,66.7,633.0,273.9,434.8,349.0,264.0,85.0,633.0,349.0,553.9,Tracheophyta; Pinus pinaster Aiton; Magnoliopsida; Eucalyptus L'Hér.
2004,2004-08-02,Viana do Castelo,Ponte da Barca,Touvedo (São Lourenço),São Lourenço,41.79690175,-8.35457776679388,NC,219.0,2004-08-02T19:00,21.5,70,15.8,21.4,0.0,0.0,0.0,0.0,0,1015.4,990.0,3,3,0,1,0.13,0.77,14.2,19.8,279,280,31.3,27.2,25.2,21.7,17.1,0.096,0.15,0.229,0.34,1,3600.0,98.9,62.3,36.6,448.7,98.9,184.5,165.0,104.0,61.0,448.7,165.0,307.9,Eucalyptus L'Hér.; Magnoliopsida; Pinus pinaster Aiton; Vitis vinifera L.
2004,2004-08-06,Viana do Castelo,Arcos de Valdevez,Rio Frio,São Vicente,41.8593809,-8.4742031,NC,187.0,2004-08-06T18:00,23.9,72,18.5,24.9,0.0,0.0,0.0,0.0,0,1012.5,991.0,0,0,0,0,0.23,0.84,14.3,19.9,319,325,26.6,27.0,23.3,21.3,17.7,0.19,0.155,0.225,0.336,1,3600.0,257.2,192.7,64.5,613.7,257.2,417.6,331.0,248.0,83.0,613.7,331.0,537.4,Magnoliopsida; Quercus L.; Pinales
2004,2004-02-13,Viana do Castelo,Ponte da Barca,Nogueira,NOGUEIRA,41.7899908,-8.4200146,NC,94.0,2004-02-13T14:00,17.2,54,7.7,15.8,0.0,0.0,0.0,0.0,1,1024.0,1012.7,29,1,0,95,0.32,0.91,6.4,7.1,254,246,15.8,15.5,10.0,10.8,11.9,0.347,0.361,0.386,0.418,1,3600.0,557.1,464.7,92.4,868.6,557.1,751.0,579.0,483.0,96.0,868.6,579.0,780.5,Tracheophyta; Vitis vinifera L.; Quercus L.; Magnoliopsida
2004,2004-06-20,Viana do Castelo,Arcos de Valdevez,Cabana Maior,CABANA MAIOR,41.8745312,-8.342164337313434,NC,492.0,2004-06-20T17:00,17.7,58,9.3,15.8,0.0,0.0,0.0,0.0,3,1014.5,957.8,100,100,32,0,0.21,0.85,11.6,16.0,277,278,34.2,21.9,19.2,18.1,12.9,0.122,0.208,0.298,0.37,1,1978.72,249.0,68.1,180.8,126.0,249.0,716.5,285.0,78.0,207.0,126.0,285.0,820.2,Magnoliopsida; Tracheophyta; Quercus L.
2004,2004-08-01,Viana do Castelo,Viana do Castelo,Torre,TORRE,41.7210814,-8.715555675892642,NC,31.0,2004-08-01T20:00,21.1,82,17.9,22.9,0.0,0.0,0.0,0.0,0,1014.4,1010.8,1,1,0,0,0.03,0.46,7.9,12.0,317,319,18.7,26.4,25.9,22.2,18.3,0.084,0.165,0.243,0.343,0,923.71,0.0,0.0,0.0,0.0,0.0,0.0,31.0,15.0,16.0,137.2,31.0,86.6,Pinus pinaster Aiton; Tracheophyta; Eucalyptus L'Hér.; Magnoliopsida; ; Quercus L.
2004,2004-08-01,Viana do Castelo,Caminha,Argela,ARGELA,41.8671641,-8.7916363,NC,31.0,2004-08-01T21:00,20.2,90,18.4,22.3,0.0,0.0,0.0,0.0,0,1014.8,1011.1,3,3,0,1,0.0,0.24,6.8,12.2,335,336,14.0,24.7,26.1,22.6,18.6,0.079,0.164,0.243,0.343,0,0.0,0.0,0.0,0.0,0.0,0.0,0.0,0.0,0.0,0.0,0.0,0.0,0.0,Tracheophyta; Magnoliopsida; Pinus pinaster Aiton; Eucalyptus L'Hér.
2004,2004-02-08,Viana do Castelo,Melgaço,Roussas,Paçô,42.1205423,-8.2447086,NC,356.0,2004-02-08T21:00,8.6,84,6.1,6.7,0.0,0.0,0.0,0.0,1,1025.9,982.7,41,12,0,100,0.0,0.18,5.8,9.4,94,67,15.1,8.5,10.3,10.0,11.4,0.42,0.437,0.47,0.494,0,0.0,0.0,0.0,0.0,0.0,0.0,0.0,0.0,0.0,0.0,0.0,0.0,0.0,Magnoliopsida; Tracheophyta; Quercus L.; Vitis vinifera L.; Pinus pinaster Aiton; Eucalyptus L'Hér.
2004,2004-08-29,Viana do Castelo,Caminha,Vile,VILE,41.8051957,-8.840439744150522,NC,14.0,2004-08-29T01:00,17.1,95,16.3,17.0,0.0,0.0,0.0,0.0,0,1018.6,1016.9,1,1,0,0,0.0,0.1,15.5,25.7,338,342,27.0,18.6,21.1,20.5,19.6,0.221,0.287,0.29,0.336,0,0.0,0.0,0.0,0.0,0.0,0.0,0.0,0.0,0.0,0.0,0.0,0.0,0.0,Magnoliopsida; Pinus pinaster Aiton; Tracheophyta
2004,2004-08-29,Viana do Castelo,Monção,Valadares,Bemposta,42.07767675,-8.374620302382713,NC,57.0,2004-08-29T02:00,14.8,99,14.6,15.5,0.0,0.0,0.0,0.0,0,1018.0,1011.1,10,11,0,0,0.0,0.02,5.8,13.8,7,6,18.4,17.3,20.4,19.9,18.9,0.24,0.287,0.28,0.329,0,0.0,0.0,0.0,0.0,0.0,0.0,0.0,0.0,0.0,0.0,0.0,0.0,0.0,Magnoliopsida; Vitis vinifera L.; Eucalyptus L'Hér.; Pinales; Pinus pinaster Aiton; Tracheophyta; 
2004,2004-08-04,Viana do Castelo,Caminha,Vilar de Mouros,Marinhas,41.8786123,-8.8040828,NC,12.0,2004-08-04T20:00,19.1,80,15.5,20.0,0.0,0.0,0.0,0.0,0,1016.5,1015.1,3,3,0,0,0.03,0.45,7.0,11.4,325,325,23.0,22.6,23.7,22.6,19.0,0.185,0.164,0.241,0.342,0,566.01,0.0,0.0,0.0,0.0,0.0,0.0,25.0,12.0,13.0,115.1,25.0,80.0,Pinus pinaster Aiton; Magnoliopsida; Tracheophyta; Eucalyptus L'Hér.
2004,2004-08-21,Viana do Castelo,Ponte de Lima,Cabaços,Trasmonde,41.6944005,-8.5756282,NC,270.0,2004-08-21T23:00,13.9,96,13.3,13.7,0.0,0.0,0.0,0.0,1,1018.3,986.2,26,0,0,86,0.0,0.07,8.4,10.5,31,31,13.7,16.3,19.3,19.2,17.9,0.354,0.368,0.314,0.33,0,0.0,0.0,0.0,0.0,0.0,0.0,0.0,0.0,0.0,0.0,0.0,0.0,0.0,Eucalyptus L'Hér.; Pinus pinaster Aiton; Tracheophyta; Olea europaea L.
2004,2004-08-25,Viana do Castelo,Viana do Castelo,Moreira de Geraz do Lima,MOREIRA DE GERAZ DO LIMA,41.72042285,-8.68048110506025,NC,7.0,2004-08-25T00:00,16.5,87,14.3,15.3,0.0,0.0,0.0,0.0,0,1021.1,1020.3,0,0,0,0,0.01,0.25,17.2,29.6,349,350,29.5,18.2,20.8,20.6,19.5,0.284,0.324,0.292,0.337,0,0.0,0.0,0.0,0.0,0.0,0.0,0.0,0.0,0.0,0.0,0.0,0.0,0.0,Vitis vinifera L.; Tracheophyta; Magnoliopsida; Pinus pinaster Aiton
2004,2004-08-14,Viana do Castelo,Ponte da Barca,Cuide de Vila Verde,Danaia,41.7780312,-8.4172177,NC,71.0,2004-08-14T21:00,20.2,96,19.6,22.2,0.0,0.0,0.0,0.0,0,1020.4,1012.0,4,4,0,0,0.0,0.09,11.3,20.1,329,333,20.9,21.9,22.7,20.9,18.8,0.325,0.346,0.252,0.333,0,0.0,0.0,0.0,0.0,0.0,0.0,0.0,0.0,0.0,0.0,0.0,0.0,0.0,Vitis vinifera L.; Tracheophyta; Magnoliopsida; Pinus pinaster Aiton
2004,2004-08-30,Viana do Castelo,Viana do Castelo,Carreço,Troviscoso,41.7486285,-8.8622634,NC,41.0,2004-08-30T20:00,19.6,80,16.2,19.8,0.0,0.0,0.0,0.0,0,1017.2,1012.3,0,0,0,0,0.05,0.45,13.5,20.1,335,345,21.2,21.4,22.0,20.4,19.4,0.198,0.274,0.288,0.335,0,0.0,0.0,0.0,0.0,0.0,0.0,0.0,0.0,0.0,0.0,0.0,0.0,5.4,Tracheophyta; Eucalyptus L'Hér.; Magnoliopsida
2004,2004-07-28,Viana do Castelo,Paredes de Coura,Ferreira,FERREIRA,41.9305132,-8.5932664,NC,297.0,2004-07-28T15:00,23.5,61,15.5,24.7,0.0,0.0,0.0,0.0,0,1015.9,981.9,14,15,0,0,0.52,1.14,14.6,18.4,308,310,36.7,30.9,24.0,21.0,16.7,0.101,0.157,0.231,0.339,1,3600.0,776.3,650.6,125.8,819.5,776.3,1053.2,821.0,688.0,133.0,819.5,821.0,1113.8,Tracheophyta; Eucalyptus L'Hér.; Magnoliopsida; Quercus L.; Pinus pinaster Aiton; 
2004,2004-07-28,Viana do Castelo,Arcos de Valdevez,Gondoriz,Ferreiros,41.9110284,-8.4075451,NC,389.0,2004-07-28T15:00,24.3,57,15.1,25.3,0.0,0.0,0.0,0.0,0,1015.9,971.7,14,15,0,0,0.54,1.31,14.6,18.4,308,310,36.7,31.2,24.0,21.0,16.5,0.102,0.165,0.244,0.346,1,3600.0,776.1,650.4,125.7,820.2,776.1,1052.0,821.0,688.0,133.0,820.2,821.0,1112.8,Pinus pinaster Aiton; Magnoliopsida; Tracheophyta; Vitis vinifera L.; Quercus L.
2004,2004-08-23,Viana do Castelo,Ponte de Lima,Refóios do Lima,REFÓIOS DO LIMA,41.779262,-8.5633595,NC,28.0,2004-08-23T20:00,18.5,90,16.7,18.5,0.0,0.0,0.0,0.0,0,1018.7,1015.4,2,2,0,0,0.03,0.22,15.8,25.6,330,334,27.4,20.7,21.7,20.5,19.4,0.315,0.339,0.299,0.331,0,0.0,0.0,0.0,0.0,0.0,0.0,0.0,4.0,1.0,3.0,15.5,4.0,27.8,Tracheophyta; Magnoliopsida; Pinus pinaster Aiton
2004,2004-08-24,Viana do Castelo,Melgaço,Paços,Viladraque,42.1310068,-8.2109377,NC,168.0,2004-08-24T18:00,22.6,59,14.3,22.4,0.0,0.0,0.0,0.0,0,1021.7,1002.1,0,0,0,0,0.2,1.11,11.5,17.0,2,6,25.2,23.5,21.3,20.0,18.4,0.368,0.411,0.342,0.412,1,3600.0,202.3,153.3,48.9,645.8,202.3,317.8,281.0,213.0,68.0,645.8,281.0,441.5,Tracheophyta; Vitis vinifera L.; Castanea sativa Mill.; Pinus pinaster Aiton; Quercus L.
2004,2004-08-02,Viana do Castelo,Arcos de Valdevez,Alvora,Fontes,41.937884,-8.441689,NC,201.0,2004-08-02T00:00,18.9,97,18.4,20.9,0.0,0.0,0.0,0.0,2,1014.6,991.1,73,77,0,11,0.0,0.07,7.3,11.6,349,355,9.7,21.6,25.5,21.8,17.3,0.098,0.151,0.227,0.338,0,0.0,0.0,0.0,0.0,0.0,0.0,0.0,0.0,0.0,0.0,0.0,0.0,0.0,Tracheophyta; Eucalyptus L'Hér.; Magnoliopsida
2004,2004-07-28,Viana do Castelo,Vila Nova de Cerveira,Reboreda,Bemposta,41.9610361,-8.7107218,NC,50.0,2004-07-28T16:00,23.5,64,16.3,23.3,0.0,0.0,0.0,0.0,0,1016.1,1010.3,1,0,0,3,0.43,1.04,20.5,26.2,321,323,37.4,31.0,25.1,21.9,17.6,0.099,0.154,0.23,0.34,1,3600.0,631.2,506.3,125.0,754.0,631.2,890.7,692.0,555.0,137.0,754.0,692.0,976.5,Tracheophyta; Pinus pinaster Aiton; Eucalyptus L'Hér.; Magnoliopsida
2004,2004-07-28,Viana do Castelo,Valença,Gandra,Tuido,42.0055903,-8.6164853,NC,96.0,2004-07-28T18:00,22.0,66,15.2,20.8,0.0,0.0,0.0,0.0,0,1016.6,1005.4,1,0,0,2,0.24,0.91,20.0,26.6,322,324,38.2,28.2,25.0,21.6,17.3,0.099,0.154,0.23,0.339,1,3600.0,274.0,196.2,77.8,573.4,274.0,453.8,345.0,247.0,98.0,573.4,345.0,571.4,Magnoliopsida; Eucalyptus L'Hér.; Tracheophyta; Vitis vinifera L.; Pinus pinaster Aiton; Acacia Mill.; 
2004,2004-09-01,Viana do Castelo,Ponte de Lima,Refóios do Lima,REFÓIOS DO LIMA,41.779262,-8.5633595,NC,28.0,2004-09-01T15:00,21.9,76,17.5,22.5,0.0,0.0,0.0,0.0,3,1013.4,1010.1,81,86,0,12,0.33,0.63,14.8,18.5,288,291,28.4,24.8,21.3,20.7,19.6,0.225,0.268,0.292,0.329,1,3600.0,506.1,292.7,213.4,425.5,506.1,924.2,543.0,314.0,229.0,425.5,543.0,991.6,Tracheophyta; Magnoliopsida; Pinus pinaster Aiton
2004,2004-08-30,Viana do Castelo,Vila Nova de Cerveira,Campos,CAMPOS,41.97684075,-8.694188948824348,NC,14.0,2004-08-30T16:00,25.4,64,18.1,26.3,0.0,0.0,0.0,0.0,0,1017.5,1015.9,0,0,0,0,0.4,1.17,16.1,21.4,318,324,26.3,27.2,22.2,20.3,19.3,0.214,0.273,0.276,0.328,1,3600.0,529.0,430.1,98.9,764.4,529.0,755.3,594.0,483.0,111.0,764.4,594.0,848.1,Tracheophyta; Pinus pinaster Aiton; Eucalyptus L'Hér.; Magnoliopsida
2004,2004-08-06,Viana do Castelo,Valença,São Pedro da Torre,Monte,41.9936143,-8.666368,NC,18.0,2004-08-06T17:00,25.7,67,19.1,26.6,0.0,0.0,0.0,0.0,0,1012.4,1010.3,2,1,0,2,0.34,1.08,17.0,22.6,324,326,32.8,28.9,23.9,22.1,18.5,0.186,0.153,0.222,0.334,1,3600.0,416.2,306.1,110.1,620.3,416.2,656.2,484.0,356.0,128.0,620.3,484.0,763.2,Pinus pinaster Aiton; Tracheophyta; Eucalyptus L'Hér.; Magnoliopsida; 
2004,2004-09-02,Viana do Castelo,Ponte de Lima,Arcos,ARCOS,41.767579,-8.635575703251872,NC,16.0,2004-09-02T01:00,17.1,98,16.8,18.9,0.0,0.0,0.0,0.0,3,1012.9,1011.0,100,47,72,99,0.0,0.04,4.6,7.8,315,326,9.4,19.0,21.0,20.8,19.6,0.227,0.267,0.292,0.329,0,0.0,0.0,0.0,0.0,0.0,0.0,0.0,0.0,0.0,0.0,0.0,0.0,0.0,Magnoliopsida; Eucalyptus L'Hér.
2004,2004-02-11,Viana do Castelo,Ponte da Barca,Vila Chã (são João Baptista),Paradela,41.7946883,-8.301571,NC,247.0,2004-02-11T13:00,16.9,44,4.4,15.5,0.0,0.0,0.0,0.0,0,1024.8,995.5,0,0,0,0,0.32,1.08,2.1,3.1,149,135,13.7,13.9,8.6,10.0,10.9,0.355,0.368,0.39,0.42,1,3600.0,588.5,504.0,84.5,901.5,588.5,785.4,585.0,501.0,84.0,901.5,585.0,780.7,Pinus pinaster Aiton; Magnoliopsida
2004,2004-02-14,Viana do Castelo,Melgaço,Alvaredo,ALVAREDO,42.0928952,-8.313274891386133,NC,97.0,2004-02-14T14:00,14.8,68,8.8,13.7,0.0,0.0,0.0,0.0,1,1023.2,1011.5,24,21,0,17,0.29,0.55,5.8,7.1,240,240,19.8,14.8,9.7,10.5,11.9,0.346,0.36,0.385,0.417,1,3600.0,535.6,415.4,120.2,776.4,535.6,750.8,557.0,432.0,125.0,776.4,557.0,780.8,Vitis vinifera L.; Pinus pinaster Aiton; Eucalyptus L'Hér.; Tracheophyta; Magnoliopsida
2004,2004-07-29,Viana do Castelo,Ponte de Lima,Refóios do Lima,Ranhados,41.7933146,-8.542976,NC,68.0,2004-07-29T16:00,26.1,57,16.9,26.1,0.0,0.0,0.0,0.0,0,1017.1,1009.2,20,0,7,51,0.49,1.46,21.4,28.0,311,314,38.9,32.3,24.7,22.1,17.7,0.098,0.155,0.231,0.34,1,3600.0,628.8,512.1,116.6,766.3,628.8,886.8,690.0,562.0,128.0,766.3,690.0,973.1,Magnoliopsida; Eucalyptus L'Hér.; Tracheophyta; Vitis vinifera L.
2004,2004-09-02,Viana do Castelo,Viana do Castelo,Anha,Valada,41.6659709,-8.7959069,NC,35.0,2004-09-02T16:00,21.9,76,17.4,22.4,0.0,0.0,0.0,0.0,0,1012.8,1008.7,13,5,6,15,0.28,0.64,15.1,20.8,335,342,25.9,25.0,21.3,20.5,19.5,0.206,0.261,0.287,0.335,1,3600.0,399.1,260.8,138.4,474.0,399.1,739.5,450.0,294.0,156.0,474.0,450.0,833.7,Magnoliopsida; Pinus pinaster Aiton; Tracheophyta; Eucalyptus L'Hér.
2004,2004-08-31,Viana do Castelo,Monção,Messegães,MESSEGÃES,42.08023465,-8.368870307577891,NC,84.0,2004-08-31T12:00,23.9,70,18.2,27.2,0.0,0.0,0.0,0.0,2,1016.2,1006.4,75,83,0,0,0.49,0.88,6.6,7.9,209,204,24.8,25.8,20.6,19.9,18.8,0.214,0.269,0.278,0.329,1,3600.0,783.4,658.0,125.4,798.3,783.4,1106.8,762.0,640.0,122.0,798.3,762.0,1076.6,Magnoliopsida; Vitis vinifera L.; Eucalyptus L'Hér.; Pinales; Pinus pinaster Aiton; Tracheophyta; 
2004,2004-08-07,Viana do Castelo,Ponte de Lima,Serdedelo,Rio Trovela,41.7503357,-8.5397454,NC,226.0,2004-08-07T09:00,21.7,78,17.6,24.1,0.0,0.0,0.0,0.0,0,1011.6,985.5,5,0,8,0,0.28,0.58,2.8,3.1,230,225,13.7,23.3,21.6,21.3,17.7,0.179,0.156,0.227,0.337,1,3600.0,534.6,417.7,116.9,699.2,534.6,794.5,462.0,361.0,101.0,699.2,462.0,686.7,Magnoliopsida; Eucalyptus L'Hér.; Pinus pinaster Aiton; Tracheophyta
2004,2004-08-28,Viana do Castelo,Viana do Castelo,Carreço,CARREÇO,41.7504624,-8.8634244,NC,45.0,2004-08-28T20:00,18.9,87,16.7,18.8,0.0,0.0,0.0,0.0,0,1017.9,1012.6,0,0,0,0,0.04,0.28,16.4,28.2,331,337,34.6,20.8,21.6,20.3,19.3,0.219,0.288,0.29,0.336,0,0.0,0.0,0.0,0.0,0.0,0.0,0.0,1.0,0.0,1.0,0.0,1.0,12.3,Tracheophyta; Eucalyptus L'Hér.; Magnoliopsida
2004,2004-06-20,Viana do Castelo,Ponte de Lima,Refóios do Lima,REFÓIOS DO LIMA,41.779262,-8.5633595,NC,28.0,2004-06-20T15:00,21.0,53,11.1,20.2,0.0,0.0,0.0,0.0,2,1015.0,1011.7,80,74,20,4,0.44,1.17,13.5,15.7,279,281,30.6,27.0,21.6,20.4,15.5,0.109,0.184,0.276,0.362,1,3600.0,658.2,457.4,200.8,558.1,658.2,1085.5,695.0,483.0,212.0,558.1,695.0,1146.2,Tracheophyta; Magnoliopsida; Pinus pinaster Aiton
2004,2004-07-30,Viana do Castelo,Valença,Gondomil,GONDOMIL,42.0299181,-8.549773,NC,51.0,2004-07-30T16:00,26.5,58,17.5,27.7,0.0,0.0,0.0,0.0,0,1016.0,1010.1,0,0,0,0,0.49,1.45,15.5,19.5,318,322,28.4,33.2,25.1,22.0,17.8,0.098,0.151,0.228,0.338,1,3600.0,641.5,545.8,95.7,819.7,641.5,883.8,704.0,599.0,105.0,819.7,704.0,969.9,Magnoliopsida; Tracheophyta; Pinus pinaster Aiton; Eucalyptus L'Hér.; Vitis vinifera L.; 
2004,2004-08-02,Viana do Castelo,Ponte de Lima,Calheiros,CALHEIROS,41.80644115,-8.570717078924538,NC,160.0,2004-08-02T14:00,24.1,59,15.6,26.1,0.0,0.0,0.0,0.0,0,1014.9,996.4,7,8,0,0,0.57,1.24,12.3,15.0,277,280,31.0,31.3,24.0,21.6,17.6,0.099,0.156,0.229,0.337,1,3600.0,866.5,739.9,126.6,850.2,866.5,1155.9,890.0,760.0,130.0,850.2,890.0,1187.3,Magnoliopsida; Tracheophyta; Olea europaea L.; Eucalyptus L'Hér.
2004,2004-09-02,Viana do Castelo,Valença,São Pedro da Torre,SÃO PEDRO DA TORRE,41.9936143,-8.666368,NC,18.0,2004-09-02T15:00,24.1,72,18.7,25.5,0.0,0.0,0.0,0.0,3,1012.8,1010.7,94,70,9,84,0.39,0.84,14.7,19.3,329,336,27.4,25.4,21.3,20.5,19.4,0.256,0.259,0.274,0.327,1,3600.0,563.6,397.8,165.8,583.1,563.6,917.1,605.0,427.0,178.0,583.1,605.0,984.4,Pinus pinaster Aiton; Tracheophyta; Eucalyptus L'Hér.; Magnoliopsida; 
2004,2004-07-31,Viana do Castelo,Viana do Castelo,Afife,Gamosa,41.7772119,-8.8505326,NC,63.0,2004-07-31T13:00,25.8,65,18.6,30.5,0.0,0.0,0.0,0.0,0,1016.0,1008.7,0,0,0,0,0.61,1.17,5.5,4.5,259,241,19.8,33.7,24.2,21.8,18.0,0.084,0.167,0.244,0.344,1,3600.0,911.7,780.6,131.1,854.6,911.7,1212.6,911.0,780.0,131.0,854.6,911.0,1211.6,Magnoliopsida; Eucalyptus L'Hér.; Tracheophyta; Pinus pinaster Aiton
2004,2004-07-31,Viana do Castelo,Monção,Lara,Paços,42.0393661,-8.5302501,NC,100.0,2004-07-31T15:00,28.4,62,20.3,32.9,0.0,0.0,0.0,0.0,0,1015.4,1004.0,2,2,0,0,0.59,1.49,8.3,7.8,265,248,20.9,34.6,25.1,21.7,17.5,0.097,0.15,0.226,0.337,1,3600.0,791.7,686.9,104.9,873.2,791.7,1044.3,838.0,727.0,111.0,873.2,838.0,1105.3,Vitis vinifera L.; Tracheophyta; Pinus pinaster Aiton; Magnoliopsida; Eucalyptus L'Hér.; 
2004,2004-07-31,Viana do Castelo,Ponte de Lima,Fornelos,FORNELOS,41.7501969,-8.5733712,NC,111.0,2004-07-31T20:00,22.3,79,18.6,24.6,0.0,0.0,0.0,0.0,0,1015.3,1002.4,8,9,0,0,0.03,0.56,6.2,7.6,324,335,13.0,26.6,25.5,21.7,17.8,0.099,0.158,0.231,0.338,0,1043.82,0.0,0.0,0.0,0.0,0.0,0.0,32.0,16.0,16.0,145.4,32.0,87.5,Magnoliopsida; Tracheophyta; Pinus pinaster Aiton; Eucalyptus L'Hér.
2004,2004-07-31,Viana do Castelo,Valença,Fontoura,FONTOURA,41.96485725,-8.637014373185956,NC,52.0,2004-07-31T20:00,22.8,87,20.5,26.0,0.0,0.0,0.0,0.0,0,1015.3,1009.2,8,9,0,0,0.02,0.36,6.2,7.6,324,335,13.0,27.5,26.2,22.0,17.8,0.097,0.15,0.226,0.337,0,1056.13,0.0,0.0,0.0,0.0,0.0,0.0,32.0,16.0,16.0,144.4,32.0,88.5,Pinus pinaster Aiton; Magnoliopsida; Tracheophyta
2004,2004-08-01,Viana do Castelo,Vila Nova de Cerveira,Cornes,Coutada,41.9520006,-8.6792268,NC,62.0,2004-08-01T20:00,21.6,84,18.8,23.8,0.0,0.0,0.0,0.0,0,1014.4,1007.1,1,1,0,0,0.03,0.41,7.9,12.0,317,319,18.7,26.9,26.2,22.1,17.8,0.097,0.149,0.225,0.337,0,926.41,0.0,0.0,0.0,0.0,0.0,0.0,31.0,15.0,16.0,137.2,31.0,86.5,Tracheophyta; Magnoliopsida; Pinus pinaster Aiton; Eucalyptus L'Hér.
2004,2004-02-13,Viana do Castelo,Melgaço,Fiães,Souto Mendo de Cima,42.10654,-8.1975875,NC,638.0,2004-02-13T19:00,10.9,67,5.1,9.4,0.0,0.0,0.0,0.0,1,1023.3,948.2,29,0,0,95,0.0,0.43,2.2,2.2,189,279,9.0,8.4,8.3,8.2,9.5,0.357,0.373,0.401,0.425,0,0.0,0.0,0.0,0.0,0.0,0.0,0.0,0.0,0.0,0.0,0.0,0.0,0.0,Magnoliopsida; Tracheophyta; Castanea sativa Mill.; Quercus L.
2004,2004-08-27,Viana do Castelo,Monção,Badim,BADIM,42.05765015,-8.357264313724368,NC,197.0,2004-08-27T02:00,13.2,96,12.5,13.0,0.0,0.0,0.0,0.0,0,1018.6,995.0,0,0,0,0,0.0,0.07,6.4,6.3,27,13,16.9,15.7,19.4,19.2,18.3,0.265,0.305,0.28,0.331,0,0.0,0.0,0.0,0.0,0.0,0.0,0.0,0.0,0.0,0.0,0.0,0.0,0.0,Vitis vinifera L.; Magnoliopsida; Pinus pinaster Aiton; Eucalyptus L'Hér.; Olea europaea L.; 
2004,2004-08-27,Viana do Castelo,Monção,Valadares,Bemposta,42.07767675,-8.374620302382713,NC,57.0,2004-08-27T05:00,13.9,96,13.3,14.0,0.0,0.0,0.0,0.0,0,1017.6,1010.7,1,1,0,0,0.0,0.06,6.6,7.4,41,47,16.2,16.1,19.3,19.8,18.9,0.268,0.305,0.282,0.33,0,0.0,0.0,0.0,0.0,0.0,0.0,0.0,0.0,0.0,0.0,0.0,0.0,0.0,Magnoliopsida; Vitis vinifera L.; Eucalyptus L'Hér.; Pinales; Pinus pinaster Aiton; Tracheophyta; 
2004,2004-08-29,Viana do Castelo,Ponte de Lima,Estorãos,Estivada,41.7858974,-8.6445599,NC,11.0,2004-08-29T00:00,17.3,95,16.5,17.4,0.0,0.0,0.0,0.0,0,1018.5,1017.2,0,0,0,0,0.0,0.1,15.4,25.8,339,341,27.7,19.2,21.5,20.7,19.6,0.242,0.291,0.295,0.33,0,0.0,0.0,0.0,0.0,0.0,0.0,0.0,0.0,0.0,0.0,0.0,0.0,0.0,Tracheophyta; Eucalyptus L'Hér.; Magnoliopsida; Vitis vinifera L.
2004,2004-02-13,Viana do Castelo,Ponte de Lima,Seara,SEARA,41.7367947,-8.6182791,NC,35.0,2004-02-13T15:00,15.8,67,9.7,14.8,0.0,0.0,0.0,0.0,1,1023.6,1019.4,30,1,0,97,0.25,0.59,6.9,7.3,264,259,16.6,15.9,11.4,11.9,12.9,0.349,0.363,0.389,0.414,1,3600.0,444.0,342.8,101.2,752.0,444.0,639.9,487.0,376.0,111.0,752.0,487.0,701.8,Eucalyptus L'Hér.; Tracheophyta; Magnoliopsida; Olea europaea L.; Pinus pinaster Aiton
2004,2004-08-31,Viana do Castelo,Ponte de Lima,Refóios do Lima,REFÓIOS DO LIMA,41.779262,-8.5633595,NC,28.0,2004-08-31T19:00,20.0,87,17.8,21.8,0.0,0.0,0.0,0.0,0,1014.8,1011.5,5,6,0,0,0.04,0.31,7.1,9.8,285,294,17.3,22.9,22.3,20.7,19.6,0.214,0.271,0.292,0.329,1,2546.61,9.3,4.9,4.3,56.4,7.4,21.9,64.0,34.0,30.0,241.4,64.0,151.3,Tracheophyta; Magnoliopsida; Pinus pinaster Aiton
2004,2004-02-11,Viana do Castelo,Paredes de Coura,Resende,Amieira,41.9044838,-8.5599436,NC,458.0,2004-02-11T16:00,15.2,51,5.2,13.3,0.0,0.0,0.0,0.0,0,1024.3,970.5,0,0,0,0,0.2,0.84,5.2,6.4,295,297,15.1,13.6,9.0,9.3,10.1,0.353,0.367,0.39,0.419,1,3600.0,312.1,253.8,58.3,795.1,312.1,448.4,375.0,305.0,70.0,795.1,375.0,538.8,Quercus L.; Tracheophyta; Pinus pinaster Aiton; Magnoliopsida; Eucalyptus L'Hér.
2004,2004-08-02,Viana do Castelo,Valença,São Pedro da Torre,SÃO PEDRO DA TORRE,41.9936143,-8.666368,NC,18.0,2004-08-02T00:00,19.0,99,18.9,21.1,0.0,0.0,0.0,0.0,3,1014.5,1012.4,88,95,0,9,0.0,0.02,8.5,13.8,348,354,11.5,22.2,25.9,22.5,18.1,0.097,0.149,0.225,0.337,0,0.0,0.0,0.0,0.0,0.0,0.0,0.0,0.0,0.0,0.0,0.0,0.0,0.0,Pinus pinaster Aiton; Tracheophyta; Eucalyptus L'Hér.; Magnoliopsida; 
2004,2004-08-26,Viana do Castelo,Monção,Valadares,Bemposta,42.07767675,-8.374620302382713,NC,57.0,2004-08-26T11:00,22.0,64,14.9,24.2,0.0,0.0,0.0,0.0,0,1022.3,1015.6,0,0,0,0,0.47,0.94,5.1,7.3,51,57,19.4,22.1,18.8,19.8,18.9,0.282,0.313,0.282,0.33,1,3600.0,810.6,704.4,106.2,895.7,810.6,1053.6,763.0,663.0,100.0,895.7,763.0,991.7,Magnoliopsida; Vitis vinifera L.; Eucalyptus L'Hér.; Pinales; Pinus pinaster Aiton; Tracheophyta; 
2004,2004-08-31,Viana do Castelo,Paredes de Coura,Ferreira,Venade,41.9456186,-8.5648029,NC,525.0,2004-08-31T14:00,22.1,68,15.9,24.3,0.0,0.0,0.0,0.0,2,1015.1,955.6,72,80,0,0,0.48,0.85,7.4,9.2,223,225,28.1,24.7,19.1,17.9,16.8,0.218,0.274,0.301,0.331,1,3600.0,732.3,547.8,184.5,700.6,732.3,1050.0,758.0,567.0,191.0,700.6,758.0,1086.9,Tracheophyta; Eucalyptus L'Hér.; Magnoliopsida; Quercus L.; Pinus pinaster Aiton; 
2004,2004-09-04,Viana do Castelo,Ponte de Lima,Cabração,CABRAÇÃO,41.8364629,-8.6502105,NC,159.0,2004-09-04T16:00,25.6,71,19.9,28.6,0.0,0.0,0.0,0.0,2,1016.8,998.5,69,33,21,90,0.33,0.96,5.6,9.4,15,18,24.5,26.3,22.1,20.1,19.0,0.299,0.269,0.288,0.328,1,3600.0,421.3,285.0,136.3,527.9,421.3,726.4,476.0,322.0,154.0,527.9,476.0,820.7,Eucalyptus L'Hér.; Pinus pinaster Aiton; Magnoliopsida; Tracheophyta
2004,2004-09-02,Viana do Castelo,Ponte de Lima,Fornelos,FORNELOS,41.7501969,-8.5733712,NC,111.0,2004-09-02T19:00,21.1,79,17.3,21.7,0.0,0.0,0.0,0.0,0,1013.0,1000.0,8,4,7,0,0.06,0.53,14.0,23.0,334,340,24.8,22.1,21.3,20.1,19.1,0.233,0.264,0.291,0.329,1,2343.25,3.1,1.8,1.3,20.6,2.3,7.0,61.0,35.0,26.0,258.1,61.0,136.9,Magnoliopsida; Tracheophyta; Pinus pinaster Aiton; Eucalyptus L'Hér.
2004,2004-09-02,Viana do Castelo,Ponte de Lima,Serdedelo,SERDEDELO,41.7480896,-8.5412718,NC,202.0,2004-09-02T18:00,22.3,75,17.6,22.7,0.0,0.0,0.0,0.0,0,1013.0,989.7,6,3,6,0,0.15,0.67,15.5,23.6,338,348,24.5,23.1,20.9,19.5,18.4,0.249,0.27,0.312,0.33,1,3600.0,146.2,96.8,49.4,491.6,146.2,264.7,216.0,143.0,73.0,491.6,216.0,391.0,Magnoliopsida; Eucalyptus L'Hér.; Pinus pinaster Aiton; Tracheophyta
2004,2004-08-15,Viana do Castelo,Ponte de Lima,Gondufe,Paraíso,41.7655223,-8.5126716,NC,154.0,2004-08-15T18:00,21.7,79,17.9,23.2,0.1,0.1,0.0,0.0,51,1018.3,1000.3,57,11,29,98,0.12,0.55,9.2,12.6,231,233,25.9,23.7,22.5,20.4,18.3,0.311,0.334,0.253,0.332,1,2071.23,125.2,36.2,89.0,129.0,125.2,374.1,166.0,48.0,118.0,129.0,166.0,496.2,Magnoliopsida; Eucalyptus L'Hér.; Vitis vinifera L.; Tracheophyta
2004,2004-09-02,Viana do Castelo,Vila Nova de Cerveira,Reboreda,Paredes,41.9601785,-8.7186022,NC,44.0,2004-09-02T20:00,21.1,80,17.5,21.6,0.0,0.0,0.0,0.0,0,1013.7,1008.5,7,4,6,0,0.03,0.5,14.7,24.9,343,349,25.2,21.4,21.6,20.4,19.2,0.259,0.259,0.274,0.327,0,0.0,0.0,0.0,0.0,0.0,0.0,0.0,0.0,0.0,0.0,0.0,0.0,0.0,Pinus pinaster Aiton; Magnoliopsida; Tracheophyta; Eucalyptus L'Hér.
2004,2004-08-02,Viana do Castelo,Monção,Lapela,LAPELA,42.0527672,-8.536860082544466,NC,13.0,2004-08-02T03:00,18.5,99,18.4,20.6,0.0,0.0,0.0,0.0,3,1013.8,1012.3,86,96,0,0,0.0,0.01,6.8,8.3,342,2,9.7,20.1,25.2,22.5,18.2,0.097,0.149,0.225,0.337,0,0.0,0.0,0.0,0.0,0.0,0.0,0.0,0.0,0.0,0.0,0.0,0.0,0.0,Pinus pinaster Aiton; Tracheophyta; Vitis vinifera L.; Magnoliopsida; Eucalyptus L'Hér.; 
2004,2004-08-02,Viana do Castelo,Monção,Barbeita,Merim,42.0462163,-8.4010392,NC,164.0,2004-08-02T10:00,21.7,72,16.4,22.7,0.0,0.0,0.0,0.0,2,1015.9,996.8,79,70,27,0,0.34,0.73,8.0,8.7,265,263,18.7,25.9,23.4,21.6,17.1,0.099,0.15,0.226,0.337,1,3600.0,597.6,428.7,168.9,576.1,597.6,988.3,545.0,391.0,154.0,576.1,545.0,901.4,Tracheophyta; Vitis vinifera L.; Eucalyptus L'Hér.; Magnoliopsida; Pinus pinaster Aiton; 
2004,2004-08-15,Viana do Castelo,Caminha,Riba de Âncora,Pena,41.8112515,-8.8186725,NC,65.0,2004-08-15T18:00,21.5,85,19.0,23.2,0.4,0.4,0.0,0.0,51,1018.0,1010.4,67,26,24,98,0.1,0.37,11.5,16.2,194,201,27.7,24.1,23.0,21.1,19.2,0.263,0.301,0.245,0.338,1,1239.08,107.4,28.7,78.7,101.3,107.4,378.4,142.0,38.0,104.0,101.3,142.0,500.3,Pinus pinaster Aiton; Tracheophyta; Magnoliopsida; Eucalyptus L'Hér.
2004,2004-09-04,Viana do Castelo,Viana do Castelo,Areosa,São Mamede,41.7303664,-8.8291614,NC,271.0,2004-09-04T16:00,24.8,71,19.1,27.6,0.0,0.0,0.0,0.0,2,1017.4,986.4,67,30,22,88,0.3,0.92,4.8,7.7,63,53,26.3,25.6,21.4,19.4,18.2,0.299,0.269,0.288,0.328,1,3600.0,388.5,248.6,139.8,460.1,388.5,727.1,439.0,281.0,158.0,460.1,439.0,821.7,Eucalyptus L'Hér.; Magnoliopsida
2004,2004-08-02,Viana do Castelo,Viana do Castelo,Vilar de Murteda,VILAR DE MURTEDA,41.77811565,-8.716446882794314,NC,185.0,2004-08-02T15:00,23.9,60,15.7,25.2,0.0,0.0,0.0,0.0,0,1015.5,994.2,10,5,0,19,0.52,1.18,14.0,16.6,282,288,28.1,31.3,24.3,21.6,17.6,0.1,0.155,0.228,0.337,1,3600.0,772.7,647.1,125.6,823.9,772.7,1043.1,818.0,685.0,133.0,823.9,818.0,1104.3,Eucalyptus L'Hér.; Magnoliopsida
2004,2004-02-09,Viana do Castelo,Paredes de Coura,Insalde,INSALDE,41.9485994,-8.5329017,NC,509.0,2004-02-09T10:00,9.4,81,6.3,7.5,0.0,0.0,0.0,0.0,1,1027.0,966.0,22,0,0,72,0.1,0.22,6.1,9.6,93,103,18.4,8.2,8.0,9.5,10.1,0.371,0.378,0.397,0.421,1,3600.0,314.2,213.2,101.0,585.6,314.2,511.7,255.0,173.0,82.0,585.6,255.0,415.3,Quercus L.; Magnoliopsida; Eucalyptus L'Hér.; Pinus pinaster Aiton; Tracheophyta; 
2004,2004-08-29,Viana do Castelo,Ponte de Lima,Beiral do Lima,Armada,41.7466778,-8.4828615,NC,562.0,2004-08-29T12:00,21.8,65,14.8,24.1,0.0,0.0,0.0,0.0,0,1019.1,955.3,0,0,0,0,0.51,0.92,6.1,7.4,332,337,21.2,22.8,17.8,17.5,16.5,0.25,0.296,0.324,0.334,1,3600.0,837.6,722.5,115.1,865.8,837.6,1119.5,815.0,703.0,112.0,865.8,815.0,1089.3,Magnoliopsida; Eucalyptus L'Hér.; Tracheophyta
2004,2004-08-03,Viana do Castelo,Ponte da Barca,Paço Vedro de Magalhães,PAÇO VEDRO DE MAGALHÃES,41.7961454,-8.4038330483692,NC,92.0,2004-08-03T06:00,19.0,93,17.9,20.8,0.0,0.0,0.0,0.0,3,1014.9,1004.1,100,71,45,67,0.02,0.15,7.6,11.9,161,177,7.6,20.8,24.0,22.4,18.0,0.098,0.15,0.226,0.337,1,0.0,7.5,0.0,7.5,0.0,3.1,100.4,3.0,0.0,3.0,0.0,3.0,40.2,Tracheophyta; Eucalyptus L'Hér.; Magnoliopsida; Pinus pinaster Aiton; Vitis vinifera L.
2004,2004-07-06,Viana do Castelo,Paredes de Coura,Ferreira,Venade,41.9456186,-8.5648029,NC,525.0,2004-07-06T23:00,12.6,84,10.0,11.3,0.0,0.0,0.0,0.0,3,1015.1,953.7,100,99,6,25,0.0,0.23,8.4,12.8,290,302,36.4,16.5,19.6,17.8,13.8,0.115,0.186,0.264,0.356,0,0.0,0.0,0.0,0.0,0.0,0.0,0.0,0.0,0.0,0.0,0.0,0.0,0.0,Tracheophyta; Eucalyptus L'Hér.; Magnoliopsida; Quercus L.; Pinus pinaster Aiton; 
2004,2004-08-29,Viana do Castelo,Arcos de Valdevez,Couto,COUTO,41.8737745,-8.4065703,NC,135.0,2004-08-29T17:00,23.2,73,18.1,23.2,0.0,0.0,0.0,0.0,0,1019.1,1003.4,2,2,0,0,0.28,0.77,20.2,27.4,325,327,37.8,25.3,21.6,19.9,19.0,0.228,0.282,0.283,0.329,1,3600.0,359.4,287.5,71.9,717.7,359.4,537.5,435.0,348.0,87.0,717.7,435.0,650.6,Pinus pinaster Aiton; Eucalyptus L'Hér.; Magnoliopsida; Tracheophyta; Vitis vinifera L.
2004,2004-09-16,Viana do Castelo,Valença,Ganfei,Caxaria,42.0445783,-8.6117008,NC,46.0,2004-09-16T15:00,23.4,57,14.3,24.2,0.0,0.0,0.0,0.0,0,1021.0,1015.6,0,0,0,0,0.43,1.25,8.9,9.3,320,324,20.9,25.1,19.7,20.0,19.5,0.234,0.257,0.267,0.324,1,3600.0,617.2,528.8,88.4,861.7,617.2,830.9,670.0,574.0,96.0,861.7,670.0,902.0,Magnoliopsida; Eucalyptus L'Hér.; Pinus pinaster Aiton; Tracheophyta; Vitis vinifera L.; 
2004,2004-09-01,Viana do Castelo,Caminha,Venade,Aldeia Nova,41.8603964,-8.8095563,NC,4.0,2004-09-01T14:00,21.3,79,17.6,23.1,0.0,0.0,0.0,0.0,2,1013.5,1013.0,77,85,0,1,0.38,0.52,10.3,11.5,282,284,23.4,25.7,21.5,21.0,20.0,0.187,0.26,0.278,0.334,1,3600.0,631.1,430.1,201.0,551.2,631.1,1048.4,653.0,445.0,208.0,551.2,653.0,1084.7,Eucalyptus L'Hér.; Pinus pinaster Aiton; Tracheophyta; Magnoliopsida
2004,2004-02-14,Viana do Castelo,Monção,Cortes,CORTES,42.06996785,-8.510856814497,NC,55.0,2004-02-14T15:00,14.4,70,8.9,13.3,0.0,0.0,0.0,0.0,0,1023.2,1016.5,15,4,0,37,0.25,0.5,5.4,5.8,274,266,17.3,14.8,10.1,10.7,12.0,0.345,0.359,0.384,0.416,1,3600.0,453.8,361.8,92.0,795.6,453.8,638.1,498.0,397.0,101.0,795.6,498.0,700.2,Tracheophyta; Vitis vinifera L.; Magnoliopsida; Pinus pinaster Aiton; Eucalyptus L'Hér.; 
2004,2004-08-02,Viana do Castelo,Ponte da Barca,Lavradas,Ginzo,41.772688,-8.4761668,NC,209.0,2004-08-02T22:00,18.7,92,17.5,20.9,0.0,0.0,0.0,0.0,0,1015.9,991.4,11,5,0,22,0.0,0.16,3.6,4.1,174,225,6.8,22.6,25.0,21.9,17.5,0.098,0.152,0.229,0.339,0,0.0,0.0,0.0,0.0,0.0,0.0,0.0,0.0,0.0,0.0,0.0,0.0,0.0,Magnoliopsida; Quercus L.; Olea europaea L.; Eucalyptus L'Hér.; Pinus pinaster Aiton; Vitis vinifera L.
2004,2004-08-31,Viana do Castelo,Paredes de Coura,Ferreira,Venade,41.9456186,-8.5648029,NC,525.0,2004-08-31T22:00,15.4,99,15.3,16.7,0.0,0.0,0.0,0.0,3,1016.1,955.2,82,91,0,0,0.0,0.01,3.7,4.0,259,280,9.7,17.8,19.6,18.0,16.8,0.215,0.272,0.301,0.331,0,0.0,0.0,0.0,0.0,0.0,0.0,0.0,0.0,0.0,0.0,0.0,0.0,0.0,Tracheophyta; Eucalyptus L'Hér.; Magnoliopsida; Quercus L.; Pinus pinaster Aiton; 
2004,2004-02-21,Viana do Castelo,Arcos de Valdevez,Padroso,PADROSO,41.9418847,-8.490082,Desconhecida,493.0,2004-02-21T18:00,5.7,56,-2.4,2.4,0.0,0.0,0.0,0.0,1,1000.1,941.8,30,26,10,1,0.04,0.4,5.6,13.9,243,249,19.4,6.5,5.5,7.9,9.9,0.321,0.339,0.369,0.412,1,2704.65,15.2,8.3,6.9,95.1,12.8,36.9,68.0,37.0,31.0,263.4,68.0,164.9,Tracheophyta; Magnoliopsida; Pinus pinaster Aiton; Quercus L.; Eucalyptus L'Hér.
2004,2004-08-31,Viana do Castelo,Vila Nova de Cerveira,Cornes,CORNES,41.9520006,-8.6792268,NC,62.0,2004-08-31T15:00,23.0,77,18.6,25.2,0.0,0.0,0.0,0.0,2,1015.5,1008.3,66,73,0,0,0.39,0.66,9.8,11.0,262,259,25.6,26.6,21.7,20.1,19.0,0.206,0.266,0.275,0.328,1,3600.0,587.7,405.8,181.9,586.9,587.7,928.4,630.0,435.0,195.0,586.9,630.0,995.3,Tracheophyta; Magnoliopsida; Pinus pinaster Aiton; Eucalyptus L'Hér.
2004,2004-09-01,Viana do Castelo,Ponte da Barca,Grovelas,GROVELAS,41.75256215,-8.44256463925566,NC,312.0,2004-09-01T20:00,17.2,95,16.4,18.9,0.0,0.0,0.0,0.0,3,1013.2,976.8,100,83,2,83,0.0,0.1,3.7,8.0,281,297,12.2,19.5,20.3,19.4,18.2,0.238,0.276,0.319,0.334,0,0.0,0.0,0.0,0.0,0.0,0.0,0.0,0.0,0.0,0.0,0.0,0.0,0.0,Vitis vinifera L.; Magnoliopsida; Eucalyptus L'Hér.; Pinus pinaster Aiton
2004,2004-08-07,Viana do Castelo,Valença,Fontoura,FONTOURA,41.96485725,-8.637014373185956,NC,52.0,2004-08-07T16:00,24.4,68,18.2,26.0,0.0,0.0,0.0,0.0,1,1009.2,1003.2,28,1,0,91,0.41,0.97,12.8,17.0,218,216,28.8,29.2,23.9,21.8,18.4,0.167,0.152,0.221,0.334,1,3600.0,581.9,433.9,148.0,670.2,581.9,861.2,641.0,478.0,163.0,670.2,641.0,948.7,Pinus pinaster Aiton; Magnoliopsida; Tracheophyta
2004,2004-09-13,Viana do Castelo,Caminha,Vile,VILE,41.8051957,-8.840439744150522,NC,14.0,2004-09-13T01:00,15.3,93,14.2,14.6,0.0,0.0,0.0,0.0,1,1020.6,1018.9,43,42,1,15,0.0,0.12,14.0,21.3,334,332,23.4,17.4,20.7,20.9,19.9,0.184,0.241,0.281,0.333,0,0.0,0.0,0.0,0.0,0.0,0.0,0.0,0.0,0.0,0.0,0.0,0.0,0.0,Magnoliopsida; Pinus pinaster Aiton; Tracheophyta
2004,2004-09-02,Viana do Castelo,Ponte de Lima,Cabaços,Vilela,41.6944005,-8.5756282,NC,270.0,2004-09-02T15:00,22.1,74,17.2,23.2,0.4,0.4,0.0,0.0,51,1012.8,981.7,100,94,14,87,0.35,0.7,10.9,14.3,316,319,27.7,24.4,20.1,19.2,18.2,0.244,0.268,0.304,0.328,1,3600.0,530.7,352.0,178.8,515.3,530.7,918.1,570.0,378.0,192.0,515.3,570.0,986.0,Eucalyptus L'Hér.; Pinus pinaster Aiton; Tracheophyta; Olea europaea L.
2004,2004-09-02,Viana do Castelo,Monção,Sá,SÁ,42.07158325,-8.348218430138436,NC,204.0,2004-09-02T03:00,16.5,99,16.3,18.5,0.5,0.5,0.0,0.0,53,1012.1,988.1,100,93,57,99,0.0,0.02,1.1,2.8,72,50,13.3,18.4,20.0,19.6,18.4,0.254,0.261,0.275,0.33,0,0.0,0.0,0.0,0.0,0.0,0.0,0.0,0.0,0.0,0.0,0.0,0.0,0.0,Magnoliopsida; Vitis vinifera L.; Eucalyptus L'Hér.; Pinales; Pinus pinaster Aiton; Tracheophyta; 
2004,2004-08-26,Viana do Castelo,Ponte de Lima,Arcozelo,Vilar,41.7918096,-8.5927082,NC,35.0,2004-08-26T00:00,16.3,84,13.6,14.7,0.0,0.0,0.0,0.0,0,1022.3,1018.1,0,0,0,0,0.02,0.3,19.1,31.3,357,1,33.1,18.2,20.9,20.4,19.4,0.283,0.318,0.298,0.331,0,0.0,0.0,0.0,0.0,0.0,0.0,0.0,0.0,0.0,0.0,0.0,0.0,0.0,Magnoliopsida; Vitis vinifera L.; Tracheophyta; Eucalyptus L'Hér.; Pinus pinaster Aiton; Olea europaea L.
2004,2004-09-20,Viana do Castelo,Ponte de Lima,Arcos,Ribeira de Santa Justa,41.7634894,-8.6557934,NC,61.0,2004-09-20T12:00,22.9,63,15.5,24.1,0.0,0.0,0.0,0.0,0,1019.5,1012.4,2,0,0,5,0.46,1.03,12.3,15.5,345,355,24.1,25.3,20.0,20.0,19.6,0.135,0.22,0.275,0.331,1,3600.0,756.5,652.7,103.8,870.5,756.5,1017.4,736.0,635.0,101.0,870.5,736.0,989.8,Eucalyptus L'Hér.; Pinus pinaster Aiton; Tracheophyta; Vitis vinifera L.
2004,2004-09-21,Viana do Castelo,Ponte de Lima,Refóios do Lima,Nogueira,41.7933146,-8.542976,NC,68.0,2004-09-21T20:00,24.6,62,16.9,25.7,0.0,0.0,0.0,0.0,0,1021.2,1013.3,0,0,0,0,0.05,1.18,9.4,10.5,18,22,14.8,22.0,22.3,20.0,19.6,0.171,0.24,0.293,0.326,0,0.0,0.0,0.0,0.0,0.0,0.0,0.0,0.0,0.0,0.0,0.0,0.0,0.0,Magnoliopsida; Eucalyptus L'Hér.; Tracheophyta; Vitis vinifera L.
2004,2004-09-22,Viana do Castelo,Ponte de Lima,Refóios do Lima,Nogueira,41.7933146,-8.542976,NC,68.0,2004-09-22T01:00,15.9,92,14.6,16.3,0.0,0.0,0.0,0.0,0,1021.4,1013.2,0,0,0,0,0.0,0.14,7.8,9.7,34,51,13.3,17.8,21.4,20.1,19.6,0.173,0.24,0.293,0.326,0,0.0,0.0,0.0,0.0,0.0,0.0,0.0,0.0,0.0,0.0,0.0,0.0,0.0,Magnoliopsida; Eucalyptus L'Hér.; Tracheophyta; Vitis vinifera L.
2004,2004-09-02,Viana do Castelo,Ponte de Lima,Vitorino dos Piães,VITORINO DOS PIÃES,41.68319845,-8.626889798467637,NC,160.0,2004-09-02T19:00,21.5,77,17.3,22.1,0.0,0.0,0.0,0.0,0,1013.0,994.4,8,4,7,0,0.06,0.6,14.0,23.0,334,340,24.8,22.2,21.3,20.0,18.9,0.241,0.267,0.304,0.328,1,2306.46,1.9,1.1,0.8,12.7,1.4,4.3,61.0,35.0,26.0,259.9,61.0,134.3,Pinus pinaster Aiton; Tracheophyta; Magnoliopsida; Eucalyptus L'Hér.
2004,2004-08-06,Viana do Castelo,Valença,Cerdal,Amiães,41.9789,-8.622752,NC,50.0,2004-08-06T13:00,26.3,64,18.9,29.1,0.0,0.0,0.0,0.0,1,1013.2,1007.4,26,0,0,85,0.55,1.25,14.1,17.4,320,326,27.4,29.1,22.6,21.9,18.3,0.196,0.153,0.223,0.334,1,3600.0,824.3,570.2,254.1,633.4,824.3,1197.1,824.0,570.0,254.0,633.4,824.0,1196.6,Magnoliopsida; Tracheophyta; Pinus pinaster Aiton; Eucalyptus L'Hér.; Vitis vinifera L.; 
2004,2004-09-16,Viana do Castelo,Ponte de Lima,Fornelos,SANTA MARIA MADALENA,41.7501969,-8.5733712,NC,111.0,2004-09-16T16:00,23.0,55,13.6,22.2,0.0,0.0,0.0,0.0,0,1020.8,1007.8,0,0,0,0,0.35,1.25,13.0,16.5,321,324,24.1,25.2,20.2,19.9,19.4,0.187,0.237,0.28,0.326,1,3600.0,462.7,386.1,76.5,804.1,462.7,650.2,532.0,444.0,88.0,804.1,532.0,747.6,Magnoliopsida; Tracheophyta; Pinus pinaster Aiton; Eucalyptus L'Hér.
2004,2004-09-21,Viana do Castelo,Vila Nova de Cerveira,Sopo,Senhora da Agonia,41.9069165,-8.7368647,NC,270.0,2004-09-21T16:00,26.6,51,15.5,27.5,0.0,0.0,0.0,0.0,0,1021.1,990.2,0,0,0,0,0.35,1.72,5.9,7.6,346,355,15.5,26.5,20.5,19.0,18.6,0.169,0.23,0.27,0.325,1,3600.0,432.9,360.4,72.4,796.9,432.9,614.1,502.0,418.0,84.0,796.9,502.0,712.2,Eucalyptus L'Hér.; Pinus pinaster Aiton; Tracheophyta; Magnoliopsida
2004,2004-09-02,Viana do Castelo,Melgaço,Cubalhão,CUBALHÃO,42.0550453,-8.2428505,NC,797.0,2004-09-02T22:00,15.4,88,13.5,15.5,0.0,0.0,0.0,0.0,1,1015.4,924.7,37,0,16,90,0.0,0.2,7.0,10.5,12,22,18.7,16.9,19.0,17.9,16.3,0.354,0.311,0.314,0.374,0,0.0,0.0,0.0,0.0,0.0,0.0,0.0,0.0,0.0,0.0,0.0,0.0,0.0,Magnoliopsida; Quercus L.
2004,2004-09-21,Viana do Castelo,Valença,Gandra,Pedrosa,42.0055903,-8.6164853,NC,96.0,2004-09-21T22:00,19.3,81,15.9,19.7,0.0,0.0,0.0,0.0,0,1021.9,1010.5,0,0,0,0,0.02,0.43,11.0,10.3,38,54,17.3,19.8,21.2,19.5,19.2,0.178,0.235,0.263,0.323,0,0.0,0.0,0.0,0.0,0.0,0.0,0.0,0.0,0.0,0.0,0.0,0.0,0.0,Magnoliopsida; Eucalyptus L'Hér.; Tracheophyta; Vitis vinifera L.; Pinus pinaster Aiton; Acacia Mill.; 
2004,2004-09-02,Viana do Castelo,Ponte da Barca,Ponte da Barca,PONTE DA BARCA,41.80600765,-8.415000093962036,NC,38.0,2004-09-02T20:00,20.6,85,18.1,21.3,0.0,0.0,0.0,0.0,0,1013.6,1009.1,9,5,7,0,0.02,0.36,15.8,26.3,339,343,23.8,21.4,21.9,20.6,19.5,0.249,0.27,0.312,0.33,0,0.0,0.0,0.0,0.0,0.0,0.0,0.0,0.0,0.0,0.0,0.0,0.0,0.0,Magnoliopsida; Tracheophyta; Vitis vinifera L.; Pinus pinaster Aiton
2004,2004-09-03,Viana do Castelo,Valença,São Pedro da Torre,Monte,41.9936143,-8.666368,NC,18.0,2004-09-03T10:00,24.0,72,18.8,26.1,0.0,0.0,0.0,0.0,0,1016.7,1014.6,0,0,0,0,0.36,0.82,8.4,10.5,350,6,17.3,23.6,20.7,20.5,19.4,0.256,0.258,0.274,0.327,1,3600.0,625.8,516.9,108.9,781.1,625.8,889.8,563.0,465.0,98.0,781.1,563.0,800.6,Pinus pinaster Aiton; Tracheophyta; Eucalyptus L'Hér.; Magnoliopsida; 
2004,2004-08-26,Viana do Castelo,Monção,Valadares,Bemposta,42.07767675,-8.374620302382713,NC,57.0,2004-08-26T04:00,13.3,93,12.1,12.5,0.0,0.0,0.0,0.0,0,1021.6,1014.7,8,9,0,0,0.0,0.11,10.0,22.9,41,44,29.5,15.6,19.1,19.8,18.9,0.285,0.316,0.282,0.33,0,0.0,0.0,0.0,0.0,0.0,0.0,0.0,0.0,0.0,0.0,0.0,0.0,0.0,Magnoliopsida; Vitis vinifera L.; Eucalyptus L'Hér.; Pinales; Pinus pinaster Aiton; Tracheophyta; 
2004,2004-08-06,Viana do Castelo,Ponte de Lima,Poiares,POIARES,41.6520128,-8.625576196605309,NC,74.0,2004-08-06T15:00,25.8,62,17.9,27.4,0.0,0.0,0.0,0.0,0,1013.1,1004.6,13,1,0,40,0.5,1.27,15.8,20.7,317,321,31.3,29.6,23.2,21.8,18.4,0.155,0.147,0.217,0.33,1,3600.0,698.9,492.3,206.6,634.6,698.9,1031.7,741.0,522.0,219.0,634.6,741.0,1093.9,Tracheophyta; Magnoliopsida; Pinus pinaster Aiton
2004,2004-09-23,Viana do Castelo,Ponte de Lima,Refóios do Lima,Fontainhas,41.7933146,-8.542976,NC,68.0,2004-09-23T13:00,30.9,34,13.0,31.6,0.0,0.0,0.0,0.0,0,1018.4,1010.7,8,0,0,27,0.6,2.97,10.3,13.1,36,53,24.5,28.5,21.4,20.2,19.6,0.158,0.232,0.29,0.326,1,3600.0,749.2,642.0,107.2,874.9,749.2,997.4,755.0,647.0,108.0,874.9,755.0,1005.1,Magnoliopsida; Eucalyptus L'Hér.; Tracheophyta; Vitis vinifera L.
2004,2004-09-03,Viana do Castelo,Ponte de Lima,Cabaços,Vilela,41.6944005,-8.5756282,NC,270.0,2004-09-03T04:00,15.4,94,14.4,15.8,0.0,0.0,0.0,0.0,1,1015.1,983.3,20,1,28,8,0.0,0.1,6.9,8.1,81,103,19.1,16.8,19.4,19.3,18.2,0.242,0.267,0.304,0.328,0,0.0,0.0,0.0,0.0,0.0,0.0,0.0,0.0,0.0,0.0,0.0,0.0,0.0,Eucalyptus L'Hér.; Pinus pinaster Aiton; Tracheophyta; Olea europaea L.
2004,2004-02-10,Viana do Castelo,Ponte de Lima,Gondufe,Paraíso,41.7655223,-8.5126716,NC,154.0,2004-02-10T18:00,14.8,49,4.2,12.0,0.0,0.0,0.0,0.0,0,1022.3,1003.8,0,0,0,0,0.06,0.86,9.8,14.4,98,103,17.3,11.9,10.8,10.8,11.6,0.355,0.371,0.393,0.42,1,1891.71,0.0,0.0,0.0,0.0,0.0,0.0,55.0,34.0,21.0,286.4,55.0,107.5,Magnoliopsida; Eucalyptus L'Hér.; Vitis vinifera L.; Tracheophyta
2004,2004-09-23,Viana do Castelo,Ponte de Lima,Refóios do Lima,Nogueira,41.7933146,-8.542976,NC,68.0,2004-09-23T18:00,28.0,59,19.2,29.6,0.0,0.0,0.0,0.0,0,1015.5,1007.7,6,0,0,19,0.15,1.55,12.4,17.7,352,2,19.4,26.4,22.8,20.3,19.6,0.153,0.23,0.289,0.326,1,3600.0,59.9,40.1,19.8,459.7,59.9,110.7,130.0,87.0,43.0,492.0,130.0,240.4,Magnoliopsida; Eucalyptus L'Hér.; Tracheophyta; Vitis vinifera L.
2004,2004-09-23,Viana do Castelo,Viana do Castelo,Vila Fria,Monte de Ola,41.6625255,-8.7617649,NC,44.0,2004-09-23T20:00,23.9,58,15.1,23.3,0.0,0.0,0.0,0.0,0,1015.8,1010.7,0,0,0,0,0.09,1.25,16.2,22.9,13,16,24.5,23.7,23.2,20.6,19.8,0.111,0.209,0.271,0.33,0,0.0,0.0,0.0,0.0,0.0,0.0,0.0,0.0,0.0,0.0,0.0,0.0,0.0,Eucalyptus L'Hér.; Tracheophyta; Magnoliopsida; Pinus pinaster Aiton
2004,2004-08-06,Viana do Castelo,Viana do Castelo,Mazarefes,Regadia,41.6784413,-8.7670414,NC,18.0,2004-08-06T16:00,24.5,69,18.5,25.2,0.0,0.0,0.0,0.0,0,1012.4,1010.3,3,0,0,10,0.4,0.95,19.6,25.6,319,322,34.2,29.0,23.5,22.0,18.7,0.151,0.164,0.241,0.341,1,3600.0,565.6,394.9,170.7,606.9,565.6,865.3,623.0,435.0,188.0,606.9,623.0,953.1,Eucalyptus L'Hér.; Tracheophyta; Magnoliopsida; Pinales
2004,2004-08-29,Viana do Castelo,Arcos de Valdevez,Vale,Paredes do Vale,41.8612023,-8.3462363,NC,508.0,2004-08-29T12:00,22.5,65,15.5,25.1,0.0,0.0,0.0,0.0,0,1019.1,961.3,0,0,0,0,0.52,0.96,6.1,7.4,332,337,21.2,23.4,18.7,18.3,17.3,0.252,0.296,0.314,0.336,1,3600.0,837.7,722.5,115.1,867.2,837.7,1117.7,815.0,703.0,112.0,867.2,815.0,1087.5,Vitis vinifera L.; Pinus pinaster Aiton; Tracheophyta; Magnoliopsida; Quercus L.; Eucalyptus L'Hér.; Acacia Mill.; 
2004,2004-06-10,Viana do Castelo,Vila Nova de Cerveira,Lovelhe,LOVELHE,41.93908245,-8.737901544838174,NC,68.0,2004-06-10T14:00,23.3,66,16.6,25.8,0.0,0.0,0.0,0.0,0,1021.6,1013.6,4,5,0,0,0.56,0.96,12.7,14.3,305,309,26.3,30.2,22.1,19.0,14.5,0.098,0.214,0.298,0.37,1,3600.0,893.9,780.1,113.8,867.6,893.9,1193.1,919.0,802.0,117.0,867.6,919.0,1226.5,Tracheophyta; Eucalyptus L'Hér.; Magnoliopsida; Pinus pinaster Aiton; Vitis vinifera L.
2004,2004-02-12,Viana do Castelo,Ponte de Lima,Rendufe,RENDUFE,41.8597764,-8.564048195152429,NC,438.0,2004-02-12T22:00,6.3,87,4.2,3.8,0.0,0.0,0.0,0.0,0,1026.7,973.4,0,0,0,0,0.0,0.13,7.4,10.8,61,30,17.3,6.2,9.1,9.3,10.3,0.351,0.363,0.387,0.418,0,0.0,0.0,0.0,0.0,0.0,0.0,0.0,0.0,0.0,0.0,0.0,0.0,0.0,Magnoliopsida; Pinus pinaster Aiton; Tracheophyta; Eucalyptus L'Hér.
2004,2004-09-04,Viana do Castelo,Caminha,Vila Praia de Âncora,VILA PRAIA DE ÂNCORA,41.8154392,-8.8626034,NC,27.0,2004-09-04T17:00,23.7,79,19.8,26.6,0.0,0.0,0.0,0.0,2,1017.1,1013.9,62,0,53,100,0.17,0.61,5.5,8.9,122,104,23.0,25.6,22.7,20.6,19.6,0.251,0.259,0.285,0.334,1,3600.0,208.8,85.6,123.2,227.9,208.8,505.5,256.0,105.0,151.0,227.9,256.0,619.8,Tracheophyta; Magnoliopsida; Pinus pinaster Aiton; Eucalyptus L'Hér.
2004,2004-09-24,Viana do Castelo,Viana do Castelo,Vila Fria,Monte de Ola,41.6625255,-8.7617649,NC,44.0,2004-09-24T00:00,20.1,69,14.2,19.7,0.0,0.0,0.0,0.0,0,1015.1,1009.9,0,0,0,0,0.04,0.73,12.2,20.7,34,51,23.8,20.7,22.8,20.6,19.8,0.111,0.209,0.271,0.33,0,0.0,0.0,0.0,0.0,0.0,0.0,0.0,0.0,0.0,0.0,0.0,0.0,0.0,Eucalyptus L'Hér.; Tracheophyta; Magnoliopsida; Pinus pinaster Aiton
2004,2004-08-07,Viana do Castelo,Ponte de Lima,Boalhosa,Regedoiras,41.7675021,-8.5830992,NC,19.0,2004-08-07T13:00,25.7,64,18.4,29.0,0.0,0.0,0.0,0.0,1,1010.7,1008.5,29,2,0,90,0.59,1.19,12.1,14.0,243,241,27.7,30.2,23.5,22.1,18.8,0.158,0.155,0.226,0.335,1,3600.0,894.3,760.2,134.0,845.0,894.3,1196.7,894.0,760.0,134.0,845.0,894.0,1196.3,Tracheophyta; Magnoliopsida
2004,2004-08-29,Viana do Castelo,Arcos de Valdevez,Couto,COUTO,41.8737745,-8.4065703,NC,135.0,2004-08-29T14:00,24.3,67,17.7,25.3,0.0,0.0,0.0,0.0,0,1019.1,1003.4,0,0,0,0,0.49,1.01,20.3,26.6,327,330,38.2,26.0,20.8,19.9,19.0,0.232,0.284,0.284,0.33,1,3600.0,758.1,605.3,152.8,765.5,758.1,1061.0,784.0,626.0,158.0,765.5,784.0,1097.1,Pinus pinaster Aiton; Eucalyptus L'Hér.; Magnoliopsida; Tracheophyta; Vitis vinifera L.
2004,2004-08-26,Viana do Castelo,Monção,Troviscoso,Monte Redondo,42.0690323,-8.4656726,NC,77.0,2004-08-26T22:00,17.8,82,14.6,17.4,0.0,0.0,0.0,0.0,0,1020.0,1010.8,0,0,0,0,0.02,0.38,13.4,21.1,20,27,24.5,18.9,20.7,19.7,18.8,0.265,0.306,0.282,0.33,0,0.0,0.0,0.0,0.0,0.0,0.0,0.0,0.0,0.0,0.0,0.0,0.0,0.0,Magnoliopsida; Vitis vinifera L.; Pinus pinaster Aiton; Tracheophyta
2004,2004-09-24,Viana do Castelo,Viana do Castelo,Areosa,São Mamede,41.7303664,-8.8291614,NC,271.0,2004-09-24T19:00,21.7,55,12.3,21.2,0.0,0.0,0.0,0.0,0,1015.5,984.2,0,0,0,0,0.07,1.16,8.0,16.8,8,15,22.0,23.0,22.0,19.4,18.5,0.136,0.213,0.27,0.324,0,0.0,0.0,0.0,0.0,0.0,0.0,0.0,7.0,3.0,4.0,40.1,7.0,42.6,Eucalyptus L'Hér.; Magnoliopsida
2004,2004-09-09,Viana do Castelo,Viana do Castelo,Chafé,Rego do Córão,41.6497565,-8.7812698,NC,32.0,2004-09-09T16:00,22.6,79,18.7,23.9,0.2,0.2,0.0,0.0,51,1018.2,1014.4,63,70,0,0,0.29,0.59,13.5,18.1,226,226,34.2,25.7,22.0,20.9,19.7,0.191,0.227,0.241,0.32,1,3600.0,426.2,299.7,126.6,580.7,426.2,696.2,485.0,341.0,144.0,580.7,485.0,792.2,Tracheophyta; Magnoliopsida; Pinus pinaster Aiton
2004,2004-08-27,Viana do Castelo,Monção,Messegães,Cova,42.0820799,-8.3595241,NC,91.0,2004-08-27T20:00,19.8,80,16.2,20.9,0.0,0.0,0.0,0.0,0,1016.2,1005.5,0,0,0,1,0.03,0.47,6.7,14.0,324,337,16.9,21.3,21.5,19.6,18.7,0.251,0.297,0.281,0.33,0,0.0,0.0,0.0,0.0,0.0,0.0,0.0,1.0,0.0,1.0,0.0,1.0,13.7,Magnoliopsida; Vitis vinifera L.; Eucalyptus L'Hér.; Pinales; Pinus pinaster Aiton; Tracheophyta; 
2004,2004-09-16,Viana do Castelo,Ponte de Lima,Refóios do Lima,Nogueira,41.7933146,-8.542976,NC,68.0,2004-09-16T21:00,16.5,86,14.1,16.3,0.0,0.0,0.0,0.0,0,1021.2,1013.0,0,0,0,0,0.01,0.27,10.9,19.7,6,8,19.1,18.3,20.3,20.0,19.6,0.216,0.262,0.299,0.327,0,0.0,0.0,0.0,0.0,0.0,0.0,0.0,0.0,0.0,0.0,0.0,0.0,0.0,Magnoliopsida; Eucalyptus L'Hér.; Tracheophyta; Vitis vinifera L.
