year,date,district,municipality,parish,local,latitude,longitude,cause,elevation,hourly.time,hourly.temperature_2m,hourly.relative_humidity_2m,hourly.dew_point_2m,hourly.apparent_temperature,hourly.precipitation,hourly.rain,hourly.snowfall,hourly.snow_depth,hourly.weather_code,hourly.pressure_msl,hourly.surface_pressure,hourly.cloud_cover,hourly.cloud_cover_low,hourly.cloud_cover_mid,hourly.cloud_cover_high,hourly.et0_fao_evapotranspiration,hourly.vapour_pressure_deficit,hourly.wind_speed_10m,hourly.wind_speed_100m,hourly.wind_direction_10m,hourly.wind_direction_100m,hourly.wind_gusts_10m,hourly.soil_temperature_0_to_7cm,hourly.soil_temperature_7_to_28cm,hourly.soil_temperature_28_to_100cm,hourly.soil_temperature_100_to_255cm,hourly.soil_moisture_0_to_7cm,hourly.soil_moisture_7_to_28cm,hourly.soil_moisture_28_to_100cm,hourly.soil_moisture_100_to_255cm,hourly.is_day,hourly.sunshine_duration,hourly.shortwave_radiation_instant,hourly.direct_radiation_instant,hourly.diffuse_radiation_instant,hourly.direct_normal_irradiance_instant,hourly.global_tilted_irradiance_instant,hourly.terrestrial_radiation_instant,hourly.shortwave_radiation,hourly.direct_radiation,hourly.diffuse_radiation,hourly.direct_normal_irradiance,hourly.global_tilted_irradiance,hourly.terrestrial_radiation,scientificNames
2004,2004-07-14,Viseu,Lamego,Valdigem,VALDIGEM,41.1386734,-7.757867134086674,NC,430.0,2004-07-14T16:00,31.6,21,6.9,31.6,0.0,0.0,0.0,0.0,0,1015.6,968.0,0,0,0,0,0.54,3.65,3.0,3.5,14,24,18.0,34.4,24.1,19.7,15.7,0.146,0.149,0.197,0.339,1,3600.0,681.7,591.3,90.3,864.0,681.7,905.9,747.0,648.0,99.0,864.0,747.0,992.7,Olea europaea L.; Magnoliopsida; Vitis vinifera L.; Tracheophyta; Eucalyptus L'Hér.; 
2004,2004-07-13,Viseu,Penedono,Antas,ANTAS,40.93415,-7.37936,NC,806.0,2004-07-13T03:00,14.9,48,3.9,11.9,0.0,0.0,0.0,0.0,0,1017.4,925.4,0,0,0,0,0.06,0.89,10.8,24.9,53,59,25.2,17.0,21.5,19.1,14.5,0.122,0.138,0.196,0.309,0,0.0,0.0,0.0,0.0,0.0,0.0,0.0,0.0,0.0,0.0,0.0,0.0,0.0,Vitis vinifera L.; Magnoliopsida
2004,2004-07-14,Viseu,Cinfães,Tarouquela,TAROUQUELA,41.069795,-8.187709752425437,NC,406.0,2004-07-14T19:00,28.9,34,11.3,28.1,0.0,0.0,0.0,0.0,0,1015.2,969.8,0,0,0,0,0.2,2.64,8.1,16.6,328,333,24.8,29.1,23.3,18.7,15.2,0.115,0.164,0.247,0.347,1,3600.0,135.9,97.8,38.1,558.9,135.9,231.7,207.0,149.0,58.0,558.9,207.0,352.9,Magnoliopsida; Pinus pinaster Aiton; Quercus L.; Vitis vinifera L.; Tracheophyta; Eucalyptus L'Hér.; 
2004,2004-07-20,Viseu,Vouzela,Cambra,CAMBRA,40.6861344,-8.1612228,NC,499.0,2004-07-20T16:00,24.2,54,14.4,23.9,0.0,0.0,0.0,0.0,0,1014.5,958.3,1,0,1,0,0.4,1.37,12.7,16.3,277,276,34.6,30.6,23.5,20.6,16.3,0.097,0.143,0.22,0.335,1,3600.0,514.3,323.7,190.6,474.3,514.3,904.1,564.0,355.0,209.0,474.3,564.0,991.5,Eucalyptus L'Hér.; Magnoliopsida; Tracheophyta; Pinus pinaster Aiton; Quercus L.; Olea europaea L.; 
2004,2004-07-10,Viseu,São João da Pesqueira,Paredes da Beira,Cerro das Garridas \ REG,41.0647773,-7.4754716,NC,780.0,2004-07-10T11:00,19.2,53,9.5,19.0,0.0,0.0,0.0,0.0,3,1018.8,930.8,82,90,2,0,0.37,1.04,2.6,3.1,304,306,22.3,22.6,19.1,19.0,14.3,0.14,0.148,0.202,0.323,1,3600.0,622.9,318.8,304.1,359.6,622.9,1173.0,592.0,303.0,289.0,359.6,592.0,1114.9,Magnoliopsida; Olea europaea L.; Tracheophyta; Castanea sativa Mill.; Pinus pinaster Aiton
2004,2004-07-20,Viseu,Oliveira de Frades,Oliveira de Frades,OLIVEIRA DE FRADES,40.725496750000005,-8.183912315118784,NC,461.0,2004-07-20T19:00,21.8,60,13.6,21.3,0.0,0.0,0.0,0.0,0,1014.6,962.1,4,4,0,1,0.15,1.05,11.4,15.3,294,297,30.2,27.0,24.1,20.9,16.5,0.097,0.143,0.22,0.335,1,3600.0,111.7,71.5,40.2,437.0,111.7,216.7,175.0,112.0,63.0,437.0,175.0,339.5,Eucalyptus L'Hér.; Pinus pinaster Aiton; Magnoliopsida; Tracheophyta; Quercus L.; Olea europaea L.; 
2004,2004-07-11,Viseu,Cinfães,Tendais,Fermentãos,41.0142975,-8.0529355,NC,613.0,2004-07-11T18:00,23.3,44,10.3,21.3,0.0,0.0,0.0,0.0,0,1016.8,947.9,2,0,4,0,0.3,1.61,14.2,20.0,333,334,31.7,25.0,20.5,18.3,14.9,0.149,0.165,0.251,0.349,1,3600.0,312.4,246.5,65.8,683.2,312.4,477.6,389.0,307.0,82.0,683.2,389.0,594.7,Tracheophyta; Quercus L.; Magnoliopsida; Pinus pinaster Aiton; 
2004,2004-07-13,Viseu,Resende,São Martinho de Mouros,Paradelhes,41.1025369,-7.8977383,NC,375.0,2004-07-13T00:00,17.7,63,10.7,16.7,0.0,0.0,0.0,0.0,0,1015.7,972.1,0,0,0,0,0.03,0.74,8.1,12.1,45,53,19.8,18.4,21.6,19.1,15.7,0.141,0.165,0.249,0.347,0,0.0,0.0,0.0,0.0,0.0,0.0,0.0,0.0,0.0,0.0,0.0,0.0,0.0,Olea europaea L.; Tracheophyta; Magnoliopsida; Eucalyptus L'Hér.; Pinus pinaster Aiton; Pinales
2004,2004-07-04,Viseu,Resende,Barrô,BARRÔ,41.1291961,-7.8823471,NC,255.0,2004-07-04T08:00,20.0,72,14.8,21.0,0.0,0.0,0.0,0.0,0,1018.4,988.7,0,0,0,0,0.21,0.66,4.1,5.1,308,315,14.0,21.6,21.8,20.7,15.7,0.105,0.173,0.258,0.352,1,3600.0,438.4,345.4,93.0,682.6,438.4,669.6,363.0,286.0,77.0,682.6,363.0,554.4,Magnoliopsida; Pinus pinaster Aiton; Pinales; Vitis vinifera L.; Tracheophyta; Eucalyptus L'Hér.; Olea europaea L.; 
2004,2004-09-21,Viseu,Vouzela,Alcofra,Casais,40.6252803,-8.1818787,NC,584.0,2004-09-21T15:00,29.1,28,8.6,28.5,0.0,0.0,0.0,0.0,0,1021.2,956.4,0,0,0,0,0.48,2.91,5.9,7.3,52,57,16.2,31.0,21.5,19.6,18.7,0.109,0.173,0.198,0.301,1,3600.0,593.5,511.0,82.4,854.7,593.5,811.9,648.0,558.0,90.0,854.7,648.0,886.5,Magnoliopsida; Pinus pinaster Aiton; Tracheophyta; Eucalyptus L'Hér.; Vitis vinifera L.; Quercus L.; 
2004,2004-07-21,Viseu,Nelas,Senhorim,Carvalhas,40.5398434,-7.8207072,NC,374.0,2004-07-21T00:00,18.2,79,14.5,19.3,0.0,0.0,0.0,0.0,0,1014.7,971.3,4,0,0,14,0.0,0.44,2.6,3.6,304,323,5.4,21.1,25.3,22.4,17.4,0.075,0.162,0.248,0.345,0,0.0,0.0,0.0,0.0,0.0,0.0,0.0,0.0,0.0,0.0,0.0,0.0,0.0,Tracheophyta; Olea europaea L.; Magnoliopsida; Castanea sativa Mill.; Pinus pinaster Aiton; Vitis vinifera L.
2004,2004-11-27,Viseu,Vouzela,Alcofra,MEA,40.614256,-8.1958379,NC,671.0,2004-11-27T17:00,10.9,72,6.1,8.9,0.0,0.0,0.0,0.0,2,1019.5,941.0,64,0,57,100,0.03,0.36,6.9,16.4,84,99,20.2,9.4,8.2,9.8,15.0,0.3,0.316,0.349,0.306,1,0.0,2.5,0.1,2.4,0.9,1.8,10.2,31.0,1.0,30.0,8.2,31.0,127.8,Magnoliopsida; Pinus pinaster Aiton; Tracheophyta; Eucalyptus L'Hér.; Vitis vinifera L.; Quercus L.; 
2004,2004-07-15,Viseu,Resende,São Martinho de Mouros,Vila Verde,41.1121455,-7.8826476,NC,571.0,2004-07-15T00:00,22.5,44,9.8,21.2,0.0,0.0,0.0,0.0,0,1016.5,952.0,0,0,0,0,0.07,1.52,8.8,11.8,78,67,14.4,19.7,22.2,18.1,14.6,0.144,0.159,0.238,0.347,0,0.0,0.0,0.0,0.0,0.0,0.0,0.0,0.0,0.0,0.0,0.0,0.0,0.0,Tracheophyta; Pinales; Magnoliopsida; Pinus pinaster Aiton
2004,2004-07-12,Viseu,Lamego,Ferreirim,FERREIRIM,41.0458264,-7.7811537,NC,492.0,2004-07-12T02:00,15.0,76,10.8,14.5,0.0,0.0,0.0,0.0,0,1017.1,959.8,0,0,0,0,0.0,0.42,5.4,10.3,37,25,22.0,16.4,21.1,19.6,15.6,0.157,0.153,0.198,0.34,0,0.0,0.0,0.0,0.0,0.0,0.0,0.0,0.0,0.0,0.0,0.0,0.0,0.0,Magnoliopsida; Pinales; Vitis vinifera L.; Castanea sativa Mill.; Tracheophyta; Quercus L.; Pinus pinaster Aiton; Olea europaea L.; 
2004,2004-07-13,Viseu,Viseu,Campo,Crasto,40.7092874,-7.9234277,NC,559.0,2004-07-13T09:00,20.8,41,7.2,18.0,0.0,0.0,0.0,0.0,0,1017.8,954.2,0,0,0,0,0.37,1.44,14.3,19.5,65,67,36.7,22.3,21.1,19.5,15.6,0.094,0.163,0.247,0.346,1,3600.0,614.3,513.1,101.2,785.5,614.3,864.5,540.0,451.0,89.0,785.5,540.0,759.9,Tracheophyta; Pinus pinaster Aiton
2004,2004-07-12,Viseu,Penedono,Souto,SOUTO,41.0223663,-7.359912599999999,NC,798.0,2004-07-12T09:00,17.8,45,5.8,14.6,0.0,0.0,0.0,0.0,0,1017.7,927.5,0,0,0,0,0.34,1.12,15.4,20.2,57,59,35.6,20.8,19.5,19.0,14.4,0.126,0.149,0.195,0.313,1,3600.0,620.9,516.5,104.4,785.4,620.9,870.3,547.0,455.0,92.0,785.4,547.0,766.7,Pinales; Magnoliopsida; Tracheophyta; Pinus pinaster Aiton; Castanea sativa Mill.; Eucalyptus L'Hér.; ; Vitis vinifera L.; Olea europaea L.
2004,2004-07-13,Viseu,Sátão,Rio de Moinhos,Casal de Cima,40.7144192,-7.6975145,NC,525.0,2004-07-13T17:00,29.1,22,5.0,26.8,0.0,0.0,0.0,0.0,0,1014.7,956.6,0,0,0,0,0.46,3.15,8.8,11.1,12,13,19.4,35.5,24.8,20.5,16.2,0.081,0.168,0.251,0.345,1,3600.0,506.1,427.1,79.0,807.6,506.1,700.0,583.0,492.0,91.0,807.6,583.0,806.4,Tracheophyta; Pinus pinaster Aiton; Castanea sativa Mill.; Vitis vinifera L.; Magnoliopsida
2004,2004-07-15,Viseu,Lamego,Penude,PENUDE,41.090431,-7.821420418351966,NC,601.0,2004-07-15T08:00,21.9,54,12.0,21.2,0.0,0.0,0.0,0.0,0,1017.4,949.4,0,0,0,0,0.23,1.22,9.1,12.4,72,73,24.5,21.8,21.6,19.0,15.0,0.14,0.148,0.211,0.342,1,3600.0,420.0,329.6,90.3,675.6,420.0,645.9,344.0,270.0,74.0,675.6,344.0,529.0,Vitis vinifera L.; Magnoliopsida; Tracheophyta; Pinales; ; Pinus pinaster Aiton; Castanea sativa Mill.
2004,2004-07-22,Viseu,Lamego,Avões,AVÕES,41.108631,-7.826622,NC,811.0,2004-07-22T06:00,14.2,98,13.9,15.1,0.0,0.0,0.0,0.0,1,1015.0,922.5,45,50,0,0,0.01,0.03,2.8,4.7,230,212,12.6,17.0,21.3,19.3,14.9,0.131,0.141,0.212,0.342,1,35.96,37.3,14.0,23.3,127.8,19.2,145.0,16.0,6.0,10.0,65.9,16.0,62.2,Magnoliopsida; Vitis vinifera L.; Tracheophyta; Eucalyptus L'Hér.; Pinales; 
2004,2004-07-15,Viseu,Oliveira de Frades,Pinheiro,Ponte Fora,40.7280899,-8.2051405,NC,390.0,2004-07-15T14:00,32.2,27,10.9,33.0,0.1,0.1,0.0,0.0,51,1014.2,971.1,1,0,1,0,0.73,3.5,10.4,13.0,270,270,32.4,36.3,25.2,20.5,16.6,0.1,0.147,0.227,0.339,1,3600.0,883.8,774.8,109.0,861.7,883.8,1190.3,908.0,796.0,112.0,861.7,908.0,1222.8,Eucalyptus L'Hér.; Pinus pinaster Aiton; Magnoliopsida; Tracheophyta; Quercus L.; Olea europaea L.
2004,2004-12-16,Viseu,Tondela,Tondela,KM 105 IP3,40.4994837,-8.0819413,NC,353.0,2004-12-16T15:00,13.1,71,7.9,11.2,0.0,0.0,0.0,0.0,1,1022.7,980.7,31,34,1,0,0.15,0.44,8.9,11.7,313,315,20.5,12.1,8.4,9.9,14.7,0.33,0.339,0.343,0.299,1,3600.0,258.4,185.7,72.7,632.7,258.4,414.5,302.0,217.0,85.0,632.7,302.0,484.4,Tracheophyta; Magnoliopsida; Eucalyptus L'Hér.; Vitis vinifera L.
2004,2004-07-07,Viseu,São João da Pesqueira,Riodades,Quinta da Pardada \ CAS,41.0192514,-7.4987743,NC,585.0,2004-07-07T20:00,13.4,72,8.5,10.9,0.0,0.0,0.0,0.0,1,1018.0,949.8,40,29,24,0,0.05,0.42,14.2,20.8,279,279,40.0,19.1,22.2,21.0,15.1,0.121,0.158,0.207,0.322,1,1320.02,0.0,0.0,0.0,0.0,0.0,0.0,35.0,17.0,18.0,138.8,35.0,110.4,Tracheophyta; Vitis vinifera L.; Olea europaea L.; Magnoliopsida; Pinus pinaster Aiton
2004,2004-07-03,Viseu,Lamego,Penude,PENUDE,41.090431,-7.821420418351966,NC,601.0,2004-07-03T22:00,17.9,70,12.5,17.9,0.0,0.0,0.0,0.0,0,1019.1,950.1,0,0,0,0,0.01,0.61,5.8,10.4,274,284,17.6,21.4,23.2,19.4,14.1,0.132,0.153,0.224,0.348,0,0.0,0.0,0.0,0.0,0.0,0.0,0.0,0.0,0.0,0.0,0.0,0.0,0.0,Vitis vinifera L.; Magnoliopsida; Tracheophyta; Pinales; ; Pinus pinaster Aiton; Castanea sativa Mill.
2004,2004-07-22,Viseu,São João da Pesqueira,Paredes da Beira,PAREDES DA BEIRA,41.064976,-7.4765,NC,767.0,2004-07-22T21:00,21.1,63,13.9,21.7,0.0,0.0,0.0,0.0,1,1018.4,932.3,30,0,1,97,0.01,0.91,4.3,10.2,275,278,18.7,24.3,24.7,20.4,15.5,0.137,0.145,0.189,0.318,0,0.0,0.0,0.0,0.0,0.0,0.0,0.0,0.0,0.0,0.0,0.0,0.0,0.0,Magnoliopsida; Olea europaea L.; Tracheophyta; Castanea sativa Mill.; Pinus pinaster Aiton
2004,2004-10-03,Viseu,Castro Daire,Gosende,GOSENDE,41.0083477,-7.9058671,NC,1004.0,2004-10-03T15:00,24.3,27,4.4,21.3,0.0,0.0,0.0,0.0,0,1018.2,908.5,0,0,0,0,0.44,2.21,12.8,16.9,248,246,32.0,26.1,18.0,17.3,16.7,0.12,0.175,0.21,0.314,1,3600.0,533.4,460.2,73.2,869.6,533.4,723.4,590.0,509.0,81.0,869.6,590.0,800.2,Tracheophyta; Magnoliopsida; Pinales
2004,2004-07-23,Viseu,Cinfães,Nespereira,Rio Longo,41.0012055,-8.1765373,NC,300.0,2004-07-23T18:00,29.3,41,14.8,29.8,0.0,0.0,0.0,0.0,0,1019.4,985.5,2,0,0,8,0.31,2.39,7.7,10.0,307,311,22.7,32.5,25.0,20.6,16.6,0.102,0.153,0.234,0.343,1,3600.0,305.0,243.1,62.0,702.7,305.0,458.5,384.0,306.0,78.0,702.7,384.0,577.1,Tracheophyta; Magnoliopsida; Eucalyptus L'Hér.
2004,2004-07-23,Viseu,Resende,Barrô,Vales,41.1369549,-7.8744989,NC,318.0,2004-07-23T21:00,26.0,59,17.4,28.0,0.0,0.0,0.0,0.0,0,1020.8,984.5,0,0,0,0,0.02,1.37,4.6,5.4,315,323,14.0,27.2,25.8,21.0,16.8,0.098,0.152,0.234,0.34,0,0.0,0.0,0.0,0.0,0.0,0.0,0.0,0.0,0.0,0.0,0.0,0.0,0.0,Magnoliopsida; Pinus pinaster Aiton; Pinales; Vitis vinifera L.; Tracheophyta; Eucalyptus L'Hér.; Olea europaea L.; ; Quercus L.
2004,2004-11-18,Viseu,Vouzela,Alcofra,ALCOFRA,40.617384,-8.1612577,NC,696.0,2004-11-18T11:00,10.2,66,4.1,8.4,0.0,0.0,0.0,0.0,0,1029.3,947.1,0,0,0,0,0.18,0.43,2.6,3.3,74,77,13.7,9.2,7.0,10.6,15.8,0.316,0.332,0.362,0.304,1,3600.0,427.0,327.6,99.4,712.3,427.0,644.0,391.0,300.0,91.0,712.3,391.0,589.7,Magnoliopsida; Pinus pinaster Aiton; Tracheophyta; Eucalyptus L'Hér.; Vitis vinifera L.; Quercus L.; 
2004,2004-07-13,Viseu,Viseu,Abraveses,Bairro de Santa Rita,40.6821056,-7.9165906,NC,507.0,2004-07-13T11:00,25.3,31,7.0,24.5,0.0,0.0,0.0,0.0,0,1017.4,960.3,0,0,0,0,0.6,2.22,11.3,14.9,73,75,32.0,28.2,21.8,19.8,15.9,0.093,0.163,0.247,0.346,1,3600.0,893.6,781.9,111.7,885.3,893.6,1169.0,848.0,742.0,106.0,885.3,848.0,1109.3,Pinus pinaster Aiton; Tracheophyta; Magnoliopsida
2004,2004-07-15,Viseu,Tondela,Silvares,SILVARES,40.61778145,-8.129032492153879,NC,718.0,2004-07-15T17:00,26.8,35,10.2,25.4,0.0,0.0,0.0,0.0,0,1013.8,934.8,10,0,16,3,0.34,2.27,10.0,13.2,285,287,25.6,30.9,24.2,18.6,14.5,0.1,0.142,0.217,0.331,1,3600.0,334.5,235.5,99.1,442.5,334.5,704.5,385.0,271.0,114.0,442.5,385.0,810.8,Tracheophyta; Magnoliopsida; Pinus pinaster Aiton; Eucalyptus L'Hér.
2004,2004-07-15,Viseu,Penedono,Penedono,PENEDONO,40.9831056,-7.390532490896566,NC,960.0,2004-07-15T18:00,26.1,33,8.5,24.8,0.0,0.0,0.0,0.0,1,1014.0,909.8,26,0,36,13,0.23,2.28,6.4,8.7,286,287,24.8,28.3,23.7,18.2,13.6,0.155,0.138,0.195,0.314,1,3600.0,211.2,125.1,86.1,357.7,211.2,463.0,265.0,157.0,108.0,357.7,265.0,581.0,Magnoliopsida; Pinus pinaster Aiton
2004,2004-12-23,Viseu,Lamego,Lalim,LALIM,41.04239895,-7.8146570795472545,NC,584.0,2004-12-23T17:00,7.8,67,2.0,4.8,0.0,0.0,0.0,0.0,0,1027.7,957.7,0,0,0,0,0.03,0.35,7.9,13.4,66,66,19.1,6.2,4.5,7.6,12.4,0.328,0.333,0.331,0.311,1,2098.39,3.2,2.0,1.2,23.4,2.3,6.4,60.0,38.0,22.0,323.2,60.0,119.8,Tracheophyta; Pinales; Magnoliopsida
2004,2004-07-12,Viseu,Viseu,São João de Lourosa,Oliveira de Barreiros,40.5960955,-7.9247902,NC,408.0,2004-07-12T13:00,27.0,28,6.9,27.3,0.0,0.0,0.0,0.0,0,1015.1,969.2,0,0,0,0,0.7,2.57,9.2,11.8,59,63,29.2,30.2,21.4,19.7,16.1,0.11,0.17,0.251,0.347,1,3600.0,968.9,855.0,113.9,906.1,968.9,1248.8,970.0,856.0,114.0,906.1,970.0,1250.2,Olea europaea L.; Vitis vinifera L.; Pinus pinaster Aiton; Tracheophyta; Magnoliopsida
2004,2004-07-05,Viseu,São João da Pesqueira,Riodades,Vale de Penela,41.0192514,-7.4987743,NC,585.0,2004-07-05T09:00,20.9,62,13.4,21.7,0.0,0.0,0.0,0.0,1,1017.7,951.2,46,0,56,42,0.3,0.94,2.3,3.1,309,306,26.3,25.1,23.3,21.0,14.8,0.113,0.159,0.21,0.323,1,3600.0,537.3,360.9,176.5,540.3,537.3,883.7,475.0,319.0,156.0,540.3,475.0,781.2,Tracheophyta; Vitis vinifera L.; Olea europaea L.; Magnoliopsida; Pinus pinaster Aiton
2004,2004-09-21,Viseu,São Pedro do Sul,Pinho,Sobral,40.7721135,-8.0144962,NC,420.0,2004-09-21T15:00,29.7,33,11.9,30.3,0.0,0.0,0.0,0.0,0,1020.5,973.5,0,0,0,0,0.47,2.77,3.9,4.5,22,29,16.2,29.8,21.5,19.9,19.3,0.14,0.209,0.224,0.313,1,3600.0,596.0,512.7,83.3,860.5,596.0,809.0,651.0,560.0,91.0,860.5,651.0,883.6,Pinus pinaster Aiton; Magnoliopsida; Quercus L.; Eucalyptus L'Hér.; Tracheophyta; Olea europaea L.; 
2004,2004-06-10,Viseu,Viseu,Repeses,Repeses,40.6331512,-7.925942387499379,NC,462.0,2004-06-10T03:00,16.4,91,15.0,17.4,0.0,0.0,0.0,0.0,0,1020.1,966.3,0,0,0,1,0.0,0.16,4.7,5.8,67,83,7.2,17.8,21.7,17.9,12.4,0.129,0.226,0.291,0.364,0,0.0,0.0,0.0,0.0,0.0,0.0,0.0,0.0,0.0,0.0,0.0,0.0,0.0,Vitis vinifera L.; Magnoliopsida; Tracheophyta; Pinus pinaster Aiton
2004,2004-07-05,Viseu,Nelas,Senhorim,SENHORIM,40.5486545,-7.839076322007985,NC,438.0,2004-07-05T14:00,26.5,36,10.2,25.9,0.0,0.0,0.0,0.0,0,1016.6,967.3,14,0,8,30,0.59,2.22,13.4,16.1,294,294,46.1,34.0,24.8,21.6,15.7,0.08,0.171,0.256,0.347,1,3600.0,757.7,527.2,230.5,582.5,757.7,1197.5,779.0,542.0,237.0,582.5,779.0,1231.1,Olea europaea L.; Magnoliopsida; Vitis vinifera L.; Tracheophyta
2004,2004-07-23,Viseu,Tondela,Nandufe,NANDUFE,40.546368,-8.076902668581187,NC,312.0,2004-07-23T23:00,24.1,64,16.9,25.7,0.0,0.0,0.0,0.0,0,1021.0,985.2,0,0,0,0,0.02,1.08,5.5,7.0,32,12,6.1,25.3,26.4,21.7,17.2,0.096,0.139,0.208,0.325,0,0.0,0.0,0.0,0.0,0.0,0.0,0.0,0.0,0.0,0.0,0.0,0.0,0.0,Magnoliopsida; Vitis vinifera L.; Eucalyptus L'Hér.; Pinus pinaster Aiton; Tracheophyta; Acacia Mill.
2004,2004-07-09,Viseu,Cinfães,Santiago de Piães,Mogos,41.0701644,-8.1554173,NC,342.0,2004-07-09T19:00,16.9,65,10.3,15.8,0.0,0.0,0.0,0.0,1,1021.2,981.0,29,23,14,0,0.12,0.68,8.8,11.8,289,290,27.0,21.6,19.7,18.9,15.3,0.158,0.17,0.255,0.352,1,3600.0,125.4,80.0,45.3,438.6,125.4,241.5,188.0,120.0,68.0,438.6,188.0,362.1,Magnoliopsida; Pinus pinaster Aiton; Quercus L.; Tracheophyta; Eucalyptus L'Hér.; Castanea sativa Mill.; 
2004,2004-07-11,Viseu,Nelas,Nelas,NELAS,40.51924,-7.859607564669652,NC,422.0,2004-07-11T07:00,15.5,86,13.3,16.0,0.0,0.0,0.0,0.0,1,1018.0,968.6,23,26,0,0,0.06,0.24,4.2,8.5,20,28,14.4,16.6,19.2,19.6,15.9,0.124,0.171,0.252,0.348,1,3600.0,170.8,79.0,91.7,250.2,170.8,418.0,121.0,56.0,65.0,250.2,121.0,296.2,Pinus pinaster Aiton; Magnoliopsida; Vitis vinifera L.; Tracheophyta
2004,2004-07-06,Viseu,Vouzela,Queirã,Minas da Bejança,40.6549464,-8.074003291969433,NC,472.0,2004-07-06T14:00,23.1,51,12.6,23.3,0.0,0.0,0.0,0.0,2,1012.4,959.0,64,45,0,79,0.56,1.38,16.2,21.2,269,270,40.0,29.7,22.3,20.1,15.3,0.1,0.154,0.238,0.344,1,3600.0,844.8,594.7,250.1,656.9,844.8,1197.7,868.0,611.0,257.0,656.9,868.0,1230.6,Magnoliopsida; Pinus pinaster Aiton; Pinales; Tracheophyta; Quercus L.; Eucalyptus L'Hér.; Olea europaea L.; 
2004,2004-06-12,Viseu,Moimenta da Beira,Cabaços,CABAÇOS,41.0261919,-7.5737411,NC,935.0,2004-06-12T21:00,21.6,69,15.6,22.5,0.0,0.0,0.0,0.0,0,1018.5,914.9,1,0,1,0,0.02,0.81,7.3,9.4,290,313,11.9,22.6,21.9,16.4,10.4,0.177,0.201,0.259,0.339,0,0.0,0.0,0.0,0.0,0.0,0.0,0.0,0.0,0.0,0.0,0.0,0.0,0.0,Tracheophyta; Magnoliopsida; Pinus pinaster Aiton
2004,2004-07-12,Viseu,Sátão,Rio de Moinhos,Quinta da Maliguinha ?,40.7144192,-7.6975145,NC,525.0,2004-07-12T14:00,27.0,27,6.3,26.9,0.0,0.0,0.0,0.0,0,1015.3,956.7,0,0,0,0,0.69,2.6,10.0,12.7,52,55,29.2,33.6,22.5,20.4,16.1,0.085,0.17,0.253,0.345,1,3600.0,920.2,809.3,110.9,899.4,920.2,1190.9,946.0,832.0,114.0,899.4,946.0,1224.3,Tracheophyta; Pinus pinaster Aiton; Castanea sativa Mill.; Vitis vinifera L.; Magnoliopsida
2004,2004-07-09,Viseu,Cinfães,Oliveira Do Douro,Paredes,41.0810992,-8.0489872,NC,356.0,2004-07-09T13:00,19.9,48,8.5,20.5,0.0,0.0,0.0,0.0,0,1021.8,980.4,18,1,28,0,0.57,1.21,9.4,11.4,288,288,33.8,24.2,18.0,19.0,15.1,0.175,0.171,0.254,0.351,1,3600.0,956.3,840.4,115.9,890.8,956.3,1248.3,957.0,841.0,116.0,890.8,957.0,1249.2,Pinus pinaster Aiton; Magnoliopsida; Quercus L.; Tracheophyta; 
2004,2004-07-16,Viseu,Carregal do Sal,Oliveira do Conde,FIAIS DA TELHA,40.4592444,-7.9441526,NC,323.0,2004-07-16T15:00,30.4,30,11.0,29.9,0.0,0.0,0.0,0.0,0,1011.7,975.7,11,0,16,4,0.66,3.03,15.4,19.8,281,282,33.8,36.5,26.4,21.2,16.6,0.086,0.163,0.246,0.345,1,3600.0,761.2,634.5,126.7,779.9,761.2,1077.0,805.0,671.0,134.0,779.9,805.0,1139.0,Pinus pinaster Aiton; Olea europaea L.; Eucalyptus L'Hér.; Tracheophyta; Magnoliopsida; Acacia Mill.
2004,2004-09-23,Viseu,Viseu,São João de Lourosa,Teivas,40.6169271,-7.9019851,NC,459.0,2004-09-23T06:00,17.8,50,7.3,14.9,0.0,0.0,0.0,0.0,0,1019.9,966.7,8,0,0,26,0.09,1.02,15.6,31.8,64,67,31.7,18.5,21.9,20.4,19.3,0.101,0.185,0.22,0.32,0,0.0,0.0,0.0,0.0,0.0,0.0,0.0,0.0,0.0,0.0,0.0,0.0,0.0,Tracheophyta; Pinus pinaster Aiton; Magnoliopsida; Vitis vinifera L.; Olea europaea L.
2004,2004-10-03,Viseu,Lamego,Magueija,Vila Lobos,41.0455686,-7.8762887,NC,831.0,2004-10-03T23:00,15.6,74,11.0,15.1,0.0,0.0,0.0,0.0,0,1019.1,924.5,12,0,0,40,0.0,0.46,5.3,8.4,208,223,16.2,15.7,19.4,18.5,17.8,0.12,0.174,0.21,0.314,0,0.0,0.0,0.0,0.0,0.0,0.0,0.0,0.0,0.0,0.0,0.0,0.0,0.0,Tracheophyta; Magnoliopsida; Pinus pinaster Aiton; Pinales; Castanea sativa Mill.; 
2004,2004-06-11,Viseu,Vila Nova de Paiva,Vila Cova à Coelheira,VILA COVA A COELHEIRA,40.876181200000005,-7.798446661944673,NC,722.0,2004-06-11T13:00,26.8,44,13.5,29.6,0.0,0.0,0.0,0.0,0,1020.1,940.2,0,0,0,0,0.69,1.98,6.4,7.4,286,284,23.0,28.5,20.7,17.0,11.5,0.176,0.234,0.293,0.363,1,3600.0,965.3,847.8,117.6,895.4,965.3,1256.0,969.0,851.0,118.0,895.4,969.0,1260.8,Magnoliopsida; Pinus pinaster Aiton; Tracheophyta
2004,2004-07-14,Viseu,Nelas,Senhorim,Vila Ruiva,40.5398434,-7.8207072,NC,374.0,2004-07-14T00:00,20.8,47,9.0,19.5,0.0,0.0,0.0,0.0,0,1015.5,972.5,0,0,0,0,0.05,1.31,7.3,14.2,57,60,9.7,22.0,25.6,21.1,16.7,0.075,0.169,0.255,0.349,0,0.0,0.0,0.0,0.0,0.0,0.0,0.0,0.0,0.0,0.0,0.0,0.0,0.0,Tracheophyta; Olea europaea L.; Magnoliopsida; Castanea sativa Mill.; Pinus pinaster Aiton; Vitis vinifera L.
2004,2004-09-23,Viseu,Vila Nova de Paiva,Vila Cova à Coelheira,Arroteia,40.8777559,-7.802428,NC,734.0,2004-09-23T11:00,23.3,33,6.0,20.6,0.0,0.0,0.0,0.0,0,1021.4,939.2,8,0,7,13,0.47,1.93,15.3,20.0,60,62,32.0,22.9,19.1,19.0,18.2,0.145,0.202,0.211,0.316,1,3600.0,678.6,531.6,147.0,756.1,678.6,955.6,637.0,499.0,138.0,756.1,637.0,897.0,Magnoliopsida; Pinus pinaster Aiton; Tracheophyta
2004,2004-07-13,Viseu,Cinfães,Oliveira Do Douro,Vila Nova,41.0810992,-8.0489872,NC,356.0,2004-07-13T17:00,28.2,31,9.6,26.6,0.0,0.0,0.0,0.0,0,1014.5,974.5,0,0,0,0,0.47,2.63,11.6,15.6,338,341,27.4,30.3,22.3,18.8,15.4,0.126,0.166,0.249,0.348,1,3600.0,508.5,427.5,81.0,798.5,508.5,708.6,584.0,491.0,93.0,798.5,584.0,813.8,Pinus pinaster Aiton; Magnoliopsida; Quercus L.; Tracheophyta; 
2004,2004-10-04,Viseu,Viseu,Abraveses,Santo Estevão,40.6704779,-7.9294835,NC,489.0,2004-10-04T11:00,23.6,32,6.0,22.1,0.0,0.0,0.0,0.0,0,1018.3,962.9,0,0,0,0,0.42,1.99,6.4,7.7,232,229,20.5,25.5,20.1,20.8,19.8,0.086,0.164,0.213,0.313,1,3600.0,662.1,568.1,94.0,862.9,662.1,900.4,620.0,532.0,88.0,862.9,620.0,843.2,Magnoliopsida; Tracheophyta; Pinus pinaster Aiton
2004,2004-07-13,Viseu,Viseu,Campo,Crasto,40.7092874,-7.9234277,NC,559.0,2004-07-13T16:00,28.6,24,6.0,27.6,0.0,0.0,0.0,0.0,0,1015.1,953.2,0,0,0,0,0.56,2.99,8.3,10.4,358,360,20.5,34.8,23.4,19.5,15.6,0.09,0.162,0.246,0.345,1,3600.0,682.5,589.4,93.1,858.4,682.5,908.8,748.0,646.0,102.0,858.4,748.0,996.0,Tracheophyta; Pinus pinaster Aiton
2004,2004-07-16,Viseu,Cinfães,São Cristovão De Nogueira,Calvário,41.0725776,-8.129046,NC,297.0,2004-07-16T17:00,27.4,46,14.6,27.3,0.0,0.0,0.0,0.0,0,1011.9,978.4,0,0,0,0,0.44,1.99,12.3,15.8,285,287,31.3,32.2,25.1,19.9,16.0,0.108,0.159,0.243,0.348,1,3600.0,500.1,405.3,94.8,761.7,500.1,704.5,575.0,466.0,109.0,761.7,575.0,810.0,Magnoliopsida; Pinus pinaster Aiton; Tracheophyta; Quercus L.; Vitis vinifera L.
2004,2004-06-10,Viseu,Cinfães,Cinfães,Cidadelhe,41.0818105,-8.0901174,NC,277.0,2004-06-10T14:00,27.3,52,16.6,30.0,0.0,0.0,0.0,0.0,0,1020.6,989.1,0,0,0,0,0.62,1.75,10.0,12.1,283,282,25.6,29.6,21.8,17.9,13.0,0.154,0.238,0.304,0.37,1,3600.0,847.2,716.1,131.2,794.9,847.2,1195.3,872.0,737.0,135.0,794.9,872.0,1230.3,Tracheophyta; Vitis vinifera L.; Magnoliopsida
2004,2004-07-18,Viseu,Tarouca,Ucanha,UCANHA,41.048621350000005,-7.734668200971046,NC,586.0,2004-07-18T09:00,18.8,76,14.5,19.5,0.0,0.0,0.0,0.0,1,1017.8,950.8,21,23,0,1,0.25,0.52,5.4,6.5,278,276,17.6,22.4,22.0,19.8,15.4,0.136,0.146,0.206,0.341,1,3600.0,476.1,306.4,169.7,473.2,476.1,857.5,418.0,269.0,149.0,473.2,418.0,752.8,Tracheophyta; Magnoliopsida; Castanea sativa Mill.; Olea europaea L.; Quercus L.; Pinus pinaster Aiton; Vitis vinifera L.; Pinales
2004,2004-07-19,Viseu,Vila Nova de Paiva,Vila Nova de Paiva,VILA NOVA DE PAIVA,40.8522085,-7.7289147,NC,794.0,2004-07-19T13:00,21.6,48,10.2,19.9,0.0,0.0,0.0,0.0,1,1016.9,928.2,33,4,3,92,0.4,1.34,12.7,15.6,277,277,32.4,25.2,21.5,19.3,14.7,0.133,0.143,0.213,0.335,1,2268.51,552.3,126.8,425.4,135.6,552.3,1238.7,553.0,127.0,426.0,135.6,553.0,1240.3,Tracheophyta; Magnoliopsida; Pinus pinaster Aiton; Quercus L.
2004,2004-09-23,Viseu,Resende,Paus,Moumis,41.0714486,-7.8998059,NC,565.0,2004-09-23T14:00,27.5,28,7.5,26.1,0.0,0.0,0.0,0.0,0,1018.4,955.5,17,0,15,27,0.5,2.64,9.8,13.0,82,84,28.8,26.4,19.3,18.5,17.9,0.172,0.22,0.219,0.32,1,3600.0,621.5,451.6,169.9,660.9,621.5,928.7,651.0,473.0,178.0,660.9,651.0,972.8,Magnoliopsida; Pinales; Tracheophyta; Eucalyptus L'Hér.; Pinus pinaster Aiton; Olea europaea L.; 
2004,2004-10-04,Viseu,Castro Daire,Castro Daire,Lamelas de Cá,40.91465745,-7.920020147736607,NC,660.0,2004-10-04T16:00,23.9,31,5.7,21.6,0.0,0.0,0.0,0.0,0,1017.4,943.6,0,0,0,0,0.32,2.05,9.0,11.6,268,265,28.4,26.6,20.1,19.2,18.6,0.111,0.172,0.214,0.313,1,3600.0,365.0,303.2,61.8,795.8,365.0,521.2,437.0,363.0,74.0,795.8,437.0,623.9,Pinus pinaster Aiton; Magnoliopsida; Pinales; Eucalyptus L'Hér.; Tracheophyta
2004,2004-07-09,Viseu,Lamego,Lazarim,LAZARIM,41.0320092,-7.8448406,NC,592.0,2004-07-09T14:00,20.7,40,6.5,20.3,0.0,0.0,0.0,0.0,1,1020.9,953.4,29,0,48,0,0.59,1.47,11.4,14.3,281,280,36.4,25.9,18.5,19.0,14.7,0.171,0.151,0.218,0.345,1,3600.0,911.6,792.9,118.7,880.4,911.6,1191.7,937.0,815.0,122.0,880.4,937.0,1224.9,Tracheophyta; Magnoliopsida; Pinales; Eucalyptus L'Hér.
2004,2004-09-23,Viseu,Sernancelhe,Granjal,GRANJAL,40.8880426,-7.5303027,NC,686.0,2004-09-23T17:00,28.7,17,1.1,26.1,0.0,0.0,0.0,0.0,1,1017.0,941.6,24,0,7,67,0.2,3.27,4.1,6.8,52,58,27.0,28.9,22.7,20.6,19.3,0.125,0.142,0.164,0.288,1,3600.0,201.0,122.5,78.4,466.0,201.0,357.4,269.0,164.0,105.0,466.0,269.0,478.4,Magnoliopsida; Quercus L.; Castanea sativa Mill.; Pinus pinaster Aiton; Tracheophyta; 
2004,2004-07-14,Viseu,Viseu,São João de Lourosa,Oliveira de Barreiros,40.5960955,-7.9247902,NC,408.0,2004-07-14T08:00,22.1,37,6.8,18.8,0.0,0.0,0.0,0.0,0,1017.2,970.5,0,0,0,0,0.3,1.67,16.9,24.0,63,64,35.6,21.8,22.5,20.0,16.2,0.099,0.168,0.249,0.346,1,3600.0,427.8,337.3,90.4,690.7,427.8,646.5,350.0,276.0,74.0,690.7,350.0,528.9,Olea europaea L.; Vitis vinifera L.; Pinus pinaster Aiton; Tracheophyta; Magnoliopsida
2004,2004-07-14,Viseu,Penalva do Castelo,Antas,ANTAS,40.6620925,-7.564901,NC,597.0,2004-07-14T13:00,30.4,18,3.5,30.8,0.0,0.0,0.0,0.0,0,1016.7,951.0,0,0,0,0,0.73,3.55,5.2,6.2,102,111,27.4,35.4,23.5,20.2,15.7,0.08,0.163,0.245,0.337,1,3600.0,977.1,864.3,112.8,918.6,977.1,1245.5,979.0,866.0,113.0,918.6,979.0,1247.9,Magnoliopsida; Olea europaea L.
2004,2004-07-19,Viseu,Moimenta da Beira,Peva,São Martinho,40.8861707,-7.6948785,NC,831.0,2004-07-19T18:00,21.1,49,10.1,18.8,0.0,0.0,0.0,0.0,0,1015.7,923.1,0,0,0,0,0.27,1.27,16.1,21.3,280,281,39.6,25.5,22.1,19.0,14.5,0.132,0.143,0.212,0.335,1,3600.0,281.8,197.7,84.1,573.1,281.8,456.9,355.0,249.0,106.0,573.1,355.0,575.5,Eucalyptus L'Hér.; Pinus pinaster Aiton; Quercus L.; Magnoliopsida; Tracheophyta; Castanea sativa Mill.
2004,2004-07-19,Viseu,Oliveira de Frades,Arcozelo das Maias,Feitalinho,40.7353971,-8.2776103,NC,366.0,2004-07-19T21:00,18.2,85,15.6,19.3,0.0,0.0,0.0,0.0,0,1017.1,974.5,18,20,0,0,0.0,0.32,5.5,11.3,302,307,25.6,22.8,24.1,21.2,17.0,0.098,0.145,0.222,0.336,0,0.0,0.0,0.0,0.0,0.0,0.0,0.0,0.0,0.0,0.0,0.0,0.0,0.0,Eucalyptus L'Hér.; Pinus pinaster Aiton; Magnoliopsida; Tracheophyta; Quercus L.; Olea europaea L.
2004,2004-07-21,Viseu,Vila Nova de Paiva,Fráguas,FRÁGUAS,40.83757735,-7.768243854878458,NC,683.0,2004-07-21T04:00,15.3,88,13.3,15.8,0.0,0.0,0.0,0.0,0,1014.2,936.0,7,0,0,22,0.0,0.21,3.2,4.5,360,346,7.6,16.7,21.7,19.9,15.4,0.104,0.149,0.228,0.334,0,0.0,0.0,0.0,0.0,0.0,0.0,0.0,0.0,0.0,0.0,0.0,0.0,0.0,Magnoliopsida; Pinus pinaster Aiton; Tracheophyta; Quercus L.
2004,2004-11-23,Viseu,Oliveira de Frades,Oliveira de Frades,TRAVASSOS,40.7121231,-8.195875,NC,482.0,2004-11-23T07:00,2.5,96,1.9,-0.9,0.0,0.0,0.0,0.0,2,1027.4,968.2,54,60,0,0,0.0,0.03,11.4,15.6,77,83,25.2,4.9,7.9,11.2,16.4,0.322,0.335,0.366,0.333,0,0.0,0.0,0.0,0.0,0.0,0.0,0.0,0.0,0.0,0.0,0.0,0.0,0.0,Eucalyptus L'Hér.; Pinus pinaster Aiton; Magnoliopsida; Tracheophyta; Quercus L.; Olea europaea L.; 
2004,2004-06-04,Viseu,Armamar,Fontelo,Quinta da Pedra Caldeira,41.1195287,-7.7302312,NC,563.0,2004-06-04T09:00,19.5,42,6.2,16.6,0.0,0.0,0.0,0.0,0,1020.9,956.4,0,0,0,0,0.37,1.32,14.8,20.4,72,73,38.9,20.0,18.2,15.9,11.1,0.187,0.229,0.265,0.358,1,3600.0,650.5,546.8,103.7,807.4,650.5,900.1,577.0,485.0,92.0,807.4,577.0,798.3,Magnoliopsida; Vitis vinifera L.
2004,2004-07-21,Viseu,Cinfães,São Cristovão De Nogueira,Valbom,41.0629352,-8.1384748,NC,313.0,2004-07-21T12:00,25.8,53,15.5,28.5,0.0,0.0,0.0,0.0,2,1014.0,978.5,57,62,0,3,0.59,1.55,6.9,8.0,261,260,24.5,30.1,22.0,20.3,16.3,0.106,0.156,0.238,0.345,1,3600.0,878.4,696.8,181.6,753.4,878.4,1225.3,856.0,679.0,177.0,753.4,856.0,1194.0,Tracheophyta; Magnoliopsida; Pinus pinaster Aiton; Quercus L.
2004,2004-07-14,Viseu,Viseu,Abraveses,Bairro de Santa Rita,40.6821056,-7.9165906,NC,507.0,2004-07-14T16:00,31.4,20,5.6,31.0,0.0,0.0,0.0,0.0,0,1015.1,959.3,0,0,0,0,0.55,3.69,4.3,5.1,312,315,16.2,37.2,24.7,20.1,16.0,0.087,0.161,0.244,0.345,1,3600.0,680.7,588.6,92.2,856.7,680.7,909.4,746.0,645.0,101.0,856.7,746.0,996.6,Pinus pinaster Aiton; Tracheophyta; Magnoliopsida
2004,2004-11-25,Viseu,Vila Nova de Paiva,Touro,Senhora da Boa Sorte,40.8953121,-7.7478521,NC,790.0,2004-11-25T13:00,9.5,68,3.8,7.6,0.0,0.0,0.0,0.0,0,1026.1,933.5,16,0,0,54,0.2,0.39,3.1,3.4,54,58,13.0,9.0,5.4,9.1,15.1,0.291,0.297,0.301,0.304,1,3600.0,421.1,306.2,114.8,663.3,421.1,648.2,429.0,312.0,117.0,663.3,429.0,660.4,Magnoliopsida; Pinus pinaster Aiton; Tracheophyta; Eucalyptus L'Hér.; Quercus L.; 
2004,2004-09-23,Viseu,Penalva do Castelo,Sezures,SEZURES,40.7017481,-7.648731,NC,517.0,2004-09-23T22:00,22.5,28,3.3,19.5,0.0,0.0,0.0,0.0,0,1016.4,957.8,0,0,0,0,0.1,1.95,9.7,17.4,51,66,18.0,22.0,23.8,21.4,20.1,0.08,0.155,0.209,0.312,0,0.0,0.0,0.0,0.0,0.0,0.0,0.0,0.0,0.0,0.0,0.0,0.0,0.0,Magnoliopsida; Vitis vinifera L.; Pinus pinaster Aiton; Tracheophyta
2004,2004-07-21,Viseu,São Pedro do Sul,São Martinho das Moitas,Raso,40.8834837,-8.0312983,NC,663.0,2004-07-21T12:00,25.4,49,14.1,27.8,0.0,0.0,0.0,0.0,0,1014.1,940.5,5,1,0,13,0.61,1.64,7.2,8.4,252,250,31.7,30.4,21.8,19.7,15.5,0.1,0.151,0.233,0.34,1,3600.0,915.1,780.7,134.4,842.7,915.1,1227.4,892.0,761.0,131.0,842.7,892.0,1196.4,Magnoliopsida; Vitis vinifera L.; Pinus pinaster Aiton; Eucalyptus L'Hér.; Tracheophyta; Pinales; 
2004,2004-07-19,Viseu,Moimenta da Beira,Rua,Prados de Baixo,40.9473561,-7.571722,NC,600.0,2004-07-19T21:00,18.3,73,13.3,18.1,0.0,0.0,0.0,0.0,0,1016.2,947.6,0,0,0,0,0.02,0.58,8.9,17.7,284,287,26.3,22.1,23.4,20.6,15.9,0.108,0.15,0.226,0.329,0,0.0,0.0,0.0,0.0,0.0,0.0,0.0,0.0,0.0,0.0,0.0,0.0,0.0,Tracheophyta; Vitis vinifera L.; Magnoliopsida; Castanea sativa Mill.
2004,2004-07-15,Viseu,Castro Daire,Gosende,Peixeninho,41.0204759,-7.8947682,NC,973.0,2004-07-15T00:00,19.6,47,8.1,17.9,0.0,0.0,0.0,0.0,0,1016.7,908.7,0,0,0,0,0.05,1.21,8.4,13.4,65,66,12.6,18.9,21.2,17.0,13.3,0.124,0.153,0.234,0.346,0,0.0,0.0,0.0,0.0,0.0,0.0,0.0,0.0,0.0,0.0,0.0,0.0,0.0,Magnoliopsida; Tracheophyta
2004,2004-09-24,Viseu,Cinfães,Ramires,Vale de Papas,41.03970825,-7.997729200942255,NC,854.0,2004-09-24T18:00,23.9,45,11.1,23.5,0.0,0.0,0.0,0.0,0,1015.1,921.0,0,0,0,0,0.09,1.65,5.1,9.8,352,6,16.9,24.0,20.2,18.1,17.4,0.132,0.211,0.234,0.317,1,3521.47,49.3,33.1,16.1,380.0,48.6,93.0,119.0,80.0,39.0,478.3,119.0,224.6,Tracheophyta; Magnoliopsida; Quercus L.; Pinus pinaster Aiton; 
2004,2004-07-09,Viseu,Nelas,Nelas,Póvoa da Roçada,40.51924,-7.859607564669652,NC,422.0,2004-07-09T20:00,17.3,60,9.4,15.6,0.0,0.0,0.0,0.0,0,1020.9,971.7,4,4,0,0,0.06,0.79,10.3,18.7,306,308,30.2,21.2,20.7,19.9,15.8,0.121,0.172,0.253,0.349,1,1998.96,0.0,0.0,0.0,0.0,0.0,0.0,47.0,25.0,22.0,203.7,47.0,109.8,Pinus pinaster Aiton; Magnoliopsida; Vitis vinifera L.; Tracheophyta
2004,2004-06-12,Viseu,Oliveira de Frades,São Vicente de Lafões,SÃO VICENTE DE LAFÕES,40.72550845,-8.17413951111358,NC,399.0,2004-06-12T18:00,27.6,58,18.5,29.1,0.0,0.0,0.0,0.0,0,1017.9,973.0,0,0,0,0,0.26,1.57,11.3,14.8,307,311,28.8,30.3,24.4,18.9,13.5,0.11,0.202,0.281,0.362,1,3600.0,252.7,188.0,64.8,530.6,252.7,469.8,316.0,235.0,81.0,530.6,316.0,587.4,Eucalyptus L'Hér.; Pinus pinaster Aiton; Magnoliopsida; Tracheophyta; Quercus L.; Olea europaea L.
2004,2004-06-12,Viseu,Castro Daire,Castro Daire,Santa Margarida,40.91465745,-7.920020147736607,NC,660.0,2004-06-12T19:00,25.2,64,18.0,27.2,0.0,0.0,0.0,0.0,0,1018.1,944.5,2,0,3,0,0.14,1.14,6.8,10.8,302,307,26.3,26.7,23.0,17.6,11.9,0.144,0.222,0.292,0.365,1,3600.0,126.3,86.2,40.1,494.5,126.3,231.1,192.0,131.0,61.0,494.5,192.0,351.3,Pinus pinaster Aiton; Magnoliopsida; Pinales; Eucalyptus L'Hér.; Tracheophyta
2004,2004-07-11,Viseu,Resende,Barrô,Cetos,41.1369549,-7.8744989,NC,318.0,2004-07-11T22:00,18.4,69,12.6,18.1,0.0,0.0,0.0,0.0,0,1018.0,980.9,0,0,0,0,0.02,0.66,7.7,11.9,349,5,19.8,19.6,21.3,19.4,15.9,0.159,0.167,0.25,0.348,0,0.0,0.0,0.0,0.0,0.0,0.0,0.0,0.0,0.0,0.0,0.0,0.0,0.0,Magnoliopsida; Pinus pinaster Aiton; Pinales; Vitis vinifera L.; Tracheophyta; Eucalyptus L'Hér.; Olea europaea L.; ; Quercus L.
2004,2004-07-13,Viseu,Cinfães,Tendais,Marcelim,41.0360373,-8.0682696,NC,796.0,2004-07-13T07:00,14.9,58,6.8,12.4,0.0,0.0,0.0,0.0,0,1019.0,928.0,0,0,0,0,0.11,0.71,11.6,18.0,68,70,29.5,15.7,18.8,17.8,14.3,0.129,0.163,0.249,0.348,1,3600.0,235.0,161.4,73.6,517.9,235.0,412.5,166.0,114.0,52.0,517.9,166.0,291.3,Tracheophyta; Quercus L.; Magnoliopsida; Pinus pinaster Aiton; 
2004,2004-07-13,Viseu,Lamego,Vila Nova De Souto D' El-rei,Póvoa,41.0653599,-7.8337,NC,800.0,2004-07-13T14:00,25.8,28,5.7,25.9,0.0,0.0,0.0,0.0,0,1016.3,928.2,0,0,0,0,0.67,2.4,8.2,9.7,15,15,24.8,29.5,20.5,18.0,14.3,0.144,0.147,0.224,0.347,1,3600.0,928.6,818.6,110.0,910.9,928.6,1189.5,954.0,841.0,113.0,910.9,954.0,1222.0,Tracheophyta; Magnoliopsida
2004,2004-07-20,Viseu,Viseu,São João de Lourosa,Oliveira de Barreiros,40.5960955,-7.9247902,NC,408.0,2004-07-20T13:00,25.8,44,12.5,27.4,0.0,0.0,0.0,0.0,0,1014.2,968.2,1,0,1,0,0.62,1.87,8.0,9.6,260,257,31.3,31.4,23.0,21.2,16.7,0.095,0.162,0.242,0.343,1,3600.0,882.2,730.3,151.9,780.2,882.2,1239.9,883.0,731.0,152.0,780.2,883.0,1241.0,Olea europaea L.; Vitis vinifera L.; Pinus pinaster Aiton; Tracheophyta; Magnoliopsida
2004,2004-06-04,Viseu,Viseu,Cota,Vouguinha,40.7721907,-7.7985545,NC,493.0,2004-06-04T10:00,22.3,40,8.2,20.5,0.0,0.0,0.0,0.0,0,1020.0,963.8,0,0,0,0,0.5,1.61,16.3,21.7,62,63,40.0,22.1,18.9,16.3,11.7,0.198,0.267,0.303,0.367,1,3600.0,807.8,696.2,111.5,863.8,807.8,1071.2,746.0,643.0,103.0,863.8,746.0,989.3,Pinus pinaster Aiton; Olea europaea L.
2004,2004-07-15,Viseu,Castro Daire,Monteiras,Colo do Pito,40.9615709,-7.8846603,NC,894.0,2004-07-15T12:00,28.0,31,9.2,29.6,0.0,0.0,0.0,0.0,0,1015.5,918.4,0,0,0,0,0.66,2.62,4.0,5.1,185,188,22.3,30.1,21.1,17.7,13.9,0.122,0.152,0.233,0.345,1,3600.0,942.1,828.3,113.8,887.9,942.1,1235.0,919.0,808.0,111.0,887.9,919.0,1204.7,Magnoliopsida; Tracheophyta
2004,2004-07-03,Viseu,Resende,Barrô,BARRÔ,41.1291961,-7.8823471,NC,255.0,2004-07-03T16:00,27.9,40,13.1,27.9,0.0,0.0,0.0,0.0,0,1018.1,989.1,0,0,0,0,0.57,2.24,14.4,18.2,302,304,36.0,32.7,23.7,20.6,15.6,0.105,0.173,0.258,0.352,1,3600.0,691.5,594.7,96.8,861.2,691.5,913.6,757.0,651.0,106.0,861.2,757.0,1000.2,Magnoliopsida; Pinus pinaster Aiton; Pinales; Vitis vinifera L.; Tracheophyta; Eucalyptus L'Hér.; Olea europaea L.; 
2004,2004-06-13,Viseu,Mortágua,Cercosa,CERCOSA,40.340706,-8.26686189757147,NC,134.0,2004-06-13T10:00,28.2,48,16.0,30.1,0.0,0.0,0.0,0.0,0,1018.9,1003.6,0,0,0,0,0.51,1.99,7.1,9.6,66,70,22.3,29.4,23.2,19.8,14.5,0.074,0.127,0.184,0.273,1,3600.0,766.7,633.3,133.4,786.2,766.7,1068.2,707.0,584.0,123.0,786.2,707.0,985.0,Eucalyptus L'Hér.; Magnoliopsida
2004,2004-07-15,Viseu,Armamar,Fontelo,FONTELO,41.12164225,-7.73064463699262,NC,560.0,2004-07-15T14:00,32.1,25,9.8,33.3,0.0,0.0,0.0,0.0,0,1014.3,953.0,3,0,2,7,0.69,3.58,6.2,7.8,260,257,22.3,36.1,24.3,19.6,15.4,0.14,0.152,0.192,0.338,1,3600.0,865.9,754.0,111.9,841.6,865.9,1186.0,890.0,775.0,115.0,841.6,890.0,1219.0,Magnoliopsida; Olea europaea L.; Vitis vinifera L.
2004,2004-07-12,Viseu,Penalva do Castelo,Germil,Quinta da Malcata,40.6394809,-7.7285714,NC,435.0,2004-07-12T13:00,27.1,27,6.3,27.3,0.0,0.0,0.0,0.0,0,1015.1,966.3,0,0,0,0,0.7,2.63,9.2,11.8,59,63,29.2,33.0,22.5,20.7,16.4,0.084,0.166,0.25,0.344,1,3600.0,968.7,854.8,113.8,906.5,968.7,1248.0,970.0,856.0,114.0,906.5,970.0,1249.8,Magnoliopsida; Pinus pinaster Aiton; Acacia Mill.; Vitis vinifera L.; Tracheophyta; Quercus L.
2004,2004-07-12,Viseu,Resende,Felgueiras,Barreiro \ CAS,41.0758008,-7.9399513,NC,603.0,2004-07-12T09:00,19.1,52,8.9,17.1,0.0,0.0,0.0,0.0,0,1017.7,948.9,0,0,0,0,0.33,1.07,11.7,16.2,72,73,33.5,20.2,18.6,18.4,14.9,0.16,0.157,0.238,0.347,1,3600.0,611.7,507.1,104.6,777.5,611.7,863.3,538.0,446.0,92.0,777.5,538.0,759.2,Magnoliopsida; Pinales; Vitis vinifera L.; Pinus pinaster Aiton; Tracheophyta; ; Eucalyptus L'Hér.
2004,2004-07-13,Viseu,Tondela,Lajeosa do Dão,LAGEOSA,40.5042963,-7.9872116,NC,281.0,2004-07-13T15:00,30.0,25,7.9,30.2,0.0,0.0,0.0,0.0,0,1014.5,983.0,0,0,0,0,0.66,3.17,7.9,9.7,344,345,20.9,34.7,23.7,20.0,16.3,0.101,0.147,0.225,0.334,1,3600.0,823.6,719.6,104.0,883.0,823.6,1078.7,871.0,761.0,110.0,883.0,871.0,1140.7,Magnoliopsida; Tracheophyta; Pinus pinaster Aiton; Pinales; Eucalyptus L'Hér.
2004,2004-07-12,Viseu,Resende,Paus,Moumis,41.0714486,-7.8998059,NC,565.0,2004-07-12T13:00,24.3,38,9.0,25.1,0.0,0.0,0.0,0.0,0,1016.4,952.9,0,0,0,0,0.65,1.89,9.0,11.4,61,66,29.9,26.7,19.0,17.8,14.4,0.174,0.164,0.242,0.348,1,3600.0,962.6,846.8,115.8,900.2,962.6,1244.8,964.0,848.0,116.0,900.2,964.0,1246.6,Magnoliopsida; Pinales; Tracheophyta; Eucalyptus L'Hér.; Pinus pinaster Aiton; Olea europaea L.; 
2004,2004-07-21,Viseu,São Pedro do Sul,Pinho,Sobral,40.7721135,-8.0144962,NC,420.0,2004-07-21T00:00,17.9,81,14.6,18.9,0.0,0.0,0.0,0.0,0,1015.0,966.4,4,0,0,14,0.0,0.38,3.6,4.6,315,315,7.2,20.1,23.5,20.9,16.5,0.102,0.148,0.228,0.338,0,0.0,0.0,0.0,0.0,0.0,0.0,0.0,0.0,0.0,0.0,0.0,0.0,0.0,Pinus pinaster Aiton; Magnoliopsida; Quercus L.; Eucalyptus L'Hér.; Tracheophyta; Olea europaea L.; 
2004,2004-06-30,Viseu,Carregal do Sal,Oliveira do Conde,Vila Meã,40.441617050000005,-7.957415329846864,NC,270.0,2004-06-30T21:00,19.1,71,13.7,19.0,0.0,0.0,0.0,0.0,0,1020.2,988.6,0,0,0,0,0.02,0.64,8.5,16.1,298,312,22.0,23.4,24.6,20.1,14.9,0.104,0.162,0.248,0.342,0,0.0,0.0,0.0,0.0,0.0,0.0,0.0,0.0,0.0,0.0,0.0,0.0,0.0,Tracheophyta; Pinus pinaster Aiton; Magnoliopsida; Acacia Mill.
2004,2004-07-12,Viseu,Viseu,São João de Lourosa,Oliveira de Barreiros,40.5960955,-7.9247902,NC,408.0,2004-07-12T21:00,23.4,38,8.1,21.7,0.0,0.0,0.0,0.0,0,1014.6,968.2,0,0,0,0,0.07,1.8,8.3,14.8,5,18,15.8,24.3,23.4,19.8,16.1,0.106,0.169,0.25,0.347,0,0.0,0.0,0.0,0.0,0.0,0.0,0.0,0.0,0.0,0.0,0.0,0.0,0.0,Olea europaea L.; Vitis vinifera L.; Pinus pinaster Aiton; Tracheophyta; Magnoliopsida
2004,2004-07-12,Viseu,Mangualde,Espinho,Outeiro de Espinho,40.5631724,-7.7933634,NC,424.0,2004-07-12T15:00,28.2,25,6.5,28.1,0.0,0.0,0.0,0.0,0,1013.9,966.5,0,0,0,0,0.64,2.86,7.8,9.1,13,18,28.1,33.3,22.6,20.0,16.1,0.095,0.168,0.251,0.346,1,3600.0,824.2,721.2,103.0,886.3,824.2,1076.9,872.0,763.0,109.0,886.3,872.0,1139.3,Eucalyptus L'Hér.; Tracheophyta; Olea europaea L.; Magnoliopsida; Pinus pinaster Aiton
2004,2004-07-13,Viseu,Resende,Barrô,BARRÔ,41.1291961,-7.8823471,NC,255.0,2004-07-13T15:00,28.9,30,9.5,29.6,0.0,0.0,0.0,0.0,0,1015.6,986.8,0,0,0,0,0.64,2.79,7.5,9.3,343,347,19.1,32.0,22.6,19.8,16.5,0.131,0.164,0.247,0.347,1,3600.0,824.4,719.4,104.9,887.5,824.4,1072.9,872.0,761.0,111.0,887.5,872.0,1134.9,Magnoliopsida; Pinus pinaster Aiton; Pinales; Vitis vinifera L.; Tracheophyta; Eucalyptus L'Hér.; Olea europaea L.; 
2004,2004-07-13,Viseu,Oliveira de Frades,Pinheiro,PINHEIRO DE LAFÕES,40.725973,-8.214473727122396,NC,394.0,2004-07-13T15:00,29.7,27,8.8,30.1,0.0,0.0,0.0,0.0,0,1015.1,971.2,0,0,0,0,0.66,3.04,8.4,10.1,350,354,22.0,33.9,23.5,20.0,16.5,0.108,0.149,0.231,0.341,1,3600.0,823.8,720.7,103.1,884.9,823.8,1078.0,871.0,762.0,109.0,884.9,871.0,1139.8,Eucalyptus L'Hér.; Pinus pinaster Aiton; Magnoliopsida; Tracheophyta; Quercus L.; Olea europaea L.
2004,2004-12-22,Viseu,Vouzela,Campia,GANBARINHO,40.6750158,-8.2167197,NC,442.0,2004-12-22T21:00,2.3,81,-0.6,-1.2,0.0,0.0,0.0,0.0,0,1029.7,975.1,0,0,0,0,0.0,0.14,8.9,18.1,63,55,24.8,4.0,6.7,9.8,13.9,0.339,0.349,0.363,0.34,0,0.0,0.0,0.0,0.0,0.0,0.0,0.0,0.0,0.0,0.0,0.0,0.0,0.0,Magnoliopsida; Eucalyptus L'Hér.; Pinus pinaster Aiton; Pinus pinea L.; Quercus L.; Pinales; Tracheophyta; 
2004,2004-07-15,Viseu,Moimenta da Beira,Leomil,Cemitela,40.9845171,-7.6560753,NC,704.0,2004-07-15T17:00,28.0,34,10.8,26.8,0.0,0.0,0.0,0.0,1,1013.9,936.6,23,0,26,25,0.32,2.49,9.5,13.4,295,297,32.0,30.6,24.5,19.2,15.1,0.14,0.14,0.21,0.338,1,3600.0,301.2,191.9,109.4,363.8,301.2,698.2,347.0,221.0,126.0,363.8,347.0,804.2,Pinus pinaster Aiton; Tracheophyta; Magnoliopsida
2004,2004-07-16,Viseu,São João da Pesqueira,Ervedosa do Douro,Quinta da Furada,41.1655541,-7.4734152,NC,561.0,2004-07-16T12:00,30.6,30,11.1,32.6,0.0,0.0,0.0,0.0,1,1012.3,950.8,34,0,56,0,0.67,3.07,4.1,4.9,218,216,22.7,35.7,25.2,20.8,15.9,0.125,0.151,0.186,0.318,1,3600.0,928.1,793.9,134.2,852.1,928.1,1233.5,906.0,775.0,131.0,852.1,906.0,1204.2,Olea europaea L.; Vitis vinifera L.; Magnoliopsida; Tracheophyta
2004,2004-07-24,Viseu,Vouzela,Cambra,Pés de Pontes,40.6866933,-8.155303,NC,484.0,2004-07-24T03:00,18.9,81,15.6,19.9,0.0,0.0,0.0,0.0,0,1021.0,965.1,0,0,0,0,0.0,0.41,6.1,7.4,62,39,9.0,20.7,24.8,21.0,16.7,0.096,0.141,0.216,0.332,0,0.0,0.0,0.0,0.0,0.0,0.0,0.0,0.0,0.0,0.0,0.0,0.0,0.0,Eucalyptus L'Hér.; Magnoliopsida; Tracheophyta; Pinus pinaster Aiton; Quercus L.; Olea europaea L.; 
2004,2004-07-21,Viseu,Castro Daire,Moledo,Lamas,40.8289208,-7.870908,NC,506.0,2004-07-21T15:00,27.7,43,13.9,28.4,0.0,0.0,0.0,0.0,0,1012.8,956.6,3,1,4,0,0.58,2.13,12.4,15.2,248,248,36.0,32.7,23.4,20.5,16.1,0.103,0.148,0.227,0.337,1,3600.0,733.2,628.3,104.9,780.5,733.2,1066.5,776.0,665.0,111.0,780.5,776.0,1128.8,Pinus pinaster Aiton; Magnoliopsida; Tracheophyta
2004,2004-12-27,Viseu,Vila Nova de Paiva,Pendilhe,PENDILHE,40.9063698,-7.8366812,NC,746.0,2004-12-27T15:00,5.9,52,-3.3,1.4,0.0,0.0,0.0,0.0,0,1026.4,937.5,12,13,0,0,0.13,0.45,12.9,17.3,30,31,29.5,4.9,3.1,6.7,11.7,0.331,0.338,0.349,0.321,1,3600.0,252.3,185.1,67.2,623.8,252.3,419.7,293.0,215.0,78.0,623.8,293.0,487.4,Magnoliopsida; Tracheophyta; Pinus pinaster Aiton; 
2004,2004-07-17,Viseu,São Pedro do Sul,Valadares,Boavista,40.7677166,-8.1929475,NC,465.0,2004-07-17T09:00,19.9,75,15.4,21.0,0.0,0.0,0.0,0.0,0,1016.0,962.7,12,12,0,5,0.22,0.58,5.2,5.9,304,308,18.0,23.4,23.2,20.4,16.3,0.105,0.153,0.236,0.343,1,3600.0,409.8,178.1,231.7,276.7,409.8,852.1,359.0,156.0,203.0,276.7,359.0,746.5,Pinus pinaster Aiton; Eucalyptus L'Hér.; Magnoliopsida; Tracheophyta; Quercus L.; Olea europaea L.; 
2004,2004-07-15,Viseu,Lamego,Magueija,MAGUEIJA,41.0455686,-7.8762887,NC,831.0,2004-07-15T22:00,20.9,66,14.3,21.3,0.0,0.0,0.0,0.0,0,1015.3,922.7,12,0,17,6,0.02,0.84,6.6,8.4,292,310,13.3,22.5,23.2,18.2,14.3,0.122,0.152,0.232,0.345,0,0.0,0.0,0.0,0.0,0.0,0.0,0.0,0.0,0.0,0.0,0.0,0.0,0.0,Tracheophyta; Magnoliopsida; Pinus pinaster Aiton; Pinales; Castanea sativa Mill.; 
2004,2004-07-13,Viseu,Oliveira de Frades,Pinheiro,Ponte Fora,40.7280899,-8.2051405,NC,390.0,2004-07-13T14:00,29.4,28,8.8,30.6,0.0,0.0,0.0,0.0,0,1015.7,972.1,0,0,0,0,0.7,2.98,6.5,8.0,3,5,22.0,33.4,23.1,20.0,16.4,0.109,0.15,0.231,0.341,1,3600.0,921.8,811.8,110.0,901.3,921.8,1192.2,947.0,834.0,113.0,901.3,947.0,1224.8,Eucalyptus L'Hér.; Pinus pinaster Aiton; Magnoliopsida; Tracheophyta; Quercus L.; Olea europaea L.
2004,2004-07-21,Viseu,Viseu,Bodiosa,Silgueiros,40.7133219,-8.0119651,NC,503.0,2004-07-21T00:00,17.5,79,13.9,18.2,0.0,0.0,0.0,0.0,0,1015.0,957.0,4,0,0,14,0.0,0.41,3.6,4.6,315,315,7.2,19.8,23.3,20.6,16.2,0.1,0.143,0.217,0.332,0,0.0,0.0,0.0,0.0,0.0,0.0,0.0,0.0,0.0,0.0,0.0,0.0,0.0,Eucalyptus L'Hér.; Pinus pinaster Aiton; Magnoliopsida; Tracheophyta; Olea europaea L.
2004,2004-07-13,Viseu,Viseu,Santos Evos,Pinheiro,40.6621172,-7.8219064,NC,374.0,2004-07-13T16:00,30.2,22,6.1,29.2,0.0,0.0,0.0,0.0,0,1014.5,972.8,0,0,0,0,0.58,3.36,8.2,10.0,345,347,20.2,36.0,24.6,20.5,16.5,0.09,0.167,0.249,0.346,1,3600.0,681.8,588.7,93.1,855.8,681.8,910.4,747.0,645.0,102.0,855.8,747.0,997.6,Eucalyptus L'Hér.; Tracheophyta; Magnoliopsida; Pinus pinaster Aiton; Olea europaea L.; Pinales
2004,2004-07-21,Viseu,Castro Daire,Castro Daire,Alagoa das Casas,40.91465745,-7.920020147736607,NC,660.0,2004-07-21T11:00,24.6,51,13.8,27.0,0.0,0.0,0.0,0.0,0,1014.4,940.9,6,0,0,19,0.54,1.51,3.4,3.9,238,236,22.3,28.5,21.5,19.8,15.5,0.109,0.149,0.23,0.342,1,3600.0,844.4,716.6,127.7,822.3,844.4,1154.6,800.0,679.0,121.0,822.3,800.0,1094.0,Pinus pinaster Aiton; Magnoliopsida; Pinales; Eucalyptus L'Hér.; Tracheophyta
2004,2004-07-17,Viseu,Viseu,Ranhados,Campo de futebol.,40.6419955,-7.8992132,NC,450.0,2004-07-17T15:00,27.8,35,11.1,27.1,0.0,0.0,0.0,0.0,1,1015.1,964.8,28,0,0,93,0.61,2.43,16.1,20.8,299,300,36.7,33.7,24.9,20.7,16.2,0.095,0.164,0.244,0.344,1,3600.0,746.7,493.4,253.3,609.0,746.7,1072.6,790.0,522.0,268.0,609.0,790.0,1134.9,Tracheophyta; Magnoliopsida; Vitis vinifera L.; Pinus pinaster Aiton
2004,2004-07-23,Viseu,Lamego,Vila Nova De Souto D' El-rei,Lanhosa,41.0653599,-7.8337,NC,800.0,2004-07-23T14:00,30.3,27,9.3,31.0,0.0,0.0,0.0,0.0,0,1019.4,932.3,1,0,0,4,0.72,3.15,9.4,11.6,247,244,32.0,33.4,23.0,19.5,15.1,0.129,0.14,0.209,0.341,1,3600.0,908.8,801.8,107.0,902.9,908.8,1176.9,934.0,824.0,110.0,902.9,934.0,1209.5,Tracheophyta; Magnoliopsida
2004,2004-07-17,Viseu,Cinfães,São Cristovão De Nogueira,Valbom,41.0629352,-8.1384748,Desconhecida,313.0,2004-07-17T00:00,16.6,97,16.1,18.1,0.0,0.0,0.0,0.0,2,1014.9,978.3,61,68,0,0,0.0,0.05,3.9,6.3,236,257,10.8,20.5,24.4,19.9,16.0,0.108,0.159,0.243,0.347,0,0.0,0.0,0.0,0.0,0.0,0.0,0.0,0.0,0.0,0.0,0.0,0.0,0.0,Tracheophyta; Magnoliopsida; Pinus pinaster Aiton; Quercus L.
2004,2004-07-17,Viseu,Vouzela,São Miguel do Mato,Roda,40.7138886,-8.0185345,NC,444.0,2004-07-17T19:00,22.0,60,13.8,21.8,0.0,0.0,0.0,0.0,1,1015.9,965.2,44,0,24,97,0.11,1.06,10.0,13.5,300,304,25.9,26.7,25.3,20.7,16.2,0.1,0.144,0.22,0.333,1,0.0,53.5,2.6,50.9,15.4,53.5,221.9,83.0,4.0,79.0,15.4,83.0,344.2,Pinus pinaster Aiton; Tracheophyta; Magnoliopsida; Eucalyptus L'Hér.; Olea europaea L.; Quercus L.; 
2004,2004-07-22,Viseu,Viseu,Repeses,Repeses,40.6331512,-7.925942387499379,NC,462.0,2004-07-22T13:00,26.1,44,12.8,27.3,0.0,0.0,0.0,0.0,1,1017.1,965.1,30,0,0,99,0.59,1.91,9.0,11.0,233,232,28.8,30.8,23.0,21.0,16.5,0.094,0.161,0.24,0.342,1,3600.0,819.3,490.6,328.7,525.7,819.3,1236.6,820.0,491.0,329.0,525.7,820.0,1237.7,Vitis vinifera L.; Magnoliopsida; Tracheophyta; Pinus pinaster Aiton
2004,2004-07-22,Viseu,São João da Pesqueira,São João da Pesqueira,Espinho,41.1398345,-7.4209652,NC,602.0,2004-07-22T14:00,29.2,31,10.3,29.3,0.0,0.0,0.0,0.0,1,1015.7,949.3,33,0,6,99,0.67,2.8,12.1,15.7,240,238,38.2,34.9,24.9,21.4,16.3,0.113,0.154,0.194,0.317,1,3600.0,845.6,612.3,233.3,691.0,845.6,1174.3,870.0,630.0,240.0,691.0,870.0,1208.1,Magnoliopsida; Olea europaea L.; Vitis vinifera L.; Tracheophyta; Pinus pinaster Aiton
2004,2004-07-24,Viseu,Cinfães,São Cristovão De Nogueira,Valbom,41.0629352,-8.1384748,NC,313.0,2004-07-24T14:00,33.4,25,10.4,34.2,0.0,0.0,0.0,0.0,0,1021.1,986.2,13,0,21,0,0.76,3.88,10.8,13.4,296,297,29.9,36.4,24.9,20.7,16.5,0.101,0.152,0.233,0.343,1,3600.0,911.1,805.0,106.1,906.8,911.1,1176.7,936.0,827.0,109.0,906.8,936.0,1208.9,Tracheophyta; Magnoliopsida; Pinus pinaster Aiton; Quercus L.
2004,2004-07-16,Viseu,Viseu,Abraveses,Bairro de Santa Rita,40.6821056,-7.9165906,NC,507.0,2004-07-16T03:00,19.1,77,14.9,20.1,0.0,0.0,0.0,0.0,0,1013.9,955.9,2,0,4,0,0.0,0.52,4.0,4.6,360,321,7.6,20.2,25.0,20.6,16.1,0.09,0.16,0.243,0.344,0,0.0,0.0,0.0,0.0,0.0,0.0,0.0,0.0,0.0,0.0,0.0,0.0,0.0,Pinus pinaster Aiton; Tracheophyta; Magnoliopsida
2004,2004-10-04,Viseu,Viseu,Ranhados,Calçada Romana,40.6419955,-7.8992132,NC,450.0,2004-10-04T18:00,21.9,39,7.5,20.2,0.0,0.0,0.0,0.0,0,1017.4,966.0,0,0,0,0,0.09,1.6,7.6,10.2,275,280,22.7,24.7,21.8,20.7,19.6,0.094,0.167,0.214,0.316,1,2509.7,9.1,5.9,3.2,67.3,7.2,18.1,76.0,49.0,27.0,350.5,76.0,151.1,Tracheophyta; Magnoliopsida; Vitis vinifera L.; Pinus pinaster Aiton
2004,2004-07-02,Viseu,Tondela,Lajeosa do Dão,Ponte da Pedrinha,40.5326807,-7.9920377,NC,341.0,2004-07-02T15:00,27.6,26,6.1,26.4,0.0,0.0,0.0,0.0,0,1018.6,980.0,0,0,0,0,0.67,2.75,14.2,18.0,324,327,33.5,32.5,23.1,20.1,15.0,0.099,0.156,0.24,0.341,1,3600.0,836.0,732.9,103.1,893.9,836.0,1084.9,884.0,775.0,109.0,893.9,884.0,1147.2,Tracheophyta; Vitis vinifera L.; Eucalyptus L'Hér.; Pinus pinaster Aiton
2004,2004-06-14,Viseu,Oliveira de Frades,Pinheiro,PINHEIRO DE LAFÕES,40.725973,-8.214473727122396,NC,394.0,2004-06-14T14:00,28.4,25,6.6,27.3,0.0,0.0,0.0,0.0,1,1018.7,974.4,26,0,0,86,0.74,2.9,16.6,22.4,85,84,43.2,31.2,23.6,19.5,13.8,0.105,0.194,0.277,0.361,1,3600.0,935.7,781.2,154.5,864.3,935.7,1198.3,963.0,804.0,159.0,864.3,963.0,1233.3,Eucalyptus L'Hér.; Pinus pinaster Aiton; Magnoliopsida; Tracheophyta; Quercus L.; Olea europaea L.
2004,2004-12-30,Viseu,Penalva do Castelo,Esmolfe,ESMOLFE,40.6795232,-7.6836313,NC,555.0,2004-12-30T18:00,6.3,79,2.9,2.9,0.0,0.0,0.0,0.0,0,1033.7,966.3,0,0,0,0,0.02,0.2,12.5,27.2,57,62,23.8,6.0,5.6,7.0,12.7,0.309,0.317,0.325,0.313,0,0.0,0.0,0.0,0.0,0.0,0.0,0.0,1.0,0.0,1.0,0.0,1.0,4.5,Magnoliopsida; Tracheophyta; Pinus pinaster Aiton; Olea europaea L.; Quercus L.; Acacia Mill.
2004,2004-06-15,Viseu,Sernancelhe,Sernancelhe,SERNANCELHE,40.9001611,-7.4947825,NC,775.0,2004-06-15T14:00,24.3,27,4.3,23.7,0.0,0.0,0.0,0.0,0,1018.9,932.8,0,0,0,0,0.67,2.2,11.2,13.8,69,70,32.4,28.0,21.0,18.1,11.9,0.148,0.178,0.241,0.325,1,3600.0,942.8,829.2,113.6,919.8,942.8,1194.9,971.0,854.0,117.0,919.8,971.0,1230.7,Castanea sativa Mill.; Pinus pinaster Aiton; Magnoliopsida; Tracheophyta; Quercus L.; Vitis vinifera L.
2004,2004-07-13,Viseu,Vila Nova de Paiva,Touro,Canedotes,40.8953121,-7.7478521,NC,790.0,2004-07-13T22:00,20.0,47,8.4,18.1,0.0,0.0,0.0,0.0,0,1016.4,927.8,0,0,0,0,0.07,1.24,10.5,19.5,68,71,16.2,21.7,22.2,18.2,14.3,0.132,0.147,0.221,0.338,0,0.0,0.0,0.0,0.0,0.0,0.0,0.0,0.0,0.0,0.0,0.0,0.0,0.0,Magnoliopsida; Pinus pinaster Aiton; Tracheophyta; Eucalyptus L'Hér.; Quercus L.; 
2004,2004-07-16,Viseu,Tondela,Lajeosa do Dão,LAJEOSA,40.539709,-7.9851432,NC,358.0,2004-07-16T20:00,23.1,57,14.1,23.4,0.0,0.0,0.0,0.0,0,1012.5,971.7,0,0,0,0,0.06,1.22,6.8,12.7,270,277,21.2,27.4,26.0,20.4,16.0,0.097,0.144,0.219,0.331,1,1867.34,0.0,0.0,0.0,0.0,0.0,0.0,44.0,25.0,19.0,208.5,44.0,101.3,Pinus pinaster Aiton; Tracheophyta; Vitis vinifera L.; Eucalyptus L'Hér.
2004,2004-07-14,Viseu,Nelas,Santar,Fontainheiras,40.51924,-7.859607564669652,NC,422.0,2004-07-14T16:00,32.2,18,4.9,31.1,0.0,0.0,0.0,0.0,0,1014.5,967.9,0,0,0,0,0.58,3.94,7.0,8.3,325,326,17.3,36.2,24.8,20.0,16.1,0.096,0.167,0.247,0.346,1,3600.0,682.2,590.1,92.1,860.4,682.2,907.8,748.0,647.0,101.0,860.4,748.0,995.4,Pinus pinaster Aiton; Magnoliopsida; Vitis vinifera L.; Tracheophyta
2004,2004-07-17,Viseu,Lamego,Vila Nova De Souto D' El-rei,Lanhosa,41.0653599,-7.8337,NC,800.0,2004-07-17T00:00,16.4,89,14.6,17.0,0.0,0.0,0.0,0.0,0,1014.5,923.9,1,1,0,0,0.0,0.21,6.1,12.6,273,283,14.0,20.3,23.7,18.8,14.6,0.138,0.144,0.218,0.345,0,0.0,0.0,0.0,0.0,0.0,0.0,0.0,0.0,0.0,0.0,0.0,0.0,0.0,Tracheophyta; Magnoliopsida
2004,2004-07-17,Viseu,Tarouca,Gouviães,Quinta de São Bento.,41.0581872,-7.7497549,NC,521.0,2004-07-17T02:00,16.4,97,15.8,17.3,0.0,0.0,0.0,0.0,1,1014.6,954.4,46,51,0,0,0.0,0.06,7.1,11.4,255,257,14.0,20.1,25.1,20.4,15.8,0.143,0.152,0.19,0.337,0,0.0,0.0,0.0,0.0,0.0,0.0,0.0,0.0,0.0,0.0,0.0,0.0,0.0,Tracheophyta; Magnoliopsida; Castanea sativa Mill.; Olea europaea L.; Quercus L.; Pinus pinaster Aiton; Vitis vinifera L.; Pinales
2004,2004-07-24,Viseu,Resende,Panchorra,Lagoa de Dom João \ REG,41.0154274,-7.9671803,NC,1105.0,2004-07-24T21:00,22.0,50,11.1,21.4,0.0,0.0,0.0,0.0,0,1021.3,900.1,10,0,0,35,0.04,1.32,7.0,9.3,282,298,16.6,24.2,23.4,17.8,13.2,0.111,0.144,0.22,0.339,0,0.0,0.0,0.0,0.0,0.0,0.0,0.0,0.0,0.0,0.0,0.0,0.0,0.0,Pinales; Magnoliopsida; Tracheophyta; Quercus L.; 
2004,2004-07-17,Viseu,Resende,São Cipriano,Carril,41.06005785,-7.990159695397713,NC,594.0,2004-07-17T23:00,16.1,94,15.2,17.2,0.0,0.0,0.0,0.0,1,1018.1,949.6,34,38,0,0,0.0,0.1,5.1,9.0,278,286,18.7,20.2,23.4,19.5,15.3,0.108,0.153,0.234,0.344,0,0.0,0.0,0.0,0.0,0.0,0.0,0.0,0.0,0.0,0.0,0.0,0.0,0.0,Pinus pinaster Aiton; Pinales; Magnoliopsida; Olea europaea L.; Tracheophyta; Eucalyptus L'Hér.; 
2004,2004-07-18,Viseu,Resende,Barrô,Vales,41.1369549,-7.8744989,NC,318.0,2004-07-18T16:00,25.2,52,14.5,25.4,0.0,0.0,0.0,0.0,0,1016.7,980.5,13,8,0,18,0.48,1.55,13.8,17.7,285,287,37.8,31.5,24.2,20.6,16.4,0.104,0.157,0.24,0.343,1,3600.0,626.4,485.1,141.3,713.3,626.4,900.5,687.0,532.0,155.0,713.3,687.0,987.6,Magnoliopsida; Pinus pinaster Aiton; Pinales; Vitis vinifera L.; Tracheophyta; Eucalyptus L'Hér.; Olea europaea L.; ; Quercus L.
2004,2004-07-14,Viseu,Tarouca,Gouviães,Cubos,41.0581872,-7.7497549,NC,521.0,2004-07-14T03:00,17.2,62,9.8,15.5,0.0,0.0,0.0,0.0,0,1016.2,956.1,0,0,0,0,0.04,0.75,11.0,16.1,71,74,19.4,17.4,22.5,19.6,15.6,0.146,0.153,0.195,0.339,0,0.0,0.0,0.0,0.0,0.0,0.0,0.0,0.0,0.0,0.0,0.0,0.0,0.0,Tracheophyta; Magnoliopsida; Castanea sativa Mill.; Olea europaea L.; Quercus L.; Pinus pinaster Aiton; Vitis vinifera L.; Pinales
2004,2004-10-05,Viseu,Lamego,Penude,Serra das Meadas,41.1031059,-7.843507279056028,NC,992.0,2004-10-05T01:00,11.7,89,10.0,10.6,0.0,0.0,0.0,0.0,0,1017.1,904.2,0,0,0,0,0.0,0.15,7.6,10.8,267,272,14.0,12.4,17.6,17.4,16.8,0.119,0.172,0.209,0.314,0,0.0,0.0,0.0,0.0,0.0,0.0,0.0,0.0,0.0,0.0,0.0,0.0,0.0,Vitis vinifera L.; Magnoliopsida; Tracheophyta; Pinales; ; Eucalyptus L'Hér.
2004,2004-07-17,Viseu,Tarouca,Gouviães,Eira Queimada,41.0581872,-7.7497549,NC,521.0,2004-07-17T13:00,27.5,38,11.8,28.9,0.0,0.0,0.0,0.0,1,1014.9,956.9,23,0,0,76,0.7,2.29,10.2,12.6,288,290,29.2,33.6,24.6,20.5,15.8,0.142,0.152,0.19,0.336,1,3600.0,960.8,818.9,141.8,874.8,960.8,1239.5,962.0,820.0,142.0,874.8,962.0,1241.1,Tracheophyta; Magnoliopsida; Castanea sativa Mill.; Olea europaea L.; Quercus L.; Pinus pinaster Aiton; Vitis vinifera L.; Pinales
2004,2004-12-31,Viseu,Armamar,Queimada,QUEIMADA,41.0994162,-7.7367631,NC,649.0,2004-12-31T13:00,9.9,76,5.9,8.0,0.0,0.0,0.0,0.0,0,1034.0,956.7,3,3,0,0,0.19,0.29,6.2,8.0,69,72,18.7,6.9,3.1,5.8,11.2,0.327,0.329,0.329,0.311,1,3600.0,429.8,354.2,75.6,819.8,429.8,611.2,432.0,356.0,76.0,819.8,432.0,614.3,Tracheophyta; Magnoliopsida; Vitis vinifera L.
2004,2004-07-18,Viseu,Carregal do Sal,Papízios,PAPÍZIOS,40.43367515,-8.04527765,NC,261.0,2004-07-18T04:00,15.4,99,15.2,16.6,0.0,0.0,0.0,0.0,3,1017.2,986.3,88,97,0,1,0.0,0.02,3.4,6.0,302,327,8.6,18.2,23.7,21.0,16.4,0.098,0.144,0.221,0.33,0,0.0,0.0,0.0,0.0,0.0,0.0,0.0,0.0,0.0,0.0,0.0,0.0,0.0,Pinus pinaster Aiton; Magnoliopsida; Acacia Mill.; Tracheophyta
2004,2004-07-18,Viseu,Tondela,Nandufe,NANDUFE,40.546368,-8.076902668581187,NC,312.0,2004-07-18T14:00,26.2,47,14.0,27.6,0.0,0.0,0.0,0.0,1,1016.4,981.0,25,5,0,67,0.62,1.8,12.0,14.7,286,287,33.5,32.9,24.4,21.3,16.8,0.097,0.141,0.214,0.329,1,3600.0,868.1,687.1,181.0,765.8,868.1,1188.1,892.0,706.0,186.0,765.8,892.0,1220.9,Magnoliopsida; Vitis vinifera L.; Eucalyptus L'Hér.; Pinus pinaster Aiton; Tracheophyta; Acacia Mill.
2004,2004-09-26,Viseu,Armamar,Queimadela,Queimadela,41.0892388,-7.743298,NC,703.0,2004-09-26T17:00,24.0,27,4.1,20.8,0.0,0.0,0.0,0.0,0,1020.3,941.7,0,0,0,0,0.27,2.17,12.7,19.1,65,68,36.7,25.7,20.9,20.1,19.0,0.133,0.155,0.174,0.306,1,3600.0,216.3,169.2,47.1,684.6,216.3,336.6,294.0,230.0,64.0,684.6,294.0,457.5,Vitis vinifera L.; Magnoliopsida; Tracheophyta; Olea europaea L.
2004,2004-07-24,Viseu,São João da Pesqueira,Ervedosa do Douro,Quinta de Cedovim,41.1655541,-7.4734152,NC,561.0,2004-07-24T22:00,24.8,43,11.4,24.4,0.0,0.0,0.0,0.0,0,1021.2,958.0,1,0,0,2,0.04,1.78,5.4,6.8,278,328,16.6,27.2,28.5,22.1,16.6,0.119,0.151,0.178,0.314,0,0.0,0.0,0.0,0.0,0.0,0.0,0.0,0.0,0.0,0.0,0.0,0.0,0.0,Olea europaea L.; Vitis vinifera L.; Magnoliopsida; Tracheophyta
2004,2004-09-27,Viseu,Cinfães,Cinfães,Cidadelhe,41.0818105,-8.0901174,NC,277.0,2004-09-27T03:00,15.4,60,7.7,13.3,0.0,0.0,0.0,0.0,0,1020.4,987.6,0,0,0,0,0.04,0.7,10.2,26.3,80,81,33.5,15.4,19.6,19.9,19.3,0.131,0.209,0.239,0.319,0,0.0,0.0,0.0,0.0,0.0,0.0,0.0,0.0,0.0,0.0,0.0,0.0,0.0,Tracheophyta; Vitis vinifera L.; Magnoliopsida
2004,2004-07-25,Viseu,Cinfães,Oliveira Do Douro,Cinco Rodas,41.0810992,-8.0489872,NC,356.0,2004-07-25T03:00,22.2,54,12.3,22.2,0.0,0.0,0.0,0.0,0,1019.9,978.9,0,0,0,0,0.02,1.24,4.6,6.6,39,347,11.2,19.2,24.6,20.6,16.3,0.097,0.153,0.234,0.341,0,0.0,0.0,0.0,0.0,0.0,0.0,0.0,0.0,0.0,0.0,0.0,0.0,0.0,Pinus pinaster Aiton; Magnoliopsida; Quercus L.; Tracheophyta; 
2004,2004-07-14,Viseu,Resende,Barrô,Vales,41.1369549,-7.8744989,NC,318.0,2004-07-14T22:00,26.3,40,11.7,26.2,0.0,0.0,0.0,0.0,0,1016.3,980.2,0,0,0,0,0.03,2.05,4.3,5.6,48,15,11.2,23.6,24.1,19.7,16.1,0.116,0.162,0.245,0.346,0,0.0,0.0,0.0,0.0,0.0,0.0,0.0,0.0,0.0,0.0,0.0,0.0,0.0,Magnoliopsida; Pinus pinaster Aiton; Pinales; Vitis vinifera L.; Tracheophyta; Eucalyptus L'Hér.; Olea europaea L.; ; Quercus L.
2004,2004-07-24,Viseu,Vouzela,Cambra,Caveiros de Cima,40.68489395,-8.154017031898238,NC,503.0,2004-07-24T02:00,19.5,80,15.9,20.6,0.0,0.0,0.0,0.0,0,1021.0,963.1,0,0,0,0,0.0,0.46,6.3,7.3,59,33,9.4,21.3,24.9,20.9,16.6,0.096,0.141,0.216,0.332,0,0.0,0.0,0.0,0.0,0.0,0.0,0.0,0.0,0.0,0.0,0.0,0.0,0.0,Eucalyptus L'Hér.; Magnoliopsida; Tracheophyta; Pinus pinaster Aiton; Quercus L.; Olea europaea L.; 
2004,2004-07-18,Viseu,Vila Nova de Paiva,Fráguas,FRÁGUAS,40.83757735,-7.768243854878458,NC,683.0,2004-07-18T13:00,25.1,45,12.3,27.4,0.0,0.0,0.0,0.0,1,1016.5,940.5,22,0,0,72,0.65,1.75,6.0,6.7,287,286,29.2,30.9,22.7,19.8,15.2,0.104,0.15,0.23,0.336,1,3600.0,955.9,829.1,126.9,884.9,955.9,1240.7,957.0,830.0,127.0,884.9,957.0,1242.0,Magnoliopsida; Pinus pinaster Aiton; Tracheophyta; Quercus L.
2004,2004-07-24,Viseu,Oliveira de Frades,Arcozelo das Maias,Quintela,40.7353971,-8.2776103,NC,366.0,2004-07-24T20:00,28.0,40,13.1,27.8,0.0,0.0,0.0,0.0,0,1020.7,979.3,14,0,0,45,0.1,2.26,7.8,10.4,326,340,18.4,30.1,27.5,21.8,17.3,0.096,0.141,0.214,0.332,0,0.0,0.0,0.0,0.0,0.0,0.0,0.0,29.0,5.0,24.0,43.7,29.0,92.9,Eucalyptus L'Hér.; Pinus pinaster Aiton; Magnoliopsida; Tracheophyta; Quercus L.; Olea europaea L.
2004,2004-07-18,Viseu,Lamego,Vila Nova De Souto D' El-rei,Lamosa,41.0653599,-7.8337,NC,800.0,2004-07-18T20:00,19.3,69,13.6,18.5,0.0,0.0,0.0,0.0,0,1017.0,927.0,13,0,0,42,0.06,0.69,13.4,21.0,290,292,31.7,24.0,23.3,19.1,14.7,0.133,0.142,0.215,0.343,1,887.27,0.0,0.0,0.0,0.0,0.0,0.0,34.0,14.0,20.0,117.1,34.0,101.2,Tracheophyta; Magnoliopsida
2004,2004-07-18,Viseu,Tondela,Nandufe,NANDUFE,40.546368,-8.076902668581187,NC,312.0,2004-07-18T16:00,25.9,47,13.7,25.7,0.0,0.0,0.0,0.0,0,1016.3,980.8,19,0,0,63,0.51,1.78,15.5,19.7,292,294,34.9,32.8,24.9,21.3,16.8,0.097,0.141,0.214,0.329,1,3600.0,652.0,534.4,117.6,781.2,652.0,905.8,715.0,586.0,129.0,781.2,715.0,993.3,Magnoliopsida; Vitis vinifera L.; Eucalyptus L'Hér.; Pinus pinaster Aiton; Tracheophyta; Acacia Mill.
2004,2004-07-20,Viseu,Armamar,Santo Adrião,SANTO ADRIÃO,41.1218248,-7.6630277,NC,520.0,2004-07-20T22:00,19.0,73,14.0,19.6,0.0,0.0,0.0,0.0,0,1015.3,955.7,1,0,0,3,0.0,0.6,4.7,8.1,266,283,15.1,22.2,24.3,20.9,16.1,0.138,0.152,0.187,0.335,0,0.0,0.0,0.0,0.0,0.0,0.0,0.0,0.0,0.0,0.0,0.0,0.0,0.0,Magnoliopsida; Vitis vinifera L.; Olea europaea L.
2004,2004-07-25,Viseu,Vila Nova de Paiva,Fráguas,FRÁGUAS,40.83757735,-7.768243854878458,NC,683.0,2004-07-25T03:00,20.5,49,9.4,19.4,0.0,0.0,0.0,0.0,0,1020.2,942.8,0,0,0,0,0.04,1.23,6.4,8.4,16,353,10.4,19.5,25.0,20.5,15.7,0.099,0.146,0.222,0.332,0,0.0,0.0,0.0,0.0,0.0,0.0,0.0,0.0,0.0,0.0,0.0,0.0,0.0,Magnoliopsida; Pinus pinaster Aiton; Tracheophyta; Quercus L.
2004,2004-07-25,Viseu,Vouzela,Alcofra,Meã,40.614256,-8.1958379,NC,671.0,2004-07-25T13:00,32.2,25,9.9,33.3,0.0,0.0,0.0,0.0,0,1019.2,946.0,0,0,0,0,0.76,3.6,9.2,11.2,315,318,29.2,36.0,24.7,20.3,15.6,0.096,0.138,0.204,0.324,1,3600.0,961.6,852.6,109.0,916.8,961.6,1233.0,962.0,853.0,109.0,916.8,962.0,1233.5,Magnoliopsida; Pinus pinaster Aiton; Tracheophyta; Eucalyptus L'Hér.; Vitis vinifera L.; Quercus L.; 
2004,2004-07-25,Viseu,Moimenta da Beira,Leomil,Quinta do Furenho,40.9845171,-7.6560753,NC,704.0,2004-07-25T10:00,27.8,43,14.1,29.1,0.0,0.0,0.0,0.0,0,1021.2,943.3,0,0,0,0,0.5,2.13,6.4,7.7,52,53,19.4,29.5,24.4,20.8,15.9,0.125,0.137,0.197,0.333,1,3600.0,755.7,648.7,107.0,842.9,755.7,1020.3,692.0,594.0,98.0,842.9,692.0,934.2,Pinus pinaster Aiton; Tracheophyta; Magnoliopsida
2004,2004-07-21,Viseu,Oliveira de Frades,Oliveira de Frades,Travanca,40.7315557,-8.1924914,NC,393.0,2004-07-21T01:00,17.9,83,15.0,18.9,0.0,0.0,0.0,0.0,0,1014.8,969.2,6,3,0,12,0.0,0.34,4.6,5.5,321,328,7.2,20.0,23.9,21.3,17.0,0.097,0.143,0.22,0.335,0,0.0,0.0,0.0,0.0,0.0,0.0,0.0,0.0,0.0,0.0,0.0,0.0,0.0,Eucalyptus L'Hér.; Pinus pinaster Aiton; Magnoliopsida; Tracheophyta; Quercus L.; Olea europaea L.; 
2004,2004-06-16,Viseu,Moimenta da Beira,Cabaços,CABAÇOS,41.0261919,-7.5737411,NC,935.0,2004-06-16T05:00,12.4,60,4.8,9.7,0.0,0.0,0.0,0.0,0,1021.0,914.0,0,0,0,0,0.03,0.58,10.0,22.6,49,56,23.8,14.4,18.8,16.8,10.8,0.151,0.187,0.252,0.337,1,0.0,0.0,0.0,0.0,0.0,0.0,0.0,0.0,0.0,0.0,0.0,0.0,0.0,Tracheophyta; Magnoliopsida; Pinus pinaster Aiton
2004,2004-07-15,Viseu,São Pedro do Sul,Carvalhais,Pisão,40.7973723,-8.1293786,NC,516.0,2004-07-15T13:00,32.1,27,10.7,33.6,0.0,0.0,0.0,0.0,0,1014.6,958.0,0,0,0,0,0.74,3.49,7.6,8.9,251,249,24.1,34.5,23.6,19.4,15.6,0.105,0.152,0.235,0.343,1,3600.0,954.5,842.5,111.9,896.1,954.5,1244.7,955.0,843.0,112.0,896.1,955.0,1245.4,Magnoliopsida; Eucalyptus L'Hér.; Pinus pinaster Aiton; Tracheophyta; Quercus L.; Acacia Mill.; Olea europaea L.; Quercus suber L.; 
2004,2004-07-16,Viseu,Resende,Barrô,Cetos,41.1369549,-7.8744989,NC,318.0,2004-07-16T02:00,21.5,71,16.1,23.3,0.0,0.0,0.0,0.0,0,1014.2,977.6,14,0,24,0,0.0,0.74,2.2,2.1,171,211,4.7,20.4,24.1,20.0,16.2,0.11,0.16,0.243,0.345,0,0.0,0.0,0.0,0.0,0.0,0.0,0.0,0.0,0.0,0.0,0.0,0.0,0.0,Magnoliopsida; Pinus pinaster Aiton; Pinales; Vitis vinifera L.; Tracheophyta; Eucalyptus L'Hér.; Olea europaea L.; ; Quercus L.
2004,2004-07-25,Viseu,Mangualde,Mangualde,Oliveira,40.6320663,-7.7515692,NC,482.0,2004-07-25T13:00,34.0,23,10.1,35.5,0.0,0.0,0.0,0.0,0,1019.1,966.2,0,0,0,0,0.77,4.09,7.3,8.8,327,325,26.6,39.1,26.4,22.1,17.1,0.083,0.152,0.232,0.338,1,3600.0,960.7,850.9,109.9,915.5,960.7,1232.2,962.0,852.0,110.0,915.5,962.0,1233.8,Magnoliopsida; Tracheophyta; Pinus pinaster Aiton; Eucalyptus L'Hér.; Vitis vinifera L.; Olea europaea L.
2004,2004-07-04,Viseu,Mangualde,Mangualde,Ançada,40.5866363,-7.7602024,NC,457.0,2004-07-04T18:00,27.1,38,11.5,25.1,0.0,0.0,0.0,0.0,0,1016.0,964.8,0,0,0,0,0.36,2.22,16.8,22.7,315,317,37.4,32.0,25.1,20.7,15.2,0.087,0.174,0.257,0.35,1,3600.0,317.7,253.5,64.2,703.9,317.7,476.5,396.0,316.0,80.0,703.9,396.0,594.0,Magnoliopsida; Tracheophyta; Vitis vinifera L.; Pinus pinaster Aiton
2004,2004-07-17,Viseu,Tarouca,Gouviães,Eira Queimada,41.0581872,-7.7497549,NC,521.0,2004-07-17T15:00,27.5,37,11.8,27.0,0.0,0.0,0.0,0.0,1,1014.8,956.8,29,0,0,96,0.6,2.3,15.4,20.1,291,291,37.1,33.8,25.3,20.5,15.8,0.141,0.152,0.19,0.336,1,3600.0,730.5,463.0,267.4,573.7,730.5,1068.7,773.0,490.0,283.0,573.7,773.0,1130.9,Tracheophyta; Magnoliopsida; Castanea sativa Mill.; Olea europaea L.; Quercus L.; Pinus pinaster Aiton; Vitis vinifera L.; Pinales
2004,2004-07-21,Viseu,Nelas,Nelas,NELAS,40.51924,-7.859607564669652,NC,422.0,2004-07-21T19:00,24.7,55,14.9,24.5,0.0,0.0,0.0,0.0,0,1013.5,965.8,0,0,0,0,0.17,1.41,12.4,17.6,300,301,31.0,28.6,24.7,21.2,16.7,0.093,0.161,0.24,0.342,1,3600.0,114.4,79.4,35.0,511.5,114.4,205.6,183.0,127.0,56.0,511.5,183.0,329.0,Pinus pinaster Aiton; Magnoliopsida; Vitis vinifera L.; Tracheophyta
2004,2004-10-06,Viseu,Oliveira de Frades,Oliveira de Frades,Lameira Mole,40.725496750000005,-8.183912315118784,NC,461.0,2004-10-06T23:00,16.1,89,14.2,16.8,0.0,0.0,0.0,0.0,1,1015.0,961.5,29,0,5,88,0.0,0.2,4.9,4.5,73,61,15.1,18.3,20.9,20.2,19.5,0.103,0.16,0.214,0.303,0,0.0,0.0,0.0,0.0,0.0,0.0,0.0,0.0,0.0,0.0,0.0,0.0,0.0,Eucalyptus L'Hér.; Pinus pinaster Aiton; Magnoliopsida; Tracheophyta; Quercus L.; Olea europaea L.; 
2004,2004-07-24,Viseu,Resende,Barrô,BARRÔ,41.1291961,-7.8823471,NC,255.0,2004-07-24T03:00,22.1,69,16.2,23.7,0.0,0.0,0.0,0.0,0,1021.0,991.4,0,0,0,1,0.01,0.82,4.5,4.2,104,70,8.3,20.6,25.1,21.5,17.2,0.098,0.152,0.234,0.34,0,0.0,0.0,0.0,0.0,0.0,0.0,0.0,0.0,0.0,0.0,0.0,0.0,0.0,Magnoliopsida; Pinus pinaster Aiton; Pinales; Vitis vinifera L.; Tracheophyta; Eucalyptus L'Hér.; Olea europaea L.; 
2004,2004-07-23,Viseu,Castro Daire,São Joaninho,SÃO JOANINHO,40.91729505,-7.859615402566296,NC,751.0,2004-07-23T10:00,26.3,37,10.3,26.6,0.0,0.0,0.0,0.0,0,1020.4,937.3,0,0,0,0,0.49,2.18,5.6,7.1,225,225,20.2,27.0,21.4,19.4,15.1,0.107,0.148,0.227,0.341,1,3600.0,764.0,656.0,108.1,848.4,764.0,1024.6,700.0,601.0,99.0,848.4,700.0,938.8,Magnoliopsida; Pinus pinaster Aiton
2004,2004-07-25,Viseu,Viseu,Couto de Cima,COUTO DE CIMA,40.6710607,-8.0023053,NC,401.0,2004-07-25T14:00,34.6,25,11.5,35.1,0.0,0.0,0.0,0.0,0,1018.8,974.6,0,0,0,0,0.8,4.13,13.7,17.8,305,306,35.6,38.3,26.6,21.9,17.2,0.098,0.14,0.21,0.328,1,3600.0,911.6,805.6,106.0,907.3,911.6,1177.1,937.0,828.0,109.0,907.3,937.0,1209.9,Pinus pinaster Aiton; Magnoliopsida
2004,2004-07-25,Viseu,Tondela,São Miguel do Outeiro,Póvoa de Catarina,40.5945448,-8.012610084203082,NC,415.0,2004-07-25T14:00,34.5,24,11.0,35.2,0.0,0.0,0.0,0.0,0,1018.4,972.7,0,0,0,0,0.79,4.15,12.3,15.1,302,303,32.4,38.7,26.7,22.0,17.2,0.093,0.141,0.21,0.327,1,3600.0,915.5,809.4,106.0,911.3,915.5,1177.5,941.0,832.0,109.0,911.3,941.0,1210.4,Pinus pinaster Aiton; Acacia Mill.; Vitis vinifera L.; Eucalyptus L'Hér.; Olea europaea L.; Magnoliopsida
2004,2004-07-14,Viseu,Resende,São Martinho de Mouros,Vila Verde,41.1121455,-7.8826476,NC,571.0,2004-07-14T18:00,29.6,24,7.1,27.9,0.0,0.0,0.0,0.0,0,1015.4,952.4,0,0,0,0,0.31,3.13,6.5,8.6,357,358,15.1,29.6,22.4,18.0,14.6,0.144,0.159,0.238,0.347,1,3600.0,315.7,254.1,61.5,719.3,315.7,467.7,395.0,318.0,77.0,719.3,395.0,585.2,Tracheophyta; Pinales; Magnoliopsida; Pinus pinaster Aiton
2004,2004-07-26,Viseu,Mangualde,Mangualde,Almeidinha,40.6004762,-7.7299069,NC,530.0,2004-07-26T06:00,18.6,73,13.6,18.8,0.0,0.0,0.0,0.0,0,1017.9,957.0,0,0,0,0,0.03,0.58,6.6,8.9,41,27,16.9,19.7,26.3,22.7,17.3,0.079,0.158,0.239,0.338,1,0.0,30.7,11.8,18.9,117.5,15.1,133.2,13.0,5.0,8.0,57.8,13.0,56.4,Tracheophyta; Pinus pinaster Aiton; Magnoliopsida; Vitis vinifera L.
2004,2004-07-06,Viseu,Armamar,Santiago,SANTIAGO,41.0785273,-7.690629,NC,677.0,2004-07-06T12:00,22.9,48,11.4,23.3,0.0,0.0,0.0,0.0,1,1012.1,936.6,24,14,0,39,0.58,1.44,13.3,16.9,268,269,37.1,28.1,21.2,19.0,13.9,0.13,0.151,0.22,0.347,1,3600.0,920.6,754.7,165.9,803.0,920.6,1243.5,899.0,737.0,162.0,803.0,899.0,1214.3,Magnoliopsida; Pinus pinaster Aiton; Quercus L.; Tracheophyta; Eucalyptus L'Hér.; Castanea sativa Mill.; ; Pinales
2004,2004-07-15,Viseu,Oliveira de Frades,Arcozelo das Maias,Feitalinho,40.7353971,-8.2776103,NC,366.0,2004-07-15T13:00,32.2,29,11.9,33.7,0.0,0.0,0.0,0.0,0,1014.6,974.0,0,0,0,0,0.75,3.42,9.5,11.4,259,257,28.4,35.6,24.8,20.4,16.6,0.1,0.148,0.228,0.339,1,3600.0,951.7,838.7,113.0,891.5,951.7,1245.4,952.0,839.0,113.0,891.5,952.0,1245.8,Eucalyptus L'Hér.; Pinus pinaster Aiton; Magnoliopsida; Tracheophyta; Quercus L.; Olea europaea L.
2004,2004-07-24,Viseu,Vila Nova de Paiva,Vila Cova à Coelheira,VILA COVA A COELHEIRA,40.876181200000005,-7.798446661944673,NC,722.0,2004-07-24T18:00,29.3,27,8.2,26.6,0.0,0.0,0.0,0.0,0,1020.3,941.0,10,0,0,32,0.38,2.99,15.1,20.4,310,311,38.5,32.5,25.8,20.1,15.5,0.112,0.148,0.225,0.338,1,3600.0,295.9,237.5,58.4,704.9,295.9,446.6,375.0,301.0,74.0,704.9,375.0,566.0,Magnoliopsida; Pinus pinaster Aiton; Tracheophyta
2004,2004-07-15,Viseu,Sátão,Rio de Moinhos,Casal de Cima,40.7144192,-7.6975145,NC,525.0,2004-07-15T13:00,32.6,23,8.5,33.9,0.0,0.0,0.0,0.0,0,1014.6,957.1,0,0,0,0,0.74,3.81,5.8,7.1,240,240,22.7,39.0,25.5,20.9,16.3,0.079,0.166,0.249,0.344,1,3600.0,954.6,841.8,112.8,895.5,954.6,1244.4,956.0,843.0,113.0,895.5,956.0,1246.2,Tracheophyta; Pinus pinaster Aiton; Castanea sativa Mill.; Vitis vinifera L.; Magnoliopsida
2004,2004-06-15,Viseu,Viseu,Rio de Loba,Redonda,40.6514521,-7.8805487,NC,488.0,2004-06-15T16:00,26.7,24,4.4,25.4,0.0,0.0,0.0,0.0,0,1017.5,962.7,0,0,0,0,0.54,2.66,7.8,9.6,77,77,25.9,32.6,23.5,19.5,13.2,0.09,0.199,0.281,0.361,1,3600.0,689.3,592.7,96.6,862.3,689.3,911.1,756.0,650.0,106.0,862.3,756.0,999.2,Pinus pinaster Aiton; Magnoliopsida; Tracheophyta; Eucalyptus L'Hér.
2004,2004-07-18,Viseu,São Pedro do Sul,Valadares,Pedreira,40.7661802,-8.1852153,NC,391.0,2004-07-18T11:00,23.0,61,15.0,24.9,0.0,0.0,0.0,0.0,0,1018.2,973.5,17,7,0,37,0.48,1.1,6.6,8.0,299,306,28.1,27.6,23.0,20.9,16.7,0.098,0.146,0.224,0.337,1,3600.0,777.5,580.2,197.3,661.9,777.5,1160.8,737.0,550.0,187.0,661.9,737.0,1100.4,Pinus pinaster Aiton; Eucalyptus L'Hér.; Magnoliopsida; Tracheophyta; Quercus L.; Olea europaea L.; 
2004,2004-06-14,Viseu,Cinfães,Cinfães,Vila Chã,41.0721651,-8.0894728,NC,400.0,2004-06-14T15:00,27.7,25,6.1,26.3,0.0,0.0,0.0,0.0,0,1018.2,973.2,19,0,0,63,0.67,2.77,14.9,19.9,83,84,39.2,29.2,22.4,18.7,13.2,0.143,0.2,0.279,0.368,1,3600.0,831.3,683.9,147.4,840.2,831.3,1079.3,880.0,724.0,156.0,840.2,880.0,1142.5,Eucalyptus L'Hér.; Tracheophyta; Pinus pinaster Aiton; Quercus L.; Magnoliopsida
2004,2004-07-09,Viseu,Lamego,Lalim,LALIM,41.04239895,-7.8146570795472545,NC,584.0,2004-07-09T15:00,20.7,44,7.9,19.8,0.0,0.0,0.0,0.0,1,1020.6,954.0,33,0,55,0,0.53,1.38,13.7,17.3,288,287,37.8,26.1,18.9,19.0,14.7,0.17,0.151,0.218,0.345,1,3600.0,808.3,694.9,113.5,854.0,808.3,1076.6,855.0,735.0,120.0,854.0,855.0,1138.8,Tracheophyta; Pinales; Magnoliopsida
2004,2004-07-26,Viseu,Resende,Paus,PAUS,41.0758934,-7.9086513,Desconhecida,508.0,2004-07-26T13:00,30.5,29,10.3,33.1,0.0,0.0,0.0,0.0,0,1017.2,961.0,0,0,0,0,0.69,3.1,1.5,1.5,256,256,20.5,34.5,25.2,20.8,16.0,0.132,0.148,0.201,0.338,1,3600.0,953.5,843.6,109.9,911.6,953.5,1227.1,954.0,844.0,110.0,911.6,954.0,1227.7,Magnoliopsida; Pinales; Tracheophyta; Eucalyptus L'Hér.; Pinus pinaster Aiton; Olea europaea L.; 
2004,2004-09-28,Viseu,Cinfães,Moimenta,Vila Pouca,41.0529498,-8.1993626,NC,364.0,2004-09-28T06:00,11.0,75,6.7,8.8,0.0,0.0,0.0,0.0,0,1018.6,975.2,0,0,0,0,0.01,0.33,8.8,18.4,99,94,22.0,12.6,18.2,19.3,18.7,0.128,0.204,0.238,0.319,0,0.0,0.0,0.0,0.0,0.0,0.0,0.0,0.0,0.0,0.0,0.0,0.0,0.0,Magnoliopsida; Eucalyptus L'Hér.; Tracheophyta; Pinus pinaster Aiton; Castanea sativa Mill.; Quercus L.; 
2004,2004-07-19,Viseu,Nelas,Vilar Seco,VILAR SECO,40.5530097,-7.8705196,NC,360.0,2004-07-19T10:00,20.8,63,13.5,20.5,0.0,0.0,0.0,0.0,3,1018.0,976.4,100,56,41,86,0.28,0.91,9.6,12.3,290,291,25.2,24.3,23.1,21.6,16.9,0.095,0.163,0.243,0.344,1,3600.0,462.8,216.1,246.7,277.7,462.8,1030.6,424.0,198.0,226.0,277.7,424.0,944.3,Magnoliopsida; Pinus pinaster Aiton; Vitis vinifera L.; Tracheophyta; Olea europaea L.
2004,2004-07-09,Viseu,Viseu,São João de Lourosa,Oliveira de Barreiros,40.5960955,-7.9247902,NC,408.0,2004-07-09T16:00,22.4,41,8.3,20.7,0.0,0.0,0.0,0.0,0,1020.4,973.6,5,0,8,0,0.5,1.61,15.8,20.5,297,298,33.8,27.5,20.3,20.0,15.9,0.122,0.172,0.253,0.349,1,3600.0,680.2,586.1,94.0,848.6,680.2,913.9,745.0,642.0,103.0,848.6,745.0,1001.0,Olea europaea L.; Vitis vinifera L.; Pinus pinaster Aiton; Tracheophyta; Magnoliopsida
2004,2004-07-24,Viseu,Cinfães,Nespereira,NESPEREIRA,41.0012055,-8.1765373,NC,300.0,2004-07-24T14:00,33.5,25,10.5,34.3,0.0,0.0,0.0,0.0,0,1021.1,987.6,13,0,21,0,0.77,3.89,10.8,13.4,296,297,29.9,36.5,25.0,20.8,16.6,0.101,0.152,0.233,0.343,1,3600.0,911.3,805.2,106.1,906.1,911.3,1177.9,936.0,827.0,109.0,906.1,936.0,1209.8,Tracheophyta; Magnoliopsida; Eucalyptus L'Hér.
2004,2004-07-09,Viseu,Resende,Barrô,Cetos,41.1369549,-7.8744989,NC,318.0,2004-07-09T19:00,17.0,63,10.0,16.0,0.0,0.0,0.0,0.0,1,1021.0,983.6,41,30,23,0,0.1,0.71,7.6,10.5,275,274,27.4,21.7,20.1,19.7,15.8,0.171,0.168,0.252,0.349,1,3600.0,100.3,60.1,40.3,339.7,100.3,234.0,152.0,91.0,61.0,339.7,152.0,354.4,Magnoliopsida; Pinus pinaster Aiton; Pinales; Vitis vinifera L.; Tracheophyta; Eucalyptus L'Hér.; Olea europaea L.; ; Quercus L.
2004,2004-07-18,Viseu,Viseu,Povolide,Vilar de Ordem,40.6677481,-7.7943395,NC,470.0,2004-07-18T17:00,25.6,44,12.5,24.2,0.0,0.0,0.0,0.0,0,1016.1,963.2,15,0,0,50,0.42,1.84,15.3,20.1,289,291,35.3,33.5,25.9,21.8,16.9,0.084,0.156,0.238,0.34,1,3600.0,471.4,367.4,104.0,700.8,471.4,694.3,544.0,424.0,120.0,700.8,544.0,801.2,Magnoliopsida; Vitis vinifera L.; Tracheophyta; Olea europaea L.
2004,2004-07-18,Viseu,Lamego,Vila Nova De Souto D' El-rei,Juvandes,41.0653599,-7.8337,NC,800.0,2004-07-18T20:00,19.3,69,13.6,18.5,0.0,0.0,0.0,0.0,0,1017.0,927.0,13,0,0,42,0.06,0.69,13.4,21.0,290,292,31.7,24.0,23.3,19.1,14.7,0.133,0.142,0.215,0.343,1,887.27,0.0,0.0,0.0,0.0,0.0,0.0,34.0,14.0,20.0,117.1,34.0,101.2,Tracheophyta; Magnoliopsida
2004,2004-07-11,Viseu,Lamego,Vila Nova De Souto D' El-rei,Póvoa,41.0653599,-7.8337,NC,800.0,2004-07-11T19:00,21.4,43,8.3,19.1,0.0,0.0,0.0,0.0,0,1016.1,926.8,0,0,0,0,0.18,1.46,12.6,18.4,2,3,27.7,23.5,20.1,18.0,14.2,0.156,0.149,0.227,0.348,1,3600.0,129.4,89.8,39.6,506.3,129.4,234.6,196.0,136.0,60.0,506.3,196.0,355.5,Tracheophyta; Magnoliopsida
2004,2004-07-25,Viseu,Cinfães,Cinfães,Pias,41.0721651,-8.0894728,NC,400.0,2004-07-25T13:00,33.1,28,12.1,34.4,0.0,0.0,0.0,0.0,0,1019.2,974.9,0,0,0,0,0.78,3.66,11.2,14.0,312,314,32.8,35.9,25.3,21.1,16.6,0.121,0.139,0.206,0.343,1,3600.0,956.5,846.6,109.9,913.4,956.5,1228.8,957.0,847.0,110.0,913.4,957.0,1229.4,Eucalyptus L'Hér.; Tracheophyta; Pinus pinaster Aiton; Quercus L.; Magnoliopsida
2004,2004-07-25,Viseu,Viseu,Campo,Crasto,40.7092874,-7.9234277,NC,559.0,2004-07-25T15:00,34.0,22,9.5,33.3,0.0,0.0,0.0,0.0,0,1018.2,957.2,0,0,0,0,0.75,4.13,15.1,19.7,298,298,35.6,39.5,26.8,21.6,16.6,0.083,0.152,0.232,0.338,1,3600.0,814.5,716.4,98.2,897.2,814.5,1058.6,863.0,759.0,104.0,897.2,863.0,1121.6,Tracheophyta; Pinus pinaster Aiton
2004,2004-09-28,Viseu,Cinfães,Cinfães,Barroncal,41.0721651,-8.0894728,NC,400.0,2004-09-28T07:00,11.3,76,7.2,9.1,0.0,0.0,0.0,0.0,0,1018.8,971.2,0,0,0,0,0.03,0.32,10.0,19.6,77,83,25.2,12.9,18.5,19.9,19.2,0.142,0.186,0.21,0.32,1,40.02,30.5,14.1,16.4,146.7,14.8,131.0,13.0,6.0,7.0,71.1,13.0,55.7,Eucalyptus L'Hér.; Tracheophyta; Pinus pinaster Aiton; Quercus L.; Magnoliopsida
2004,2004-07-19,Viseu,Viseu,São João de Lourosa,Quinta da Misericórdia-Oliv.Barreiros,40.6190443,-7.9039998,NC,465.0,2004-07-19T21:00,18.2,74,13.4,18.4,0.0,0.0,0.0,0.0,0,1016.8,963.1,2,2,0,0,0.01,0.55,6.2,13.3,280,289,20.2,22.0,23.6,20.9,16.3,0.095,0.162,0.242,0.343,0,0.0,0.0,0.0,0.0,0.0,0.0,0.0,0.0,0.0,0.0,0.0,0.0,0.0,Tracheophyta; Pinus pinaster Aiton; Magnoliopsida; Vitis vinifera L.
2004,2004-07-12,Viseu,Viseu,São Pedro de France,Travassô,40.7112706,-7.7900159,NC,483.0,2004-07-12T14:00,27.1,28,7.2,27.2,0.0,0.0,0.0,0.0,0,1015.3,961.3,0,0,0,0,0.69,2.57,10.0,12.7,52,55,29.2,33.4,22.4,20.4,16.3,0.092,0.162,0.246,0.343,1,3600.0,920.4,809.5,110.9,899.1,920.4,1191.6,946.0,832.0,114.0,899.1,946.0,1224.7,Magnoliopsida; Pinus pinaster Aiton; Tracheophyta; Vitis vinifera L.
2004,2004-07-25,Viseu,Viseu,Ranhados,Traseira Cemitério,40.6419955,-7.8992132,NC,450.0,2004-07-25T21:00,25.6,47,13.3,25.6,0.0,0.0,0.0,0.0,0,1018.9,968.0,0,0,0,0,0.06,1.76,7.3,8.8,281,289,16.6,27.9,27.6,21.7,16.9,0.092,0.157,0.236,0.34,0,0.0,0.0,0.0,0.0,0.0,0.0,0.0,0.0,0.0,0.0,0.0,0.0,0.0,Tracheophyta; Magnoliopsida; Vitis vinifera L.; Pinus pinaster Aiton
2004,2004-07-01,Viseu,Moimenta da Beira,Arcozelos,Arcozelo do Cabo,40.964923,-7.588698641701325,NC,579.0,2004-07-01T15:00,28.7,30,9.4,28.4,0.0,0.0,0.0,0.0,0,1017.6,953.4,0,0,0,0,0.67,2.75,13.2,16.9,299,299,31.0,35.8,25.3,20.5,14.3,0.12,0.154,0.202,0.324,1,3600.0,823.9,718.1,105.8,881.5,823.9,1077.9,872.0,760.0,112.0,881.5,872.0,1140.8,Tracheophyta; Pinus pinaster Aiton; Castanea sativa Mill.; Magnoliopsida; Quercus L.; Vitis vinifera L.
2004,2004-07-18,Viseu,Vila Nova de Paiva,Touro,Senhora da Boa Sorte,40.8953121,-7.7478521,NC,790.0,2004-07-18T22:00,17.2,81,14.0,17.4,0.0,0.0,0.0,0.0,0,1018.1,928.5,16,3,0,46,0.0,0.36,7.2,13.7,276,284,25.6,21.3,23.1,19.2,14.7,0.134,0.143,0.213,0.336,0,0.0,0.0,0.0,0.0,0.0,0.0,0.0,0.0,0.0,0.0,0.0,0.0,0.0,Magnoliopsida; Pinus pinaster Aiton; Tracheophyta; Eucalyptus L'Hér.; Quercus L.; 
2004,2004-07-18,Viseu,Mangualde,Mangualde,Cubos,40.5866363,-7.7602024,NC,457.0,2004-07-18T18:00,24.4,47,12.4,22.8,0.0,0.0,0.0,0.0,1,1016.9,965.2,20,0,0,68,0.29,1.62,15.9,21.0,303,305,35.3,30.4,25.3,21.3,16.4,0.088,0.162,0.243,0.343,1,3600.0,267.7,166.0,101.7,478.7,267.7,459.2,337.0,209.0,128.0,478.7,337.0,578.2,Magnoliopsida; Tracheophyta; Vitis vinifera L.; Pinus pinaster Aiton
2004,2004-07-25,Viseu,Castro Daire,Gosende,Cotelo,41.0083477,-7.9058671,NC,1004.0,2004-07-25T21:00,22.1,50,11.1,21.3,0.0,0.0,0.0,0.0,0,1018.8,908.2,0,0,0,0,0.05,1.34,7.9,12.8,273,286,19.8,24.8,24.5,18.7,14.0,0.11,0.144,0.218,0.339,0,0.0,0.0,0.0,0.0,0.0,0.0,0.0,0.0,0.0,0.0,0.0,0.0,0.0,Tracheophyta; Magnoliopsida; Pinales
2004,2004-07-18,Viseu,Resende,Resende,Minhães,41.105831,-7.9644114,NC,240.0,2004-07-18T21:00,19.2,85,16.6,20.5,0.0,0.0,0.0,0.0,1,1018.2,990.1,32,36,0,0,0.0,0.34,6.6,11.8,279,282,19.4,23.4,24.3,20.7,16.5,0.103,0.159,0.241,0.345,0,0.0,0.0,0.0,0.0,0.0,0.0,0.0,0.0,0.0,0.0,0.0,0.0,0.0,Tracheophyta; Magnoliopsida; Pinales; Eucalyptus L'Hér.; Vitis vinifera L.
2004,2004-07-13,Viseu,Vila Nova de Paiva,Fráguas,Cabaços - Fráguas,40.8384326,-7.7700275,NC,695.0,2004-07-13T02:00,16.5,41,3.2,13.5,0.0,0.0,0.0,0.0,0,1016.5,937.1,0,0,0,0,0.07,1.11,10.1,20.9,55,61,26.3,17.4,21.1,18.5,14.6,0.113,0.156,0.238,0.339,0,0.0,0.0,0.0,0.0,0.0,0.0,0.0,0.0,0.0,0.0,0.0,0.0,0.0,Magnoliopsida; Pinus pinaster Aiton; Tracheophyta; Quercus L.
2004,2004-07-13,Viseu,Viseu,Abraveses,Bairro de Santa Rita,40.6821056,-7.9165906,NC,507.0,2004-07-13T12:00,26.7,28,6.6,27.0,0.0,0.0,0.0,0.0,0,1017.1,960.3,0,0,0,0,0.67,2.53,8.2,10.4,67,70,28.1,30.8,22.1,19.8,15.9,0.093,0.163,0.247,0.346,1,3600.0,961.4,846.6,114.8,904.0,961.4,1239.5,938.0,826.0,112.0,904.0,938.0,1209.3,Pinus pinaster Aiton; Tracheophyta; Magnoliopsida
2004,2004-07-13,Viseu,Viseu,São Pedro de France,Povidal,40.7112706,-7.7900159,NC,483.0,2004-07-13T14:00,28.5,25,6.4,29.2,0.0,0.0,0.0,0.0,0,1016.1,962.3,0,0,0,0,0.7,2.94,6.5,7.6,19,19,22.0,35.6,23.5,20.5,16.3,0.087,0.161,0.245,0.343,1,3600.0,926.3,816.3,109.9,907.4,926.3,1190.8,952.0,839.0,113.0,907.4,952.0,1223.8,Magnoliopsida; Pinus pinaster Aiton; Tracheophyta; Vitis vinifera L.
2004,2004-07-18,Viseu,Sátão,Romãs,Rãs,40.7614268,-7.6371852,NC,649.0,2004-07-18T22:00,18.4,77,14.3,18.9,0.0,0.0,0.0,0.0,0,1018.4,944.3,19,7,0,41,0.01,0.49,6.5,12.4,267,280,20.9,22.4,24.4,20.4,15.5,0.12,0.145,0.21,0.322,0,0.0,0.0,0.0,0.0,0.0,0.0,0.0,0.0,0.0,0.0,0.0,0.0,0.0,Magnoliopsida; Tracheophyta; Olea europaea L.; Pinus pinaster Aiton
2004,2004-07-19,Viseu,Viseu,Vil de Souto,VIL DE SOUTO,40.6683867,-7.9850559,NC,423.0,2004-07-19T05:00,16.0,98,15.7,17.4,0.0,0.0,0.0,0.0,3,1017.1,967.7,100,100,0,38,0.0,0.03,3.3,4.5,283,284,10.4,19.1,23.3,21.0,16.5,0.1,0.144,0.219,0.333,0,0.0,0.0,0.0,0.0,0.0,0.0,0.0,0.0,0.0,0.0,0.0,0.0,0.0,Vitis vinifera L.; Pinus pinaster Aiton; Pinus pinea L.; Eucalyptus L'Hér.; Olea europaea L.; Magnoliopsida
2004,2004-07-26,Viseu,Viseu,Vil de Souto,Moledo,40.6643746,-7.9750061,NC,480.0,2004-07-26T17:00,31.5,33,13.1,30.3,0.0,0.0,0.0,0.0,0,1015.5,962.5,0,0,0,0,0.49,3.11,14.2,18.4,297,298,28.8,36.3,27.2,21.7,16.8,0.098,0.139,0.208,0.327,1,3600.0,475.7,400.6,75.1,780.2,475.7,680.8,551.0,464.0,87.0,780.2,551.0,788.6,Eucalyptus L'Hér.; Pinus pinaster Aiton; Vitis vinifera L.; Olea europaea L.; Pinus pinea L.; Magnoliopsida
2004,2004-07-15,Viseu,Resende,Freigil,FREIGIL,41.07777419999999,-8.01195671782654,NC,431.0,2004-07-15T15:00,30.4,32,11.7,30.1,0.0,0.0,0.0,0.0,0,1014.1,966.3,3,0,2,5,0.55,2.96,10.0,12.5,283,282,32.4,33.5,24.0,19.4,15.7,0.133,0.145,0.221,0.35,1,3600.0,630.9,448.4,182.6,552.3,630.9,1074.7,667.0,474.0,193.0,552.3,667.0,1136.1,Tracheophyta; Pinales; Magnoliopsida; Eucalyptus L'Hér.; Pinus pinaster Aiton; Olea europaea L.; 
2004,2004-07-16,Viseu,Cinfães,São Cristovão De Nogueira,Mourilhe,41.0851603,-8.1229989,NC,101.0,2004-07-16T01:00,22.6,71,17.2,24.8,0.0,0.0,0.0,0.0,0,1014.3,1002.6,3,0,5,0,0.0,0.79,2.9,2.4,150,153,6.8,21.4,24.9,20.6,16.9,0.118,0.164,0.246,0.347,0,0.0,0.0,0.0,0.0,0.0,0.0,0.0,0.0,0.0,0.0,0.0,0.0,0.0,Magnoliopsida; Vitis vinifera L.; Tracheophyta; Pinus pinaster Aiton; Quercus L.
