year,date,district,municipality,parish,local,latitude,longitude,cause,elevation,hourly.time,hourly.temperature_2m,hourly.relative_humidity_2m,hourly.dew_point_2m,hourly.apparent_temperature,hourly.precipitation,hourly.rain,hourly.snowfall,hourly.snow_depth,hourly.weather_code,hourly.pressure_msl,hourly.surface_pressure,hourly.cloud_cover,hourly.cloud_cover_low,hourly.cloud_cover_mid,hourly.cloud_cover_high,hourly.et0_fao_evapotranspiration,hourly.vapour_pressure_deficit,hourly.wind_speed_10m,hourly.wind_speed_100m,hourly.wind_direction_10m,hourly.wind_direction_100m,hourly.wind_gusts_10m,hourly.soil_temperature_0_to_7cm,hourly.soil_temperature_7_to_28cm,hourly.soil_temperature_28_to_100cm,hourly.soil_temperature_100_to_255cm,hourly.soil_moisture_0_to_7cm,hourly.soil_moisture_7_to_28cm,hourly.soil_moisture_28_to_100cm,hourly.soil_moisture_100_to_255cm,hourly.is_day,hourly.sunshine_duration,hourly.shortwave_radiation_instant,hourly.direct_radiation_instant,hourly.diffuse_radiation_instant,hourly.direct_normal_irradiance_instant,hourly.global_tilted_irradiance_instant,hourly.terrestrial_radiation_instant,hourly.shortwave_radiation,hourly.direct_radiation,hourly.diffuse_radiation,hourly.direct_normal_irradiance,hourly.global_tilted_irradiance,hourly.terrestrial_radiation,scientificNames
2004,2004-07-25,Évora,Évora,Canaviais,ESPINHEIRO,38.6083716,-7.8992473,NC,258.0,2004-07-25T18:00,37.2,15,6.6,33.1,0.0,0.0,0.0,0.0,0,1015.1,986.7,0,0,0,0,0.55,5.35,21.9,32.4,333,333,50.4,37.7,31.9,25.1,19.9,0.135,0.177,0.237,0.332,1,3600.0,292.5,231.7,60.8,701.2,292.5,438.1,375.0,297.0,78.0,701.2,375.0,561.6,Tracheophyta
2004,2004-07-15,Évora,Alandroal,Juromenha (Nossa Senhora do Loreto),Monte de Cascalhais,38.7020061,-7.4038313,Desconhecida,344.0,2004-07-15T14:00,33.7,19,7.3,34.1,0.0,0.0,0.0,0.0,0,1013.6,975.7,1,0,1,0,0.76,4.21,8.5,11.1,234,234,31.7,36.6,28.0,23.6,18.7,0.124,0.177,0.242,0.318,1,3600.0,917.5,801.8,115.7,884.6,917.5,1200.0,944.0,825.0,119.0,884.6,944.0,1234.6,Tracheophyta; Magnoliopsida; Olea europaea L.; Quercus suber L.
2004,2004-07-28,Évora,Mora,Pavia,PAVIA,38.8463544,-8.0022762,NC,171.0,2004-07-28T13:00,29.8,35,12.6,30.7,0.0,0.0,0.0,0.0,0,1015.3,995.9,0,0,0,0,0.73,2.74,14.2,18.4,297,298,34.9,33.1,28.1,25.7,20.3,0.124,0.175,0.244,0.33,1,3600.0,948.3,827.4,120.9,883.7,948.3,1242.1,949.0,828.0,121.0,883.7,949.0,1243.0,Quercus rotundifolia Lam.; Tracheophyta
2004,2004-12-08,Beja,Mértola,Santana de Cambas,POUSO DAS MÓS,37.6241234,-7.5251848,NC,134.0,2004-12-08T15:00,13.1,54,4.1,10.0,0.0,0.0,0.0,0.0,0,1019.9,1003.7,1,1,0,0,0.19,0.69,11.8,16.2,322,323,24.8,14.2,11.9,14.7,20.2,0.313,0.315,0.234,0.279,1,3600.0,317.7,255.9,61.8,781.1,317.7,461.9,370.0,298.0,72.0,781.1,370.0,537.9,Quercus rotundifolia Lam.; Tracheophyta; Magnoliopsida
2004,2004-06-26,Guarda,Sabugal,Aldeia de Santo António,ALDEIA DE SANTO ANTÓNIO,40.3404888,-7.132592825112418,NC,817.0,2004-06-26T11:00,27.5,35,10.6,28.7,0.0,0.0,0.0,0.0,0,1018.2,928.7,1,0,0,3,0.62,2.4,6.4,7.9,232,231,23.4,30.0,21.7,18.4,13.0,0.112,0.177,0.256,0.348,1,3600.0,909.0,791.5,117.6,877.8,909.0,1193.4,866.0,754.0,112.0,877.8,866.0,1137.0,Pinus pinaster Aiton; Tracheophyta; Magnoliopsida; Pinales
2004,2004-06-27,Guarda,Almeida,Miuzela,Correchanha,40.5119971,-7.0066493,NC,792.0,2004-06-27T14:00,31.5,23,8.0,32.5,0.0,0.0,0.0,0.0,0,1019.3,933.4,0,0,0,0,0.74,3.56,6.9,8.2,313,311,23.8,33.7,23.2,18.4,13.0,0.13,0.154,0.227,0.33,1,3600.0,936.0,824.3,111.7,912.7,936.0,1195.3,964.0,849.0,115.0,912.7,964.0,1231.1,Tracheophyta; Magnoliopsida
2004,2004-06-29,Guarda,Figueira de Castelo Rodrigo,Mata de Lobos,MATA DE LOBOS,40.9056991,-6.9017467,NC,606.0,2004-06-29T12:00,30.8,28,10.0,33.0,0.0,0.0,0.0,0.0,0,1020.0,953.3,4,0,0,12,0.7,3.21,3.3,4.1,13,15,18.4,31.8,23.8,19.6,13.9,0.154,0.21,0.263,0.329,1,3600.0,975.7,855.1,120.6,903.6,975.7,1252.3,955.0,837.0,118.0,903.6,955.0,1225.7,Magnoliopsida; Olea europaea L.; Tracheophyta
2004,2004-06-29,Guarda,Trancoso,Rio de Mel,RIO DE MEL,40.8258037,-7.3806671,NC,794.0,2004-06-29T16:00,32.7,21,7.5,31.6,0.0,0.0,0.0,0.0,0,1018.0,932.3,0,0,0,0,0.63,3.9,11.0,13.7,289,288,30.2,35.8,25.2,18.8,13.0,0.124,0.149,0.215,0.313,1,3600.0,691.5,598.5,93.1,869.4,691.5,911.0,758.0,656.0,102.0,869.4,758.0,998.5,Castanea sativa Mill.; Pinus pinaster Aiton; Eucalyptus L'Hér.; Magnoliopsida; Tracheophyta; Quercus L.; Pinales; 
2004,2004-07-01,Guarda,Seia,Tourais,Lapa,40.4678699,-7.7370492,NC,423.0,2004-07-01T14:00,28.5,31,9.7,28.3,0.0,0.0,0.0,0.0,0,1018.7,971.3,9,0,0,31,0.74,2.68,15.5,19.6,312,314,38.5,37.0,25.2,21.3,15.3,0.08,0.177,0.261,0.349,1,3600.0,941.4,827.6,113.8,913.0,941.4,1199.4,968.0,851.0,117.0,913.0,968.0,1233.4,Pinus pinaster Aiton; Tracheophyta; Olea europaea L.; Magnoliopsida
2004,2004-07-03,Guarda,Vila Nova de Foz Côa,Seixas,SEIXAS,41.113728,-7.2518023,NC,411.0,2004-07-03T09:00,21.6,50,10.6,20.8,0.0,0.0,0.0,0.0,0,1020.1,972.8,0,0,0,0,0.36,1.3,7.2,9.2,37,39,22.0,25.4,24.0,22.4,15.7,0.077,0.176,0.245,0.329,1,3600.0,635.0,526.5,108.5,784.3,635.0,888.2,562.0,466.0,96.0,784.3,562.0,786.1,Magnoliopsida; Olea europaea L.; Vitis vinifera L.; Tracheophyta
2004,2004-07-04,Guarda,Guarda,Panoias de Cima,Valcovo,40.4880887,-7.2215328,NC,871.0,2004-07-04T13:00,28.3,25,6.2,28.8,0.0,0.0,0.0,0.0,0,1015.7,921.1,0,0,0,0,0.73,2.91,8.0,10.0,260,257,27.7,36.1,24.0,20.5,14.0,0.086,0.163,0.243,0.342,1,3600.0,982.5,865.8,116.7,912.9,982.5,1254.8,985.0,868.0,117.0,912.9,985.0,1258.1,Tracheophyta; Magnoliopsida; Castanea sativa Mill.
2004,2004-06-18,Guarda,Sabugal,Águas Belas,ÁGUAS BELAS,40.3754826,-7.1668241,NC,846.0,2004-06-18T16:00,25.6,29,6.5,22.9,0.0,0.0,0.0,0.0,1,1011.1,918.7,38,0,14,99,0.36,2.32,12.6,16.3,275,275,31.3,31.4,25.0,19.5,12.5,0.111,0.238,0.311,0.392,1,2282.48,342.2,92.8,249.4,136.1,342.2,903.7,376.0,102.0,274.0,136.1,376.0,993.0,Magnoliopsida; Tracheophyta
2004,2004-06-17,Guarda,Figueira de Castelo Rodrigo,Figueira de Castelo Rodrigo,FIGUEIRA DE CASTELO RODRIGO,40.91369775,-6.963039143588512,NC,621.0,2004-06-17T21:00,24.9,38,9.5,23.7,0.0,0.0,0.0,0.0,0,1014.4,945.2,0,0,0,0,0.06,1.96,6.9,17.7,313,321,15.8,24.2,23.4,18.6,12.3,0.164,0.222,0.265,0.326,0,0.0,0.0,0.0,0.0,0.0,0.0,0.0,0.0,0.0,0.0,0.0,0.0,0.0,Tracheophyta; Pinus pinea L.; Olea europaea L.; Magnoliopsida; Vitis vinifera L.; Quercus L.
2004,2004-06-25,Guarda,Pinhel,Pinhel,Quinta Nova,40.8014873,-7.0562901,NC,579.0,2004-06-25T15:00,28.5,32,10.0,29.3,0.0,0.0,0.0,0.0,1,1015.2,951.2,29,0,0,98,0.63,2.66,7.3,9.1,290,288,23.8,30.7,22.0,18.5,13.5,0.161,0.191,0.245,0.318,1,3600.0,800.2,661.5,138.7,814.6,800.2,1074.8,848.0,701.0,147.0,814.6,848.0,1139.0,Olea europaea L.; Magnoliopsida; Tracheophyta; Vitis vinifera L.; Quercus L.
2004,2004-07-05,Guarda,Vila Nova de Foz Côa,Almendra,ALMENDRA,41.03494475,-7.0031384,NC,142.0,2004-07-05T22:00,24.2,54,14.4,24.6,0.0,0.0,0.0,0.0,0,1014.7,998.3,2,0,0,8,0.05,1.38,7.6,11.6,275,292,15.8,25.9,27.6,23.7,17.3,0.101,0.178,0.244,0.329,0,0.0,0.0,0.0,0.0,0.0,0.0,0.0,0.0,0.0,0.0,0.0,0.0,0.0,Vitis vinifera L.; Tracheophyta; Magnoliopsida
2004,2004-06-29,Guarda,Seia,Carragozela,CARRAGOZELA,40.40570245,-7.75814163230463,NC,507.0,2004-06-29T14:00,32.7,26,10.9,34.4,0.0,0.0,0.0,0.0,0,1019.1,963.3,0,0,0,0,0.75,3.65,7.3,8.9,281,284,26.6,35.9,24.8,19.6,14.4,0.104,0.177,0.263,0.349,1,3600.0,938.5,827.6,110.9,911.9,938.5,1201.0,965.0,851.0,114.0,911.9,965.0,1234.9,Pinus pinaster Aiton; Olea europaea L.; Magnoliopsida; Tracheophyta
2004,2004-06-26,Guarda,Sabugal,Souto,SOUTO,40.3572969,-6.9588448,NC,878.0,2004-06-26T18:00,28.7,31,10.1,26.9,0.0,0.0,0.0,0.0,0,1017.3,921.9,0,0,0,0,0.35,2.7,12.1,16.1,282,280,29.5,31.8,24.3,18.4,12.9,0.096,0.186,0.268,0.352,1,3600.0,305.3,241.5,63.8,689.4,305.3,463.7,383.0,303.0,80.0,689.4,383.0,581.7,Magnoliopsida; Pinus pinaster Aiton; Tracheophyta; Quercus L.; Castanea sativa Mill.; Pinales; Eucalyptus L'Hér.; 
2004,2004-07-11,Guarda,Gouveia,Arcozelo,ARCOZELO,40.5550912,-7.604262034159131,NC,358.0,2004-07-11T09:00,20.8,59,12.4,19.7,0.0,0.0,0.0,0.0,0,1018.7,977.3,0,0,0,0,0.33,1.02,13.3,17.4,49,50,31.7,22.8,21.0,21.2,16.8,0.092,0.168,0.251,0.345,1,3600.0,599.1,478.6,120.5,729.0,599.1,868.8,527.0,421.0,106.0,729.0,527.0,764.2,Magnoliopsida; Tracheophyta; Olea europaea L.; Pinus pinaster Aiton; Pinales; Vitis vinifera L.; 
2004,2004-07-13,Guarda,Guarda,Pêro Soares,PERO SOARES,40.5400493,-7.331772677472204,NC,650.0,2004-07-13T16:00,28.8,20,3.9,26.8,0.0,0.0,0.0,0.0,0,1015.0,943.5,0,0,0,0,0.59,3.16,11.6,14.5,355,354,24.8,38.5,25.3,21.1,16.4,0.075,0.164,0.237,0.334,1,3600.0,680.9,587.0,93.9,857.9,680.9,905.7,747.0,644.0,103.0,857.9,747.0,993.6,Magnoliopsida; Olea europaea L.; Pinus pinaster Aiton; Tracheophyta
2004,2004-06-29,Guarda,Vila Nova de Foz Côa,Cedovim,Quinta da Teja \ CAS,41.0272729,-7.3102777,NC,578.0,2004-06-29T17:00,33.4,22,9.0,32.0,0.0,0.0,0.0,0.0,0,1017.3,954.2,0,0,0,0,0.5,4.0,9.3,12.0,286,286,27.0,37.4,27.2,20.3,14.2,0.105,0.154,0.208,0.306,1,3600.0,509.5,427.7,81.7,804.7,509.5,703.3,586.0,492.0,94.0,804.7,586.0,809.0,Olea europaea L.; Magnoliopsida; Vitis vinifera L.; Tracheophyta
2004,2004-06-24,Guarda,Vila Nova de Foz Côa,Vila Nova de Foz Côa,Pocinho,41.1265483,-7.1339146,NC,121.0,2004-06-24T23:00,21.8,79,18.0,23.8,0.0,0.0,0.0,0.0,1,1017.5,1003.4,34,7,0,93,0.0,0.55,5.8,10.9,266,278,13.7,22.7,24.4,21.7,16.1,0.123,0.193,0.256,0.332,0,0.0,0.0,0.0,0.0,0.0,0.0,0.0,0.0,0.0,0.0,0.0,0.0,0.0,Vitis vinifera L.; Olea europaea L.; Magnoliopsida; Tracheophyta
2004,2004-06-21,Guarda,Trancoso,Terrenho,TERRENHO,40.86667315,-7.358655475868256,NC,824.0,2004-06-21T14:00,20.2,57,11.4,18.5,0.0,0.0,0.0,0.0,3,1015.1,923.0,100,49,60,97,0.39,1.02,16.0,20.7,247,247,38.2,22.8,18.8,18.1,12.3,0.131,0.158,0.226,0.316,1,3600.0,571.1,352.6,218.6,390.5,571.1,1195.9,588.0,363.0,225.0,390.5,588.0,1231.2,Magnoliopsida; Castanea sativa Mill.; Tracheophyta; Pinus pinaster Aiton; Acacia Mill.; Quercus L.; 
2004,2004-06-26,Guarda,Guarda,Porto da Carne,PORTO DA CARNE,40.6067362,-7.296247,NC,440.0,2004-06-26T20:00,25.5,53,15.3,25.9,0.0,0.0,0.0,0.0,0,1018.6,968.8,0,0,0,0,0.09,1.53,9.7,19.0,301,303,23.8,28.4,25.9,20.5,15.0,0.094,0.182,0.26,0.335,1,2042.27,0.0,0.0,0.0,0.0,0.0,0.0,47.0,26.0,21.0,211.1,47.0,112.5,Tracheophyta; Magnoliopsida
2004,2004-07-15,Guarda,Seia,Tourais,VILA VERDE,40.4713583,-7.7507768,NC,444.0,2004-07-15T12:00,32.4,23,8.9,34.3,0.0,0.0,0.0,0.0,0,1014.7,965.8,0,0,0,0,0.67,3.73,1.8,2.1,259,239,21.6,37.5,25.5,21.2,16.6,0.079,0.163,0.246,0.342,1,3600.0,935.8,821.0,114.8,877.0,935.8,1239.2,913.0,801.0,112.0,877.0,913.0,1209.1,Olea europaea L.; Pinus pinaster Aiton; Magnoliopsida
2004,2004-06-27,Guarda,Guarda,Jarmelo (são Pedro),JARMELO,40.5728853,-7.1088011,NC,804.0,2004-06-27T13:00,29.8,28,9.1,31.7,0.0,0.0,0.0,0.0,0,1019.8,932.1,0,0,0,0,0.74,3.05,5.0,5.7,330,325,22.3,32.7,22.7,18.3,12.8,0.146,0.16,0.211,0.303,1,3600.0,989.5,872.9,116.6,919.4,989.5,1256.5,993.0,876.0,117.0,919.4,993.0,1260.9,Magnoliopsida; Tracheophyta; Olea europaea L.
2004,2004-05-02,Guarda,Fornos de Algodres,Juncais,JUNCAIS,40.598205500000006,-7.5165882783913744,NC,453.0,2004-05-02T12:00,13.7,47,2.5,13.2,0.0,0.0,0.0,0.0,1,1003.7,951.3,29,14,5,44,0.44,0.84,4.0,4.8,170,167,18.0,18.0,11.6,12.6,10.6,0.314,0.291,0.327,0.368,1,3600.0,842.4,621.6,220.8,690.1,842.4,1213.2,824.0,608.0,216.0,690.1,824.0,1186.7,Tracheophyta; Olea europaea L.; Quercus L.; Magnoliopsida; Pinus pinaster Aiton; Vitis vinifera L.; Eucalyptus L'Hér.; Acacia Mill.; 
2004,2004-07-15,Guarda,Seia,Santa Comba,SANTA COMBA,40.4499414,-7.7139441,NC,474.0,2004-07-15T16:00,29.6,32,11.4,28.3,0.2,0.2,0.0,0.0,51,1014.0,961.5,25,0,28,27,0.48,2.81,12.1,15.5,293,292,33.8,34.4,25.8,20.4,16.1,0.104,0.154,0.238,0.339,1,3600.0,506.0,378.4,127.6,552.4,506.0,906.7,555.0,415.0,140.0,552.4,555.0,994.5,Tracheophyta; Vitis vinifera L.; Pinus pinaster Aiton; Olea europaea L.
2004,2004-06-21,Guarda,Guarda,Pêra Do Moço,PERA DO MOÇO,40.6263378,-7.1975568,NC,784.0,2004-06-21T15:00,21.7,49,10.4,19.6,0.0,0.0,0.0,0.0,3,1014.8,927.4,100,52,63,93,0.38,1.33,15.4,20.4,249,249,38.2,26.3,20.3,19.1,12.9,0.114,0.171,0.238,0.319,1,3600.0,495.4,319.9,175.5,393.4,495.4,1076.9,525.0,339.0,186.0,393.4,525.0,1141.3,Tracheophyta; Magnoliopsida; Pinus pinaster Aiton
2004,2004-07-02,Guarda,Seia,Carragozela,CARRAGOZELA,40.40570245,-7.75814163230463,NC,507.0,2004-07-02T14:00,27.3,26,6.2,27.0,0.0,0.0,0.0,0.0,0,1018.8,962.0,0,0,0,0,0.71,2.68,11.5,14.7,340,343,34.2,32.4,23.0,20.2,14.7,0.097,0.17,0.258,0.347,1,3600.0,934.8,823.9,110.9,908.3,934.8,1200.2,961.0,847.0,114.0,908.3,961.0,1233.8,Pinus pinaster Aiton; Olea europaea L.; Magnoliopsida; Tracheophyta
2004,2004-06-28,Guarda,Figueira de Castelo Rodrigo,Escalhão,Barca de Alva,41.0278266,-6.9337495508109575,NC,124.0,2004-06-28T16:00,36.1,23,11.8,36.9,0.0,0.0,0.0,0.0,0,1019.4,1005.5,2,0,0,5,0.6,4.57,5.9,7.4,313,313,19.1,38.6,28.1,22.3,16.5,0.128,0.19,0.25,0.329,1,3600.0,675.5,581.6,93.9,849.4,675.5,906.1,741.0,638.0,103.0,849.4,741.0,994.0,Olea europaea L.; Magnoliopsida; Tracheophyta
2004,2004-07-01,Guarda,Guarda,Vila Fernando,Vila Mendo,40.4947711,-7.1548272,NC,776.0,2004-07-01T14:00,28.8,27,7.8,28.8,0.0,0.0,0.0,0.0,0,1017.5,932.6,5,0,0,18,0.74,2.9,12.0,14.8,316,317,32.0,36.3,25.3,20.8,14.2,0.087,0.166,0.248,0.343,1,3600.0,941.3,827.6,113.7,916.2,941.3,1195.3,969.0,852.0,117.0,916.2,969.0,1230.4,Quercus L.; Magnoliopsida; Tracheophyta; Pinales; Castanea sativa Mill.; Pinus pinaster Aiton
2004,2004-07-02,Guarda,Seia,Carragozela,CARRAGOZELA,40.40570245,-7.75814163230463,NC,507.0,2004-07-02T16:00,27.4,25,5.4,25.3,0.0,0.0,0.0,0.0,0,1018.6,961.9,0,0,0,0,0.59,2.75,14.1,18.0,320,323,36.0,32.3,23.6,20.2,14.7,0.097,0.17,0.257,0.347,1,3600.0,694.8,600.7,94.0,866.8,694.8,917.0,761.0,658.0,103.0,866.8,761.0,1004.4,Pinus pinaster Aiton; Olea europaea L.; Magnoliopsida; Tracheophyta
2004,2004-06-26,Guarda,Vila Nova de Foz Côa,Santa Comba,SANTA COMBA,40.954628,-7.146410604149131,NC,391.0,2004-06-26T15:00,32.3,28,11.6,32.9,0.0,0.0,0.0,0.0,0,1017.3,973.9,13,0,0,44,0.7,3.46,11.3,14.9,263,262,34.9,35.7,24.8,20.1,14.6,0.112,0.185,0.247,0.322,1,3600.0,813.6,706.9,106.7,870.8,813.6,1074.5,862.0,749.0,113.0,870.8,862.0,1138.5,Tracheophyta; Vitis vinifera L.; Magnoliopsida; Olea europaea L.
2004,2004-07-04,Guarda,Vila Nova de Foz Côa,Castelo Melhor,Orgal,41.0805042,-7.1059854,NC,191.0,2004-07-04T00:00,21.8,58,13.1,21.7,0.0,0.0,0.0,0.0,0,1017.7,995.5,0,0,0,0,0.03,1.1,7.0,10.5,282,301,16.2,23.7,27.3,23.2,16.8,0.1,0.18,0.246,0.329,0,0.0,0.0,0.0,0.0,0.0,0.0,0.0,0.0,0.0,0.0,0.0,0.0,0.0,Tracheophyta; Magnoliopsida; Vitis vinifera L.
2004,2004-07-15,Guarda,Figueira de Castelo Rodrigo,Escalhão,ESCALHÃO,40.97966965,-6.942867403255529,NC,576.0,2004-07-15T17:00,30.8,25,8.3,29.1,0.4,0.4,0.0,0.0,51,1012.2,949.1,46,0,46,63,0.33,3.36,9.1,12.5,304,303,25.6,32.5,25.5,20.2,15.7,0.146,0.192,0.253,0.335,1,3600.0,267.3,116.8,150.5,225.2,267.3,686.5,309.0,135.0,174.0,225.2,309.0,793.5,Tracheophyta; Olea europaea L.; Quercus rotundifolia Lam.; Magnoliopsida
2004,2004-07-05,Guarda,Aguiar da Beira,Pinheiro,Quinta das Lameiras,40.8038776,-7.6017381,NC,690.0,2004-07-05T12:00,24.2,40,9.7,24.5,0.0,0.0,0.0,0.0,1,1016.5,939.6,28,0,6,82,0.52,1.82,5.4,6.6,262,261,55.4,28.2,22.4,19.8,14.1,0.111,0.153,0.225,0.327,1,3600.0,760.4,472.8,287.6,501.6,760.4,1247.1,743.0,462.0,281.0,501.6,743.0,1218.5,Pinus pinaster Aiton; Magnoliopsida; Pinales; Tracheophyta; Quercus L.; Eucalyptus L'Hér.; 
2004,2004-07-11,Guarda,Sabugal,Ruvina,RUVINA,40.4157479,-7.019824696247547,NC,757.0,2004-07-11T21:00,21.1,37,5.8,18.4,0.0,0.0,0.0,0.0,0,1016.1,931.3,0,0,0,0,0.1,1.58,11.6,24.2,355,357,25.9,23.5,23.4,20.6,15.5,0.088,0.165,0.247,0.345,0,0.0,0.0,0.0,0.0,0.0,0.0,0.0,0.0,0.0,0.0,0.0,0.0,0.0,Magnoliopsida; Tracheophyta; Pinales; Quercus L.; Pinus pinaster Aiton; Vitis vinifera L.; 
2004,2004-07-17,Guarda,Sabugal,Vila Boa,VILA BOA,40.38314,-7.0035691,NC,779.0,2004-07-17T13:00,28.4,28,8.0,29.6,0.0,0.0,0.0,0.0,0,1013.8,928.8,9,3,1,19,0.69,2.8,5.4,6.5,266,264,26.6,35.2,25.0,21.3,15.9,0.097,0.16,0.24,0.342,1,3600.0,942.6,806.9,135.7,859.1,942.6,1243.6,945.0,809.0,136.0,859.1,945.0,1246.8,Magnoliopsida; Tracheophyta; Pinales; Vitis vinifera L.; Pinus pinaster Aiton; Quercus L.; 
2004,2004-07-04,Guarda,Fornos de Algodres,Juncais,Fontinhas,40.6095148,-7.5070702,NC,469.0,2004-07-04T13:00,29.2,27,8.4,30.0,0.0,0.0,0.0,0.0,0,1016.6,964.4,0,0,0,0,0.73,2.95,8.9,10.6,297,298,26.3,38.0,25.2,21.9,15.8,0.074,0.171,0.256,0.345,1,3600.0,974.9,859.2,115.8,906.3,974.9,1254.3,977.0,861.0,116.0,906.3,977.0,1257.0,Tracheophyta; Olea europaea L.; Quercus L.; Magnoliopsida; Pinus pinaster Aiton; Vitis vinifera L.; Eucalyptus L'Hér.; Acacia Mill.; 
2004,2004-07-06,Guarda,Sabugal,Nave,Aldeia da Dona,40.4210551,-6.9542202,NC,792.0,2004-07-06T13:00,27.5,22,4.0,26.7,0.0,0.0,0.0,0.0,0,1010.2,924.0,1,0,1,2,0.72,2.87,11.6,14.2,263,263,37.4,34.3,24.7,21.2,14.7,0.088,0.169,0.252,0.347,1,3600.0,956.0,838.4,117.6,885.1,956.0,1253.3,959.0,841.0,118.0,885.1,959.0,1257.2,Tracheophyta; Pinus pinaster Aiton; Magnoliopsida; Quercus L.; Vitis vinifera L.; Castanea sativa Mill.; Eucalyptus L'Hér.; Olea europaea L.; Pinales; 
2004,2004-07-12,Guarda,Almeida,Almeida,Fonte Santa,40.73018195,-6.899702067493429,NC,718.0,2004-07-12T12:00,24.0,28,4.2,22.9,0.0,0.0,0.0,0.0,0,1016.5,936.6,0,0,0,0,0.65,2.16,12.9,16.8,60,62,34.2,26.1,20.2,19.0,14.9,0.148,0.19,0.25,0.33,1,3600.0,966.8,848.1,118.7,903.3,966.8,1242.6,945.0,829.0,116.0,903.3,945.0,1214.6,Tracheophyta; Olea europaea L.; Magnoliopsida
2004,2004-07-07,Guarda,Sabugal,Santo Estêvão,SANTO ESTEVÃO,40.2966667,-7.1661835,NC,702.0,2004-07-07T14:00,18.9,40,4.8,14.9,0.0,0.0,0.0,0.0,1,1017.1,937.5,42,6,52,18,0.42,1.32,20.9,27.4,268,268,49.3,27.3,23.2,21.4,15.1,0.088,0.171,0.248,0.351,1,3600.0,600.4,285.6,314.8,316.6,600.4,1193.8,618.0,294.0,324.0,316.6,618.0,1228.7,Magnoliopsida; Olea europaea L.; Tracheophyta; Eucalyptus L'Hér.; Pinus pinaster Aiton; Quercus L.; Pinales; Castanea sativa Mill.; Vitis vinifera L.; 
2004,2004-07-12,Guarda,Pinhel,Lamegal,LAMEGAL,40.6679566,-7.074315120897156,NC,719.0,2004-07-12T13:00,25.0,25,3.8,24.3,0.0,0.0,0.0,0.0,0,1015.8,936.1,0,0,0,0,0.69,2.37,11.5,14.7,51,54,32.8,28.7,20.8,19.1,14.6,0.141,0.165,0.21,0.306,1,3600.0,974.4,857.7,116.7,910.5,974.4,1246.7,977.0,860.0,117.0,910.5,977.0,1250.0,Magnoliopsida; Pinus pinaster Aiton; Tracheophyta; Vitis vinifera L.; Olea europaea L.; Quercus L.; Pinales; Castanea sativa Mill.; 
2004,2004-06-01,Guarda,Sabugal,Vila Boa,VILA BOA,40.38314,-7.0035691,NC,779.0,2004-06-01T21:00,20.4,63,13.1,20.3,0.0,0.0,0.0,0.0,0,1021.0,933.2,18,7,19,0,0.03,0.89,7.2,19.5,360,4,15.5,19.7,19.7,15.0,10.7,0.224,0.289,0.305,0.363,0,0.0,0.0,0.0,0.0,0.0,0.0,0.0,0.0,0.0,0.0,0.0,0.0,0.0,Magnoliopsida; Tracheophyta; Pinales; Vitis vinifera L.; Pinus pinaster Aiton; Quercus L.; 
2004,2004-07-13,Guarda,Guarda,Jarmelo (são Pedro),Ima,40.575053,-7.1470065,NC,813.0,2004-07-13T14:00,27.1,22,3.6,26.8,0.0,0.0,0.0,0.0,0,1015.9,926.9,0,0,0,0,0.69,2.79,8.4,10.2,353,352,22.7,32.3,22.1,19.1,14.4,0.135,0.153,0.191,0.298,1,3600.0,927.1,816.3,110.8,909.6,927.1,1187.8,954.0,840.0,114.0,909.6,954.0,1222.3,Magnoliopsida; Pinales; Pinus pinaster Aiton; Tracheophyta
2004,2004-06-28,Guarda,Seia,Travancinha,TRAVANCINHA,40.4245314,-7.8227069,NC,395.0,2004-06-28T13:00,31.9,32,13.2,34.7,0.0,0.0,0.0,0.0,0,1020.3,976.3,0,0,0,0,0.74,3.22,6.2,7.6,324,329,19.4,37.6,24.7,20.3,15.0,0.083,0.189,0.274,0.357,1,3600.0,968.9,852.1,116.7,896.0,968.9,1258.5,971.0,854.0,117.0,896.0,971.0,1261.3,Pinus pinea L.; Quercus L.; Magnoliopsida; Eucalyptus L'Hér.; Olea europaea L.; Tracheophyta; Pinus pinaster Aiton
2004,2004-07-13,Guarda,Guarda,Santana da Azinha,SANTANA DA AZINHA,40.4599689,-7.2160143,NC,880.0,2004-07-13T14:00,27.0,22,3.2,26.7,0.0,0.0,0.0,0.0,0,1015.9,920.0,0,0,0,0,0.69,2.81,8.4,10.2,353,352,22.7,35.7,23.0,19.9,14.9,0.086,0.156,0.234,0.338,1,3600.0,927.4,816.6,110.8,908.2,927.4,1190.1,954.0,840.0,114.0,908.2,954.0,1224.2,Pinales; Tracheophyta; Magnoliopsida
2004,2004-07-13,Guarda,Seia,Paranhos,PARANHOS,40.4772804,-7.7825234,NC,399.0,2004-07-13T18:00,29.5,23,5.9,27.0,0.0,0.0,0.0,0.0,0,1014.2,969.7,0,0,0,0,0.35,3.19,10.1,13.4,343,346,20.2,35.0,25.8,20.9,16.6,0.075,0.169,0.255,0.349,1,3600.0,315.4,253.1,62.3,714.2,315.4,469.0,395.0,317.0,78.0,714.2,395.0,587.5,Pinus pinaster Aiton; Magnoliopsida; Olea europaea L.; Tracheophyta
2004,2004-07-20,Guarda,Aguiar da Beira,Forninhos,Valagotes,40.697608,-7.5308866,NC,633.0,2004-07-20T12:00,25.5,33,8.1,26.6,0.0,0.0,0.0,0.0,0,1014.8,944.4,0,0,0,0,0.6,2.19,3.6,4.2,217,211,27.4,33.7,23.5,21.7,16.4,0.074,0.157,0.237,0.33,1,3600.0,890.4,755.2,135.3,811.8,890.4,1232.3,869.0,737.0,132.0,811.8,869.0,1202.6,Olea europaea L.; Vitis vinifera L.; Pinus pinaster Aiton; Magnoliopsida; Tracheophyta; Pinales; Quercus L.; 
2004,2004-07-13,Guarda,Trancoso,Trancoso (santa Maria),TRANCOSO 2º,40.7619218,-7.357313390964173,NC,826.0,2004-07-13T23:00,19.5,37,4.6,16.9,0.0,0.0,0.0,0.0,0,1016.9,924.2,0,0,0,0,0.07,1.42,8.7,22.7,52,57,18.0,20.9,22.7,18.7,14.3,0.128,0.139,0.198,0.315,0,0.0,0.0,0.0,0.0,0.0,0.0,0.0,0.0,0.0,0.0,0.0,0.0,0.0,Magnoliopsida; Tracheophyta; Pinales; Castanea sativa Mill.; Pinus pinaster Aiton
2004,2004-07-14,Guarda,Fornos de Algodres,Figueiró da Granja,FIGUEIRÓ DA GRANJA,40.6303344,-7.496661450153217,NC,484.0,2004-07-14T15:00,32.5,15,2.7,32.5,0.0,0.0,0.0,0.0,0,1015.7,962.5,0,0,0,0,0.64,4.15,3.1,3.3,36,41,18.0,40.6,25.9,21.6,16.8,0.075,0.162,0.244,0.337,1,3600.0,822.7,720.7,102.0,889.4,822.7,1072.6,871.0,763.0,108.0,889.4,871.0,1135.5,Tracheophyta; Magnoliopsida; Pinus pinaster Aiton; Olea europaea L.; 
2004,2004-07-15,Guarda,Pinhel,Manigoto,MANIGOTO,40.7151874,-7.0759894,NC,676.0,2004-07-15T11:00,29.3,28,8.9,30.4,0.0,0.0,0.0,0.0,0,1015.9,941.7,0,0,0,0,0.61,2.94,3.8,5.2,163,164,20.5,31.3,23.4,19.8,15.1,0.139,0.163,0.207,0.305,1,3600.0,888.1,772.4,115.8,872.6,888.1,1171.8,844.0,734.0,110.0,872.6,844.0,1113.5,Magnoliopsida; Olea europaea L.; Tracheophyta; Vitis vinifera L.; Quercus L.; Pinus pinaster Aiton; 
2004,2004-06-19,Guarda,Trancoso,Valdujo,VALDUJO,40.8304097,-7.2898551,NC,552.0,2004-06-19T19:00,18.4,52,8.3,15.1,0.0,0.0,0.0,0.0,2,1013.9,950.8,51,22,4,95,0.17,1.03,19.5,27.1,300,300,41.4,23.7,22.7,19.5,13.3,0.128,0.165,0.229,0.307,1,3600.0,106.6,58.8,47.7,343.7,106.6,226.7,163.0,90.0,73.0,343.7,163.0,346.8,Pinus pinaster Aiton; Olea europaea L.; Tracheophyta; Vitis vinifera L.; Pinales; Magnoliopsida; Acacia Mill.; Quercus L.; 
2004,2004-06-27,Guarda,Guarda,Jarmelo (são Pedro),JARMELO,40.5728853,-7.1088011,NC,804.0,2004-06-27T17:00,30.7,25,8.4,28.7,0.0,0.0,0.0,0.0,0,1018.6,931.3,2,0,0,5,0.5,3.31,11.8,14.4,329,328,27.4,32.9,24.2,18.3,12.8,0.144,0.159,0.211,0.303,1,3600.0,504.2,422.6,81.6,799.3,504.2,699.8,581.0,487.0,94.0,799.3,581.0,806.4,Magnoliopsida; Tracheophyta; Olea europaea L.
2004,2004-06-28,Guarda,Aguiar da Beira,Gradiz,GRADIZ,40.8626326,-7.5249592,NC,619.0,2004-06-28T13:00,31.3,32,12.8,34.1,0.0,0.0,0.0,0.0,0,1020.9,952.8,0,0,0,0,0.74,3.09,5.4,6.2,4,7,21.2,34.6,24.3,19.5,14.0,0.128,0.152,0.218,0.314,1,3600.0,974.6,856.9,117.7,903.3,974.6,1255.3,977.0,859.0,118.0,903.3,977.0,1258.4,Magnoliopsida; Pinus pinaster Aiton; Tracheophyta
2004,2004-07-25,Guarda,Almeida,Junça,JUNCA,40.71296915,-6.898130050562199,NC,752.0,2004-07-25T14:00,33.1,21,7.7,32.5,0.0,0.0,0.0,0.0,0,1018.3,937.0,0,0,0,0,0.79,4.01,14.2,18.1,339,339,36.7,35.0,25.8,21.1,15.9,0.145,0.177,0.237,0.326,1,3600.0,906.8,799.0,107.8,905.5,906.8,1169.8,934.0,823.0,111.0,905.5,934.0,1205.0,Olea europaea L.; Tracheophyta
2004,2004-05-08,Guarda,Sabugal,Sabugal,SABUGAL,40.3518321,-7.0896479,NC,752.0,2004-05-08T14:00,14.2,42,1.4,13.5,0.0,0.0,0.0,0.0,0,1016.6,930.4,1,0,0,2,0.5,0.95,8.3,10.6,304,305,23.4,18.3,11.0,10.6,9.6,0.278,0.3,0.324,0.373,1,3600.0,911.5,805.3,106.2,938.5,911.5,1152.3,944.0,834.0,110.0,938.5,944.0,1193.4,Tracheophyta; Magnoliopsida
2004,2004-07-16,Guarda,Mêda,Mêda,Quinta do Moreiro,40.9662962,-7.2637352,NC,721.0,2004-07-16T09:00,25.1,41,11.1,25.1,0.0,0.0,0.0,0.0,0,1013.1,933.4,2,0,3,0,0.34,1.87,2.5,3.3,98,103,14.8,26.7,23.5,20.1,15.2,0.135,0.148,0.19,0.311,1,3600.0,584.4,485.5,98.9,743.0,584.4,865.0,514.0,427.0,87.0,743.0,514.0,760.8,Tracheophyta; Vitis vinifera L.; Magnoliopsida; Olea europaea L.
2004,2004-07-02,Guarda,Vila Nova de Foz Côa,Castelo Melhor,Orgal \ REG,41.0228,-7.066807,NC,412.0,2004-07-02T22:00,21.7,37,6.2,19.5,0.0,0.0,0.0,0.0,0,1020.1,972.8,0,0,0,0,0.07,1.65,8.2,18.2,319,326,26.3,23.9,26.1,21.7,15.2,0.104,0.176,0.24,0.32,0,0.0,0.0,0.0,0.0,0.0,0.0,0.0,0.0,0.0,0.0,0.0,0.0,0.0,Magnoliopsida; Tracheophyta; Olea europaea L.
2004,2004-07-11,Guarda,Aguiar da Beira,Pinheiro,Quinta dos Matos,40.7700757,-7.5928457,NC,663.0,2004-07-11T09:00,18.8,60,10.8,16.9,0.0,0.0,0.0,0.0,0,1018.8,943.3,0,0,0,0,0.32,0.87,14.8,19.1,47,49,35.3,20.5,19.1,19.1,14.8,0.12,0.15,0.22,0.325,1,3600.0,612.0,498.5,113.6,757.0,612.0,871.4,539.0,439.0,100.0,757.0,539.0,767.4,Pinus pinaster Aiton; Magnoliopsida; Pinales; Tracheophyta; Quercus L.; Eucalyptus L'Hér.; 
2004,2004-05-20,Guarda,Sabugal,Forcalhos,FORCALHOS,40.3733376,-6.826993091732547,NC,824.0,2004-05-20T13:00,22.6,26,2.3,21.3,0.0,0.0,0.0,0.0,1,1016.0,924.5,22,0,4,67,0.66,2.02,13.4,17.0,149,148,32.4,24.8,16.6,12.7,9.8,0.167,0.264,0.313,0.369,1,3600.0,980.1,843.0,137.0,907.3,980.1,1241.2,987.0,849.0,138.0,907.3,987.0,1250.0,Magnoliopsida; Quercus suber L.; Tracheophyta; Castanea sativa Mill.; Pinus pinaster Aiton; Quercus L.; 
2004,2004-07-26,Guarda,Gouveia,Vinhó,VINHÓ,40.4932395,-7.636047617106163,NC,496.0,2004-07-26T02:00,22.3,58,13.6,23.0,0.0,0.0,0.0,0.0,0,1018.5,962.0,0,0,0,0,0.01,1.14,3.7,5.4,349,318,11.9,22.1,28.3,23.3,17.7,0.074,0.153,0.234,0.334,0,0.0,0.0,0.0,0.0,0.0,0.0,0.0,0.0,0.0,0.0,0.0,0.0,0.0,Olea europaea L.; Pinus pinea L.; Magnoliopsida; Tracheophyta; Pinus pinaster Aiton; Pinales; Vitis vinifera L.; Quercus L.; 
2004,2004-06-22,Guarda,Guarda,Guarda (sé),GUARDA,40.52226085,-7.251911838739265,NC,839.0,2004-06-22T16:00,22.8,51,12.2,20.7,0.0,0.0,0.0,0.0,3,1016.1,923.1,100,95,24,5,0.44,1.36,22.0,29.9,249,248,49.0,28.6,21.4,19.2,13.0,0.116,0.233,0.308,0.391,1,3600.0,578.6,438.2,140.3,639.2,578.6,907.8,635.0,481.0,154.0,639.2,635.0,996.4,Tracheophyta; Magnoliopsida
2004,2004-07-04,Guarda,Gouveia,Ribamondego,RIBAMONDEGO,40.5719337,-7.582852145497336,NC,315.0,2004-07-04T14:00,30.4,27,9.4,31.0,0.0,0.0,0.0,0.0,0,1016.0,980.7,0,0,0,0,0.74,3.16,10.8,12.9,296,297,28.4,38.3,25.8,22.3,16.4,0.079,0.172,0.257,0.348,1,3600.0,928.0,817.1,110.9,902.7,928.0,1197.6,954.0,840.0,114.0,902.7,954.0,1231.2,Magnoliopsida; Tracheophyta; Pinales; Quercus rotundifolia Lam.; Olea europaea L.; 
2004,2004-07-03,Guarda,Fornos de Algodres,Matança,MATANÇA,40.6689625,-7.5326255,NC,605.0,2004-07-03T16:00,29.1,24,6.4,28.2,0.0,0.0,0.0,0.0,0,1017.1,950.3,0,0,0,0,0.57,3.06,8.3,9.8,326,324,28.4,37.9,25.4,21.3,14.9,0.073,0.17,0.253,0.337,1,3600.0,687.8,592.9,94.9,861.7,687.8,910.4,754.0,650.0,104.0,861.7,754.0,998.1,Tracheophyta; Magnoliopsida; Quercus L.; Pinales; Pinus pinaster Aiton; 
2004,2004-07-19,Guarda,Vila Nova de Foz Côa,Freixo de Numão,FREIXO DE NUMÃO,41.0725604,-7.192423732445009,NC,677.0,2004-07-19T00:00,17.7,77,13.7,18.1,0.0,0.0,0.0,0.0,0,1017.7,940.5,13,6,0,24,0.0,0.46,5.4,11.7,274,279,17.3,21.3,25.1,20.9,15.5,0.105,0.147,0.188,0.3,0,0.0,0.0,0.0,0.0,0.0,0.0,0.0,0.0,0.0,0.0,0.0,0.0,0.0,Olea europaea L.; Magnoliopsida; Tracheophyta; Pinales; Vitis vinifera L.
2004,2004-06-26,Guarda,Pinhel,Bouça Cova,BOUÇA COVA,40.70032245,-7.246583505363913,NC,561.0,2004-06-26T18:00,28.9,33,11.2,27.4,0.0,0.0,0.0,0.0,0,1017.8,955.6,1,0,0,4,0.36,2.65,12.9,17.3,288,287,30.6,31.8,25.2,19.5,14.1,0.127,0.169,0.229,0.309,1,3600.0,312.1,247.2,64.8,696.4,312.1,469.9,390.0,309.0,81.0,696.4,390.0,587.2,Pinus pinaster Aiton; Quercus L.; Tracheophyta; Olea europaea L.; Magnoliopsida; Vitis vinifera L.; 
2004,2004-07-04,Guarda,Vila Nova de Foz Côa,Castelo Melhor,Quinta das Tulhas,41.04705695,-7.050169449999999,NC,137.0,2004-07-04T10:00,27.7,38,12.1,28.6,0.0,0.0,0.0,0.0,0,1017.8,1002.1,0,0,0,0,0.52,2.3,5.2,6.5,286,289,20.2,31.1,25.8,23.6,17.2,0.101,0.18,0.246,0.329,1,3600.0,787.0,673.2,113.8,840.1,787.0,1060.3,726.0,621.0,105.0,840.1,726.0,978.1,Vitis vinifera L.; Magnoliopsida
2004,2004-07-09,Guarda,Figueira de Castelo Rodrigo,Escalhão,Barca de Alva,41.0278266,-6.9337495508109575,NC,124.0,2004-07-09T21:00,20.4,49,9.2,19.0,0.0,0.0,0.0,0.0,1,1020.5,1005.9,22,15,15,0,0.05,1.23,8.0,13.6,278,281,23.4,23.3,24.2,22.9,17.8,0.123,0.176,0.238,0.326,0,0.0,0.0,0.0,0.0,0.0,0.0,0.0,0.0,0.0,0.0,0.0,0.0,0.0,Olea europaea L.; Magnoliopsida; Tracheophyta
2004,2004-06-22,Guarda,Sabugal,Nave,NAVE,40.4436906,-6.9762596,NC,751.0,2004-06-22T16:00,24.5,45,11.8,22.3,0.0,0.0,0.0,0.0,3,1016.1,932.8,100,95,24,5,0.48,1.7,22.0,29.9,249,248,49.0,28.5,21.3,19.0,13.3,0.101,0.193,0.273,0.354,1,3600.0,578.1,437.9,140.2,641.0,578.1,904.6,635.0,481.0,154.0,641.0,635.0,993.6,Tracheophyta; Pinus pinaster Aiton; Magnoliopsida; Quercus L.; Vitis vinifera L.; Castanea sativa Mill.; Eucalyptus L'Hér.; Olea europaea L.; Pinales; 
2004,2004-06-20,Guarda,Trancoso,Terrenho,TERRENHO,40.86667315,-7.358655475868256,NC,824.0,2004-06-20T16:00,19.8,38,5.3,15.8,0.0,0.0,0.0,0.0,3,1011.7,919.8,92,40,93,0,0.36,1.42,19.6,26.0,306,307,43.2,24.8,20.3,18.2,12.2,0.126,0.159,0.226,0.316,1,3600.0,418.5,135.8,282.6,198.0,418.5,908.5,459.0,149.0,310.0,198.0,459.0,996.5,Magnoliopsida; Castanea sativa Mill.; Tracheophyta; Pinus pinaster Aiton; Acacia Mill.; Quercus L.; 
2004,2004-06-26,Guarda,Sabugal,Vale de Espinho,VALE DE ESPINHO,40.29490235,-6.956949377096475,NC,866.0,2004-06-26T00:00,18.5,65,11.8,18.1,0.0,0.0,0.0,0.0,0,1017.2,920.0,2,0,0,5,0.02,0.74,6.3,10.7,301,315,11.5,20.4,23.1,18.7,13.1,0.098,0.186,0.265,0.352,0,0.0,0.0,0.0,0.0,0.0,0.0,0.0,0.0,0.0,0.0,0.0,0.0,0.0,Magnoliopsida; Pinales; Tracheophyta; Castanea sativa Mill.; Eucalyptus L'Hér.; Pinus pinaster Aiton; Quercus L.; 
2004,2004-07-15,Guarda,Seia,Travancinha,TRAVANCINHA,40.4245314,-7.8227069,NC,395.0,2004-07-15T14:00,33.3,23,9.4,33.8,0.0,0.0,0.0,0.0,0,1013.6,970.1,9,0,14,3,0.73,3.93,9.4,10.8,272,272,28.1,41.0,26.6,21.4,16.7,0.074,0.167,0.253,0.348,1,3600.0,867.9,752.2,115.8,835.9,867.9,1191.2,892.0,773.0,119.0,835.9,892.0,1224.2,Pinus pinea L.; Quercus L.; Magnoliopsida; Eucalyptus L'Hér.; Olea europaea L.; Tracheophyta; Pinus pinaster Aiton
2004,2004-07-27,Guarda,Fornos de Algodres,Juncais,JUNCAIS,40.598205500000006,-7.5165882783913744,NC,453.0,2004-07-27T13:00,32.4,21,7.4,33.3,0.0,0.0,0.0,0.0,0,1015.5,965.6,0,0,0,0,0.74,3.82,6.5,7.9,273,273,26.3,41.2,28.2,23.9,18.1,0.073,0.152,0.232,0.334,1,3600.0,962.7,857.9,104.9,925.9,962.7,1228.8,964.0,859.0,105.0,925.9,964.0,1230.5,Tracheophyta; Olea europaea L.; Quercus L.; Magnoliopsida; Pinus pinaster Aiton; Vitis vinifera L.; Eucalyptus L'Hér.; Acacia Mill.; 
2004,2004-07-12,Guarda,Guarda,Monte Margarida,MONTE MARGARIDA,40.4950265,-7.084417140015297,NC,784.0,2004-07-12T13:00,25.3,25,3.6,24.5,0.0,0.0,0.0,0.0,0,1015.5,929.0,0,0,0,0,0.7,2.43,11.8,15.0,52,55,33.5,30.4,21.7,19.7,14.8,0.115,0.138,0.203,0.329,1,3600.0,979.6,863.8,115.7,916.1,979.6,1247.9,982.0,866.0,116.0,916.1,982.0,1251.1,Pinales; Magnoliopsida; Tracheophyta
2004,2004-07-28,Guarda,Vila Nova de Foz Côa,Castelo Melhor,Quinta da Granja,41.0394604,-7.0396392180132885,NC,196.0,2004-07-28T10:00,25.9,42,12.1,26.2,0.0,0.0,0.0,0.0,0,1014.8,992.4,0,0,0,0,0.48,1.93,8.1,10.4,283,284,26.3,30.2,27.4,25.2,19.2,0.099,0.165,0.228,0.322,1,3600.0,751.9,641.7,110.2,833.9,751.9,1020.8,689.0,588.0,101.0,833.9,689.0,935.4,Tracheophyta; Magnoliopsida; Vitis vinifera L.
2004,2004-07-01,Guarda,Seia,Carragozela,CARRAGOZELA,40.40570245,-7.75814163230463,NC,507.0,2004-07-01T10:00,21.5,55,12.1,22.0,0.0,0.0,0.0,0.0,0,1019.8,961.9,6,0,0,19,0.44,1.16,7.2,9.4,354,358,23.8,25.5,22.2,20.1,14.6,0.1,0.173,0.26,0.348,1,3600.0,759.2,584.3,174.9,730.5,759.2,1058.4,699.0,538.0,161.0,730.5,699.0,974.5,Pinus pinaster Aiton; Olea europaea L.; Magnoliopsida; Tracheophyta
2004,2004-07-28,Guarda,Mêda,Mêda,Chão do Coito \ CAM,40.9662962,-7.2637352,Desconhecida,721.0,2004-07-28T12:00,25.4,37,9.8,25.7,0.0,0.0,0.0,0.0,0,1014.8,935.0,0,0,0,0,0.64,2.03,11.8,14.5,282,284,32.8,31.9,25.1,22.3,16.4,0.12,0.146,0.178,0.306,1,3600.0,942.0,827.2,114.8,901.4,942.0,1217.5,919.0,807.0,112.0,901.4,919.0,1187.7,Tracheophyta; Vitis vinifera L.; Magnoliopsida; Olea europaea L.
2004,2004-07-29,Guarda,Seia,São Romão,Senhora do Desterro,40.3949481,-7.6950216,NC,819.0,2004-07-29T14:00,26.2,37,10.5,27.1,0.0,0.0,0.0,0.0,0,1015.7,925.8,12,0,0,40,0.65,2.13,9.9,12.1,327,330,31.7,33.2,23.8,21.4,16.2,0.096,0.146,0.223,0.334,1,3600.0,895.1,781.4,113.7,886.1,895.1,1170.2,921.0,804.0,117.0,886.1,921.0,1204.0,Magnoliopsida; Pinus pinaster Aiton; Eucalyptus L'Hér.; Tracheophyta
2004,2004-07-12,Guarda,Seia,Paranhos,PARANHOS,40.4772804,-7.7825234,NC,399.0,2004-07-12T19:00,27.5,27,6.7,25.5,0.0,0.0,0.0,0.0,0,1013.8,969.1,0,0,0,0,0.2,2.69,8.0,16.2,352,1,22.3,30.8,24.8,20.8,16.5,0.077,0.17,0.257,0.35,1,3600.0,132.5,95.5,37.0,558.1,132.5,226.4,204.0,147.0,57.0,558.1,204.0,348.6,Pinus pinaster Aiton; Magnoliopsida; Olea europaea L.; Tracheophyta
2004,2004-07-14,Guarda,Vila Nova de Foz Côa,Vila Nova de Foz Côa,FOZ CÔA,41.107794,-7.160498413971005,NC,407.0,2004-07-14T11:00,27.7,30,8.7,27.3,0.0,0.0,0.0,0.0,0,1018.4,972.6,0,0,0,0,0.63,2.59,11.7,15.3,79,81,33.1,31.5,23.6,21.6,16.9,0.077,0.17,0.236,0.326,1,3600.0,891.3,774.5,116.8,876.5,891.3,1169.6,847.0,736.0,111.0,876.5,847.0,1111.5,Magnoliopsida; Olea europaea L.; Tracheophyta; Vitis vinifera L.
2004,2004-07-02,Guarda,Fornos de Algodres,Juncais,Fontinhas,40.6095148,-7.5070702,NC,469.0,2004-07-02T14:00,28.1,22,4.1,27.4,0.0,0.0,0.0,0.0,0,1019.0,966.5,0,0,0,0,0.72,2.97,10.8,13.4,339,340,30.6,36.8,25.3,21.8,15.5,0.075,0.174,0.259,0.346,1,3600.0,934.5,823.6,110.9,909.9,934.5,1197.6,961.0,847.0,114.0,909.9,961.0,1231.6,Tracheophyta; Olea europaea L.; Quercus L.; Magnoliopsida; Pinus pinaster Aiton; Vitis vinifera L.; Eucalyptus L'Hér.; Acacia Mill.; 
2004,2004-07-03,Guarda,Fornos de Algodres,Juncais,Fontinhas,40.6095148,-7.5070702,NC,469.0,2004-07-03T12:00,26.7,33,8.9,27.6,0.0,0.0,0.0,0.0,0,1019.4,966.6,0,0,0,0,0.68,2.36,8.2,10.5,29,31,21.6,34.6,24.1,21.8,15.6,0.075,0.173,0.258,0.345,1,3600.0,975.3,855.6,119.7,905.7,975.3,1249.9,953.0,836.0,117.0,905.7,953.0,1221.3,Tracheophyta; Olea europaea L.; Quercus L.; Magnoliopsida; Pinus pinaster Aiton; Vitis vinifera L.; Eucalyptus L'Hér.; Acacia Mill.; 
2004,2004-06-27,Guarda,Almeida,Freineda,FREINEDA,40.5932258,-6.904359870101008,NC,734.0,2004-06-27T17:00,31.0,26,9.2,29.2,0.0,0.0,0.0,0.0,0,1018.6,938.6,2,0,0,5,0.5,3.32,11.8,14.4,329,328,27.4,31.7,23.9,18.4,13.2,0.152,0.193,0.253,0.321,1,3600.0,503.7,422.2,81.5,802.8,503.7,696.0,581.0,487.0,94.0,802.8,581.0,802.8,Magnoliopsida; Tracheophyta; Vitis vinifera L.; Pinales
2004,2004-07-16,Guarda,Vila Nova de Foz Côa,Castelo Melhor,SÃO GABRIEL 1º \ VG,41.0228,-7.066807,NC,412.0,2004-07-16T01:00,22.9,55,13.4,23.7,0.0,0.0,0.0,0.0,0,1014.1,967.2,5,0,5,6,0.0,1.26,2.3,3.4,288,342,11.5,22.5,26.2,21.5,16.6,0.112,0.167,0.229,0.317,0,0.0,0.0,0.0,0.0,0.0,0.0,0.0,0.0,0.0,0.0,0.0,0.0,0.0,Magnoliopsida; Tracheophyta; Olea europaea L.
2004,2004-06-28,Guarda,Trancoso,Trancoso (santa Maria),Montes \ POV,40.7832755,-7.397394865206497,Desconhecida,719.0,2004-06-28T16:00,32.4,27,10.8,32.6,0.0,0.0,0.0,0.0,0,1019.9,941.7,0,0,0,0,0.6,3.56,8.2,9.7,322,321,21.6,35.6,24.9,18.9,13.4,0.127,0.151,0.218,0.314,1,3600.0,679.6,585.7,94.0,850.8,679.6,910.9,745.0,642.0,103.0,850.8,745.0,998.5,Magnoliopsida; Pinus pinaster Aiton; Tracheophyta; Quercus L.
2004,2004-07-07,Guarda,Aguiar da Beira,Aguiar da Beira,Quinta estrada,40.81739785,-7.554092011056806,NC,784.0,2004-07-07T20:00,12.5,70,7.2,9.5,0.0,0.0,0.0,0.0,1,1017.7,927.4,32,21,22,0,0.06,0.43,15.7,22.7,281,280,39.6,17.8,20.2,19.2,13.7,0.119,0.152,0.223,0.327,1,1457.55,0.0,0.0,0.0,0.0,0.0,0.0,37.0,18.0,19.0,146.2,37.0,111.8,Tracheophyta; Pinus pinaster Aiton; Magnoliopsida
2004,2004-08-01,Guarda,Trancoso,Vale do Seixo,VALE DO SEIXO,40.7927388,-7.275263361093719,NC,558.0,2004-08-01T01:00,21.8,72,16.6,23.3,0.0,0.0,0.0,0.0,0,1015.3,952.1,0,0,0,0,0.01,0.73,5.6,12.8,255,286,7.9,24.0,27.6,23.0,17.2,0.117,0.136,0.178,0.294,0,0.0,0.0,0.0,0.0,0.0,0.0,0.0,0.0,0.0,0.0,0.0,0.0,0.0,Tracheophyta; Magnoliopsida; Olea europaea L.; Quercus L.; Vitis vinifera L.; Pinales; Pinus pinaster Aiton; Acacia Mill.; Castanea sativa Mill.; 
2004,2004-07-03,Guarda,Fornos de Algodres,Matança,MATANÇA,40.6689625,-7.5326255,NC,605.0,2004-07-03T13:00,27.2,28,7.4,28.0,0.0,0.0,0.0,0.0,0,1018.8,951.5,0,0,0,0,0.71,2.58,7.8,9.2,22,26,21.6,36.4,24.1,21.3,14.9,0.073,0.17,0.253,0.337,1,3600.0,983.4,865.7,117.7,913.5,983.4,1254.0,986.0,868.0,118.0,913.5,986.0,1257.2,Tracheophyta; Magnoliopsida; Quercus L.; Pinales; Pinus pinaster Aiton; 
2004,2004-07-31,Guarda,Vila Nova de Foz Côa,Freixo de Numão,FREIXO DE NUMÃO,41.0725604,-7.192423732445009,NC,677.0,2004-07-31T19:00,28.0,41,13.6,27.3,0.0,0.0,0.0,0.0,0,1015.0,940.5,14,0,14,20,0.19,2.23,12.4,18.3,306,306,29.2,31.8,28.3,22.8,16.8,0.106,0.146,0.176,0.295,1,3600.0,76.1,46.1,30.0,362.2,76.1,169.0,132.0,80.0,52.0,362.2,132.0,293.2,Olea europaea L.; Magnoliopsida; Tracheophyta; Pinales; Vitis vinifera L.
2004,2004-07-09,Guarda,Vila Nova de Foz Côa,Castelo Melhor,CASTELO MELHOR,41.04705695,-7.050169449999999,NC,137.0,2004-07-09T11:00,23.1,38,8.1,23.9,0.0,0.0,0.0,0.0,0,1022.3,1006.3,8,4,3,7,0.54,1.75,3.9,4.7,248,247,24.8,28.4,21.9,23.1,17.8,0.103,0.176,0.242,0.328,1,3600.0,872.5,738.0,134.6,829.5,872.5,1177.2,830.0,702.0,128.0,829.5,830.0,1119.9,Vitis vinifera L.; Magnoliopsida
2004,2004-06-26,Guarda,Sabugal,Aldeia de Santo António,ALDEIA DE SANTO ANTÓNIO,40.3404888,-7.132592825112418,NC,817.0,2004-06-26T16:00,30.1,29,10.3,29.4,0.0,0.0,0.0,0.0,0,1017.5,928.8,7,0,0,24,0.6,3.02,12.6,16.2,267,266,32.8,33.7,23.7,18.4,13.0,0.109,0.175,0.255,0.348,1,3600.0,672.2,576.6,95.6,841.0,672.2,907.4,738.0,633.0,105.0,841.0,738.0,996.2,Pinus pinaster Aiton; Tracheophyta; Magnoliopsida; Pinales
2004,2004-06-28,Guarda,Almeida,Freineda,FREINEDA,40.5932258,-6.904359870101008,NC,734.0,2004-06-28T12:00,30.5,32,11.8,33.1,0.0,0.0,0.0,0.0,0,1020.7,940.4,2,0,0,5,0.72,2.99,4.4,4.7,9,9,20.9,30.8,22.8,18.7,13.3,0.15,0.191,0.252,0.321,1,3600.0,981.7,863.2,118.5,910.4,981.7,1254.9,961.0,845.0,116.0,910.4,961.0,1228.4,Magnoliopsida; Tracheophyta; Vitis vinifera L.; Pinales
2004,2004-07-20,Guarda,Vila Nova de Foz Côa,Seixas,SEIXAS,41.113728,-7.2518023,NC,411.0,2004-07-20T10:00,22.7,59,14.2,24.1,0.0,0.0,0.0,0.0,1,1015.8,968.9,48,48,8,0,0.4,1.15,2.8,3.6,140,143,16.9,28.4,23.8,22.8,17.5,0.077,0.167,0.232,0.325,1,3600.0,669.7,516.2,153.5,660.9,669.7,1034.5,615.0,474.0,141.0,660.9,615.0,950.0,Magnoliopsida; Olea europaea L.; Vitis vinifera L.; Tracheophyta
2004,2004-08-06,Guarda,Sabugal,Fóios,FOIOS,40.299237,-6.89027,NC,1001.0,2004-08-06T20:00,24.3,41,10.1,22.6,0.0,0.0,0.0,0.0,1,1011.3,902.6,27,0,14,63,0.12,1.8,12.0,21.2,319,320,28.8,27.0,25.4,21.9,16.5,0.098,0.136,0.195,0.312,0,0.0,0.0,0.0,0.0,0.0,0.0,0.0,11.0,3.0,8.0,35.3,11.0,54.8,Pinus pinaster Aiton; Magnoliopsida; Castanea sativa Mill.; Tracheophyta
2004,2004-07-13,Guarda,Guarda,Casal de Cinza,CASAL DE CINZA,40.5432655,-7.1695424,NC,836.0,2004-07-13T14:00,27.3,22,3.5,27.0,0.0,0.0,0.0,0.0,0,1015.9,924.6,0,0,0,0,0.7,2.85,8.4,10.2,353,352,22.7,36.0,23.3,20.2,15.2,0.086,0.156,0.234,0.338,1,3600.0,927.0,816.3,110.8,909.2,927.0,1188.2,954.0,840.0,114.0,909.2,954.0,1222.8,Pinales; Magnoliopsida; Tracheophyta; Olea europaea L.
2004,2004-06-27,Guarda,Celorico da Beira,Salgueirais,SALGUEIRAIS,40.5964664,-7.4368785,NC,495.0,2004-06-27T19:00,29.5,37,13.1,29.1,0.0,0.0,0.0,0.0,0,1019.6,964.5,8,0,0,27,0.21,2.61,9.5,15.4,323,327,23.4,33.2,26.7,20.6,14.9,0.077,0.179,0.261,0.34,1,3600.0,135.0,95.5,39.5,543.3,135.0,232.7,205.0,145.0,60.0,543.3,205.0,353.2,Magnoliopsida; Tracheophyta
2004,2004-07-17,Guarda,Gouveia,Vinhó,VINHÓ,40.4932395,-7.636047617106163,NC,496.0,2004-07-17T19:00,23.5,53,13.3,23.0,0.0,0.0,0.0,0.0,1,1015.5,959.4,40,0,18,99,0.13,1.37,10.6,14.4,298,302,28.4,29.3,27.0,22.2,16.9,0.08,0.159,0.242,0.339,1,0.0,58.0,2.5,55.4,15.7,58.0,215.6,91.0,4.0,87.0,15.7,91.0,338.3,Olea europaea L.; Pinus pinea L.; Magnoliopsida; Tracheophyta; Pinus pinaster Aiton; Pinales; Vitis vinifera L.; Quercus L.; 
2004,2004-07-24,Guarda,Sabugal,Souto,SOUTO,40.3572969,-6.9588448,NC,878.0,2004-07-24T22:00,26.5,30,7.5,24.2,0.0,0.0,0.0,0.0,0,1021.6,925.2,10,0,0,34,0.12,2.42,11.2,24.4,339,341,24.5,27.9,27.9,21.6,16.0,0.087,0.154,0.232,0.338,0,0.0,0.0,0.0,0.0,0.0,0.0,0.0,0.0,0.0,0.0,0.0,0.0,0.0,Magnoliopsida; Pinus pinaster Aiton; Tracheophyta; Quercus L.; Castanea sativa Mill.; Pinales; Eucalyptus L'Hér.; 
2004,2004-06-28,Guarda,Figueira de Castelo Rodrigo,Escalhão,Barca de Alva,41.0278266,-6.9337495508109575,NC,124.0,2004-06-28T01:00,22.5,71,17.0,23.8,0.0,0.0,0.0,0.0,0,1021.3,1006.8,0,0,0,0,0.02,0.79,7.8,11.2,347,360,15.5,23.8,27.2,22.1,16.4,0.13,0.191,0.251,0.329,0,0.0,0.0,0.0,0.0,0.0,0.0,0.0,0.0,0.0,0.0,0.0,0.0,0.0,Olea europaea L.; Magnoliopsida; Tracheophyta
2004,2004-07-03,Guarda,Trancoso,Vila Franca das Naves,VILA FRANCA DAS NAVES,40.724807850000005,-7.258286977780408,NC,545.0,2004-07-03T15:00,29.6,25,7.2,29.9,0.0,0.0,0.0,0.0,0,1017.2,956.9,0,0,0,0,0.66,3.13,7.1,8.2,336,337,25.2,36.5,25.1,21.4,15.1,0.11,0.162,0.22,0.316,1,3600.0,832.1,726.3,105.8,892.4,832.1,1076.7,881.0,769.0,112.0,892.4,881.0,1140.1,Tracheophyta; Pinus pinaster Aiton; Magnoliopsida; Quercus L.; Vitis vinifera L.; Castanea sativa Mill.; Olea europaea L.; Pinales; 
2004,2004-07-15,Guarda,Mêda,Mêda,Quinta do Moreiro,40.9662962,-7.2637352,NC,721.0,2004-07-15T17:00,28.3,31,9.7,26.5,0.3,0.3,0.0,0.0,51,1014.0,935.0,43,0,53,38,0.35,2.65,12.3,17.2,277,280,34.9,32.6,25.6,19.9,15.2,0.135,0.148,0.19,0.311,1,3600.0,287.7,161.2,126.5,308.2,287.7,692.3,332.0,186.0,146.0,308.2,332.0,798.8,Tracheophyta; Vitis vinifera L.; Magnoliopsida; Olea europaea L.
2004,2004-07-14,Guarda,Aguiar da Beira,Pena Verde,Feitais,40.7266641,-7.5055773,NC,683.0,2004-07-14T13:00,29.4,20,4.0,29.9,0.0,0.0,0.0,0.0,0,1016.7,941.8,0,0,0,0,0.72,3.28,5.2,6.2,102,111,27.4,32.9,22.9,19.8,15.2,0.118,0.14,0.197,0.308,1,3600.0,977.1,864.3,112.8,919.0,977.1,1245.0,979.0,866.0,113.0,919.0,979.0,1247.4,Pinus pinaster Aiton; Tracheophyta; Magnoliopsida; Quercus L.; Olea europaea L.; Castanea sativa Mill.; 
2004,2004-07-04,Guarda,Figueira de Castelo Rodrigo,Vilar de Amargo,VILAR DE AMARGO,40.9434189,-7.0126752,NC,617.0,2004-07-04T20:00,25.7,35,9.0,24.1,0.0,0.0,0.0,0.0,0,1014.6,945.9,0,0,0,0,0.1,2.16,8.8,17.4,305,310,26.3,27.0,25.0,20.3,14.3,0.137,0.188,0.247,0.322,1,1948.31,0.0,0.0,0.0,0.0,0.0,0.0,47.0,26.0,21.0,215.2,47.0,106.4,Magnoliopsida; Tracheophyta
2004,2004-07-10,Guarda,Sabugal,Sabugal,Quintas das Poldras,40.3518321,-7.0896479,NC,752.0,2004-07-10T21:00,18.0,68,11.9,16.1,0.0,0.0,0.0,0.0,0,1016.7,931.5,0,0,0,0,0.06,0.67,17.3,26.8,337,338,37.4,21.5,22.5,20.6,15.4,0.088,0.165,0.247,0.346,0,0.0,0.0,0.0,0.0,0.0,0.0,0.0,0.0,0.0,0.0,0.0,0.0,0.0,Tracheophyta; Magnoliopsida
2004,2004-08-07,Guarda,Almeida,Castelo Mendo,Paraisal,40.5937068,-6.9499842,NC,726.0,2004-08-07T18:00,29.5,24,7.0,26.6,0.0,0.0,0.0,0.0,0,1007.9,929.2,17,0,0,57,0.35,3.11,14.6,19.7,261,261,37.8,31.4,25.9,22.1,17.2,0.129,0.148,0.206,0.309,1,3600.0,248.9,196.0,53.0,680.1,248.9,383.3,329.0,259.0,70.0,680.1,329.0,506.5,Magnoliopsida; Tracheophyta
2004,2004-07-16,Guarda,Mêda,Outeiro de Gatos,Quinta do Pequito,40.9522896,-7.3028169,NC,663.0,2004-07-16T13:00,30.5,27,9.4,29.7,0.0,0.0,0.0,0.0,0,1011.9,939.7,12,0,17,6,0.59,3.19,10.2,12.6,247,246,25.6,35.3,25.0,20.4,15.4,0.112,0.148,0.19,0.301,1,3600.0,700.6,487.0,213.6,519.5,700.6,1241.1,702.0,488.0,214.0,519.5,702.0,1243.6,Vitis vinifera L.; Olea europaea L.; Tracheophyta; Quercus L.
2004,2004-07-08,Guarda,Almeida,Almeida,ALMEIDA,40.73018195,-6.899702067493429,NC,718.0,2004-07-08T12:00,18.0,35,2.4,16.1,0.0,0.0,0.0,0.0,3,1022.6,940.6,100,72,98,0,0.51,1.34,12.3,15.8,320,319,36.7,21.8,18.5,19.8,14.5,0.15,0.194,0.254,0.331,1,3600.0,861.1,591.1,270.0,627.4,861.1,1246.5,842.0,578.0,264.0,627.4,842.0,1218.9,Tracheophyta; Olea europaea L.; Magnoliopsida
2004,2004-07-10,Guarda,Trancoso,Trancoso (santa Maria),TRANCOSO,40.77937505,-7.347509229173514,NC,859.0,2004-07-10T14:00,21.0,46,8.8,20.2,0.0,0.0,0.0,0.0,0,1016.4,920.8,19,3,27,0,0.48,1.35,10.2,12.8,288,286,29.9,25.3,19.7,18.8,14.0,0.124,0.139,0.199,0.31,1,3600.0,704.9,475.5,229.5,528.4,704.9,1190.6,725.0,489.0,236.0,528.4,725.0,1224.5,Tracheophyta; Vitis vinifera L.; Magnoliopsida
2004,2004-08-21,Guarda,Vila Nova de Foz Côa,Seixas,SEIXAS,41.113728,-7.2518023,NC,411.0,2004-08-21T19:00,24.1,38,8.9,22.8,0.0,0.0,0.0,0.0,1,1017.5,970.8,30,0,0,100,0.1,1.85,6.5,15.5,360,3,18.7,25.0,22.3,21.5,20.3,0.121,0.175,0.218,0.317,1,3054.81,27.7,13.7,14.0,157.2,25.1,58.2,89.0,44.0,45.0,284.8,89.0,187.0,Magnoliopsida; Olea europaea L.; Vitis vinifera L.; Tracheophyta
2004,2004-07-13,Guarda,Guarda,Panoias de Cima,Cerdeiral,40.5063643,-7.2220806,NC,836.0,2004-07-13T15:00,27.8,21,3.4,26.6,0.0,0.0,0.0,0.0,0,1015.3,924.2,0,0,0,0,0.66,2.95,10.2,12.4,350,350,23.0,36.5,23.7,20.2,15.2,0.086,0.156,0.234,0.338,1,3600.0,824.2,720.3,103.8,889.9,824.2,1071.4,873.0,763.0,110.0,889.9,873.0,1134.8,Magnoliopsida; Tracheophyta; Pinus pinaster Aiton
2004,2004-07-07,Guarda,Figueira de Castelo Rodrigo,Quintã de Pêro Martins,Quinta de Pero Martins,40.832881,-7.092625,NC,339.0,2004-07-07T10:00,19.0,44,6.3,16.5,0.0,0.0,0.0,0.0,0,1017.6,978.2,15,7,15,0,0.39,1.24,13.0,17.4,275,276,39.2,22.5,22.5,22.0,16.4,0.141,0.191,0.25,0.329,1,3600.0,666.4,491.6,174.7,615.9,666.4,1056.3,614.0,453.0,161.0,615.9,614.0,973.2,Magnoliopsida; Pinus pinaster Aiton; Tracheophyta
2004,2004-07-20,Guarda,Seia,Seia,Aldeia da Serra,40.4181161,-7.6849974,NC,780.0,2004-07-20T15:00,25.1,46,12.7,25.7,0.1,0.1,0.0,0.0,51,1013.6,927.7,0,0,0,0,0.57,1.71,11.7,14.5,252,251,36.7,32.1,23.0,20.3,15.6,0.101,0.153,0.235,0.339,1,3600.0,766.8,636.5,130.3,789.1,766.8,1068.4,812.0,674.0,138.0,789.1,812.0,1131.4,Magnoliopsida; Olea europaea L.; Tracheophyta; Pinus pinaster Aiton
2004,2004-07-10,Guarda,Figueira de Castelo Rodrigo,Penha de Águia,PENHA DE ÁGUIA,40.8742627,-7.0600329,NC,544.0,2004-07-10T23:00,17.4,72,12.2,16.9,0.0,0.0,0.0,0.0,0,1017.5,954.8,3,1,3,0,0.02,0.57,7.7,16.7,323,327,19.8,19.1,20.8,19.8,15.4,0.141,0.187,0.247,0.328,0,0.0,0.0,0.0,0.0,0.0,0.0,0.0,0.0,0.0,0.0,0.0,0.0,0.0,Olea europaea L.; Vitis vinifera L.
2004,2004-07-24,Guarda,Aguiar da Beira,Pinheiro,Quinta dos Matos,40.7700757,-7.5928457,NC,663.0,2004-07-24T11:00,31.7,24,8.4,33.0,0.0,0.0,0.0,0.0,0,1022.3,949.6,0,0,0,0,0.6,3.58,1.6,1.8,297,281,19.1,33.3,24.5,20.8,15.9,0.112,0.142,0.204,0.319,1,3600.0,885.1,775.4,109.7,890.0,885.1,1154.8,839.0,735.0,104.0,890.0,839.0,1094.7,Pinus pinaster Aiton; Magnoliopsida; Pinales; Tracheophyta; Quercus L.; Eucalyptus L'Hér.; 
2004,2004-07-10,Guarda,Figueira de Castelo Rodrigo,Quintã de Pêro Martins,Quintã de Pêro Martins,40.832881,-7.092625,NC,339.0,2004-07-10T08:00,17.6,73,12.7,17.6,0.0,0.0,0.0,0.0,2,1019.2,979.5,76,63,19,27,0.13,0.54,5.1,6.6,309,311,16.2,19.6,20.6,21.2,16.7,0.141,0.188,0.248,0.329,1,3600.0,242.3,92.1,150.2,182.9,242.3,666.2,200.0,76.0,124.0,182.9,200.0,550.0,Magnoliopsida; Pinus pinaster Aiton; Tracheophyta
2004,2004-07-16,Guarda,Pinhel,Lamegal,LAMEGAL,40.6679566,-7.074315120897156,NC,719.0,2004-07-16T15:00,29.8,27,8.9,28.6,0.1,0.1,0.0,0.0,51,1010.1,932.0,27,0,37,17,0.58,3.05,11.7,15.1,259,258,32.4,33.1,24.9,19.8,14.9,0.16,0.163,0.205,0.305,1,3600.0,661.4,514.2,147.2,639.0,661.4,1065.3,701.0,545.0,156.0,639.0,701.0,1129.1,Magnoliopsida; Pinus pinaster Aiton; Tracheophyta; Vitis vinifera L.; Olea europaea L.; Quercus L.; Pinales; Castanea sativa Mill.; 
2004,2004-07-18,Guarda,Celorico da Beira,Ratoeira,RATOEIRA,40.6405126,-7.3530979,NC,457.0,2004-07-18T10:00,23.3,53,13.2,24.5,0.0,0.0,0.0,0.0,0,1017.3,965.4,6,4,0,7,0.46,1.34,5.2,6.6,344,347,16.9,29.3,24.8,22.7,17.4,0.079,0.158,0.239,0.331,1,3600.0,770.3,654.8,115.5,836.5,770.3,1036.7,707.0,601.0,106.0,836.5,707.0,951.4,Olea europaea L.; Tracheophyta; Pinus pinaster Aiton; Magnoliopsida; Pinales
2004,2004-07-25,Guarda,Seia,Sandomil,Furtado,40.3574677,-7.7822806,NC,281.0,2004-07-25T14:00,34.9,24,11.1,35.6,0.0,0.0,0.0,0.0,0,1018.4,987.2,0,0,0,0,0.8,4.26,12.3,15.1,302,303,32.4,39.0,27.1,22.4,17.5,0.092,0.144,0.22,0.33,1,3600.0,915.1,809.1,106.0,910.5,915.1,1178.2,941.0,832.0,109.0,910.5,941.0,1211.5,Pinus pinaster Aiton; Tracheophyta; Magnoliopsida; Acacia Mill.; Castanea sativa Mill.
2004,2004-06-03,Guarda,Seia,Sabugueiro,SABUGUEIRO,40.376981,-7.6420104,NC,1560.0,2004-06-03T14:00,22.3,24,0.7,20.6,0.0,0.0,0.0,0.0,0,1020.4,854.6,1,0,2,0,0.65,2.06,13.4,16.9,63,63,34.9,22.1,15.3,10.7,6.4,0.239,0.28,0.304,0.364,1,3600.0,929.8,819.2,110.5,914.4,929.8,1191.0,959.0,845.0,114.0,914.4,959.0,1228.5,Magnoliopsida; Tracheophyta
2004,2004-05-13,Guarda,Almeida,Freineda,FREINEDA,40.5932258,-6.904359870101008,NC,734.0,2004-05-13T19:00,15.4,39,1.6,12.1,0.0,0.0,0.0,0.0,0,1015.9,932.0,0,0,0,0,0.12,1.07,10.2,21.8,32,38,31.7,14.7,12.7,10.0,9.3,0.307,0.314,0.309,0.331,1,3600.0,70.8,46.2,24.6,488.3,70.8,126.8,141.0,92.0,49.0,488.3,141.0,252.4,Magnoliopsida; Tracheophyta; Vitis vinifera L.; Pinales
2004,2004-07-22,Guarda,Sabugal,Alfaiates,ALFAIATES,40.381928650000006,-6.929580295503458,NC,799.0,2004-07-22T14:00,30.3,21,5.3,28.0,0.0,0.0,0.0,0.0,1,1015.6,928.9,29,0,0,97,0.72,3.42,17.8,23.4,225,225,44.3,35.5,25.5,21.9,16.4,0.082,0.158,0.238,0.339,1,3600.0,811.9,527.3,284.5,593.3,811.9,1177.6,836.0,543.0,293.0,593.3,836.0,1212.6,Magnoliopsida; Tracheophyta; Quercus L.; Pinus pinaster Aiton; Quercus suber L.; 
2004,2004-07-15,Guarda,Celorico da Beira,Ratoeira,RATOEIRA,40.6405126,-7.3530979,NC,457.0,2004-07-15T10:00,29.2,30,9.7,29.7,0.0,0.0,0.0,0.0,0,1016.7,965.8,1,0,1,0,0.5,2.85,2.8,3.6,40,45,18.7,32.1,25.5,22.1,17.1,0.073,0.16,0.242,0.333,1,3600.0,770.8,657.6,113.2,835.8,770.8,1041.5,708.0,604.0,104.0,835.8,708.0,956.6,Olea europaea L.; Tracheophyta; Pinus pinaster Aiton; Magnoliopsida; Pinales
2004,2004-07-07,Guarda,Figueira de Castelo Rodrigo,Escalhão,ESCALHÃO,40.97966965,-6.942867403255529,NC,576.0,2004-07-07T20:00,14.9,58,6.8,12.0,0.0,0.0,0.0,0.0,1,1017.3,950.5,32,18,26,0,0.07,0.71,13.9,20.8,280,280,38.9,19.2,21.6,20.7,15.0,0.148,0.201,0.26,0.337,1,1430.36,0.0,0.0,0.0,0.0,0.0,0.0,37.0,18.0,19.0,150.2,37.0,103.5,Tracheophyta; Olea europaea L.; Quercus rotundifolia Lam.; Magnoliopsida
2004,2004-06-03,Guarda,Almeida,Nave de Haver,NAVE DE HAVER,40.526992,-6.8498427,NC,814.0,2004-06-03T10:00,22.4,28,3.1,19.9,0.0,0.0,0.0,0.0,0,1022.9,931.8,0,0,0,0,0.52,1.94,13.8,18.5,51,53,31.7,21.8,18.6,14.7,10.0,0.22,0.26,0.275,0.339,1,3600.0,823.5,710.0,113.5,873.3,823.5,1080.9,762.0,657.0,105.0,873.3,762.0,1000.1,Quercus suber L.; Tracheophyta; Magnoliopsida; Pinales
2004,2004-06-03,Guarda,Guarda,Gonçalo Bocas,GONÇALO BOCAS,40.5760457,-7.1770755,NC,808.0,2004-06-03T21:00,21.5,28,2.4,18.6,0.0,0.0,0.0,0.0,0,1020.0,929.6,0,0,0,0,0.09,1.84,8.7,21.8,52,56,18.4,21.5,21.7,15.5,10.5,0.127,0.211,0.266,0.325,0,0.0,0.0,0.0,0.0,0.0,0.0,0.0,0.0,0.0,0.0,0.0,0.0,0.0,Magnoliopsida; Tracheophyta; Pinus pinaster Aiton
2004,2004-08-14,Guarda,Sabugal,Pousafoles do Bispo,Lameiras,40.4121441,-7.1785623,NC,793.0,2004-08-14T15:00,29.6,31,10.9,30.9,0.0,0.0,0.0,0.0,0,1017.8,931.4,0,0,0,0,0.59,2.85,4.1,4.7,218,212,26.3,33.5,23.2,21.5,18.6,0.142,0.147,0.208,0.324,1,3600.0,752.0,652.8,99.3,870.5,752.0,999.8,803.0,697.0,106.0,870.5,803.0,1067.5,Tracheophyta; Magnoliopsida; Olea europaea L.; Quercus L.; Pinus pinaster Aiton; Pinales; 
2004,2004-07-24,Guarda,Vila Nova de Foz Côa,Numão,Requeijo \ REG,41.0959485,-7.2917837,NC,626.0,2004-07-24T11:00,30.5,28,9.8,32.1,0.0,0.0,0.0,0.0,0,1022.2,953.1,0,0,0,0,0.6,3.16,1.8,2.2,360,360,16.6,33.4,24.8,21.1,16.1,0.121,0.16,0.216,0.323,1,3600.0,883.5,771.8,111.8,886.7,883.5,1153.7,838.0,732.0,106.0,886.7,838.0,1094.2,Magnoliopsida; Tracheophyta; Olea europaea L.
2004,2004-07-14,Guarda,Guarda,Santana da Azinha,SANTANA DA AZINHA,40.4599689,-7.2160143,NC,880.0,2004-07-14T16:00,30.0,14,-0.2,28.5,0.0,0.0,0.0,0.0,0,1015.3,920.3,0,0,0,0,0.54,3.65,4.3,5.1,5,4,18.0,37.9,24.7,20.0,15.0,0.086,0.155,0.232,0.337,1,3600.0,682.3,589.4,92.9,863.9,682.3,903.0,749.0,647.0,102.0,863.9,749.0,991.3,Pinales; Tracheophyta; Magnoliopsida
2004,2004-07-15,Guarda,Gouveia,Ribamondego,RIBAMONDEGO,40.5719337,-7.582852145497336,NC,315.0,2004-07-15T17:00,30.9,30,11.3,29.7,0.0,0.0,0.0,0.0,1,1013.8,978.7,26,0,33,19,0.36,3.13,10.9,15.4,287,291,29.2,35.3,28.1,22.2,17.5,0.092,0.162,0.245,0.342,1,3600.0,298.4,184.8,113.7,350.1,298.4,698.8,344.0,213.0,131.0,350.1,344.0,805.5,Magnoliopsida; Tracheophyta; Pinales; Quercus rotundifolia Lam.; Olea europaea L.; 
2004,2004-07-12,Guarda,Guarda,Ribeira dos Carinhos,RIBEIRA DOS CARINHOS,40.62445935,-7.145928239316179,NC,736.0,2004-07-12T22:00,20.3,27,0.8,17.0,0.0,0.0,0.0,0.0,0,1016.4,933.6,0,0,0,0,0.08,1.73,8.7,20.1,52,57,22.3,22.0,23.0,19.6,14.8,0.135,0.153,0.191,0.298,0,0.0,0.0,0.0,0.0,0.0,0.0,0.0,0.0,0.0,0.0,0.0,0.0,0.0,Pinales; Quercus L.; Tracheophyta; Magnoliopsida
2004,2004-07-15,Guarda,Almeida,Almeida,Fonte Santa,40.73018195,-6.899702067493429,NC,718.0,2004-07-15T11:00,29.0,29,9.1,30.1,0.0,0.0,0.0,0.0,0,1015.9,937.3,0,0,0,0,0.61,2.84,3.8,5.2,163,164,20.5,30.1,22.9,19.5,15.1,0.145,0.186,0.247,0.329,1,3600.0,887.9,772.2,115.7,871.7,887.9,1172.6,844.0,734.0,110.0,871.7,844.0,1114.6,Tracheophyta; Olea europaea L.; Magnoliopsida
2004,2004-08-19,Guarda,Pinhel,Azevo,Madalena,40.8526158,-7.1405285,NC,529.0,2004-08-19T19:00,18.9,60,11.0,17.3,0.0,0.0,0.0,0.0,0,1018.3,957.5,19,12,14,0,0.1,0.87,12.6,20.2,275,275,37.8,20.7,20.7,21.0,18.8,0.236,0.185,0.221,0.318,1,3203.66,28.2,14.6,13.6,167.8,26.3,68.8,81.0,42.0,39.0,265.0,81.0,197.6,Quercus L.; Tracheophyta; Olea europaea L.; Magnoliopsida; Quercus suber L.
2004,2004-07-26,Guarda,Vila Nova de Foz Côa,Vila Nova de Foz Côa,Ribeira do Vale da Veiga \ RIB,41.1134297,-7.1364466,NC,143.0,2004-07-26T09:00,27.8,41,13.5,27.5,0.0,0.0,0.0,0.0,0,1019.3,1002.9,0,0,0,0,0.4,2.19,9.7,13.3,86,87,27.4,29.9,28.5,25.1,19.4,0.099,0.166,0.229,0.323,1,3600.0,592.7,489.9,102.8,767.0,592.7,846.9,519.0,429.0,90.0,767.0,519.0,741.6,Vitis vinifera L.; Olea europaea L.; Tracheophyta; Magnoliopsida
2004,2004-07-29,Guarda,Figueira de Castelo Rodrigo,Almofala,ALMOFALA,40.86973565,-6.882497100000001,NC,653.0,2004-07-29T21:00,24.0,39,9.3,22.3,0.0,0.0,0.0,0.0,1,1016.2,943.2,30,0,0,99,0.09,1.82,10.7,19.9,310,314,22.0,25.6,25.7,22.3,16.7,0.135,0.176,0.236,0.322,0,0.0,0.0,0.0,0.0,0.0,0.0,0.0,0.0,0.0,0.0,0.0,0.0,0.0,Magnoliopsida; Quercus suber L.; Tracheophyta; Vitis vinifera L.
2004,2004-07-30,Guarda,Figueira de Castelo Rodrigo,Almofala,ALMOFALA,40.86973565,-6.882497100000001,NC,653.0,2004-07-30T08:00,21.1,59,12.8,20.8,0.0,0.0,0.0,0.0,0,1017.6,943.8,4,0,0,15,0.21,1.03,8.2,11.2,52,57,20.2,22.9,23.5,22.3,16.7,0.136,0.176,0.236,0.322,1,3600.0,393.3,303.0,90.3,645.6,393.3,622.9,318.0,245.0,73.0,645.6,318.0,503.6,Magnoliopsida; Quercus suber L.; Tracheophyta; Vitis vinifera L.
2004,2004-06-03,Guarda,Guarda,Alvendre,ALVENDRE,40.5848974,-7.2609061,NC,849.0,2004-06-03T13:00,26.7,20,1.8,25.0,0.0,0.0,0.0,0.0,0,1021.2,927.9,0,0,0,0,0.75,2.81,15.5,20.2,54,55,34.2,28.1,20.0,15.5,10.8,0.162,0.267,0.311,0.372,1,3600.0,992.6,876.3,116.4,929.4,992.6,1253.3,998.0,881.0,117.0,929.4,998.0,1260.1,Magnoliopsida; Tracheophyta; Quercus L.; Pinales
2004,2004-07-16,Guarda,Vila Nova de Foz Côa,Castelo Melhor,CASTELO MELHOR,41.04705695,-7.050169449999999,NC,137.0,2004-07-16T19:00,31.9,27,10.7,31.0,0.0,0.0,0.0,0.0,0,1010.7,995.3,8,0,13,0,0.19,3.43,7.7,13.0,311,314,24.8,33.6,29.5,23.5,18.5,0.103,0.171,0.236,0.326,1,3600.0,99.5,69.1,30.4,434.7,99.5,210.4,157.0,109.0,48.0,434.7,157.0,332.0,Vitis vinifera L.; Magnoliopsida
2004,2004-07-26,Guarda,Guarda,Meios,MEIOS,40.4938985,-7.3602944,NC,944.0,2004-07-26T13:00,29.1,19,3.5,29.1,0.0,0.0,0.0,0.0,0,1016.7,914.8,0,0,0,0,0.72,3.25,7.2,8.7,6,5,24.5,37.2,25.9,21.7,15.9,0.092,0.169,0.244,0.347,1,3600.0,971.3,859.5,111.8,926.1,971.3,1230.7,973.0,861.0,112.0,926.1,973.0,1232.9,Pinales; Tracheophyta; Olea europaea L.; Magnoliopsida
2004,2004-07-31,Guarda,Vila Nova de Foz Côa,Vila Nova de Foz Côa,Chã,41.107794,-7.160498413971005,NC,407.0,2004-07-31T05:00,19.8,88,17.8,22.4,0.0,0.0,0.0,0.0,0,1016.0,969.1,1,0,0,3,0.0,0.27,2.2,2.9,279,353,9.0,21.6,27.5,24.6,18.7,0.076,0.163,0.225,0.322,0,0.0,0.0,0.0,0.0,0.0,0.0,0.0,0.0,0.0,0.0,0.0,0.0,0.0,Magnoliopsida; Olea europaea L.; Tracheophyta; Vitis vinifera L.
2004,2004-07-27,Guarda,Pinhel,Souro Pires,Gravelos,40.7794281,-7.103198559781845,NC,569.0,2004-07-27T18:00,30.9,23,7.4,28.3,0.0,0.0,0.0,0.0,0,1013.2,950.8,0,0,0,0,0.37,3.43,13.1,17.8,291,291,31.0,33.3,27.7,22.4,16.7,0.135,0.159,0.209,0.308,1,3600.0,283.1,225.4,57.7,700.2,283.1,427.0,363.0,289.0,74.0,700.2,363.0,547.4,Vitis vinifera L.; Olea europaea L.; Tracheophyta; Magnoliopsida; Quercus L.
2004,2004-07-31,Guarda,Mêda,Barreira,BARREIRA,40.9093451,-7.1835647,NC,458.0,2004-07-31T16:00,33.5,23,9.5,31.8,0.0,0.0,0.0,0.0,2,1013.3,963.1,52,0,68,38,0.47,3.98,10.5,13.5,239,236,29.9,35.5,27.8,23.2,17.8,0.134,0.16,0.217,0.318,1,3600.0,433.9,243.7,190.2,373.3,433.9,866.6,479.0,269.0,210.0,373.3,479.0,956.7,Vitis vinifera L.; Tracheophyta; Olea europaea L.; Quercus L.; Magnoliopsida; Pinus pinaster Aiton; Quercus rotundifolia Lam.; 
2004,2004-08-24,Guarda,Pinhel,Cidadelhe,CIDADELHE,40.9197101,-7.114762113099914,NC,489.0,2004-08-24T21:00,21.5,47,9.8,20.4,0.0,0.0,0.0,0.0,1,1019.6,963.7,20,0,0,68,0.05,1.36,7.4,14.0,321,331,15.1,22.6,23.7,21.0,19.2,0.18,0.184,0.219,0.317,0,0.0,0.0,0.0,0.0,0.0,0.0,0.0,0.0,0.0,0.0,0.0,0.0,0.0,Quercus L.; Magnoliopsida; Tracheophyta
2004,2004-07-25,Guarda,Gouveia,Moimenta da Serra,MOIMENTA DA SERRA,40.4743603,-7.631013,NC,570.0,2004-07-25T13:00,34.2,21,8.9,35.0,0.0,0.0,0.0,0.0,0,1019.0,956.8,0,0,0,0,0.79,4.23,9.1,11.5,326,328,33.1,40.9,27.5,22.9,17.4,0.075,0.154,0.233,0.332,1,3600.0,965.9,857.0,108.9,921.1,965.9,1233.5,967.0,858.0,109.0,921.1,967.0,1234.9,Olea europaea L.; Pinus pinea L.; Magnoliopsida; Tracheophyta; Pinus pinaster Aiton; Pinales; Vitis vinifera L.; Quercus L.; 
2004,2004-07-21,Guarda,Seia,São Martinho,SÃO MARTINHO,40.4329517,-7.659395270433721,NC,762.0,2004-07-21T12:00,26.8,37,10.9,28.3,0.0,0.0,0.0,0.0,0,1013.6,930.0,0,0,0,0,0.65,2.22,7.1,8.5,210,208,30.2,34.5,23.6,21.4,16.3,0.078,0.165,0.25,0.345,1,3600.0,943.4,827.5,115.9,890.2,943.4,1231.6,920.0,807.0,113.0,890.2,920.0,1201.0,Olea europaea L.; Magnoliopsida; Pinus pinaster Aiton
2004,2004-08-26,Guarda,Vila Nova de Foz Côa,Chãs,CHÃS,40.9931953,-7.1696617,NC,471.0,2004-08-26T15:00,29.8,24,7.2,29.8,0.0,0.0,0.0,0.0,0,1019.1,966.6,0,0,0,0,0.56,3.18,4.7,5.9,32,38,20.2,32.6,23.4,21.3,19.2,0.14,0.161,0.173,0.285,1,3600.0,722.8,629.6,93.1,892.1,722.8,945.6,776.0,676.0,100.0,892.1,776.0,1015.3,Vitis vinifera L.; Tracheophyta; Magnoliopsida; Olea europaea L.
2004,2004-07-25,Guarda,Fornos de Algodres,Fuinhas,FUINHAS,40.6881919,-7.4438369,NC,497.0,2004-07-25T13:00,34.4,23,10.0,36.0,0.0,0.0,0.0,0.0,0,1019.0,964.5,0,0,0,0,0.75,4.21,6.0,7.2,343,342,22.3,40.1,27.7,23.0,17.6,0.081,0.154,0.23,0.324,1,3600.0,950.3,837.5,112.8,901.9,950.3,1231.2,952.0,839.0,113.0,901.9,952.0,1233.3,Quercus L.; Pinus pinaster Aiton; Olea europaea L.; Magnoliopsida; Tracheophyta; 
2004,2004-07-25,Guarda,Mêda,Rabaçal,RABAÇAL,40.8556605,-7.258009940922401,NC,594.0,2004-07-25T23:00,23.2,49,11.7,22.9,0.0,0.0,0.0,0.0,0,1019.2,952.2,0,0,0,0,0.04,1.46,6.0,8.9,327,346,12.6,25.8,27.5,21.8,16.5,0.113,0.144,0.206,0.309,0,0.0,0.0,0.0,0.0,0.0,0.0,0.0,0.0,0.0,0.0,0.0,0.0,0.0,Vitis vinifera L.; Tracheophyta; Pinus pinaster Aiton; Magnoliopsida; Olea europaea L.; Quercus L.; Quercus suber L.; 
2004,2004-07-21,Guarda,Aguiar da Beira,Pinheiro,Quinta dos Matos,40.7700757,-7.5928457,NC,663.0,2004-07-21T19:00,24.8,50,13.7,24.1,0.0,0.0,0.0,0.0,0,1012.9,939.3,0,0,0,0,0.18,1.57,12.8,17.7,281,282,30.2,28.1,24.3,20.4,15.7,0.117,0.143,0.207,0.32,1,3600.0,111.6,76.0,35.5,495.0,111.6,203.5,179.0,122.0,57.0,495.0,179.0,326.5,Pinus pinaster Aiton; Magnoliopsida; Pinales; Tracheophyta; Quercus L.; Eucalyptus L'Hér.; 
2004,2004-07-26,Guarda,Sabugal,Vila Boa,VILA BOA,40.38314,-7.0035691,NC,779.0,2004-07-26T12:00,29.8,20,4.2,29.6,0.0,0.0,0.0,0.0,0,1017.5,932.6,0,0,0,0,0.71,3.37,7.8,9.5,34,37,27.4,35.4,26.7,22.7,16.8,0.087,0.153,0.23,0.337,1,3600.0,963.0,849.3,113.7,918.2,963.0,1226.5,940.0,829.0,111.0,918.2,940.0,1197.2,Magnoliopsida; Tracheophyta; Pinales; Vitis vinifera L.; Pinus pinaster Aiton; Quercus L.; 
2004,2004-07-14,Guarda,Fornos de Algodres,Juncais,JUNCAIS,40.598205500000006,-7.5165882783913744,NC,453.0,2004-07-14T13:00,31.5,17,3.6,32.0,0.0,0.0,0.0,0.0,0,1016.5,966.4,0,0,0,0,0.73,3.84,4.8,6.3,117,121,26.3,37.9,25.0,21.6,16.9,0.074,0.163,0.246,0.34,1,3600.0,973.5,860.7,112.8,914.0,973.5,1246.4,975.0,862.0,113.0,914.0,975.0,1248.3,Tracheophyta; Olea europaea L.; Quercus L.; Magnoliopsida; Pinus pinaster Aiton; Vitis vinifera L.; Eucalyptus L'Hér.; Acacia Mill.; 
2004,2004-06-01,Guarda,Sabugal,Sabugal,Colónia Agrícola Martim Rei,40.3406118,-7.0401153,NC,854.0,2004-06-01T09:00,19.1,65,12.3,18.3,0.0,0.0,0.0,0.0,0,1022.2,926.0,0,0,0,0,0.33,0.79,11.5,15.2,20,22,26.6,19.6,16.9,14.4,10.3,0.23,0.288,0.302,0.365,1,3600.0,641.3,530.9,110.5,777.5,641.3,908.3,569.0,471.0,98.0,777.5,569.0,805.8,Magnoliopsida; Tracheophyta
2004,2004-07-15,Guarda,Almeida,Freineda,FREINEDA,40.5932258,-6.904359870101008,NC,734.0,2004-07-15T15:00,31.5,27,10.0,31.5,0.0,0.0,0.0,0.0,0,1013.7,934.2,14,0,14,18,0.62,3.39,8.8,10.6,171,170,23.8,34.3,24.6,19.6,15.0,0.128,0.163,0.229,0.316,1,3600.0,727.2,596.1,131.1,740.7,727.2,1065.4,771.0,632.0,139.0,740.7,771.0,1129.5,Magnoliopsida; Tracheophyta; Vitis vinifera L.; Pinales
2004,2004-06-01,Guarda,Vila Nova de Foz Côa,Vila Nova de Foz Côa,FOZ CÔA,41.107794,-7.160498413971005,NC,407.0,2004-06-01T15:00,27.7,38,11.9,27.6,0.0,0.0,0.0,0.0,2,1019.9,974.0,58,0,96,0,0.49,2.32,8.2,10.6,331,332,27.0,28.7,20.7,16.3,11.7,0.13,0.236,0.276,0.338,1,3600.0,599.3,304.8,294.5,383.2,599.3,1058.2,637.0,324.0,313.0,383.2,637.0,1124.8,Magnoliopsida; Olea europaea L.; Tracheophyta; Vitis vinifera L.
2004,2004-07-13,Guarda,Seia,Santa Comba,SANTA COMBA,40.4499414,-7.7139441,NC,474.0,2004-07-13T20:00,26.2,31,7.9,24.4,0.0,0.0,0.0,0.0,0,1014.8,961.6,0,0,0,0,0.1,2.34,8.7,18.8,318,328,24.1,27.8,24.6,20.0,15.9,0.096,0.157,0.241,0.341,1,1887.36,0.0,0.0,0.0,0.0,0.0,0.0,46.0,26.0,20.0,216.2,46.0,102.6,Tracheophyta; Vitis vinifera L.; Pinus pinaster Aiton; Olea europaea L.
2004,2004-08-22,Guarda,Vila Nova de Foz Côa,Touça,TOUÇA,41.047209,-7.233867,NC,615.0,2004-08-22T19:00,24.1,52,13.6,23.9,0.0,0.0,0.0,0.0,1,1015.0,946.2,33,0,5,99,0.1,1.44,8.7,17.8,277,278,29.2,25.4,22.7,20.4,18.7,0.153,0.159,0.171,0.29,1,1926.3,20.6,6.2,14.4,70.7,18.4,53.7,70.0,21.0,49.0,137.3,70.0,182.8,Magnoliopsida; Vitis vinifera L.; Quercus suber L.; Tracheophyta; Pinales; Olea europaea L.
2004,2004-07-17,Guarda,Mêda,Mêda,Carvalheira,40.9662962,-7.2637352,NC,721.0,2004-07-17T13:00,27.8,30,8.5,28.8,0.0,0.0,0.0,0.0,0,1014.3,935.2,15,0,0,49,0.71,2.63,8.1,9.6,291,290,26.3,34.0,24.5,20.4,15.3,0.13,0.147,0.189,0.311,1,3600.0,975.1,854.3,120.8,912.3,975.1,1239.9,977.0,856.0,121.0,912.3,977.0,1242.4,Tracheophyta; Vitis vinifera L.; Magnoliopsida; Olea europaea L.
2004,2004-09-22,Guarda,Vila Nova de Foz Côa,Touça,TOUÇA,41.047209,-7.233867,NC,615.0,2004-09-22T19:00,25.3,31,6.8,23.3,0.0,0.0,0.0,0.0,0,1021.4,952.4,0,0,0,0,0.11,2.24,8.4,16.7,40,53,19.8,25.8,23.2,20.8,19.7,0.106,0.15,0.165,0.283,0,0.0,0.0,0.0,0.0,0.0,0.0,0.0,6.0,2.0,4.0,27.8,6.0,38.5,Magnoliopsida; Vitis vinifera L.; Quercus suber L.; Tracheophyta; Pinales; Olea europaea L.
2004,2004-07-24,Guarda,Vila Nova de Foz Côa,Seixas,Fonte dos Cantaros \ FTE,41.1126511,-7.2505182,NC,420.0,2004-07-24T13:00,35.4,17,6.8,36.4,0.0,0.0,0.0,0.0,0,1021.3,975.1,0,0,0,1,0.75,4.75,5.1,6.1,266,267,22.3,41.9,27.9,23.3,17.9,0.076,0.165,0.229,0.324,1,3600.0,955.0,844.2,110.8,910.6,955.0,1228.9,957.0,846.0,111.0,910.6,957.0,1231.5,Magnoliopsida; Olea europaea L.; Vitis vinifera L.; Tracheophyta
2004,2004-06-02,Guarda,Seia,Travancinha,TRAVANCINHA,40.4245314,-7.8227069,NC,395.0,2004-06-02T13:00,28.3,46,15.6,31.7,0.0,0.0,0.0,0.0,0,1020.0,975.5,3,0,5,0,0.62,2.08,4.2,5.0,211,201,17.3,29.1,20.3,16.3,12.1,0.194,0.279,0.311,0.369,1,3600.0,859.2,716.8,142.4,759.4,859.2,1255.1,863.0,720.0,143.0,759.4,863.0,1260.7,Pinus pinea L.; Quercus L.; Magnoliopsida; Eucalyptus L'Hér.; Olea europaea L.; Tracheophyta; Pinus pinaster Aiton
2004,2004-09-23,Guarda,Guarda,Avelãs da Ribeira,Pombinhas \ CAS,40.6635145,-7.2236937,NC,603.0,2004-09-23T04:00,14.7,62,7.4,12.7,0.0,0.0,0.0,0.0,0,1022.3,952.2,0,0,0,0,0.03,0.64,9.2,22.5,48,58,18.4,16.3,22.1,21.1,19.9,0.121,0.153,0.177,0.284,0,0.0,0.0,0.0,0.0,0.0,0.0,0.0,0.0,0.0,0.0,0.0,0.0,0.0,Tracheophyta; Pinales; Olea europaea L.; Vitis vinifera L.; Magnoliopsida
2004,2004-08-26,Guarda,Pinhel,Sorval,Barrancos,40.7903471,-7.1915165,NC,558.0,2004-08-26T15:00,29.5,24,6.8,29.6,0.0,0.0,0.0,0.0,0,1019.0,957.2,0,0,0,0,0.56,3.15,4.3,5.0,24,30,18.0,31.8,23.0,20.8,18.8,0.162,0.163,0.186,0.299,1,3600.0,727.3,635.1,92.2,898.4,727.3,947.2,781.0,682.0,99.0,898.4,781.0,1017.1,Pinus pinaster Aiton; Tracheophyta; Magnoliopsida; Vitis vinifera L.; Quercus L.; Olea europaea L.
2004,2004-07-16,Guarda,Guarda,Jarmelo (são Miguel),Coberta \ REG,40.5876549,-7.15131,NC,833.0,2004-07-16T17:00,27.9,28,7.4,25.3,0.0,0.0,0.0,0.0,1,1010.8,920.4,27,0,34,21,0.44,2.72,13.4,18.2,290,288,34.6,33.1,26.2,20.6,15.3,0.122,0.157,0.208,0.31,1,3600.0,436.8,333.9,102.9,642.6,436.8,687.8,505.0,386.0,119.0,642.6,505.0,795.3,Magnoliopsida; Tracheophyta; Pinales
2004,2004-09-21,Guarda,Sabugal,Nave,NAVE,40.4436906,-6.9762596,NC,751.0,2004-09-21T17:00,29.6,22,5.4,26.8,0.0,0.0,0.0,0.0,0,1020.8,938.5,0,0,0,0,0.32,3.26,11.6,15.1,16,18,25.6,32.6,24.0,21.1,20.0,0.089,0.154,0.205,0.316,1,3600.0,238.6,188.5,50.1,705.7,238.6,362.7,319.0,252.0,67.0,705.7,319.0,484.8,Tracheophyta; Pinus pinaster Aiton; Magnoliopsida; Quercus L.; Vitis vinifera L.; Castanea sativa Mill.; Eucalyptus L'Hér.; Olea europaea L.; Pinales; 
2004,2004-07-15,Guarda,Sabugal,Aldeia de Santo António,ALDEIA DE SANTO ANTÓNIO,40.3404888,-7.132592825112418,NC,817.0,2004-07-15T14:00,30.2,28,9.8,30.8,0.0,0.0,0.0,0.0,0,1014.2,925.8,2,0,1,4,0.7,3.08,9.9,12.1,170,170,26.6,35.0,24.5,20.2,15.1,0.1,0.151,0.226,0.335,1,3600.0,882.2,763.7,118.5,851.3,882.2,1187.5,908.0,786.0,122.0,851.3,908.0,1222.2,Pinus pinaster Aiton; Tracheophyta; Magnoliopsida; Pinales
2004,2004-05-08,Guarda,Figueira de Castelo Rodrigo,Figueira de Castelo Rodrigo,FIGUEIRA DE CASTELO RODRIGO,40.91369775,-6.963039143588512,NC,621.0,2004-05-08T21:00,9.6,66,3.5,6.4,0.0,0.0,0.0,0.0,1,1016.8,943.8,33,0,8,94,0.03,0.41,11.9,21.5,284,288,29.2,11.1,11.7,10.1,9.1,0.287,0.292,0.307,0.334,0,0.0,0.0,0.0,0.0,0.0,0.0,0.0,0.0,0.0,0.0,0.0,0.0,0.0,Tracheophyta; Pinus pinea L.; Olea europaea L.; Magnoliopsida; Vitis vinifera L.; Quercus L.
2004,2004-07-27,Guarda,Celorico da Beira,Lajeosa do Mondego,Ponte do Ladrão,40.63043115,-7.355823946761802,NC,499.0,2004-07-27T14:00,32.8,21,7.3,33.4,0.0,0.0,0.0,0.0,0,1014.2,959.5,0,0,0,0,0.73,3.94,6.6,8.5,283,282,26.6,42.2,28.6,23.9,18.0,0.072,0.151,0.229,0.327,1,3600.0,908.6,800.7,107.9,906.9,908.6,1171.0,935.0,824.0,111.0,906.9,935.0,1205.1,Olea europaea L.; Tracheophyta; Magnoliopsida
2004,2004-07-15,Guarda,Seia,Tourais,VILA VERDE,40.4713583,-7.7507768,NC,444.0,2004-07-15T14:00,33.5,22,9.1,34.4,0.0,0.0,0.0,0.0,0,1013.6,964.9,4,0,2,10,0.71,4.01,6.8,7.9,273,270,25.9,40.3,26.4,21.3,16.6,0.079,0.162,0.246,0.342,1,3600.0,871.6,753.9,117.7,838.4,871.6,1190.4,896.0,775.0,121.0,838.4,896.0,1223.7,Olea europaea L.; Pinus pinaster Aiton; Magnoliopsida
2004,2004-07-19,Guarda,Guarda,Jarmelo (são Pedro),Granja,40.5904224,-7.1335442,NC,912.0,2004-07-19T15:00,23.4,38,8.4,21.3,0.0,0.0,0.0,0.0,1,1015.4,915.1,22,0,0,72,0.47,1.78,14.1,17.7,276,276,34.9,29.2,23.4,20.1,14.7,0.125,0.136,0.193,0.325,1,3600.0,594.3,231.1,363.2,288.0,594.3,1062.9,630.0,245.0,385.0,288.0,630.0,1126.8,Tracheophyta; Magnoliopsida; Pinales
2004,2004-07-26,Guarda,Fornos de Algodres,Juncais,JUNCAIS,40.598205500000006,-7.5165882783913744,NC,453.0,2004-07-26T12:00,31.3,22,7.1,32.4,0.0,0.0,0.0,0.0,0,1017.6,967.4,0,0,0,0,0.69,3.57,4.3,5.4,85,82,24.8,38.1,27.6,23.7,18.0,0.074,0.153,0.234,0.334,1,3600.0,948.7,836.9,111.8,907.4,948.7,1223.0,925.0,816.0,109.0,907.4,925.0,1192.5,Tracheophyta; Olea europaea L.; Quercus L.; Magnoliopsida; Pinus pinaster Aiton; Vitis vinifera L.; Eucalyptus L'Hér.; Acacia Mill.; 
2004,2004-07-20,Guarda,Seia,Seia,Aldeia da Serra,40.4181161,-7.6849974,NC,780.0,2004-07-20T18:00,22.6,57,13.6,21.7,0.0,0.0,0.0,0.0,0,1013.4,926.8,1,0,2,0,0.21,1.19,14.2,18.5,277,278,35.6,28.4,23.6,20.3,15.6,0.101,0.153,0.235,0.339,1,3600.0,193.9,102.9,91.0,300.4,193.9,453.6,245.0,130.0,115.0,300.4,245.0,573.2,Magnoliopsida; Olea europaea L.; Tracheophyta; Pinus pinaster Aiton
2004,2004-07-24,Guarda,Sabugal,Sortelha,SORTELHA,40.3324533,-7.2035116,NC,744.0,2004-07-24T15:00,35.7,14,4.1,34.4,0.0,0.0,0.0,0.0,0,1019.9,939.9,0,0,0,0,0.74,5.03,11.3,13.7,301,300,31.3,39.7,27.3,21.9,16.5,0.1,0.146,0.216,0.329,1,3600.0,810.4,709.6,100.8,890.7,810.4,1056.0,860.0,753.0,107.0,890.7,860.0,1120.6,Magnoliopsida; Tracheophyta; Olea europaea L.; Pinales; Quercus suber L.; Pinus pinaster Aiton; Vitis vinifera L.; 
2004,2004-07-20,Guarda,Sabugal,Sabugal,SABUGAL,40.3518321,-7.0896479,NC,752.0,2004-07-20T20:00,24.0,47,11.9,23.3,0.0,0.0,0.0,0.0,0,1012.8,929.6,2,0,1,6,0.08,1.58,8.7,17.5,277,279,24.5,27.5,25.6,21.7,16.3,0.089,0.156,0.235,0.341,0,934.79,0.0,0.0,0.0,0.0,0.0,0.0,30.0,15.0,15.0,136.0,30.0,87.6,Tracheophyta; Magnoliopsida
2004,2004-07-25,Guarda,Guarda,Gagos,GAGOS,40.5701704,-7.112978078819326,NC,812.0,2004-07-25T13:00,32.3,22,7.9,32.1,0.0,0.0,0.0,0.0,0,1018.9,931.2,0,0,0,0,0.79,3.78,13.1,16.0,351,352,33.5,36.0,26.0,21.2,15.5,0.136,0.152,0.179,0.294,1,3600.0,956.9,845.1,111.8,910.0,956.9,1231.3,959.0,847.0,112.0,910.0,959.0,1234.0,Tracheophyta; Magnoliopsida; Olea europaea L.
2004,2004-09-21,Guarda,Figueira de Castelo Rodrigo,Vilar de Amargo,VILAR DE AMARGO,40.9434189,-7.0126752,NC,617.0,2004-09-21T19:00,24.4,32,6.5,22.5,0.0,0.0,0.0,0.0,0,1021.8,952.4,0,0,0,0,0.09,2.09,6.9,13.6,6,22,15.5,24.2,22.2,19.9,19.3,0.151,0.178,0.205,0.304,0,0.0,0.0,0.0,0.0,0.0,0.0,0.0,7.0,3.0,4.0,41.6,7.0,38.8,Magnoliopsida; Tracheophyta
2004,2004-07-27,Guarda,Trancoso,Freches,FRECHES,40.75279605,-7.367805579111649,NC,805.0,2004-07-27T14:00,30.4,25,7.9,30.8,0.0,0.0,0.0,0.0,0,1014.5,927.4,0,0,0,0,0.73,3.28,9.6,11.8,290,290,30.2,36.1,25.8,21.2,15.7,0.125,0.135,0.181,0.309,1,3600.0,914.1,807.2,106.9,916.1,914.1,1168.6,941.0,831.0,110.0,916.1,941.0,1203.0,Pinus pinaster Aiton; Magnoliopsida; Olea europaea L.; Quercus L.; Tracheophyta; Vitis vinifera L.; Castanea sativa Mill.; Pinales; Quercus suber L.; Acacia Mill.; 
2004,2004-09-22,Guarda,Vila Nova de Foz Côa,Almendra,ALMENDRA,41.03494475,-7.0031384,NC,142.0,2004-09-22T17:00,31.1,23,7.5,29.1,0.0,0.0,0.0,0.0,0,1021.1,1005.0,0,0,0,0,0.29,3.47,9.2,13.2,64,68,26.6,31.9,24.8,23.0,22.3,0.103,0.169,0.209,0.309,1,3600.0,231.6,182.5,49.2,700.9,231.6,353.7,311.0,245.0,66.0,700.9,311.0,474.9,Vitis vinifera L.; Tracheophyta; Magnoliopsida
2004,2004-09-22,Guarda,Vila Nova de Foz Côa,Freixo de Numão,FREIXO DE NUMÃO,41.0725604,-7.192423732445009,NC,677.0,2004-09-22T20:00,23.0,34,6.4,20.7,0.0,0.0,0.0,0.0,0,1022.2,946.0,3,0,0,9,0.09,1.85,9.2,21.1,45,53,19.4,23.6,22.8,20.4,19.3,0.106,0.15,0.165,0.283,0,0.0,0.0,0.0,0.0,0.0,0.0,0.0,0.0,0.0,0.0,0.0,0.0,0.0,Olea europaea L.; Magnoliopsida; Tracheophyta; Pinales; Vitis vinifera L.
2004,2004-08-03,Guarda,Fornos de Algodres,Muxagata,MUXAGATA,40.6583381,-7.4659687,NC,418.0,2004-08-03T12:00,24.8,61,16.7,26.4,0.0,0.0,0.0,0.0,3,1014.5,967.2,100,83,31,68,0.49,1.22,11.9,15.9,268,267,36.7,32.0,26.7,24.9,19.1,0.076,0.148,0.226,0.33,1,3600.0,732.5,518.1,214.4,569.8,732.5,1207.9,714.0,505.0,209.0,569.8,714.0,1177.4,Olea europaea L.; Magnoliopsida; Quercus L.; Pinus pinaster Aiton; Tracheophyta; 
2004,2004-07-28,Guarda,Vila Nova de Foz Côa,Santo Amaro,SANTO AMARO,41.1032019,-7.1680797,NC,466.0,2004-07-28T22:00,21.6,65,14.9,22.1,0.0,0.0,0.0,0.0,0,1016.2,963.0,0,0,0,0,0.03,0.89,7.6,16.2,275,283,23.8,24.8,28.0,24.1,18.1,0.076,0.163,0.226,0.322,0,0.0,0.0,0.0,0.0,0.0,0.0,0.0,0.0,0.0,0.0,0.0,0.0,0.0,Magnoliopsida; Olea europaea L.; Tracheophyta
2004,2004-07-25,Guarda,Sabugal,Águas Belas,Espinhal,40.3765515,-7.1444637,NC,826.0,2004-07-25T15:00,34.3,17,5.6,32.5,0.0,0.0,0.0,0.0,0,1017.5,929.0,0,0,0,0,0.77,4.5,15.8,20.2,325,325,40.0,39.2,27.6,22.1,16.4,0.087,0.153,0.23,0.338,1,3600.0,808.4,708.6,99.9,891.4,808.4,1053.9,858.0,752.0,106.0,891.4,858.0,1118.5,Magnoliopsida; Tracheophyta
2004,2004-06-09,Guarda,Figueira de Castelo Rodrigo,Escalhão,Barca D´Alva,41.02693125,-6.937105391148625,NC,132.0,2004-06-09T22:00,24.7,73,19.5,27.4,0.0,0.0,0.0,0.0,0,1020.7,1005.4,5,0,8,0,0.02,0.84,6.5,9.7,267,272,13.7,24.8,25.7,20.4,14.1,0.202,0.236,0.272,0.334,0,0.0,0.0,0.0,0.0,0.0,0.0,0.0,0.0,0.0,0.0,0.0,0.0,0.0,Olea europaea L.; Magnoliopsida; Tracheophyta
2004,2004-07-26,Guarda,Almeida,Nave de Haver,Poço Velho,40.7255442,-6.907421,NC,761.0,2004-07-26T14:00,30.4,20,5.2,30.3,0.0,0.0,0.0,0.0,0,1016.1,933.4,0,0,0,0,0.73,3.47,9.3,11.4,347,347,25.6,33.8,25.5,21.2,15.9,0.143,0.176,0.236,0.326,1,3600.0,919.3,811.6,107.8,921.3,919.3,1168.1,947.0,836.0,111.0,921.3,947.0,1203.3,Tracheophyta; Olea europaea L.
2004,2004-07-31,Guarda,Vila Nova de Foz Côa,Seixas,Seixas do Douro,41.1126511,-7.2505182,NC,420.0,2004-07-31T13:00,34.6,27,13.0,36.5,0.0,0.0,0.0,0.0,0,1014.4,968.4,8,0,1,26,0.72,3.99,7.2,9.4,183,182,24.8,41.4,28.4,24.6,18.7,0.076,0.163,0.225,0.322,1,3600.0,884.1,729.4,154.7,796.1,884.1,1216.4,886.0,731.0,155.0,796.1,886.0,1219.0,Magnoliopsida; Olea europaea L.; Vitis vinifera L.; Tracheophyta
2004,2004-07-27,Guarda,Seia,Sabugueiro,SABUGUEIRO,40.376981,-7.6420104,NC,1560.0,2004-07-27T18:00,22.4,27,2.3,18.6,0.0,0.0,0.0,0.0,0,1014.4,849.6,0,0,0,0,0.31,1.99,14.1,18.6,283,285,37.1,27.4,22.0,16.9,11.7,0.118,0.141,0.209,0.337,1,3600.0,290.0,232.1,57.8,711.3,290.0,432.8,371.0,297.0,74.0,711.3,371.0,553.8,Magnoliopsida; Tracheophyta
2004,2004-09-23,Guarda,Sabugal,Aldeia de Santo António,SENHORA DA GRAÇA,40.3384172,-7.12641454771609,NC,802.0,2004-09-23T17:00,28.6,16,0.0,25.4,0.0,0.0,0.0,0.0,1,1016.6,929.1,24,0,9,61,0.23,3.31,7.4,10.0,14,13,31.3,29.2,23.6,20.7,19.3,0.101,0.152,0.188,0.303,1,3600.0,164.5,74.8,89.6,290.2,164.5,350.5,222.0,101.0,121.0,290.2,222.0,473.1,Pinus pinaster Aiton; Magnoliopsida; Pinales; Tracheophyta
2004,2004-07-26,Guarda,Seia,Sabugueiro,SABUGUEIRO,40.376981,-7.6420104,NC,1560.0,2004-07-26T14:00,25.4,19,0.1,24.7,0.0,0.0,0.0,0.0,0,1016.3,852.7,0,0,0,0,0.67,2.64,7.4,9.0,331,331,26.3,30.9,21.1,16.7,11.5,0.12,0.142,0.211,0.337,1,3600.0,922.4,817.4,105.0,922.5,922.4,1175.0,949.0,841.0,108.0,922.5,949.0,1208.8,Magnoliopsida; Tracheophyta
2004,2004-08-03,Guarda,Gouveia,Rio Torto,Parrô \ RIB,40.4940078,-7.5917814,NC,674.0,2004-08-03T15:00,19.5,77,15.5,19.4,1.1,1.1,0.0,0.0,55,1015.4,939.1,64,49,18,29,0.28,0.51,13.3,17.0,267,266,48.6,28.4,25.7,23.4,17.6,0.1,0.149,0.224,0.327,1,3600.0,430.2,161.0,269.2,206.0,430.2,1038.3,457.0,171.0,286.0,206.0,457.0,1102.9,Magnoliopsida; Vitis vinifera L.; Olea europaea L.; Tracheophyta; Pinus pinaster Aiton; Pinus pinea L.; Pinales; 
2004,2004-07-28,Guarda,Vila Nova de Foz Côa,Vila Nova de Foz Côa,FOZ CÔA,41.107794,-7.160498413971005,NC,407.0,2004-07-28T13:00,28.9,30,9.7,29.5,0.0,0.0,0.0,0.0,0,1013.2,967.8,0,0,0,0,0.71,2.79,11.2,14.2,285,286,31.3,36.8,27.4,24.4,18.4,0.076,0.164,0.227,0.322,1,3600.0,944.0,830.2,113.8,901.2,944.0,1222.1,946.0,832.0,114.0,901.2,946.0,1224.7,Magnoliopsida; Olea europaea L.; Tracheophyta; Vitis vinifera L.
2004,2004-07-25,Guarda,Fornos de Algodres,Sobral Pichorro,SOBRAL PICHORRO,40.69163715,-7.455586951486261,NC,442.0,2004-07-25T13:00,34.7,22,10.2,36.4,0.0,0.0,0.0,0.0,0,1019.0,970.4,0,0,0,0,0.76,4.3,6.0,7.2,343,342,22.3,42.1,28.4,23.7,18.2,0.072,0.153,0.232,0.328,1,3600.0,950.6,837.7,112.8,901.9,950.6,1231.4,952.0,839.0,113.0,901.9,952.0,1233.3,Quercus L.; Pinus pinaster Aiton; Olea europaea L.; Magnoliopsida; Tracheophyta; 
2004,2004-06-04,Guarda,Seia,Travancinha,TRAVANCINHA,40.4245314,-7.8227069,NC,395.0,2004-06-04T14:00,28.9,29,9.0,30.7,0.0,0.0,0.0,0.0,0,1017.1,972.9,0,0,0,0,0.68,2.85,3.8,5.1,49,51,20.9,30.8,21.3,17.1,12.3,0.144,0.261,0.307,0.368,1,3600.0,924.5,814.9,109.6,907.7,924.5,1193.0,953.0,840.0,113.0,907.7,953.0,1229.8,Pinus pinea L.; Quercus L.; Magnoliopsida; Eucalyptus L'Hér.; Olea europaea L.; Tracheophyta; Pinus pinaster Aiton
2004,2004-06-10,Guarda,Sabugal,Alfaiates,ALFAIATES,40.381928650000006,-6.929580295503458,NC,799.0,2004-06-10T15:00,28.5,35,11.4,28.8,0.0,0.0,0.0,0.0,0,1019.7,932.2,19,1,30,0,0.59,2.54,9.9,12.5,251,252,24.1,30.5,22.5,17.5,11.6,0.143,0.236,0.295,0.359,1,3600.0,727.7,599.7,128.0,745.1,727.7,1067.9,773.0,637.0,136.0,745.1,773.0,1134.4,Magnoliopsida; Tracheophyta; Quercus L.; Pinus pinaster Aiton; Quercus suber L.; 
2004,2004-07-27,Guarda,Trancoso,Trancoso (são Pedro),Falachos,40.779067,-7.330360171894824,NC,758.0,2004-07-27T20:00,24.4,38,9.3,22.3,0.0,0.0,0.0,0.0,0,1014.2,930.3,0,0,0,0,0.13,1.88,13.0,23.4,298,299,29.5,28.9,27.7,21.9,16.1,0.119,0.134,0.178,0.304,0,672.63,0.0,0.0,0.0,0.0,0.0,0.0,26.0,13.0,13.0,123.5,26.0,81.1,Magnoliopsida; Tracheophyta; Acacia Mill.
2004,2004-07-31,Guarda,Vila Nova de Foz Côa,Murça,Doida \ REG,41.1002167,-7.2323463,NC,281.0,2004-07-31T18:00,32.8,30,12.8,32.3,0.0,0.0,0.0,0.0,1,1013.5,982.3,27,0,11,69,0.28,3.5,9.5,15.3,323,326,24.5,35.3,30.1,24.9,19.1,0.11,0.164,0.225,0.321,1,3600.0,184.9,114.5,70.4,368.0,184.9,413.2,239.0,148.0,91.0,368.0,239.0,534.0,Magnoliopsida; Olea europaea L.; Tracheophyta; Vitis vinifera L.; Quercus suber L.
2004,2004-07-26,Guarda,Seia,Sabugueiro,SABUGUEIRO,40.376981,-7.6420104,NC,1560.0,2004-07-26T19:00,21.6,37,6.2,18.9,0.0,0.0,0.0,0.0,0,1015.5,850.1,0,0,0,0,0.17,1.63,11.8,16.6,308,309,33.8,26.1,22.2,16.7,11.6,0.119,0.142,0.211,0.337,1,3600.0,106.8,75.6,31.2,536.5,106.8,186.8,178.0,126.0,52.0,536.5,178.0,311.4,Magnoliopsida; Tracheophyta
2004,2004-07-26,Guarda,Trancoso,Trancoso (santa Maria),TRANCOSO,40.77937505,-7.347509229173514,NC,859.0,2004-07-26T17:00,29.8,22,5.7,26.8,0.0,0.0,0.0,0.0,0,1014.7,921.8,0,0,0,0,0.5,3.29,14.0,17.9,342,341,31.0,35.1,26.8,21.0,15.3,0.12,0.134,0.179,0.304,1,3600.0,485.7,410.8,74.9,811.2,485.7,671.5,564.0,477.0,87.0,811.2,564.0,779.7,Tracheophyta; Vitis vinifera L.; Magnoliopsida
2004,2004-07-30,Guarda,Trancoso,Trancoso (são Pedro),Quinta das Ribeirinhas,40.779067,-7.330360171894824,NC,758.0,2004-07-30T17:00,30.7,30,11.0,29.9,0.0,0.0,0.0,0.0,0,1013.7,931.5,4,0,0,13,0.43,3.1,7.2,9.2,207,206,25.2,35.5,26.4,22.1,16.4,0.118,0.134,0.175,0.302,1,3600.0,466.1,388.8,77.2,781.6,466.1,660.3,543.0,453.0,90.0,781.6,543.0,769.3,Magnoliopsida; Tracheophyta; Acacia Mill.
2004,2004-07-31,Guarda,Fornos de Algodres,Vila Soeiro do Chão,VILA SOEIRO DO CHÃO,40.60093365,-7.481368924788184,NC,446.0,2004-07-31T19:00,29.0,44,15.5,29.3,0.0,0.0,0.0,0.0,0,1015.0,965.3,11,0,14,7,0.18,2.24,10.2,16.0,302,306,29.2,34.5,29.6,24.4,18.6,0.074,0.149,0.228,0.331,1,3600.0,84.8,54.8,30.0,426.2,84.8,170.7,147.0,95.0,52.0,426.2,147.0,295.9,Tracheophyta; Olea europaea L.; Quercus L.; Magnoliopsida; Pinus pinaster Aiton; Vitis vinifera L.; Eucalyptus L'Hér.; Acacia Mill.; 
2004,2004-08-01,Guarda,Vila Nova de Foz Côa,Custóias,CUSTÓIAS,41.09987945,-7.320712711456024,NC,592.0,2004-08-01T01:00,20.7,77,16.5,22.0,0.0,0.0,0.0,0.0,0,1014.9,947.8,1,0,1,0,0.01,0.57,6.4,12.1,254,280,9.7,23.0,26.9,22.7,17.1,0.125,0.157,0.209,0.32,0,0.0,0.0,0.0,0.0,0.0,0.0,0.0,0.0,0.0,0.0,0.0,0.0,0.0,Magnoliopsida; Vitis vinifera L.; Tracheophyta; Pinales; Olea europaea L.
2004,2004-07-29,Guarda,Guarda,Vale de Amoreira,cruzeiro,40.4151827,-7.4418151,Desconhecida,555.0,2004-07-29T15:00,29.7,30,10.5,29.9,0.0,0.0,0.0,0.0,0,1015.5,954.2,9,0,0,31,0.65,2.89,10.7,13.2,312,315,30.6,35.8,26.1,23.4,17.8,0.097,0.161,0.228,0.342,1,3600.0,789.4,687.6,101.7,870.4,789.4,1048.3,838.0,730.0,108.0,870.4,838.0,1112.9,Magnoliopsida; Pinus pinaster Aiton; Olea europaea L.; Tracheophyta
2004,2004-08-04,Guarda,Mêda,Ranhados,RANHADOS,40.99353925,-7.331244108075198,NC,813.0,2004-08-04T11:00,20.7,50,10.0,20.5,0.0,0.0,0.0,0.0,0,1017.0,926.1,6,7,0,0,0.47,1.21,9.7,11.7,301,304,28.8,25.8,22.4,22.1,16.5,0.155,0.134,0.173,0.301,1,3600.0,793.5,622.3,171.2,730.5,793.5,1132.1,751.0,589.0,162.0,730.5,751.0,1071.4,Olea europaea L.; Magnoliopsida; Castanea sativa Mill.; Tracheophyta; Pinus pinaster Aiton; Quercus L.; Vitis vinifera L.; Pinales; 
2004,2004-08-07,Guarda,Sabugal,Pousafoles do Bispo,POUSAFOLES DO BISPO,40.4121441,-7.1785623,NC,793.0,2004-08-07T15:00,31.1,19,4.8,29.0,0.0,0.0,0.0,0.0,0,1008.5,923.3,10,0,0,35,0.71,3.66,16.3,21.0,248,248,37.4,38.2,26.5,23.3,18.1,0.089,0.144,0.209,0.326,1,3600.0,785.1,689.3,95.8,896.3,785.1,1022.9,836.0,734.0,102.0,896.3,836.0,1089.3,Tracheophyta; Magnoliopsida; Olea europaea L.; Quercus L.; Pinus pinaster Aiton; Pinales; 
