year,date,district,municipality,parish,local,latitude,longitude,cause,elevation,hourly.time,hourly.temperature_2m,hourly.relative_humidity_2m,hourly.dew_point_2m,hourly.apparent_temperature,hourly.precipitation,hourly.rain,hourly.snowfall,hourly.snow_depth,hourly.weather_code,hourly.pressure_msl,hourly.surface_pressure,hourly.cloud_cover,hourly.cloud_cover_low,hourly.cloud_cover_mid,hourly.cloud_cover_high,hourly.et0_fao_evapotranspiration,hourly.vapour_pressure_deficit,hourly.wind_speed_10m,hourly.wind_speed_100m,hourly.wind_direction_10m,hourly.wind_direction_100m,hourly.wind_gusts_10m,hourly.soil_temperature_0_to_7cm,hourly.soil_temperature_7_to_28cm,hourly.soil_temperature_28_to_100cm,hourly.soil_temperature_100_to_255cm,hourly.soil_moisture_0_to_7cm,hourly.soil_moisture_7_to_28cm,hourly.soil_moisture_28_to_100cm,hourly.soil_moisture_100_to_255cm,hourly.is_day,hourly.sunshine_duration,hourly.shortwave_radiation_instant,hourly.direct_radiation_instant,hourly.diffuse_radiation_instant,hourly.direct_normal_irradiance_instant,hourly.global_tilted_irradiance_instant,hourly.terrestrial_radiation_instant,hourly.shortwave_radiation,hourly.direct_radiation,hourly.diffuse_radiation,hourly.direct_normal_irradiance,hourly.global_tilted_irradiance,hourly.terrestrial_radiation,scientificNames
2005,2005-07-23,Porto,Baião,Campelo,ENGILDE,41.16536145,-8.037270901747142,NC,613.0,2005-07-23T15:00,24.8,44,11.6,24.3,0.0,0.0,0.0,0.0,0,1012.8,944.5,0,0,0,0,0.59,1.77,17.3,22.5,282,283,43.6,32.1,24.4,20.8,15.2,0.111,0.139,0.201,0.318,1,3600.0,810.7,709.6,101.1,885.4,810.7,1062.1,858.0,751.0,107.0,885.4,858.0,1124.1,Tracheophyta; Pinus pinaster Aiton; Magnoliopsida; Eucalyptus L'Hér.; Pinales; Quercus L.; Vitis vinifera L.; 
2005,2005-07-20,Porto,Amarante,Jazente,Pousadela,41.238678,-8.0565797,NC,308.0,2005-07-20T12:00,32.1,30,12.4,33.8,0.0,0.0,0.0,0.0,0,1020.6,986.1,0,0,0,0,0.73,3.35,9.2,11.8,129,128,26.6,33.4,24.0,21.2,16.2,0.099,0.152,0.234,0.319,1,3600.0,948.9,838.1,110.8,905.4,948.9,1226.2,925.0,817.0,108.0,905.4,925.0,1195.3,Magnoliopsida; Eucalyptus L'Hér.; Vitis vinifera L.; Tracheophyta; ; Pinus pinaster Aiton
2005,2005-07-24,Porto,Santo Tirso,Palmeira,A3 Porto- Braga,41.3611429,-8.49831545735614,NC,73.0,2005-07-24T18:00,21.9,70,16.2,22.5,0.0,0.0,0.0,0.0,2,1013.4,1004.9,79,86,2,0,0.19,0.78,10.2,13.0,288,289,25.6,25.7,23.5,22.0,17.6,0.132,0.149,0.221,0.328,1,3600.0,225.3,129.7,95.5,373.3,225.3,460.6,283.0,163.0,120.0,373.3,283.0,578.7,Magnoliopsida; Vitis vinifera L.; Tracheophyta; Pinus pinaster Aiton
2005,2005-07-17,Porto,Santo Tirso,Burgães,Santa Cruz,41.34278375,-8.477204251854646,NC,77.0,2005-07-17T10:00,20.8,70,15.2,21.0,0.0,0.0,0.0,0.0,3,1019.7,1010.6,100,99,56,0,0.29,0.73,10.3,12.7,295,295,24.5,23.5,22.2,21.7,17.0,0.103,0.158,0.235,0.315,1,3600.0,514.0,285.9,228.1,369.3,514.0,1025.0,471.0,262.0,209.0,369.3,471.0,939.4,Tracheophyta; Magnoliopsida
2005,2005-07-20,Porto,Santo Tirso,Rebordões,L.Lage Milho,41.3524388,-8.4295071,NC,114.0,2005-07-20T14:00,33.4,30,13.3,35.2,0.0,0.0,0.0,0.0,0,1019.7,1006.8,0,0,0,0,0.76,3.62,10.6,12.5,260,258,19.4,35.7,25.0,21.2,16.8,0.102,0.165,0.248,0.339,1,3600.0,913.9,807.7,106.2,904.5,913.9,1182.7,938.0,829.0,109.0,904.5,938.0,1214.0,Tracheophyta; Pinus pinaster Aiton; Eucalyptus L'Hér.; Magnoliopsida; Vitis vinifera L.
2005,2005-07-23,Porto,Penafiel,Duas Igrejas,CASTANHEIRA CIMA,41.1929737,-8.2709347,NC,348.0,2005-07-23T16:00,24.1,49,12.6,23.7,0.0,0.0,0.0,0.0,0,1013.4,973.8,0,0,0,0,0.49,1.54,14.8,19.3,293,294,38.2,31.5,24.5,21.2,16.1,0.091,0.152,0.237,0.335,1,3600.0,664.5,570.6,93.9,843.1,664.5,896.9,729.0,626.0,103.0,843.1,729.0,984.0,Eucalyptus L'Hér.; Tracheophyta; Magnoliopsida
2005,2005-07-17,Porto,Penafiel,Abragão,Tapada,41.1583743,-8.2247687,NC,203.0,2005-07-17T12:00,21.9,62,14.4,21.5,0.1,0.1,0.0,0.0,51,1019.3,995.7,100,100,45,0,0.35,0.99,12.5,15.9,282,283,32.4,25.2,22.5,21.6,16.3,0.109,0.157,0.241,0.326,1,3600.0,533.4,231.8,301.6,249.4,533.4,1230.5,520.0,226.0,294.0,249.4,520.0,1199.6,Eucalyptus L'Hér.; Tracheophyta; Magnoliopsida
2005,2005-07-19,Porto,Amarante,Candemil,Revilhães,41.2473904,-7.9681332,NC,430.0,2005-07-19T19:00,30.0,34,12.3,29.9,0.0,0.0,0.0,0.0,0,1019.2,971.2,0,0,0,0,0.17,2.81,5.6,7.8,310,326,14.4,31.4,24.7,21.0,15.8,0.099,0.149,0.23,0.312,1,3600.0,129.5,92.8,36.7,557.4,129.5,220.5,201.0,144.0,57.0,557.4,201.0,342.2,Magnoliopsida; Quercus L.; Tracheophyta; Eucalyptus L'Hér.; Pinus pinaster Aiton; 
2005,2005-07-24,Porto,Penafiel,Pinheiro,GILBAIA,41.1193264,-8.3031666,NC,204.0,2005-07-24T09:00,19.5,85,16.8,20.2,0.0,0.0,0.0,0.0,3,1013.3,989.5,100,100,33,24,0.08,0.35,11.9,15.6,205,206,25.6,21.2,22.9,22.0,17.1,0.102,0.148,0.229,0.321,1,0.0,89.4,0.0,89.4,0.0,89.4,834.6,78.0,0.0,78.0,0.0,78.0,728.3,Tracheophyta; Vitis vinifera L.; Eucalyptus L'Hér.
2005,2005-07-19,Porto,Felgueiras,Macieira da Lixa,Pinhal Basto,41.3496108,-8.1492033,NC,406.0,2005-07-19T23:00,23.1,56,13.8,23.6,0.0,0.0,0.0,0.0,0,1020.2,973.7,0,0,0,0,0.02,1.25,4.7,4.7,113,58,11.9,22.7,24.2,20.6,15.5,0.096,0.155,0.242,0.335,0,0.0,0.0,0.0,0.0,0.0,0.0,0.0,0.0,0.0,0.0,0.0,0.0,0.0,Eucalyptus L'Hér.; Tracheophyta; Pinus pinaster Aiton; Magnoliopsida; Vitis vinifera L.
2005,2005-07-19,Porto,Póvoa de Varzim,Estela,R. Estela,41.40198615,-8.754111938004414,NC,21.0,2005-07-19T23:00,24.2,66,17.4,25.1,0.0,0.0,0.0,0.0,0,1019.2,1016.7,0,0,0,0,0.06,1.03,12.6,19.7,27,38,19.4,24.8,25.4,22.0,17.6,0.093,0.153,0.23,0.305,0,0.0,0.0,0.0,0.0,0.0,0.0,0.0,0.0,0.0,0.0,0.0,0.0,0.0,Tracheophyta; Magnoliopsida
2005,2005-07-17,Porto,Amarante,Freixo de Baixo,L.Vila Nova,41.2978828,-8.1112885,NC,271.0,2005-07-17T08:00,17.2,87,15.0,17.6,0.0,0.0,0.0,0.0,3,1018.9,987.0,100,99,88,0,0.09,0.26,8.6,11.5,268,270,20.5,19.6,21.9,21.2,15.8,0.106,0.157,0.241,0.326,1,105.4,168.9,30.6,138.3,63.5,168.9,638.0,138.0,25.0,113.0,63.5,138.0,521.2,Pinus pinaster Aiton; Tracheophyta; Eucalyptus L'Hér.; Magnoliopsida; Vitis vinifera L.
2005,2005-07-23,Porto,Penafiel,Duas Igrejas,Castanheira de Baixo,41.1925028,-8.2731688,NC,348.0,2005-07-23T20:00,18.6,75,14.1,18.5,0.0,0.0,0.0,0.0,2,1013.5,973.2,73,81,0,0,0.04,0.54,10.0,15.8,291,294,29.9,24.4,24.7,21.2,16.1,0.091,0.151,0.237,0.335,0,1353.37,0.0,0.0,0.0,0.0,0.0,0.0,38.0,18.0,20.0,155.5,38.0,94.7,Eucalyptus L'Hér.; Tracheophyta; Magnoliopsida
2005,2005-07-23,Porto,Maia,Folgosa,Rua da Pena,41.2819072,-8.520421,NC,230.0,2005-07-23T18:00,21.7,65,14.8,20.9,0.0,0.0,0.0,0.0,2,1013.4,986.8,59,66,0,0,0.25,0.91,16.2,21.0,302,305,33.5,27.7,24.3,21.4,16.7,0.119,0.14,0.205,0.316,1,3600.0,301.2,236.6,64.5,677.6,301.2,462.8,378.0,297.0,81.0,677.6,378.0,580.9,Magnoliopsida; Eucalyptus L'Hér.; Tracheophyta; Pinus pinaster Aiton; 
2005,2005-07-24,Porto,Penafiel,Perozelo,QUINTA SOUTELO,41.1487459,-8.2645557,NC,297.0,2005-07-24T08:00,18.3,85,15.8,18.9,0.1,0.1,0.0,0.0,51,1013.0,978.5,100,100,19,0,0.06,0.31,9.6,13.7,200,198,22.3,20.1,22.4,21.4,16.5,0.102,0.148,0.229,0.321,1,0.0,60.6,1.2,59.4,2.6,60.6,619.0,49.0,1.0,48.0,2.6,49.0,500.6,Tracheophyta; Eucalyptus L'Hér.; Pinus pinaster Aiton; Magnoliopsida
2005,2005-07-24,Porto,Amarante,Real,RAMALHÃO,41.2472875,-8.172050257445942,NC,179.0,2005-07-24T21:00,18.8,84,16.0,20.2,0.0,0.0,0.0,0.0,1,1014.0,993.0,47,52,0,0,0.0,0.35,4.5,6.7,284,286,15.5,21.9,23.3,21.9,17.1,0.114,0.15,0.231,0.322,0,0.0,0.0,0.0,0.0,0.0,0.0,0.0,0.0,0.0,0.0,0.0,0.0,0.0,Tracheophyta; Acacia Mill.; Magnoliopsida; Pinales; Eucalyptus L'Hér.; Vitis vinifera L.
2005,2005-07-26,Porto,Paredes,Parada de Todeia,Lg. Redondo,41.1690637,-8.3770562,NC,191.0,2005-07-26T17:00,24.0,59,15.5,23.2,0.0,0.0,0.0,0.0,2,1008.6,986.7,64,33,51,11,0.3,1.22,18.4,24.8,219,220,37.4,27.3,23.5,21.7,17.2,0.14,0.136,0.192,0.313,1,3600.0,335.8,206.0,129.8,398.0,335.8,686.4,388.0,238.0,150.0,398.0,388.0,793.0,Magnoliopsida; Pinus pinaster Aiton; Eucalyptus L'Hér.; Tracheophyta; Vitis vinifera L.
2005,2005-07-20,Porto,Penafiel,Recezinhos (são Mamede),Seixo,41.2442852,-8.2054943,NC,314.0,2005-07-20T15:00,34.0,27,12.1,34.8,0.0,0.0,0.0,0.0,0,1019.5,984.6,0,0,0,0,0.72,3.9,10.8,13.0,274,273,23.8,36.3,24.7,20.7,15.9,0.106,0.153,0.236,0.324,1,3600.0,819.1,716.9,102.1,888.3,819.1,1069.0,866.0,758.0,108.0,888.3,866.0,1130.3,Eucalyptus L'Hér.; Magnoliopsida; Tracheophyta; Vitis vinifera L.
2005,2005-07-29,Porto,Vila Nova de Gaia,Pedroso,R. MONTE PINHÃO,41.081229,-8.5699745,NC,162.0,2005-07-29T13:00,21.7,65,14.7,22.7,0.0,0.0,0.0,0.0,2,1020.5,1001.6,52,43,22,0,0.49,0.92,14.2,17.9,294,295,32.8,26.1,21.1,21.2,17.7,0.216,0.142,0.202,0.308,1,3600.0,828.3,684.3,144.1,742.4,828.3,1223.0,828.0,684.0,144.0,742.4,828.0,1222.5,Tracheophyta; Eucalyptus L'Hér.; Magnoliopsida
2005,2005-07-17,Porto,Amarante,Salvador do Monte,L.Picoto,41.2397812,-8.0910574,NC,339.0,2005-07-17T09:00,17.9,82,14.7,18.3,0.0,0.0,0.0,0.0,3,1018.7,979.1,100,96,76,0,0.14,0.38,8.0,10.1,275,276,20.2,20.6,22.1,21.3,15.7,0.099,0.155,0.239,0.321,1,1334.52,249.7,67.3,182.4,104.5,249.7,852.3,219.0,59.0,160.0,104.5,219.0,747.6,Eucalyptus L'Hér.; Magnoliopsida; Pinus pinaster Aiton; Vitis vinifera L.; Tracheophyta; 
2005,2005-07-20,Porto,Paços de Ferreira,Ferreira,Baica,41.2663712,-8.3445627,NC,331.0,2005-07-20T15:00,33.3,27,12.0,34.1,0.0,0.0,0.0,0.0,0,1019.5,982.7,0,0,0,0,0.71,3.71,10.8,13.0,274,273,23.8,36.7,24.8,20.8,15.9,0.094,0.155,0.242,0.336,1,3600.0,819.3,717.2,102.2,887.8,819.3,1070.0,866.0,758.0,108.0,887.8,866.0,1130.9,Eucalyptus L'Hér.; Tracheophyta; Magnoliopsida; Quercus L.; Pinus pinaster Aiton; 
2005,2005-07-23,Porto,Paredes,Lordelo,Corregais,41.2346057,-8.4146751,NC,202.0,2005-07-23T22:00,18.0,87,15.8,19.0,0.0,0.0,0.0,0.0,1,1014.4,990.7,28,31,0,0,0.0,0.26,6.9,11.8,279,282,20.2,22.3,24.7,21.8,16.9,0.123,0.136,0.193,0.314,0,0.0,0.0,0.0,0.0,0.0,0.0,0.0,0.0,0.0,0.0,0.0,0.0,0.0,Magnoliopsida; Pinus pinaster Aiton; Eucalyptus L'Hér.; Tracheophyta; Vitis vinifera L.
2005,2005-07-24,Porto,Paredes,Gandra,APEADEIRO,41.1631962,-8.4398924,NC,141.0,2005-07-24T10:00,20.5,85,17.9,21.7,0.1,0.1,0.0,0.0,51,1013.2,996.7,100,100,76,61,0.1,0.37,11.3,14.4,217,217,26.3,22.2,23.4,22.2,17.4,0.125,0.136,0.194,0.314,1,0.0,124.7,0.0,124.7,0.0,124.7,1013.5,114.0,0.0,114.0,0.0,114.0,926.6,Magnoliopsida; Pinus pinaster Aiton; Eucalyptus L'Hér.; Tracheophyta; Vitis vinifera L.; Pinales
2005,2005-07-17,Porto,Valongo,Sobrado,VALDEIRAO,41.2115102,-8.4652622,NC,127.0,2005-07-17T16:00,22.3,62,14.5,21.6,0.0,0.0,0.0,0.0,1,1019.4,1004.6,50,34,32,0,0.37,1.03,15.9,20.3,295,297,33.8,28.0,23.8,22.2,17.1,0.109,0.143,0.211,0.303,1,3600.0,526.5,361.0,165.4,524.3,526.5,911.8,576.0,395.0,181.0,524.3,576.0,997.6,Tracheophyta; Eucalyptus L'Hér.; Magnoliopsida; Pinus pinaster Aiton
2005,2005-02-19,Porto,Vila do Conde,Vairão,CRASTO,41.3249329,-8.6739363,NC,102.0,2005-02-19T03:00,3.4,75,-0.6,-0.1,0.0,0.0,0.0,0.0,0,1024.2,1011.4,0,0,0,0,0.01,0.2,8.8,13.8,78,97,18.4,4.1,7.5,8.7,10.9,0.225,0.271,0.321,0.33,0,0.0,0.0,0.0,0.0,0.0,0.0,0.0,0.0,0.0,0.0,0.0,0.0,0.0,Eucalyptus L'Hér.; Tracheophyta; Magnoliopsida
2005,2005-07-17,Porto,Amarante,Vila Chã Do Marão,LG.SOUTO,41.2869369,-8.0293038,NC,331.0,2005-07-17T18:00,20.2,67,13.8,19.7,0.0,0.0,0.0,0.0,1,1018.8,980.4,43,32,24,0,0.2,0.78,12.1,16.3,293,295,34.6,25.2,23.0,21.3,15.8,0.105,0.154,0.238,0.321,1,3600.0,244.9,161.7,83.2,455.2,244.9,470.2,306.0,202.0,104.0,455.2,306.0,587.5,Eucalyptus L'Hér.; Magnoliopsida; Vitis vinifera L.; Pinus pinaster Aiton; Tracheophyta; 
2005,2005-07-20,Porto,Baião,Campelo,Lug. Freixieiro,41.16536145,-8.037270901747142,NC,613.0,2005-07-20T05:00,17.3,56,8.6,15.5,0.0,0.0,0.0,0.0,0,1022.0,951.4,0,0,0,0,0.04,0.86,9.5,22.6,65,68,26.6,18.2,22.8,20.3,14.9,0.113,0.14,0.207,0.32,0,0.0,0.0,0.0,0.0,0.0,0.0,0.0,0.0,0.0,0.0,0.0,0.0,0.0,Tracheophyta; Pinus pinaster Aiton; Magnoliopsida; Eucalyptus L'Hér.; Pinales; Quercus L.; Vitis vinifera L.; 
2005,2005-07-26,Porto,Amarante,Travanca,Lg. Moinhos,41.2723342,-8.1914233,NC,208.0,2005-07-26T17:00,24.1,58,15.4,23.7,0.0,0.0,0.0,0.0,2,1008.7,984.9,70,43,47,11,0.29,1.26,15.4,20.9,213,212,37.8,27.1,23.3,21.5,17.0,0.133,0.145,0.214,0.319,1,3600.0,321.9,175.7,146.3,340.2,321.9,684.8,372.0,203.0,169.0,340.2,372.0,791.3,Tracheophyta; Magnoliopsida; Eucalyptus L'Hér.; Vitis vinifera L.; Pinus pinaster Aiton; 
2005,2005-07-20,Porto,Vila Nova de Gaia,Avintes,R. da Bela,41.0980132,-8.536709808946833,NC,74.0,2005-07-20T06:00,22.1,53,12.1,21.8,0.0,0.0,0.0,0.0,0,1019.2,1010.5,0,0,0,0,0.06,1.24,6.3,11.9,121,125,9.7,21.0,24.7,22.4,17.7,0.118,0.137,0.194,0.308,1,37.27,35.0,14.0,21.0,129.2,18.0,143.7,15.0,6.0,9.0,66.3,15.0,61.5,Magnoliopsida; Eucalyptus L'Hér.; Tracheophyta
2005,2005-02-17,Porto,Maia,Folgosa,R. Pinhal,41.2494993,-8.5400677,NC,144.0,2005-02-17T22:00,4.1,79,0.8,0.7,0.0,0.0,0.0,0.0,0,1021.4,1003.5,0,0,0,0,0.01,0.17,9.8,21.2,36,32,20.2,5.3,7.7,8.3,10.6,0.238,0.273,0.318,0.326,0,0.0,0.0,0.0,0.0,0.0,0.0,0.0,0.0,0.0,0.0,0.0,0.0,0.0,Magnoliopsida; Eucalyptus L'Hér.; Tracheophyta; Pinus pinaster Aiton; 
2005,2005-07-17,Porto,Baião,Grilo,Bouça da Moura,41.1392744,-8.0770423,NC,481.0,2005-07-17T23:00,15.4,92,14.1,15.9,0.0,0.0,0.0,0.0,0,1021.0,964.8,19,21,0,0,0.0,0.15,6.1,12.7,270,277,19.1,19.2,22.4,20.9,15.4,0.124,0.139,0.208,0.324,0,0.0,0.0,0.0,0.0,0.0,0.0,0.0,0.0,0.0,0.0,0.0,0.0,0.0,Tracheophyta; Magnoliopsida; Pinus pinaster Aiton; Castanea sativa Mill.; 
2005,2005-07-18,Porto,Baião,Gove,Gosende,41.1565523,-8.0445058,NC,659.0,2005-07-18T09:00,16.9,71,11.6,16.4,0.0,0.0,0.0,0.0,1,1021.7,945.9,45,50,0,0,0.24,0.56,7.3,9.0,290,293,21.6,20.7,20.6,20.5,14.8,0.112,0.143,0.213,0.306,1,3600.0,493.5,330.5,163.0,512.5,493.5,854.0,433.0,290.0,143.0,512.5,433.0,749.3,Tracheophyta; Magnoliopsida; Pinales; Eucalyptus L'Hér.; Vitis vinifera L.; Quercus L.; Pinus pinaster Aiton; 
2005,2005-07-25,Porto,Marco de Canaveses,Penha Longa,Concela,41.1077811,-8.160269,NC,344.0,2005-07-25T02:00,14.9,97,14.5,15.8,0.0,0.0,0.0,0.0,1,1014.2,973.8,35,39,0,1,0.0,0.05,4.1,5.2,285,286,12.6,17.7,21.9,21.3,16.5,0.111,0.148,0.227,0.325,0,0.0,0.0,0.0,0.0,0.0,0.0,0.0,0.0,0.0,0.0,0.0,0.0,0.0,Tracheophyta; Magnoliopsida; Pinus pinaster Aiton; Eucalyptus L'Hér.
2005,2005-07-25,Porto,Vila Nova de Gaia,Mafamude,QUINTA MOURILHE,41.11230175,-8.59788539633546,NC,201.0,2005-07-25T14:00,23.7,63,16.2,24.3,0.2,0.2,0.0,0.0,51,1013.9,990.8,58,42,6,55,0.48,1.09,17.8,23.3,234,235,40.3,28.3,22.7,21.7,17.2,0.118,0.14,0.201,0.3,1,3600.0,732.3,529.8,202.6,596.8,732.3,1176.8,752.0,544.0,208.0,596.8,752.0,1208.5,Magnoliopsida; Tracheophyta; Pinus pinaster Aiton; Pinus pinea L.
2005,2005-07-30,Porto,Marco de Canaveses,Soalhães,LG. MIRAS,41.1603957,-8.0979057,NC,397.0,2005-07-30T11:00,21.2,47,9.5,22.0,0.0,0.0,0.0,0.0,0,1020.2,974.5,0,0,0,0,0.51,1.34,5.8,7.7,22,28,21.6,23.9,19.2,20.2,16.5,0.197,0.151,0.225,0.316,1,3600.0,872.1,748.4,123.7,873.4,872.1,1137.2,825.0,708.0,117.0,873.4,825.0,1075.8,Magnoliopsida; Tracheophyta; Quercus L.; Eucalyptus L'Hér.; Pinus pinaster Aiton; Vitis vinifera L.; Castanea sativa Mill.; Pinales; 
2005,2005-07-20,Porto,Vila do Conde,Fajozes,Lg. Castelões,41.2948806,-8.729805776895741,NC,9.0,2005-07-20T06:00,23.1,51,12.5,21.8,0.0,0.0,0.0,0.0,0,1019.4,1018.3,0,0,0,0,0.11,1.38,14.1,28.8,105,106,24.1,21.5,24.4,22.1,17.7,0.093,0.153,0.23,0.305,1,167.9,39.7,18.7,21.0,173.4,20.3,142.8,17.0,8.0,9.0,88.7,17.0,61.1,Tracheophyta; Eucalyptus L'Hér.
2005,2005-07-20,Porto,Penafiel,Marecos,Bouça,41.19490465,-8.29713903884015,NC,253.0,2005-07-20T09:00,27.2,38,11.8,25.4,0.0,0.0,0.0,0.0,0,1021.3,992.4,0,0,0,0,0.43,2.23,16.0,22.3,99,99,38.9,25.5,23.1,21.0,16.2,0.116,0.148,0.222,0.322,1,3600.0,601.0,501.6,99.4,786.5,601.0,844.7,526.0,439.0,87.0,786.5,526.0,739.3,Tracheophyta; Magnoliopsida
2005,2005-07-31,Porto,Vila do Conde,Labruge,Lg. Bouças Novas,41.2948806,-8.729805776895741,NC,9.0,2005-07-31T12:00,25.0,48,13.2,24.6,0.0,0.0,0.0,0.0,0,1016.8,1015.8,18,0,0,60,0.6,1.65,21.2,27.1,350,355,39.6,26.8,21.4,21.6,18.5,0.166,0.151,0.22,0.301,1,3600.0,921.9,805.7,116.1,887.1,921.9,1205.7,897.0,784.0,113.0,887.1,897.0,1173.1,Tracheophyta; Eucalyptus L'Hér.
2005,2005-08-01,Porto,Felgueiras,Caramos,Sta. Marta,41.3403403,-8.1701312,NC,337.0,2005-08-01T00:00,16.1,73,11.2,15.7,0.0,0.0,0.0,0.0,1,1015.3,975.8,23,0,0,77,0.0,0.49,5.1,9.5,315,349,12.6,17.2,21.0,20.1,16.8,0.168,0.157,0.232,0.332,0,0.0,0.0,0.0,0.0,0.0,0.0,0.0,0.0,0.0,0.0,0.0,0.0,0.0,Pinus pinaster Aiton; Tracheophyta; Eucalyptus L'Hér.; Magnoliopsida
2005,2005-07-26,Porto,Paredes,Lordelo,CORRELO,41.2346057,-8.4146751,NC,202.0,2005-07-26T09:00,21.8,70,16.1,21.0,0.0,0.0,0.0,0.0,3,1011.1,987.8,100,69,16,100,0.23,0.79,19.8,26.8,192,191,35.6,22.8,22.3,21.6,17.1,0.136,0.136,0.193,0.313,1,3600.0,361.4,140.0,221.4,223.8,361.4,829.4,315.0,122.0,193.0,223.8,315.0,722.9,Magnoliopsida; Pinus pinaster Aiton; Eucalyptus L'Hér.; Tracheophyta; Vitis vinifera L.
2005,2005-07-17,Porto,Valongo,Sobrado,Lugar do Galinheiro,41.2115102,-8.4652622,NC,127.0,2005-07-17T12:00,22.2,63,14.8,22.1,0.0,0.0,0.0,0.0,3,1019.5,1004.7,100,89,43,1,0.4,1.0,14.0,17.4,288,288,29.2,26.8,23.2,22.2,17.1,0.108,0.144,0.211,0.303,1,3600.0,637.3,363.3,274.0,391.3,637.3,1229.2,621.0,354.0,267.0,391.3,621.0,1197.8,Tracheophyta; Eucalyptus L'Hér.; Magnoliopsida; Pinus pinaster Aiton
2005,2005-07-20,Porto,Paredes,Vandoma,São Silvestre,41.203628,-8.3973416,NC,425.0,2005-07-20T10:00,28.0,34,10.9,27.5,0.0,0.0,0.0,0.0,0,1021.2,973.4,0,0,0,0,0.53,2.48,11.3,14.9,97,97,33.5,27.2,22.4,20.1,15.3,0.095,0.156,0.243,0.336,1,3600.0,760.9,653.9,107.0,846.4,760.9,1023.3,697.0,599.0,98.0,846.4,697.0,937.4,Magnoliopsida; Pinus pinaster Aiton; Eucalyptus L'Hér.; Tracheophyta; Vitis vinifera L.
2005,2005-07-20,Porto,Felgueiras,Moure,Marco Simão,41.3528045,-8.1754517,NC,306.0,2005-07-20T11:00,30.6,32,12.0,31.3,0.0,0.0,0.0,0.0,0,1020.7,986.3,0,0,0,0,0.65,2.99,10.6,13.7,108,108,32.8,30.5,23.5,21.0,16.1,0.1,0.154,0.241,0.343,1,3600.0,881.0,770.3,110.8,884.7,881.0,1153.1,835.0,730.0,105.0,884.7,835.0,1092.9,Magnoliopsida; Tracheophyta; Pinus pinaster Aiton; Eucalyptus L'Hér.; Vitis vinifera L.
2005,2005-07-31,Porto,Marco de Canaveses,Tuias,VILA NOVA,41.17549355,-8.16457827943076,NC,213.0,2005-07-31T03:00,13.1,81,10.0,11.8,0.0,0.0,0.0,0.0,0,1016.8,991.3,0,0,0,0,0.01,0.28,9.3,16.6,54,48,17.6,14.9,20.5,20.8,17.4,0.193,0.154,0.227,0.32,0,0.0,0.0,0.0,0.0,0.0,0.0,0.0,0.0,0.0,0.0,0.0,0.0,0.0,Tracheophyta; Magnoliopsida; Pinus pinaster Aiton; Vitis vinifera L.
2005,2005-07-20,Porto,Amarante,Fregim,Macieira,41.2702199,-8.1170009,NC,242.0,2005-07-20T14:00,34.5,26,12.3,36.6,0.0,0.0,0.0,0.0,0,1019.7,992.7,0,0,0,0,0.75,4.03,6.8,8.1,252,249,19.4,36.5,24.7,21.1,16.3,0.106,0.153,0.236,0.324,1,3600.0,916.3,808.2,108.1,905.9,916.3,1181.7,941.0,830.0,111.0,905.9,941.0,1213.6,Tracheophyta; Magnoliopsida; Pinus pinaster Aiton; Vitis vinifera L.; Quercus L.; Eucalyptus L'Hér.; 
2005,2005-07-24,Porto,Penafiel,Abragão,Lg. Vales,41.1583743,-8.2247687,NC,203.0,2005-07-24T18:00,21.5,73,16.4,22.4,0.0,0.0,0.0,0.0,2,1013.4,989.9,54,60,0,0,0.18,0.71,9.1,11.7,279,279,27.7,25.2,23.2,21.8,16.9,0.115,0.15,0.231,0.322,1,3600.0,215.0,119.0,96.0,346.5,215.0,455.2,271.0,150.0,121.0,346.5,271.0,573.8,Eucalyptus L'Hér.; Tracheophyta; Magnoliopsida
2005,2005-02-17,Porto,Amarante,Louredo,Lug. Tabuaç,41.2671355,-8.1013692,NC,247.0,2005-02-17T23:00,1.9,73,-2.3,-2.0,0.0,0.0,0.0,0.0,0,1021.6,990.8,0,0,0,0,0.01,0.19,10.1,17.7,88,78,19.4,1.4,4.4,5.9,8.6,0.276,0.299,0.336,0.345,0,0.0,0.0,0.0,0.0,0.0,0.0,0.0,0.0,0.0,0.0,0.0,0.0,0.0,Tracheophyta; Magnoliopsida; Eucalyptus L'Hér.; Pinus pinaster Aiton; Vitis vinifera L.; 
2005,2005-07-24,Porto,Paredes,Gandra,APEADEIRO,41.1632333,-8.4397516,NC,141.0,2005-07-24T21:00,19.3,81,16.0,20.4,0.0,0.0,0.0,0.0,2,1014.0,997.5,50,56,0,0,0.0,0.41,6.1,8.5,298,298,16.9,22.6,23.8,22.2,17.4,0.131,0.136,0.193,0.314,0,0.0,0.0,0.0,0.0,0.0,0.0,0.0,0.0,0.0,0.0,0.0,0.0,0.0,Magnoliopsida; Pinus pinaster Aiton; Eucalyptus L'Hér.; Tracheophyta; Vitis vinifera L.; Pinales
2005,2005-07-31,Porto,Gondomar,Gondomar (são Cosme),R. Cavadas,41.0755648,-8.4233671,NC,159.0,2005-07-31T09:00,21.2,54,11.4,19.6,0.0,0.0,0.0,0.0,0,1016.3,997.7,0,0,0,0,0.32,1.17,13.7,17.8,14,18,30.6,21.4,20.3,21.3,18.0,0.191,0.146,0.205,0.311,1,3600.0,569.0,468.8,100.2,761.9,569.0,816.6,494.0,407.0,87.0,761.9,494.0,709.0,Tracheophyta; Eucalyptus L'Hér.; Magnoliopsida
2005,2005-08-01,Porto,Marco de Canaveses,Paços de Gaiolo,São Domingos \ CAS,41.1022563,-8.1114297,NC,213.0,2005-08-01T15:00,27.4,34,10.3,26.8,0.0,0.0,0.0,0.0,0,1015.6,991.4,1,0,1,0,0.58,2.4,13.0,16.7,332,335,30.6,29.4,22.0,20.6,17.5,0.159,0.153,0.225,0.319,1,3600.0,713.3,590.7,122.7,749.6,713.3,1046.3,756.0,626.0,130.0,749.6,756.0,1108.9,Magnoliopsida; Pinus pinaster Aiton; Tracheophyta; Quercus suber L.; Vitis vinifera L.; Eucalyptus L'Hér.; Olea europaea L.; 
2005,2005-07-18,Porto,Felgueiras,Macieira da Lixa,Lug. Barreiros,41.3496108,-8.1492033,NC,406.0,2005-07-18T16:00,23.9,45,11.4,23.2,0.0,0.0,0.0,0.0,0,1020.7,974.3,0,0,0,0,0.5,1.62,14.8,19.4,317,320,37.4,30.2,22.5,20.6,15.4,0.1,0.157,0.244,0.335,1,3600.0,677.5,582.5,95.0,852.0,677.5,905.4,742.0,638.0,104.0,852.0,742.0,991.6,Eucalyptus L'Hér.; Tracheophyta; Pinus pinaster Aiton; Magnoliopsida; Vitis vinifera L.
2005,2005-07-26,Porto,Vila Nova de Gaia,Pedroso,R. Monte Pinhão,41.0795622,-8.5707109,NC,170.0,2005-07-26T16:00,24.0,60,15.7,23.0,0.2,0.2,0.0,0.0,51,1008.9,989.4,52,25,43,13,0.39,1.2,20.3,27.1,203,202,45.0,27.2,23.0,21.5,17.5,0.132,0.14,0.203,0.308,1,3600.0,517.7,350.0,167.7,518.2,517.7,895.7,568.0,384.0,184.0,518.2,568.0,982.6,Tracheophyta; Magnoliopsida; Eucalyptus L'Hér.
2005,2005-08-01,Porto,Paredes,Lordelo,Vinhal \ POV,41.2346057,-8.4146751,NC,202.0,2005-08-01T15:00,26.9,38,11.4,25.6,0.0,0.0,0.0,0.0,0,1015.8,992.8,0,0,0,0,0.6,2.2,20.3,26.4,337,340,35.3,29.9,22.4,20.9,17.6,0.171,0.141,0.188,0.312,1,3600.0,744.8,630.6,114.2,799.8,744.8,1046.9,789.0,668.0,121.0,799.8,789.0,1109.0,Magnoliopsida; Pinus pinaster Aiton; Eucalyptus L'Hér.; Tracheophyta; Vitis vinifera L.
2005,2005-07-18,Porto,Paredes,Aguiar de Sousa,Lug. Senande,41.1271547,-8.4477733,NC,144.0,2005-07-18T18:00,22.6,57,13.7,21.0,0.0,0.0,0.0,0.0,0,1020.4,1003.6,0,0,0,0,0.29,1.18,19.1,25.5,324,327,36.4,28.4,24.1,22.0,17.1,0.116,0.145,0.217,0.316,1,3600.0,314.9,249.2,65.7,696.8,314.9,473.5,393.0,311.0,82.0,696.8,393.0,591.0,Magnoliopsida; Pinus pinaster Aiton; Eucalyptus L'Hér.; Tracheophyta; Vitis vinifera L.; Quercus L.; Quercus suber L.
2005,2005-01-08,Porto,Baião,Gove,Loureiro,41.1565523,-8.0445058,NC,659.0,2005-01-08T23:00,-0.0,96,-0.6,-2.8,0.0,0.0,0.0,0.0,0,1034.0,952.8,8,0,0,27,0.0,0.03,4.1,7.9,45,90,9.7,0.3,2.2,5.1,10.3,0.325,0.331,0.342,0.321,0,0.0,0.0,0.0,0.0,0.0,0.0,0.0,0.0,0.0,0.0,0.0,0.0,0.0,Tracheophyta; Magnoliopsida; Pinales; Eucalyptus L'Hér.; Vitis vinifera L.; Quercus L.; Pinus pinaster Aiton; 
2005,2005-08-02,Porto,Lousada,Lousada (Santa Margarida),L.Boavista,41.306324450000005,-8.264864167553377,NC,342.0,2005-08-02T09:00,21.1,47,9.4,19.4,0.0,0.0,0.0,0.0,0,1020.1,980.5,0,0,0,0,0.33,1.32,10.5,14.1,74,75,26.3,20.9,19.7,19.9,16.8,0.148,0.157,0.231,0.33,1,3600.0,584.0,484.9,99.1,791.0,584.0,814.2,507.0,421.0,86.0,791.0,507.0,706.8,Eucalyptus L'Hér.; Tracheophyta; Pinus pinaster Aiton; Magnoliopsida; Vitis vinifera L.
2005,2005-02-19,Porto,Amarante,Rebordelo,CRUZ DAS  B,41.3404828,-7.9880769,NC,316.0,2005-02-19T17:00,11.8,50,1.7,8.9,0.0,0.0,0.0,0.0,0,1022.1,984.2,4,5,0,0,0.13,0.69,7.3,13.0,349,355,23.4,9.5,4.7,5.3,8.2,0.264,0.293,0.333,0.34,1,3600.0,188.8,146.7,42.0,723.1,188.8,284.1,265.0,206.0,59.0,723.1,265.0,398.8,Eucalyptus L'Hér.; Tracheophyta; Magnoliopsida; Pinus pinaster Aiton; 
2005,2005-07-25,Porto,Marco de Canaveses,Vila Boa de Quires,Torre,41.200721,-8.203458,NC,308.0,2005-07-25T10:00,21.3,68,15.0,21.6,0.0,0.0,0.0,0.0,3,1013.8,978.3,100,100,0,64,0.27,0.82,9.2,11.7,225,225,24.1,23.4,21.1,21.0,16.4,0.115,0.15,0.23,0.322,1,3600.0,445.0,165.1,279.9,215.9,445.0,1013.7,407.0,151.0,256.0,215.9,407.0,927.1,Pinus pinaster Aiton; Tracheophyta; Eucalyptus L'Hér.; Magnoliopsida; Vitis vinifera L.; Quercus L.; Pinales; 
2005,2005-08-01,Porto,Lousada,Meinedo,Covelo,41.2517314,-8.2505324,NC,210.0,2005-08-01T12:00,25.8,40,11.0,27.1,0.0,0.0,0.0,0.0,0,1016.0,992.0,0,0,0,0,0.61,2.0,7.2,9.1,3,9,25.9,27.3,20.8,20.7,17.6,0.164,0.158,0.232,0.331,1,3600.0,913.1,781.6,131.5,860.8,913.1,1205.5,889.0,761.0,128.0,860.8,889.0,1173.8,Magnoliopsida; Tracheophyta; Vitis vinifera L.
2005,2005-02-19,Porto,Marco de Canaveses,Ariz,FEIRA NOVA,41.1097801,-8.219640201070488,NC,234.0,2005-02-19T18:00,11.0,57,2.8,7.4,0.0,0.0,0.0,0.0,0,1022.0,993.7,0,0,0,0,0.07,0.57,13.0,22.1,332,336,26.6,9.1,5.8,6.1,8.9,0.265,0.294,0.335,0.348,1,2664.99,18.0,11.6,6.3,133.7,14.9,33.3,88.0,57.0,31.0,406.4,88.0,162.9,Pinales; Magnoliopsida; Quercus L.; Tracheophyta; Pinus pinaster Aiton; Eucalyptus L'Hér.; ; Vitis vinifera L.
2005,2005-07-20,Porto,Marco de Canaveses,Folhada,Vinhal,41.2130368,-8.0739415,NC,321.0,2005-07-20T13:00,33.2,28,12.0,35.3,0.0,0.0,0.0,0.0,0,1020.4,984.6,0,0,0,0,0.75,3.69,6.9,8.5,171,168,22.0,35.6,24.3,21.2,16.2,0.098,0.152,0.234,0.319,1,3600.0,960.5,850.6,109.9,911.9,960.5,1235.4,961.0,851.0,110.0,911.9,961.0,1236.1,Magnoliopsida; Tracheophyta; Pinus pinaster Aiton; Vitis vinifera L.; Eucalyptus L'Hér.; Olea europaea L.; Quercus L.; Pinales; 
2005,2005-07-17,Porto,Vila Nova de Gaia,Gulpilhares,Rua das Pereirinhas,41.075126,-8.6354469,NC,65.0,2005-07-17T18:00,21.2,65,14.4,19.9,0.0,0.0,0.0,0.0,1,1019.3,1011.6,26,29,0,0,0.24,0.88,18.6,23.5,317,319,33.8,26.5,24.0,22.3,17.5,0.118,0.144,0.213,0.311,1,3600.0,288.9,213.5,75.4,592.4,288.9,477.1,360.0,266.0,94.0,592.4,360.0,594.5,Tracheophyta; Magnoliopsida; Eucalyptus L'Hér.
2005,2005-07-20,Porto,Penafiel,Rio de Moinhos,Crasto,41.1113744,-8.2649364,NC,231.0,2005-07-20T15:00,34.2,28,13.0,34.8,0.0,0.0,0.0,0.0,0,1019.8,994.0,0,0,0,0,0.74,3.88,14.0,16.9,270,270,32.8,37.2,25.5,21.4,16.7,0.103,0.151,0.233,0.322,1,3600.0,815.2,708.3,106.9,877.2,815.2,1069.6,862.0,749.0,113.0,877.2,862.0,1131.0,Eucalyptus L'Hér.; Tracheophyta; Magnoliopsida; Vitis vinifera L.
2005,2005-07-20,Porto,Santo Tirso,Roriz,Samoça,41.3392987,-8.3637396,NC,214.0,2005-07-20T19:00,28.1,43,14.5,28.8,0.0,0.0,0.0,0.0,0,1019.8,995.4,0,0,0,0,0.16,2.15,5.8,9.5,277,281,23.4,31.5,26.5,21.5,16.7,0.095,0.154,0.238,0.327,1,3600.0,130.6,92.9,37.7,545.5,130.6,225.6,201.0,143.0,58.0,545.5,201.0,347.2,Eucalyptus L'Hér.; Pinus pinaster Aiton; Vitis vinifera L.; Tracheophyta; Magnoliopsida
2005,2005-07-25,Porto,Santo Tirso,Refojos de Riba de Ave,R. S.CRISTOVAO,41.2900911,-8.449605690885416,NC,179.0,2005-07-25T17:00,23.2,66,16.4,22.7,0.0,0.0,0.0,0.0,2,1012.8,992.2,62,67,0,4,0.3,0.98,18.6,24.4,226,226,35.3,27.7,23.5,21.9,17.4,0.113,0.151,0.233,0.325,1,3600.0,373.5,227.9,145.6,438.4,373.5,689.2,431.0,263.0,168.0,438.4,431.0,795.4,Tracheophyta; Magnoliopsida; Pinus pinaster Aiton; Vitis vinifera L.; Eucalyptus L'Hér.
2005,2005-08-01,Porto,Marco de Canaveses,Tuias,Albergaria \ CAS,41.17549355,-8.16457827943076,NC,213.0,2005-08-01T16:00,27.2,35,10.5,25.6,0.0,0.0,0.0,0.0,0,1015.5,991.2,2,0,4,0,0.51,2.33,15.3,20.1,330,333,33.1,29.0,22.3,20.6,17.5,0.158,0.153,0.225,0.319,1,3600.0,584.3,472.5,111.8,715.0,584.3,877.5,643.0,520.0,123.0,715.0,643.0,965.7,Tracheophyta; Magnoliopsida; Pinus pinaster Aiton; Vitis vinifera L.
2005,2005-07-17,Porto,Póvoa de Varzim,Beiriz,R. CUTERES,41.3928771,-8.7344056,NC,42.0,2005-07-17T19:00,19.8,74,15.0,19.1,0.0,0.0,0.0,0.0,0,1019.2,1014.2,18,14,8,2,0.12,0.61,16.3,21.9,317,319,30.6,24.6,23.5,21.7,17.1,0.097,0.156,0.231,0.305,1,3600.0,111.2,56.9,54.3,317.9,111.2,237.1,168.0,86.0,82.0,317.9,168.0,358.2,Tracheophyta; Eucalyptus L'Hér.; Pinus pinaster Aiton
2005,2005-07-21,Porto,Vila Nova de Gaia,Sandim,R. GASSAMA,41.0368147,-8.4951402,NC,110.0,2005-07-21T03:00,20.5,79,16.8,22.4,0.0,0.0,0.0,0.0,1,1019.6,1006.7,28,31,0,0,0.0,0.5,3.1,2.5,126,135,9.7,20.3,26.3,22.5,17.8,0.106,0.117,0.161,0.284,0,0.0,0.0,0.0,0.0,0.0,0.0,0.0,0.0,0.0,0.0,0.0,0.0,0.0,Eucalyptus L'Hér.; Tracheophyta; Quercus L.; Pinus pinea L.; Magnoliopsida; Vitis vinifera L.
2005,2005-02-18,Porto,Paredes,Rebordosa,Lug. Santia,41.2202567,-8.4112601,NC,216.0,2005-02-18T05:00,1.5,72,-3.0,-2.9,0.0,0.0,0.0,0.0,0,1022.2,995.2,0,0,0,0,0.02,0.19,12.2,24.0,66,77,29.2,1.6,4.8,7.1,9.6,0.267,0.286,0.325,0.335,0,0.0,0.0,0.0,0.0,0.0,0.0,0.0,0.0,0.0,0.0,0.0,0.0,0.0,Magnoliopsida; Pinus pinaster Aiton; Eucalyptus L'Hér.; Tracheophyta; Vitis vinifera L.
2005,2005-08-01,Porto,Felgueiras,Caramos,Stª Marta,41.34842605,-8.164787807464382,NC,416.0,2005-08-01T08:00,18.2,65,11.5,17.5,0.0,0.0,0.0,0.0,0,1016.3,968.1,3,0,5,1,0.18,0.73,8.2,12.0,38,46,24.5,18.0,18.8,19.5,16.3,0.168,0.158,0.232,0.332,1,3600.0,378.4,288.5,89.9,639.3,378.4,599.2,303.0,231.0,72.0,639.3,303.0,479.8,Tracheophyta; Pinus pinaster Aiton; Magnoliopsida; Eucalyptus L'Hér.; Vitis vinifera L.
2005,2005-07-20,Porto,Santo Tirso,Burgães,Santa Cruz,41.34278375,-8.477204251854646,NC,77.0,2005-07-20T17:00,30.6,40,15.3,30.5,0.0,0.0,0.0,0.0,0,1019.5,1010.7,0,0,0,0,0.49,2.64,13.8,17.3,290,291,26.6,34.6,26.4,21.6,17.2,0.102,0.153,0.228,0.313,1,3600.0,504.4,424.4,80.0,800.5,504.4,702.3,580.0,488.0,92.0,800.5,580.0,807.5,Tracheophyta; Magnoliopsida
2005,2005-08-02,Porto,Santo Tirso,Santo Tirso,A3 KM23 N»S - VARZEA,41.35107,-8.4734104,NC,35.0,2005-08-02T03:00,16.7,71,11.3,15.2,0.0,0.0,0.0,0.0,0,1018.6,1014.4,0,0,0,0,0.04,0.56,12.6,24.1,31,39,25.6,18.4,22.2,21.2,18.4,0.154,0.153,0.218,0.309,0,0.0,0.0,0.0,0.0,0.0,0.0,0.0,0.0,0.0,0.0,0.0,0.0,0.0,Tracheophyta; Vitis vinifera L.; Magnoliopsida
2005,2005-07-18,Porto,Felgueiras,Varziela,Lug. das Figueiras,41.3492415,-8.2159638,NC,321.0,2005-07-18T13:00,23.5,45,11.0,24.7,0.0,0.0,0.0,0.0,2,1021.0,984.1,54,60,0,0,0.61,1.59,8.9,11.0,302,302,28.4,29.4,21.9,21.0,15.8,0.1,0.158,0.247,0.339,1,3600.0,925.7,779.8,146.0,834.6,925.7,1237.2,926.0,780.0,146.0,834.6,926.0,1237.6,Tracheophyta; Magnoliopsida; Vitis vinifera L.
2005,2005-02-19,Porto,Felgueiras,Caramos,STª MARTA,41.34842605,-8.164787807464382,NC,416.0,2005-02-19T17:00,11.3,50,1.3,8.3,0.0,0.0,0.0,0.0,0,1021.9,972.3,0,0,0,0,0.13,0.67,8.0,12.1,333,337,22.0,9.0,4.2,4.7,7.5,0.27,0.3,0.341,0.359,1,3600.0,189.5,146.7,42.7,723.1,189.5,284.1,266.0,206.0,60.0,723.1,266.0,398.8,Tracheophyta; Pinus pinaster Aiton; Magnoliopsida; Eucalyptus L'Hér.; Vitis vinifera L.
2005,2005-08-02,Porto,Marco de Canaveses,Soalhães,LG.CASALINHO,41.1603957,-8.0979057,NC,397.0,2005-08-02T14:00,26.9,28,6.8,27.5,0.0,0.0,0.0,0.0,0,1019.1,974.3,0,0,0,0,0.66,2.56,6.4,8.7,38,42,21.6,30.5,21.4,19.9,16.7,0.132,0.149,0.221,0.314,1,3600.0,911.1,805.1,106.0,923.0,911.1,1158.5,937.0,828.0,109.0,923.0,937.0,1191.4,Magnoliopsida; Tracheophyta; Quercus L.; Eucalyptus L'Hér.; Pinus pinaster Aiton; Vitis vinifera L.; Castanea sativa Mill.; Pinales; 
2005,2005-02-18,Porto,Santo Tirso,Reguenga,R. Sta Mari,41.2755959,-8.4572825,NC,157.0,2005-02-18T10:00,6.3,60,-0.8,2.4,0.0,0.0,0.0,0.0,0,1023.6,1004.2,1,0,1,0,0.13,0.38,11.6,15.6,60,64,25.9,6.1,6.0,8.1,10.4,0.264,0.284,0.325,0.34,1,3600.0,396.1,316.6,79.5,762.2,396.1,581.8,329.0,263.0,66.0,762.2,329.0,483.3,Pinus pinaster Aiton; Eucalyptus L'Hér.; Tracheophyta; Vitis vinifera L.
2005,2005-08-02,Porto,Marco de Canaveses,Soalhães,Outeiro,41.1603957,-8.0979057,NC,397.0,2005-08-02T18:00,26.4,34,9.1,25.0,0.0,0.0,0.0,0.0,0,1018.4,973.5,0,0,0,0,0.28,2.28,7.5,10.6,343,350,21.2,28.7,22.7,20.0,16.7,0.127,0.149,0.22,0.314,1,3600.0,285.1,228.2,56.9,714.3,285.1,424.4,366.0,293.0,73.0,714.3,366.0,544.8,Magnoliopsida; Tracheophyta; Quercus L.; Eucalyptus L'Hér.; Pinus pinaster Aiton; Vitis vinifera L.; Castanea sativa Mill.; Pinales; 
2005,2005-07-31,Porto,Penafiel,Abragão,Lug. Quintã,41.1583743,-8.2247687,NC,203.0,2005-07-31T08:00,19.3,59,11.2,18.4,0.0,0.0,0.0,0.0,0,1016.4,992.6,0,0,0,0,0.19,0.91,8.7,12.5,52,57,24.1,18.9,19.5,20.8,17.4,0.193,0.154,0.227,0.32,1,3600.0,389.7,301.0,88.7,665.5,389.7,600.4,312.0,241.0,71.0,665.5,312.0,480.7,Eucalyptus L'Hér.; Tracheophyta; Magnoliopsida
2005,2005-07-26,Porto,Santo Tirso,Monte Córdova,REAL,41.3164414,-8.4320306,NC,357.0,2005-07-26T08:00,19.3,78,15.4,19.6,0.0,0.0,0.0,0.0,2,1011.5,970.3,76,41,20,90,0.11,0.5,10.6,14.6,170,170,24.1,20.1,21.2,20.7,16.3,0.115,0.151,0.233,0.325,1,1911.82,194.8,57.1,137.7,123.7,194.8,611.5,157.0,46.0,111.0,123.7,157.0,492.9,Tracheophyta; Vitis vinifera L.; Eucalyptus L'Hér.; Pinus pinaster Aiton; Magnoliopsida
2005,2005-07-20,Porto,Paços de Ferreira,Ferreira,Penouces,41.2663712,-8.3445627,NC,331.0,2005-07-20T20:00,26.7,46,14.0,27.1,0.0,0.0,0.0,0.0,0,1019.9,982.3,0,0,0,0,0.07,1.9,5.9,6.1,259,270,12.2,28.9,25.9,20.8,15.9,0.094,0.154,0.241,0.336,1,1921.92,0.0,0.0,0.0,0.0,0.0,0.0,46.0,26.0,20.0,214.9,46.0,104.9,Eucalyptus L'Hér.; Tracheophyta; Magnoliopsida; Quercus L.; Pinus pinaster Aiton; 
2005,2005-02-18,Porto,Vila Nova de Gaia,Vilar de Andorinho,R. Gandra,41.097637950000006,-8.568625067986972,NC,100.0,2005-02-18T11:00,8.5,51,-1.2,4.5,0.0,0.0,0.0,0.0,0,1023.6,1011.3,0,0,0,0,0.21,0.55,11.8,15.2,67,68,27.0,8.5,7.2,9.1,11.3,0.249,0.275,0.317,0.329,1,3600.0,536.2,449.8,86.4,854.2,536.2,737.5,484.0,406.0,78.0,854.2,484.0,665.7,Eucalyptus L'Hér.; Magnoliopsida; Tracheophyta
2005,2005-07-25,Porto,Vila Nova de Gaia,Sandim,R. S.BRAS,41.0368147,-8.4951402,NC,110.0,2005-07-25T19:00,21.7,74,16.9,21.8,0.0,0.0,0.0,0.0,2,1013.3,1000.5,64,63,1,23,0.12,0.67,15.3,21.2,229,228,33.1,26.1,24.2,22.5,18.1,0.121,0.117,0.158,0.282,1,3600.0,83.2,42.2,40.9,266.8,83.2,209.7,132.0,67.0,65.0,266.8,132.0,332.9,Eucalyptus L'Hér.; Tracheophyta; Quercus L.; Pinus pinea L.; Magnoliopsida; Vitis vinifera L.
2005,2005-07-19,Porto,Paredes,Mouriz,LG.VENDA NOVA,41.1997684,-8.351836,NC,160.0,2005-07-19T06:00,14.5,92,13.2,14.1,0.0,0.0,0.0,0.0,0,1020.9,1001.7,0,0,0,0,0.01,0.14,9.7,20.4,39,49,19.8,16.7,22.0,21.6,16.8,0.128,0.138,0.202,0.316,1,248.42,44.1,20.9,23.2,184.9,23.1,149.6,19.0,9.0,10.0,97.0,19.0,64.5,Magnoliopsida; Pinus pinaster Aiton; Eucalyptus L'Hér.; Tracheophyta; Vitis vinifera L.; Quercus L.
2005,2005-07-20,Porto,Paços de Ferreira,Paços de Ferreira,Brito,41.2783916,-8.3703638,NC,325.0,2005-07-20T23:00,22.0,66,15.4,23.0,0.0,0.0,0.0,0.0,0,1020.3,982.8,0,0,0,0,0.02,0.89,5.5,5.0,191,201,8.3,23.1,25.5,20.8,16.0,0.095,0.154,0.238,0.327,0,0.0,0.0,0.0,0.0,0.0,0.0,0.0,0.0,0.0,0.0,0.0,0.0,0.0,Tracheophyta; Magnoliopsida; Eucalyptus L'Hér.
2005,2005-07-25,Porto,Amarante,Freixo de Baixo,VILA NOVA,41.2978828,-8.1112885,NC,271.0,2005-07-25T18:00,22.3,67,16.0,22.3,0.0,0.0,0.0,0.0,2,1013.1,981.9,59,66,0,0,0.19,0.88,14.7,20.3,242,240,36.0,25.8,22.8,21.2,16.6,0.12,0.15,0.23,0.321,1,3600.0,183.7,95.8,87.9,281.5,183.7,451.2,232.0,121.0,111.0,281.5,232.0,569.8,Pinus pinaster Aiton; Tracheophyta; Eucalyptus L'Hér.; Magnoliopsida; Vitis vinifera L.
2005,2005-07-21,Porto,Gondomar,Melres,Branzelo,41.0676995,-8.4011816,NC,25.0,2005-07-21T10:00,25.1,63,17.6,26.8,0.0,0.0,0.0,0.0,1,1019.8,1016.9,40,44,0,0,0.4,1.18,8.5,9.0,242,241,20.2,29.3,25.7,23.0,18.1,0.116,0.136,0.192,0.307,1,3600.0,639.3,433.8,205.4,563.6,639.3,1019.7,585.0,397.0,188.0,563.6,585.0,933.1,Eucalyptus L'Hér.; Magnoliopsida; Tracheophyta
2005,2005-07-19,Porto,Póvoa de Varzim,Terroso,Lg. Colectividade,41.415134,-8.7278019,NC,77.0,2005-07-19T11:00,27.5,46,14.7,28.7,0.0,0.0,0.0,0.0,0,1020.9,1012.0,0,0,0,0,0.59,2.0,12.6,16.0,3,14,23.0,29.1,22.1,21.3,17.1,0.098,0.154,0.229,0.304,1,3600.0,867.0,751.9,115.1,865.4,867.0,1150.6,821.0,712.0,109.0,865.4,821.0,1089.6,Tracheophyta; Eucalyptus L'Hér.; Pinus pinaster Aiton
2005,2005-07-31,Porto,Marco de Canaveses,Alpendurada e Matos,QUINTA PINHEIRA,41.0866803,-8.2483748,NC,142.0,2005-07-31T13:00,26.7,42,12.6,27.5,0.0,0.0,0.0,0.0,0,1015.6,999.3,19,0,0,63,0.66,2.04,14.4,17.8,347,352,28.8,28.7,21.3,21.3,18.1,0.18,0.152,0.224,0.318,1,3600.0,938.9,826.9,112.0,900.6,938.9,1218.9,939.0,827.0,112.0,900.6,939.0,1219.0,Tracheophyta; Vitis vinifera L.; Pinus pinaster Aiton; Magnoliopsida; Castanea sativa Mill.; Eucalyptus L'Hér.
2005,2005-07-25,Porto,Penafiel,Pinheiro,Lg. Gilbaia,41.1193264,-8.3031666,NC,204.0,2005-07-25T23:00,19.1,87,17.0,19.8,0.0,0.0,0.0,0.0,1,1014.2,990.4,46,38,13,13,0.01,0.28,12.4,20.2,188,196,23.4,21.4,23.1,21.8,17.3,0.118,0.148,0.228,0.32,0,0.0,0.0,0.0,0.0,0.0,0.0,0.0,0.0,0.0,0.0,0.0,0.0,0.0,Tracheophyta; Vitis vinifera L.; Eucalyptus L'Hér.
2005,2005-07-21,Porto,Baião,Tresouras,Pensais,41.1531218,-7.9178557,NC,345.0,2005-07-21T11:00,29.1,36,12.6,30.7,0.0,0.0,0.0,0.0,0,1019.0,980.2,0,0,0,0,0.61,2.58,6.4,7.2,243,243,19.4,33.1,25.1,21.8,16.5,0.097,0.148,0.227,0.312,1,3600.0,868.9,748.7,120.2,858.1,868.9,1155.8,824.0,710.0,114.0,858.1,824.0,1096.0,Tracheophyta; Vitis vinifera L.; Eucalyptus L'Hér.; Magnoliopsida; Pinus pinaster Aiton; 
2005,2005-07-31,Porto,Póvoa de Varzim,Laundos,Crescêncios,41.4388874,-8.7195676,NC,88.0,2005-07-31T16:00,24.3,51,13.6,21.6,0.0,0.0,0.0,0.0,1,1014.9,1004.7,30,0,0,99,0.46,1.48,29.3,40.0,339,343,51.8,27.0,21.7,20.8,17.8,0.167,0.152,0.216,0.3,1,3600.0,570.0,358.7,211.2,538.3,570.0,884.6,626.0,394.0,232.0,538.3,626.0,971.6,Eucalyptus L'Hér.; Pinus pinaster Aiton; Tracheophyta
2005,2005-07-21,Porto,Santo Tirso,Monte Córdova,LG.CURTINHAS,41.3164414,-8.4320306,NC,357.0,2005-07-21T13:00,27.5,50,16.1,30.1,0.0,0.0,0.0,0.0,0,1018.4,978.1,0,0,0,0,0.67,1.84,11.7,14.3,259,260,28.4,33.4,24.3,20.7,15.8,0.095,0.153,0.237,0.327,1,3600.0,944.0,808.0,136.0,867.5,944.0,1233.9,944.0,808.0,136.0,867.5,944.0,1233.9,Tracheophyta; Vitis vinifera L.; Eucalyptus L'Hér.; Pinus pinaster Aiton; Magnoliopsida
2005,2005-07-18,Porto,TROFA,Coronado (são Mamede),Lg. Casal,41.2748271,-8.5739705,NC,139.0,2005-07-18T15:00,23.5,53,13.3,23.6,0.0,0.0,0.0,0.0,0,1021.2,1005.0,1,1,0,0,0.55,1.38,17.8,22.1,313,314,32.8,29.9,22.9,21.4,16.9,0.109,0.15,0.222,0.31,1,3600.0,814.1,706.2,107.9,870.7,814.1,1074.0,860.0,746.0,114.0,870.7,860.0,1134.6,Magnoliopsida; Pinales; Tracheophyta; Eucalyptus L'Hér.
2005,2005-07-26,Porto,Penafiel,Pinheiro,GILVAIA,41.1193264,-8.3031666,NC,204.0,2005-07-26T11:00,24.5,57,15.5,23.8,0.0,0.0,0.0,0.0,3,1011.1,987.8,95,71,11,81,0.37,1.32,18.0,23.7,206,204,45.0,26.0,22.3,21.7,17.3,0.118,0.148,0.227,0.32,1,3600.0,516.8,216.7,300.2,251.2,516.8,1143.4,489.0,205.0,284.0,251.2,489.0,1081.9,Tracheophyta; Vitis vinifera L.; Eucalyptus L'Hér.
2005,2005-07-18,Porto,Felgueiras,Caramos,Lug. Mouchinhos,41.3403403,-8.1701312,NC,337.0,2005-07-18T15:00,24.2,45,11.6,24.6,0.0,0.0,0.0,0.0,0,1020.7,982.1,0,0,0,0,0.58,1.65,12.7,15.7,305,307,32.4,30.8,22.5,20.9,15.7,0.099,0.158,0.246,0.339,1,3600.0,823.9,722.7,101.2,894.3,823.9,1070.1,871.0,764.0,107.0,894.3,871.0,1131.3,Pinus pinaster Aiton; Tracheophyta; Eucalyptus L'Hér.; Magnoliopsida
2005,2005-07-19,Porto,Vila Nova de Gaia,Sandim,Santa Marinha,41.0330985,-8.4850365,NC,85.0,2005-07-19T11:00,29.5,39,14.2,30.7,0.0,0.0,0.0,0.0,0,1020.0,1010.3,0,0,0,0,0.62,2.51,11.4,14.0,347,1,22.7,31.6,23.4,22.5,17.8,0.108,0.118,0.165,0.285,1,3600.0,865.8,751.8,114.0,862.1,865.8,1154.9,820.0,712.0,108.0,862.1,820.0,1093.8,Tracheophyta; Quercus L.; Pinus pinea L.; Pinales; Eucalyptus L'Hér.; Magnoliopsida
2005,2005-07-21,Porto,Maia,São Pedro Fins,R Cancela,41.2449614,-8.5655067,NC,114.0,2005-07-21T12:00,26.0,59,17.3,29.0,0.0,0.0,0.0,0.0,0,1019.0,1005.8,1,1,0,0,0.61,1.39,11.3,13.2,253,253,23.4,31.1,24.8,21.9,17.4,0.117,0.143,0.207,0.303,1,3600.0,936.3,807.0,129.4,873.6,936.3,1223.6,912.0,786.0,126.0,873.6,912.0,1191.9,Vitis vinifera L.; Eucalyptus L'Hér.; Tracheophyta; Magnoliopsida; Pinus pinaster Aiton; 
2005,2005-07-26,Porto,Penafiel,Fonte Arcada,Lg. Preisal,41.1471291,-8.3623376,NC,194.0,2005-07-26T16:00,24.4,58,15.6,24.0,0.1,0.1,0.0,0.0,51,1008.9,986.7,64,39,42,11,0.39,1.28,15.9,21.1,205,205,41.8,28.0,23.3,21.7,17.4,0.131,0.141,0.207,0.312,1,3600.0,504.8,345.4,159.5,512.3,504.8,894.0,554.0,379.0,175.0,512.3,554.0,981.0,Magnoliopsida; Eucalyptus L'Hér.; Vitis vinifera L.; Tracheophyta
2005,2005-07-21,Porto,Santo Tirso,Monte Córdova,LG.URTAL,41.3164414,-8.4320306,NC,357.0,2005-07-21T15:00,26.6,51,15.7,28.2,0.0,0.0,0.0,0.0,0,1018.3,977.9,0,0,0,0,0.59,1.7,13.3,16.6,270,271,35.3,33.6,24.9,20.7,15.8,0.094,0.153,0.237,0.327,1,3600.0,795.6,672.6,123.0,834.0,795.6,1068.4,841.0,711.0,130.0,834.0,841.0,1129.4,Tracheophyta; Vitis vinifera L.; Eucalyptus L'Hér.; Pinus pinaster Aiton; Magnoliopsida
2005,2005-07-31,Porto,Paços de Ferreira,Freamunde,GANDARELA,41.2890721,-8.3418641,NC,367.0,2005-07-31T17:00,24.6,44,11.5,22.8,0.0,0.0,0.0,0.0,1,1013.5,971.9,30,0,0,99,0.39,1.74,15.6,21.6,322,327,33.5,26.5,20.9,19.8,16.6,0.174,0.158,0.232,0.331,1,3600.0,439.0,311.4,127.6,614.4,439.0,672.7,509.0,361.0,148.0,614.4,509.0,780.0,Tracheophyta; Eucalyptus L'Hér.; Magnoliopsida; Pinus pinaster Aiton; 
2005,2005-07-21,Porto,Vila do Conde,Mosteiró,LG.ARÕES,41.2800819,-8.6608312,NC,59.0,2005-07-21T16:00,24.4,60,16.3,25.5,0.0,0.0,0.0,0.0,0,1018.5,1011.6,14,13,0,7,0.45,1.21,12.6,14.8,268,269,29.9,32.4,25.8,22.0,17.5,0.091,0.151,0.227,0.304,1,3600.0,627.6,510.7,116.9,745.9,627.6,906.9,687.0,559.0,128.0,745.9,687.0,992.8,Eucalyptus L'Hér.
2005,2005-01-22,Porto,Paredes,Lordelo,L.Serra,41.2346057,-8.4146751,NC,202.0,2005-01-22T19:00,8.6,80,5.3,6.3,0.0,0.0,0.0,0.0,1,1021.1,996.5,29,0,0,96,0.0,0.23,8.0,13.0,72,88,15.1,8.2,8.1,8.8,11.5,0.333,0.34,0.348,0.336,0,0.0,0.0,0.0,0.0,0.0,0.0,0.0,0.0,0.0,0.0,0.0,0.0,0.0,Magnoliopsida; Pinus pinaster Aiton; Eucalyptus L'Hér.; Tracheophyta; Vitis vinifera L.
2005,2005-08-03,Porto,Vila Nova de Gaia,Avintes,ALDEIA NOVA,41.0947322,-8.5460739,NC,107.0,2005-08-03T12:00,29.8,28,9.3,30.1,0.0,0.0,0.0,0.0,0,1020.5,1008.3,0,0,0,0,0.69,3.01,10.5,13.6,74,78,26.3,31.1,23.5,21.7,18.5,0.141,0.138,0.182,0.303,1,3600.0,933.1,823.1,110.0,909.7,933.1,1202.1,908.0,801.0,107.0,909.7,908.0,1169.7,Magnoliopsida; Eucalyptus L'Hér.; Tracheophyta
2005,2005-07-18,Porto,Santo Tirso,Campo (são Martinho),R. Flor Campo,41.3666145,-8.3513374,NC,120.0,2005-07-18T15:00,24.7,48,13.1,24.7,0.0,0.0,0.0,0.0,0,1021.2,1007.3,1,1,0,0,0.58,1.61,17.8,22.1,313,314,32.8,30.0,22.9,21.5,16.8,0.11,0.169,0.254,0.343,1,3600.0,814.1,706.2,107.9,871.0,814.1,1073.7,860.0,746.0,114.0,871.0,860.0,1134.2,Tracheophyta; Magnoliopsida; Vitis vinifera L.
2005,2005-07-30,Porto,Marco de Canaveses,Alpendurada e Matos,Vila Cete,41.0866803,-8.2483748,NC,142.0,2005-07-30T14:00,25.0,42,11.1,24.8,0.0,0.0,0.0,0.0,0,1019.0,1002.6,0,0,0,0,0.63,1.85,17.1,21.7,332,336,36.4,28.1,21.5,21.5,18.0,0.202,0.152,0.225,0.319,1,3600.0,901.1,783.4,117.8,891.0,901.1,1166.9,926.0,805.0,121.0,891.0,926.0,1199.1,Tracheophyta; Vitis vinifera L.; Pinus pinaster Aiton; Magnoliopsida; Castanea sativa Mill.; Eucalyptus L'Hér.
2005,2005-07-21,Porto,Amarante,Aboadela,COVELO MONTE,41.30061,-7.9529812,NC,635.0,2005-07-21T16:00,28.2,44,14.9,28.3,0.0,0.0,0.0,0.0,0,1017.2,947.0,5,0,0,16,0.56,2.12,16.9,22.1,282,282,40.3,34.1,25.5,20.4,14.9,0.114,0.142,0.213,0.329,1,3600.0,659.1,562.5,96.6,830.5,659.1,897.3,723.0,617.0,106.0,830.5,723.0,984.3,Magnoliopsida; Eucalyptus L'Hér.; Pinus pinaster Aiton; Tracheophyta; Acacia Mill.; 
2005,2005-07-21,Porto,Vila Nova de Gaia,Pedroso,R.BAIRRO FIGUEIREDO,41.064143,-8.5572235,NC,131.0,2005-07-21T15:00,25.6,55,15.8,27.1,0.0,0.0,0.0,0.0,0,1018.9,1003.8,3,0,0,10,0.56,1.48,13.7,17.0,275,275,33.1,32.7,25.5,21.9,17.4,0.115,0.141,0.207,0.309,1,3600.0,789.2,644.5,144.8,796.7,789.2,1071.7,834.0,681.0,153.0,796.7,834.0,1132.5,Magnoliopsida; Eucalyptus L'Hér.; Tracheophyta
2005,2005-08-03,Porto,Vila Nova de Gaia,Pedroso,R. MTE PINHÃO,41.064143,-8.5572235,NC,131.0,2005-08-03T12:00,29.5,28,9.2,30.1,0.0,0.0,0.0,0.0,0,1020.3,1005.3,0,0,0,0,0.68,2.96,8.9,11.2,69,75,25.6,30.2,23.0,21.2,18.2,0.144,0.141,0.197,0.306,1,3600.0,932.3,823.3,109.0,910.2,932.3,1201.7,907.0,801.0,106.0,910.2,907.0,1169.1,Magnoliopsida; Eucalyptus L'Hér.; Tracheophyta
2005,2005-07-31,Porto,Baião,Grilo,Canal \ CAS,41.1392744,-8.0770423,NC,481.0,2005-07-31T16:00,26.1,38,10.8,25.8,0.0,0.0,0.0,0.0,1,1013.5,959.6,20,0,0,68,0.5,2.1,9.5,12.2,331,336,24.8,29.5,21.6,20.2,16.6,0.177,0.142,0.192,0.318,1,3600.0,628.6,490.5,138.1,742.6,628.6,876.9,692.0,540.0,152.0,742.6,692.0,965.3,Tracheophyta; Magnoliopsida; Pinus pinaster Aiton; Castanea sativa Mill.; 
2005,2005-08-03,Porto,Santo Tirso,Couto (Santa Cristina),Lug. Dinis,41.325741,-8.4793533,NC,83.0,2005-08-03T14:00,31.3,24,8.2,32.1,0.0,0.0,0.0,0.0,0,1019.5,1010.1,0,0,0,0,0.71,3.49,7.4,9.5,29,37,20.2,32.8,23.8,21.4,18.4,0.148,0.144,0.197,0.312,1,3600.0,901.0,796.9,104.1,914.7,901.0,1157.3,926.0,819.0,107.0,914.7,926.0,1189.4,Magnoliopsida; Eucalyptus L'Hér.; Vitis vinifera L.; Tracheophyta; Pinus pinaster Aiton
2005,2005-08-03,Porto,Lousada,Sousela,Lg. Paraiso,41.3017441,-8.3101787,NC,256.0,2005-08-03T14:00,30.6,23,6.8,31.1,0.0,0.0,0.0,0.0,0,1019.7,990.8,0,0,0,0,0.7,3.39,7.1,9.2,75,79,26.6,31.6,22.3,20.4,17.5,0.123,0.155,0.228,0.329,1,3600.0,906.4,801.4,105.0,921.0,906.4,1155.9,932.0,824.0,108.0,921.0,932.0,1188.5,Vitis vinifera L.; Eucalyptus L'Hér.; Tracheophyta; Pinus pinaster Aiton; Magnoliopsida
2005,2005-02-20,Porto,Vila Nova de Gaia,Canelas,R Professor,41.0805427,-8.6006594,NC,126.0,2005-02-20T01:00,6.0,80,2.8,2.4,0.0,0.0,0.0,0.0,0,1022.1,1006.5,0,0,0,0,0.01,0.19,13.3,23.2,13,13,27.7,6.8,8.5,8.9,11.1,0.243,0.271,0.315,0.329,0,0.0,0.0,0.0,0.0,0.0,0.0,0.0,0.0,0.0,0.0,0.0,0.0,0.0,Tracheophyta; Magnoliopsida; Eucalyptus L'Hér.
2005,2005-07-28,Porto,Penafiel,Rio de Moinhos,Vales,41.1113744,-8.2649364,NC,231.0,2005-07-28T17:00,19.6,73,14.6,18.7,0.1,0.1,0.0,0.0,51,1016.7,989.7,49,35,29,0,0.25,0.62,16.1,20.9,286,285,38.5,24.1,22.2,21.3,17.3,0.234,0.15,0.226,0.319,1,3600.0,370.5,255.6,114.9,499.4,370.5,679.1,429.0,296.0,133.0,499.4,429.0,786.3,Eucalyptus L'Hér.; Tracheophyta; Magnoliopsida; Vitis vinifera L.
2005,2005-07-26,Porto,Vila do Conde,Mosteiró,R. Costa Padrão,41.2791288,-8.6554092,NC,75.0,2005-07-26T17:00,23.5,65,16.5,22.9,0.0,0.0,0.0,0.0,2,1008.5,999.8,59,26,50,18,0.28,1.01,19.6,27.0,206,207,41.0,26.5,23.2,21.8,17.8,0.115,0.149,0.223,0.302,1,3600.0,317.3,194.2,123.1,372.9,317.3,690.5,366.0,224.0,142.0,372.9,366.0,796.6,Eucalyptus L'Hér.
2005,2005-07-19,Porto,TROFA,Coronado (são Mamede),Paiço,41.2836629,-8.5748693,NC,125.0,2005-07-19T12:00,29.5,39,14.1,32.1,0.0,0.0,0.0,0.0,0,1020.1,1005.8,0,0,0,0,0.67,2.51,6.4,8.4,43,50,18.7,31.5,22.6,21.4,17.0,0.108,0.149,0.221,0.309,1,3600.0,941.3,825.3,116.0,891.6,941.3,1225.9,917.0,804.0,113.0,891.6,917.0,1194.3,Tracheophyta; Pinales; Pinus pinaster Aiton; Magnoliopsida
2005,2005-07-18,Porto,Vila do Conde,Fajozes,Lg. Castelões,41.2948806,-8.729805776895741,NC,9.0,2005-07-18T17:00,22.7,59,14.1,21.0,0.0,0.0,0.0,0.0,0,1021.1,1020.0,0,0,0,0,0.38,1.14,21.9,28.1,327,329,40.0,29.1,24.0,22.1,17.6,0.095,0.155,0.232,0.305,1,3600.0,503.4,418.0,85.3,782.2,503.4,707.7,578.0,480.0,98.0,782.2,578.0,812.6,Tracheophyta; Eucalyptus L'Hér.
2005,2005-02-19,Porto,Paredes,Lordelo,Z. INDUSTRI,41.2346057,-8.4146751,NC,202.0,2005-02-19T16:00,13.0,49,2.4,9.4,0.0,0.0,0.0,0.0,0,1022.4,998.1,0,0,0,0,0.23,0.77,12.4,16.2,343,347,19.8,11.8,6.3,7.1,9.6,0.261,0.281,0.323,0.335,1,3600.0,368.5,305.0,63.5,834.1,368.5,511.9,435.0,360.0,75.0,834.1,435.0,604.2,Magnoliopsida; Pinus pinaster Aiton; Eucalyptus L'Hér.; Tracheophyta; Vitis vinifera L.
2005,2005-02-19,Porto,Felgueiras,Margaride (santa Eulália),IDANHAS~,41.3667229,-8.203496330346734,NC,298.0,2005-02-19T13:00,11.5,51,1.6,9.5,0.0,0.0,0.0,0.0,0,1024.3,988.4,0,0,0,0,0.32,0.67,5.5,7.3,67,70,19.8,9.0,3.9,5.8,8.5,0.282,0.306,0.345,0.364,1,3600.0,660.9,579.6,81.4,953.8,660.9,850.7,658.0,577.0,81.0,953.8,658.0,846.9,Magnoliopsida; Tracheophyta; Eucalyptus L'Hér.
2005,2005-02-19,Porto,Baião,Santa Marinha do Zêzere,TORRE,41.1504944,-7.9464234,NC,379.0,2005-02-19T15:00,11.8,47,0.9,9.4,0.0,0.0,0.0,0.0,0,1022.8,977.6,0,0,0,0,0.27,0.74,3.7,4.6,11,18,16.9,9.7,3.8,5.2,8.1,0.266,0.293,0.331,0.332,1,3600.0,520.2,447.1,73.1,912.4,520.2,685.9,569.0,489.0,80.0,912.4,569.0,750.3,Pinus pinaster Aiton; Tracheophyta; Magnoliopsida; Vitis vinifera L.
2005,2005-07-19,Porto,Paredes,Duas Igrejas,Lug. da Vila,41.230974,-8.3772602,NC,332.0,2005-07-19T12:00,29.1,36,12.3,30.7,0.0,0.0,0.0,0.0,0,1020.7,983.2,0,0,0,0,0.69,2.59,9.1,11.7,99,99,27.0,30.7,21.7,20.7,15.8,0.098,0.157,0.245,0.337,1,3600.0,949.3,833.3,116.0,899.5,949.3,1226.9,925.0,812.0,113.0,899.5,925.0,1195.5,Magnoliopsida; Pinus pinaster Aiton; Eucalyptus L'Hér.; Tracheophyta; Vitis vinifera L.
2005,2005-07-19,Porto,Paredes,Bitarães,R. Cavada,41.2256945,-8.3147825,NC,181.0,2005-07-19T15:00,32.8,28,12.0,34.5,0.0,0.0,0.0,0.0,0,1019.0,998.7,0,0,0,0,0.67,3.58,6.1,7.1,320,330,20.9,35.1,23.8,21.4,16.6,0.117,0.148,0.223,0.323,1,3600.0,814.4,710.4,104.1,878.9,814.4,1070.5,861.0,751.0,110.0,878.9,861.0,1131.7,Magnoliopsida; Pinus pinaster Aiton; Eucalyptus L'Hér.; Tracheophyta; Vitis vinifera L.
2005,2005-08-01,Porto,Penafiel,Croca,Lamosa \ POV,41.2204491,-8.2390371,NC,360.0,2005-08-01T15:00,26.5,34,9.4,25.5,0.0,0.0,0.0,0.0,0,1015.6,974.9,1,0,1,0,0.57,2.28,13.0,16.7,332,335,30.6,28.5,21.1,19.7,16.5,0.159,0.153,0.225,0.319,1,3600.0,713.4,590.7,122.7,750.1,713.4,1045.6,756.0,626.0,130.0,750.1,756.0,1108.0,Magnoliopsida; Eucalyptus L'Hér.; Vitis vinifera L.; Tracheophyta
2005,2005-07-19,Porto,Penafiel,Fonte Arcada,FRANCIDE,41.1471291,-8.3623376,NC,194.0,2005-07-19T15:00,32.5,30,12.5,35.3,0.0,0.0,0.0,0.0,0,1018.8,997.0,0,0,0,0,0.63,3.44,0.8,1.1,27,72,16.9,35.8,24.0,21.5,16.8,0.114,0.144,0.215,0.315,1,3600.0,817.4,714.3,103.1,882.5,817.4,1072.0,864.0,755.0,109.0,882.5,864.0,1133.0,Magnoliopsida; Eucalyptus L'Hér.; Vitis vinifera L.; Tracheophyta
2005,2005-07-30,Porto,Vila Nova de Gaia,Sandim,E.N. 222,41.0412312,-8.5052524,NC,154.0,2005-07-30T18:00,21.3,58,12.6,18.5,0.0,0.0,0.0,0.0,0,1018.0,1000.0,0,0,0,0,0.27,1.07,24.8,35.0,334,336,50.8,26.0,22.9,21.6,18.2,0.176,0.121,0.156,0.281,1,3600.0,292.4,231.1,61.3,696.3,292.4,440.5,372.0,294.0,78.0,696.3,372.0,560.4,Eucalyptus L'Hér.; Tracheophyta; Magnoliopsida; Vitis vinifera L.
2005,2005-07-30,Porto,Vila Nova de Gaia,Pedroso,R. MONTE PINHÃO,41.0795622,-8.5707109,NC,170.0,2005-07-30T12:00,23.0,47,11.0,23.3,0.0,0.0,0.0,0.0,0,1020.0,1000.2,1,1,0,0,0.58,1.5,13.2,16.3,349,354,33.8,25.7,20.8,21.0,17.8,0.201,0.143,0.201,0.307,1,3600.0,936.0,819.9,116.1,899.3,936.0,1209.9,911.0,798.0,113.0,899.3,911.0,1177.6,Tracheophyta; Magnoliopsida; Eucalyptus L'Hér.
2005,2005-07-21,Porto,Penafiel,Duas Igrejas,Castanheira Cima,41.1953795,-8.2691939,NC,353.0,2005-07-21T22:00,18.6,79,14.9,19.8,0.0,0.0,0.0,0.0,0,1019.1,978.0,0,0,0,0,0.0,0.44,2.9,2.8,300,310,8.6,22.9,25.7,21.1,15.9,0.091,0.153,0.24,0.336,0,0.0,0.0,0.0,0.0,0.0,0.0,0.0,0.0,0.0,0.0,0.0,0.0,0.0,Eucalyptus L'Hér.; Tracheophyta; Magnoliopsida
2005,2005-02-19,Porto,Vila Nova de Gaia,Sandim,R. CRASTRO,41.0368147,-8.4951402,NC,110.0,2005-02-19T13:00,12.7,44,0.8,10.3,0.0,0.0,0.0,0.0,0,1024.5,1011.1,0,0,0,0,0.32,0.82,6.8,8.8,32,35,15.8,12.9,7.1,8.6,10.9,0.216,0.243,0.289,0.308,1,3600.0,655.5,573.0,82.4,935.2,655.5,857.8,652.0,570.0,82.0,935.2,652.0,853.3,Eucalyptus L'Hér.; Tracheophyta; Quercus L.; Pinus pinea L.; Magnoliopsida; Vitis vinifera L.
2005,2005-07-19,Porto,Amarante,Gouveia (são Simão),Cumieira,41.0591063,-8.4116365,NC,99.0,2005-07-19T16:00,33.0,31,13.4,33.0,0.0,0.0,0.0,0.0,0,1018.7,1007.5,0,0,0,0,0.63,3.48,13.8,17.3,321,324,24.5,36.2,25.1,22.2,17.5,0.113,0.144,0.215,0.315,1,3600.0,672.0,578.0,94.0,843.7,672.0,907.3,736.0,633.0,103.0,843.7,736.0,993.7,Magnoliopsida; Tracheophyta; Eucalyptus L'Hér.; Pinus pinaster Aiton
2005,2005-07-21,Porto,Vila Nova de Gaia,Pedroso,R.Sª Marinha,41.064143,-8.5572235,NC,131.0,2005-07-21T23:00,18.0,87,15.8,19.5,0.0,0.0,0.0,0.0,1,1018.9,1003.4,29,32,0,0,0.0,0.28,3.8,4.2,319,329,9.7,22.1,25.4,22.0,17.4,0.115,0.141,0.207,0.309,0,0.0,0.0,0.0,0.0,0.0,0.0,0.0,0.0,0.0,0.0,0.0,0.0,0.0,Magnoliopsida; Eucalyptus L'Hér.; Tracheophyta
2005,2005-02-20,Porto,Paredes,Cete,LG.COVÃO,41.1782871,-8.3649391,NC,151.0,2005-02-20T12:00,11.3,52,1.8,6.9,0.0,0.0,0.0,0.0,2,1020.5,1002.2,61,68,0,0,0.25,0.64,17.4,23.1,22,23,41.4,9.3,5.8,7.4,10.0,0.261,0.281,0.322,0.335,1,3600.0,531.7,390.1,141.6,649.2,531.7,840.9,507.0,372.0,135.0,649.2,507.0,801.8,Magnoliopsida; Pinus pinaster Aiton; Eucalyptus L'Hér.; Tracheophyta; Vitis vinifera L.
2005,2005-02-18,Porto,Penafiel,Vila Cova,Lg. Pedreir,41.1746375,-8.2405804,NC,311.0,2005-02-18T18:00,9.1,60,1.6,6.9,0.0,0.0,0.0,0.0,0,1021.0,983.4,0,0,0,0,0.02,0.47,2.1,4.4,31,55,14.4,7.1,4.6,5.4,8.2,0.272,0.297,0.336,0.345,1,2583.73,14.2,9.3,4.9,106.9,11.6,27.6,81.0,53.0,28.0,384.2,81.0,156.9,Eucalyptus L'Hér.; Pinus pinaster Aiton; Magnoliopsida; Tracheophyta; Vitis vinifera L.
2005,2005-07-22,Porto,Felgueiras,Pinheiro,L. URO,41.3684352,-8.152882,NC,497.0,2005-07-22T08:00,18.6,86,16.2,20.5,0.0,0.0,0.0,0.0,1,1017.5,960.3,33,37,0,0,0.14,0.3,1.5,1.8,346,11,12.2,21.2,22.8,20.4,15.3,0.097,0.151,0.238,0.345,1,3600.0,292.8,128.0,164.9,270.1,292.8,627.7,238.0,104.0,134.0,270.1,238.0,510.2,Pinus pinaster Aiton; Tracheophyta; Magnoliopsida; Vitis vinifera L.; Eucalyptus L'Hér.
2005,2005-08-03,Porto,Vila do Conde,Labruge,Lug. Bouças Novas,41.2948806,-8.729805776895741,NC,9.0,2005-08-03T13:00,30.4,28,9.8,31.0,0.0,0.0,0.0,0.0,0,1020.5,1019.5,0,0,0,0,0.73,3.12,10.9,13.6,9,22,24.1,32.1,23.4,21.5,18.7,0.116,0.148,0.216,0.3,1,3600.0,940.3,831.3,109.0,911.7,940.3,1211.2,940.0,831.0,109.0,911.7,940.0,1210.8,Tracheophyta; Eucalyptus L'Hér.
2005,2005-08-04,Porto,Lousada,Lustosa,Sº Roque,41.3321025,-8.3085374,NC,411.0,2005-08-04T11:00,27.2,25,5.7,24.8,0.0,0.0,0.0,0.0,0,1020.3,973.9,0,0,0,0,0.65,2.68,18.4,25.6,93,94,53.3,26.5,21.3,19.6,16.6,0.124,0.157,0.225,0.334,1,3600.0,873.8,764.9,109.0,902.9,873.8,1125.7,826.0,723.0,103.0,902.9,826.0,1064.1,Vitis vinifera L.; Eucalyptus L'Hér.; Tracheophyta; Magnoliopsida
2005,2005-07-23,Porto,Valongo,Sobrado,Monte Corgo \ MTE,41.2115102,-8.4652622,NC,127.0,2005-07-23T20:00,19.7,79,16.1,20.0,0.0,0.0,0.0,0.0,2,1013.5,998.6,59,66,0,0,0.04,0.47,12.2,17.7,298,299,29.2,25.0,25.3,22.4,17.6,0.104,0.14,0.202,0.301,0,1385.16,0.0,0.0,0.0,0.0,0.0,0.0,37.0,18.0,19.0,152.1,37.0,98.1,Tracheophyta; Eucalyptus L'Hér.; Magnoliopsida; Pinus pinaster Aiton
2005,2005-07-18,Porto,Amarante,Gondar,Lug. Fornelo,41.2490072,-8.0269415,NC,176.0,2005-07-18T17:00,25.0,49,13.4,24.1,0.0,0.0,0.0,0.0,0,1020.1,999.8,0,0,0,0,0.42,1.62,14.5,18.6,312,314,33.1,30.7,24.2,22.2,16.9,0.103,0.154,0.237,0.32,1,3600.0,504.0,420.5,83.4,795.7,504.0,699.9,580.0,484.0,96.0,795.7,580.0,805.5,Magnoliopsida; Tracheophyta; Eucalyptus L'Hér.; Vitis vinifera L.; Quercus L.; Pinus pinaster Aiton; Pinus pinea L.; 
2005,2005-07-24,Porto,Marco de Canaveses,Alpendurada e Matos,Fontelas,41.0866803,-8.2483748,NC,142.0,2005-07-24T09:00,19.9,85,17.2,20.6,0.2,0.2,0.0,0.0,51,1012.9,996.3,100,100,49,5,0.08,0.36,13.0,17.6,208,208,27.0,21.6,23.3,22.4,17.5,0.102,0.148,0.229,0.321,1,0.0,84.8,0.0,84.8,0.0,84.8,834.6,74.0,0.0,74.0,0.0,74.0,728.3,Tracheophyta; Vitis vinifera L.; Pinus pinaster Aiton; Magnoliopsida; Castanea sativa Mill.; Eucalyptus L'Hér.
2005,2005-02-20,Porto,Vila Nova de Gaia,Sandim,R. Portelas,41.0368147,-8.4951402,NC,110.0,2005-02-20T13:00,12.7,47,1.6,8.4,0.0,0.0,0.0,0.0,2,1019.3,1006.0,67,64,15,0,0.28,0.78,16.4,21.5,15,18,36.7,12.2,7.9,8.7,10.8,0.213,0.241,0.288,0.308,1,3600.0,527.7,327.7,200.0,530.6,527.7,864.2,525.0,326.0,199.0,530.6,525.0,859.7,Eucalyptus L'Hér.; Tracheophyta; Quercus L.; Pinus pinea L.; Magnoliopsida; Vitis vinifera L.
2005,2005-07-27,Porto,Marco de Canaveses,Alpendurada e Matos,Quinta Loureiro,41.0866803,-8.2483748,NC,142.0,2005-07-27T16:00,23.2,72,17.8,23.0,0.3,0.3,0.0,0.0,51,1008.6,992.2,100,86,72,2,0.35,0.8,21.3,30.4,204,204,59.0,26.7,23.4,22.0,17.8,0.188,0.148,0.227,0.319,1,3600.0,511.9,368.9,143.0,548.6,511.9,891.8,562.0,405.0,157.0,548.6,562.0,979.1,Tracheophyta; Vitis vinifera L.; Pinus pinaster Aiton; Magnoliopsida; Castanea sativa Mill.; Eucalyptus L'Hér.
2005,2005-07-30,Porto,Paredes,Besteiros,SÃO DOMINGOS,41.219534,-8.3595015,NC,299.0,2005-07-30T23:00,16.0,75,11.6,15.4,0.0,0.0,0.0,0.0,0,1018.2,983.0,0,0,0,0,0.01,0.46,8.0,13.0,342,355,16.9,18.4,21.2,20.4,16.8,0.201,0.142,0.19,0.312,0,0.0,0.0,0.0,0.0,0.0,0.0,0.0,0.0,0.0,0.0,0.0,0.0,0.0,Magnoliopsida; Pinus pinaster Aiton; Eucalyptus L'Hér.; Tracheophyta; Vitis vinifera L.; Quercus L.
2005,2005-07-21,Porto,Paredes,Beire,L. CABANEIRAS,41.2451216,-8.3240436,NC,192.0,2005-07-21T17:00,25.8,55,16.1,26.2,0.0,0.0,0.0,0.0,0,1017.9,995.9,12,0,0,39,0.4,1.5,12.3,15.5,273,274,34.6,32.4,26.3,21.7,16.8,0.113,0.146,0.218,0.321,1,3600.0,488.1,396.9,91.2,753.3,488.1,698.0,562.0,457.0,105.0,753.3,562.0,803.7,Magnoliopsida; Pinus pinaster Aiton; Eucalyptus L'Hér.; Tracheophyta; Vitis vinifera L.
2005,2005-07-19,Porto,Santo Tirso,Refojos de Riba de Ave,GANDRA,41.2892872,-8.4588504,NC,151.0,2005-07-19T01:00,16.2,88,14.2,16.7,0.0,0.0,0.0,0.0,0,1021.4,1003.4,1,1,0,0,0.0,0.22,6.1,11.9,360,358,14.0,18.8,22.8,21.5,16.8,0.124,0.144,0.214,0.318,0,0.0,0.0,0.0,0.0,0.0,0.0,0.0,0.0,0.0,0.0,0.0,0.0,0.0,Tracheophyta; Eucalyptus L'Hér.; Pinus pinaster Aiton; Vitis vinifera L.; Magnoliopsida
2005,2005-07-28,Porto,Amarante,Telões,Lamaceiro,41.3096543,-8.1007731,NC,242.0,2005-07-28T16:00,20.6,69,14.8,20.1,0.0,0.0,0.0,0.0,3,1016.2,988.1,100,80,47,18,0.31,0.74,14.2,19.2,254,253,41.0,24.7,21.9,21.1,17.0,0.231,0.152,0.228,0.321,1,3600.0,462.5,298.6,163.9,446.3,462.5,887.5,508.0,328.0,180.0,446.3,508.0,974.9,Magnoliopsida; Pinus pinaster Aiton; Tracheophyta; Vitis vinifera L.; Eucalyptus L'Hér.; 
2005,2005-07-22,Porto,Vila Nova de Gaia,Pedroso,R.BAIRRO FIGUEIREDO,41.064143,-8.5572235,NC,131.0,2005-07-22T10:00,21.3,74,16.5,23.1,0.0,0.0,0.0,0.0,1,1017.6,1002.3,48,53,0,2,0.37,0.66,5.3,6.2,332,339,18.4,25.8,23.6,22.0,17.4,0.115,0.141,0.206,0.309,1,3600.0,660.5,500.8,159.6,652.8,660.5,1016.5,604.0,458.0,146.0,652.8,604.0,929.6,Magnoliopsida; Eucalyptus L'Hér.; Tracheophyta
2005,2005-08-01,Porto,Maia,Avioso (Santa Maria),Ferreiro \ POVI,41.2627124,-8.6170635,NC,110.0,2005-08-01T16:00,25.9,47,13.7,24.5,0.0,0.0,0.0,0.0,0,1015.7,1003.0,1,0,1,0,0.5,1.78,21.9,29.2,337,340,39.2,28.9,22.6,21.0,18.1,0.154,0.147,0.208,0.305,1,3600.0,615.9,513.1,102.8,772.3,615.9,882.3,677.0,564.0,113.0,772.3,677.0,969.7,Tracheophyta; Eucalyptus L'Hér.; Magnoliopsida; Pinus pinaster Aiton
2005,2005-08-03,Porto,Valongo,Campo,R. Negral,41.1830981,-8.4838315,NC,120.0,2005-08-03T15:00,32.0,22,7.5,31.9,0.0,0.0,0.0,0.0,0,1019.1,1005.5,0,0,0,0,0.67,3.72,8.4,10.2,10,18,20.5,34.2,24.3,21.5,18.4,0.127,0.141,0.194,0.297,1,3600.0,802.1,704.0,98.1,896.4,802.1,1043.4,850.0,746.0,104.0,896.4,850.0,1105.7,Magnoliopsida; Pinus pinaster Aiton; Tracheophyta; Eucalyptus L'Hér.
2005,2005-07-19,Porto,Santo Tirso,Refojos de Riba de Ave,Lg. Gandra,41.2920945,-8.4471657,NC,216.0,2005-07-19T08:00,21.7,61,13.7,21.5,0.0,0.0,0.0,0.0,0,1021.3,996.1,0,0,0,0,0.22,1.02,9.4,12.9,47,54,22.3,20.8,21.5,21.4,16.6,0.1,0.157,0.242,0.329,1,3600.0,405.6,314.7,91.0,662.1,405.6,629.4,330.0,256.0,74.0,662.1,330.0,512.0,Tracheophyta; Magnoliopsida; Pinus pinaster Aiton; Vitis vinifera L.; Eucalyptus L'Hér.
2005,2005-08-05,Porto,Amarante,Telões,Castanheiro Redondo,41.3096543,-8.1007731,NC,242.0,2005-08-05T02:00,20.2,27,0.7,16.6,0.0,0.0,0.0,0.0,0,1017.8,989.6,0,0,0,0,0.1,1.72,10.4,26.3,88,91,30.2,19.7,23.9,20.7,17.5,0.118,0.149,0.22,0.317,0,0.0,0.0,0.0,0.0,0.0,0.0,0.0,0.0,0.0,0.0,0.0,0.0,0.0,Magnoliopsida; Pinus pinaster Aiton; Tracheophyta; Vitis vinifera L.; Eucalyptus L'Hér.; 
2005,2005-08-03,Porto,TROFA,Muro,E.N. 14,41.2986936,-8.599823,NC,118.0,2005-08-03T15:00,31.3,24,8.4,31.4,0.0,0.0,0.0,0.0,0,1019.1,1005.7,0,0,0,0,0.66,3.47,8.4,10.2,10,18,20.5,33.2,23.8,21.0,18.1,0.129,0.145,0.205,0.304,1,3600.0,802.4,704.3,98.2,896.3,802.4,1043.9,850.0,746.0,104.0,896.3,850.0,1105.7,Tracheophyta; Magnoliopsida; Eucalyptus L'Hér.; Pinales
2005,2005-08-01,Porto,TROFA,Muro,Igreja,41.2908524,-8.594672,NC,152.0,2005-08-01T17:00,25.0,49,13.6,22.9,0.0,0.0,0.0,0.0,0,1015.6,998.1,0,0,0,0,0.42,1.6,22.1,30.5,338,341,40.7,27.8,22.6,20.7,17.8,0.153,0.147,0.208,0.305,1,3600.0,475.4,396.8,78.5,782.4,475.4,673.5,551.0,460.0,91.0,782.4,551.0,780.7,Tracheophyta; Eucalyptus L'Hér.; Pinales; Magnoliopsida
2005,2005-08-05,Porto,Paredes,Parada de Todeia,Redondo,41.1684949,-8.3714303,NC,186.0,2005-08-05T03:00,22.9,27,2.7,19.7,0.0,0.0,0.0,0.0,0,1017.9,996.3,0,0,0,0,0.12,2.06,10.8,27.7,90,92,31.7,21.8,25.1,21.3,17.9,0.136,0.138,0.183,0.31,0,0.0,0.0,0.0,0.0,0.0,0.0,0.0,0.0,0.0,0.0,0.0,0.0,0.0,Magnoliopsida; Pinus pinaster Aiton; Eucalyptus L'Hér.; Tracheophyta; Vitis vinifera L.
2005,2005-07-30,Porto,Valongo,Ermesinde,R. Central,41.2114656,-8.528286446167854,NC,155.0,2005-07-30T16:00,23.3,48,11.7,21.2,0.0,0.0,0.0,0.0,0,1018.4,1000.4,0,0,0,0,0.49,1.48,23.3,30.9,328,331,43.2,27.4,22.1,21.4,17.9,0.186,0.143,0.199,0.299,1,3600.0,664.5,570.7,93.8,854.9,664.5,886.0,730.0,627.0,103.0,854.9,730.0,973.3,Magnoliopsida; Pinus pinaster Aiton; Eucalyptus L'Hér.; Tracheophyta
2005,2005-07-19,Porto,Felgueiras,Sendim,CABEÇA PORCA,41.38328,-8.1805182,NC,356.0,2005-07-19T14:00,31.1,30,11.3,33.1,0.0,0.0,0.0,0.0,0,1019.7,979.9,0,0,0,0,0.71,3.18,5.9,7.8,128,124,21.2,33.6,22.5,20.6,15.7,0.102,0.155,0.243,0.344,1,3600.0,914.2,805.2,109.0,902.2,914.2,1181.9,939.0,827.0,112.0,902.2,939.0,1213.9,Vitis vinifera L.; Eucalyptus L'Hér.; Tracheophyta; Pinus pinaster Aiton; Magnoliopsida
2005,2005-07-31,Porto,Penafiel,Portela,PORTELA MONTE,41.1077057,-8.2950347,NC,181.0,2005-07-31T19:00,22.9,58,14.2,21.5,0.0,0.0,0.0,0.0,1,1014.2,993.3,25,0,0,83,0.17,1.18,19.6,30.9,334,339,43.2,25.1,22.7,21.1,17.8,0.17,0.152,0.223,0.318,1,3186.7,79.3,23.4,55.9,166.2,79.3,187.2,132.0,39.0,93.0,166.2,132.0,311.5,Tracheophyta; Vitis vinifera L.; Magnoliopsida; Eucalyptus L'Hér.
2005,2005-07-22,Porto,Baião,Grilo,JUNQUEIRA,41.1392744,-8.0770423,NC,481.0,2005-07-22T11:00,25.3,58,16.5,28.7,0.0,0.0,0.0,0.0,0,1016.6,962.4,5,0,0,18,0.56,1.34,4.2,4.6,301,309,19.8,29.8,23.8,21.1,15.8,0.119,0.137,0.199,0.322,1,3600.0,868.5,747.1,121.4,859.0,868.5,1152.4,823.0,708.0,115.0,859.0,823.0,1092.1,Tracheophyta; Magnoliopsida; Pinus pinaster Aiton; Castanea sativa Mill.; 
2005,2005-07-22,Porto,Paredes,Sobrosa,Lg. Abelheira,41.2497289,-8.3552315,NC,315.0,2005-07-22T14:00,25.8,57,16.5,28.4,0.0,0.0,0.0,0.0,0,1015.6,979.8,0,0,0,0,0.62,1.45,12.1,15.3,297,300,31.7,32.1,24.1,21.0,16.1,0.123,0.136,0.195,0.315,1,3600.0,899.8,777.1,122.7,872.6,899.8,1180.0,924.0,798.0,126.0,872.6,924.0,1211.7,Magnoliopsida; Pinus pinaster Aiton; Eucalyptus L'Hér.; Tracheophyta; Vitis vinifera L.
2005,2005-07-31,Porto,Penafiel,Recezinhos (são Martinho),Infesta,41.2269782,-8.218782,NC,291.0,2005-07-31T22:00,18.4,72,13.2,18.3,0.0,0.0,0.0,0.0,0,1015.6,981.7,0,0,0,0,0.02,0.59,7.7,12.1,311,343,18.0,20.2,21.7,20.2,16.9,0.172,0.153,0.226,0.319,0,0.0,0.0,0.0,0.0,0.0,0.0,0.0,0.0,0.0,0.0,0.0,0.0,0.0,Eucalyptus L'Hér.; Magnoliopsida; Vitis vinifera L.; Tracheophyta; Quercus L.
2005,2005-02-18,Porto,Santo Tirso,Guimarei,Calvário,41.2934621,-8.47704,NC,192.0,2005-02-18T11:00,7.8,54,-1.1,3.8,0.0,0.0,0.0,0.0,0,1023.6,1000.0,0,0,0,0,0.2,0.49,11.8,15.2,67,68,27.0,7.6,5.9,7.8,10.1,0.264,0.284,0.325,0.339,1,3600.0,536.1,449.7,86.4,857.5,536.1,734.5,484.0,406.0,78.0,857.5,484.0,663.1,Eucalyptus L'Hér.; Tracheophyta; Pinus pinaster Aiton; Magnoliopsida; Vitis vinifera L.
2005,2005-07-31,Porto,Paredes,Besteiros,SÃO DOMINGOS,41.219534,-8.3595015,NC,299.0,2005-07-31T02:00,13.0,86,10.6,11.9,0.0,0.0,0.0,0.0,0,1017.1,981.6,0,0,0,1,0.0,0.22,9.2,14.8,59,49,16.6,15.8,20.6,20.4,16.8,0.201,0.142,0.19,0.312,0,0.0,0.0,0.0,0.0,0.0,0.0,0.0,0.0,0.0,0.0,0.0,0.0,0.0,Magnoliopsida; Pinus pinaster Aiton; Eucalyptus L'Hér.; Tracheophyta; Vitis vinifera L.; Quercus L.
2005,2005-07-31,Porto,Marco de Canaveses,Tuias,Lug. Sagoiva,41.17549355,-8.16457827943076,NC,213.0,2005-07-31T08:00,19.2,59,11.1,18.3,0.0,0.0,0.0,0.0,0,1016.4,991.5,0,0,0,0,0.19,0.9,8.7,12.5,52,57,24.1,18.8,19.5,20.8,17.4,0.193,0.154,0.227,0.32,1,3600.0,389.7,301.0,88.7,665.5,389.7,600.4,312.0,241.0,71.0,665.5,312.0,480.7,Tracheophyta; Magnoliopsida; Pinus pinaster Aiton; Vitis vinifera L.
2005,2005-08-01,Porto,Penafiel,Portela,Portela,41.1022546,-8.290135346485986,NC,119.0,2005-08-01T04:00,16.4,80,13.0,15.7,0.0,0.0,0.0,0.0,0,1014.6,1000.5,0,0,0,0,0.02,0.37,11.6,21.1,5,17,25.2,16.5,21.7,21.5,18.3,0.169,0.152,0.224,0.318,0,0.0,0.0,0.0,0.0,0.0,0.0,0.0,0.0,0.0,0.0,0.0,0.0,0.0,Tracheophyta; Eucalyptus L'Hér.; Vitis vinifera L.; Magnoliopsida
2005,2005-08-05,Porto,Felgueiras,Regilde,Paço,41.3648004,-8.266416,NC,265.0,2005-08-05T05:00,20.4,29,1.6,16.8,0.0,0.0,0.0,0.0,0,1018.3,987.5,0,0,0,0,0.12,1.71,12.2,29.6,92,93,32.8,19.6,23.0,20.5,17.4,0.116,0.161,0.231,0.337,0,0.0,0.0,0.0,0.0,0.0,0.0,0.0,0.0,0.0,0.0,0.0,0.0,0.0,Magnoliopsida; Pinus pinaster Aiton; Tracheophyta
2005,2005-07-22,Porto,Baião,Valadares,Alto da Bandeira,41.14829735,-8.008373641308012,NC,748.0,2005-07-22T15:00,27.8,45,14.8,29.6,0.0,0.0,0.0,0.0,0,1014.4,932.5,0,0,0,0,0.62,2.06,10.8,13.9,291,295,33.5,34.5,24.7,20.8,15.4,0.096,0.146,0.226,0.319,1,3600.0,809.6,710.4,99.2,885.9,809.6,1062.5,857.0,752.0,105.0,885.9,857.0,1124.7,Magnoliopsida; Pinus pinaster Aiton; Tracheophyta; Eucalyptus L'Hér.; Vitis vinifera L.; Pinales; Quercus L.; 
2005,2005-08-01,Porto,Santo Tirso,Areias,Freixieiro \ POV,41.3620465,-8.4756024,NC,118.0,2005-08-01T14:00,26.8,41,12.5,26.6,0.0,0.0,0.0,0.0,0,1016.0,1002.5,0,0,0,0,0.64,2.08,18.3,23.3,338,340,31.3,28.8,21.9,20.7,17.8,0.183,0.158,0.215,0.326,1,3600.0,855.5,728.0,127.5,832.3,855.5,1161.4,879.0,748.0,131.0,832.3,879.0,1193.2,Pinus pinaster Aiton; Vitis vinifera L.; Tracheophyta; Eucalyptus L'Hér.
2005,2005-07-19,Porto,Marco de Canaveses,Várzea Da Ovelha E Aliviada,Estaladouro,41.2032344,-8.109539938438008,NC,176.0,2005-07-19T22:00,26.9,51,16.0,28.6,0.0,0.0,0.0,0.0,0,1019.3,999.1,0,0,0,0,0.0,1.73,2.2,5.0,81,30,8.6,25.1,25.2,21.6,16.7,0.108,0.154,0.237,0.324,0,0.0,0.0,0.0,0.0,0.0,0.0,0.0,0.0,0.0,0.0,0.0,0.0,0.0,Tracheophyta; Pinus pinaster Aiton; Magnoliopsida; Quercus L.
2005,2005-07-31,Porto,Felgueiras,Penacova,LG. ALDEIA,41.3711444,-8.2502985,NC,316.0,2005-07-31T00:00,13.7,77,9.8,12.5,0.0,0.0,0.0,0.0,0,1018.0,980.5,0,0,0,0,0.01,0.36,8.0,13.1,27,16,15.5,16.1,20.3,20.1,16.8,0.219,0.17,0.238,0.341,0,0.0,0.0,0.0,0.0,0.0,0.0,0.0,0.0,0.0,0.0,0.0,0.0,0.0,Magnoliopsida; Vitis vinifera L.; Tracheophyta; Eucalyptus L'Hér.; Pinus pinaster Aiton
2005,2005-08-01,Porto,Valongo,Sobrado,Alto Vilar,41.2115102,-8.4652622,NC,127.0,2005-08-01T15:00,27.0,41,12.7,26.0,0.0,0.0,0.0,0.0,0,1015.8,1001.2,0,0,0,0,0.6,2.1,20.3,26.4,337,340,35.3,30.3,22.9,21.4,18.2,0.151,0.142,0.197,0.298,1,3600.0,745.0,630.7,114.2,799.1,745.0,1048.1,789.0,668.0,121.0,799.1,789.0,1110.0,Tracheophyta; Eucalyptus L'Hér.; Magnoliopsida; Pinus pinaster Aiton
2005,2005-08-03,Porto,Penafiel,Recezinhos (são Martinho),Cheia,41.2269782,-8.218782,NC,291.0,2005-08-03T17:00,31.7,17,3.9,29.4,0.0,0.0,0.0,0.0,0,1018.5,985.9,0,0,0,0,0.43,3.87,6.1,8.5,28,36,22.3,31.5,23.2,20.2,17.1,0.13,0.15,0.221,0.318,1,3600.0,482.1,406.5,75.6,817.1,482.1,660.9,561.0,473.0,88.0,817.1,561.0,769.1,Eucalyptus L'Hér.; Magnoliopsida; Vitis vinifera L.; Tracheophyta; Quercus L.
2005,2005-08-01,Porto,Vila Nova de Gaia,Pedroso,Venda de Cima \ POV,41.064143,-8.5572235,NC,131.0,2005-08-01T13:00,26.6,42,12.6,27.0,0.0,0.0,0.0,0.0,0,1015.9,1000.9,0,0,0,0,0.67,2.03,16.9,21.1,340,343,35.3,28.9,22.0,21.1,18.1,0.166,0.142,0.199,0.307,1,3600.0,943.3,829.3,114.0,904.5,943.3,1217.3,943.0,829.0,114.0,904.5,943.0,1216.9,Magnoliopsida; Eucalyptus L'Hér.; Tracheophyta
2005,2005-07-19,Porto,Paredes,Rebordosa,Lug. Feiteira,41.2202567,-8.4112601,NC,216.0,2005-07-19T20:00,27.3,50,16.0,28.1,0.0,0.0,0.0,0.0,0,1018.7,994.0,0,0,0,0,0.09,1.81,9.2,18.1,329,343,20.5,28.6,25.0,21.3,16.5,0.126,0.137,0.2,0.316,1,1950.79,0.0,0.0,0.0,0.0,0.0,0.0,48.0,28.0,20.0,230.1,48.0,106.8,Magnoliopsida; Pinus pinaster Aiton; Eucalyptus L'Hér.; Tracheophyta; Vitis vinifera L.
2005,2005-07-19,Porto,Penafiel,Oldrões,Lug. Calçada,41.1507188,-8.2964474,NC,227.0,2005-07-19T21:00,27.0,51,16.0,28.7,0.0,0.0,0.0,0.0,0,1019.4,993.5,0,0,0,0,0.01,1.75,2.7,7.0,293,339,13.7,26.7,24.9,21.1,16.3,0.116,0.148,0.222,0.322,0,0.0,0.0,0.0,0.0,0.0,0.0,0.0,0.0,0.0,0.0,0.0,0.0,0.0,Magnoliopsida; Eucalyptus L'Hér.; Tracheophyta
2005,2005-07-19,Porto,Penafiel,Recezinhos (são Mamede),Lug. Castanheira Baixo,41.2388072,-8.2129207,NC,305.0,2005-07-19T22:00,26.1,51,15.1,27.5,0.0,0.0,0.0,0.0,0,1019.3,984.5,0,0,0,0,0.0,1.66,2.2,5.0,81,30,8.6,24.3,24.3,20.7,15.9,0.108,0.154,0.237,0.324,0,0.0,0.0,0.0,0.0,0.0,0.0,0.0,0.0,0.0,0.0,0.0,0.0,0.0,Eucalyptus L'Hér.; Tracheophyta; Vitis vinifera L.; Magnoliopsida; Quercus L.
2005,2005-08-01,Porto,Vila Nova de Gaia,Pedroso,R Linhares,41.064143,-8.5572235,NC,131.0,2005-08-01T13:00,26.6,42,12.6,27.0,0.0,0.0,0.0,0.0,0,1015.9,1000.9,0,0,0,0,0.67,2.03,16.9,21.1,340,343,35.3,28.9,22.0,21.1,18.1,0.166,0.142,0.199,0.307,1,3600.0,943.3,829.3,114.0,904.5,943.3,1217.3,943.0,829.0,114.0,904.5,943.0,1216.9,Magnoliopsida; Eucalyptus L'Hér.; Tracheophyta
2005,2005-07-31,Porto,Vila Nova de Gaia,Sandim,Rua Alto Pinhal,41.0368147,-8.4951402,NC,110.0,2005-07-31T14:00,26.9,42,13.0,27.2,0.0,0.0,0.0,0.0,0,1015.0,1002.4,8,0,0,28,0.65,2.04,16.7,21.2,341,345,32.8,30.8,22.6,21.8,18.5,0.162,0.121,0.155,0.281,1,3600.0,891.5,781.5,110.0,889.7,891.5,1166.1,916.0,803.0,113.0,889.7,916.0,1198.1,Eucalyptus L'Hér.; Tracheophyta; Quercus L.; Pinus pinea L.; Magnoliopsida; Vitis vinifera L.
2005,2005-07-22,Porto,Santo Tirso,Negrelos (são Mamede),L.Torre,41.3488993,-8.403043,NC,145.0,2005-07-22T00:00,17.5,90,15.8,19.0,0.0,0.0,0.0,0.0,2,1018.5,1001.3,55,61,0,0,0.0,0.2,3.4,3.4,288,302,10.1,21.1,25.0,21.5,16.9,0.118,0.151,0.224,0.329,0,0.0,0.0,0.0,0.0,0.0,0.0,0.0,0.0,0.0,0.0,0.0,0.0,0.0,Magnoliopsida; Tracheophyta; Vitis vinifera L.; Quercus suber L.
2005,2005-07-22,Porto,Baião,Tresouras,Pensais,41.1531218,-7.9178557,NC,345.0,2005-07-22T04:00,16.0,96,15.4,17.0,0.0,0.0,0.0,0.0,1,1017.4,976.9,31,32,0,6,0.0,0.07,5.6,6.6,285,292,8.3,19.0,25.1,22.0,16.5,0.096,0.147,0.226,0.311,0,0.0,0.0,0.0,0.0,0.0,0.0,0.0,0.0,0.0,0.0,0.0,0.0,0.0,Tracheophyta; Vitis vinifera L.; Eucalyptus L'Hér.; Magnoliopsida; Pinus pinaster Aiton; 
2005,2005-08-01,Porto,Baião,Gove,Crasto \ CAS,41.1565523,-8.0445058,NC,659.0,2005-08-01T18:00,24.2,33,7.0,21.1,0.0,0.0,0.0,0.0,0,1016.3,942.7,2,0,4,0,0.31,2.02,16.2,23.8,360,1,36.7,26.9,22.1,19.7,16.1,0.145,0.141,0.198,0.3,1,3600.0,246.9,159.6,87.2,500.2,246.9,423.8,317.0,205.0,112.0,500.2,317.0,544.2,Tracheophyta; Magnoliopsida; Pinales; Eucalyptus L'Hér.; Vitis vinifera L.; Quercus L.; Pinus pinaster Aiton; 
2005,2005-08-05,Porto,Vila Nova de Gaia,Grijó,R. Vimeiro,41.0157644,-8.5571611,NC,227.0,2005-08-05T07:00,23.8,30,5.1,19.6,0.0,0.0,0.0,0.0,0,1017.6,991.4,1,0,0,3,0.23,2.06,20.2,34.2,88,89,37.1,23.0,25.2,21.7,18.3,0.116,0.139,0.186,0.296,1,3477.22,177.9,116.0,61.9,455.5,174.4,338.3,112.0,73.0,39.0,446.6,112.0,213.0,Eucalyptus L'Hér.; Tracheophyta; Magnoliopsida
2005,2005-07-19,Porto,Gondomar,Foz do Sousa,Lg. Zebreiros,41.1094447,-8.4932564,NC,45.0,2005-07-19T23:00,24.6,65,17.7,26.5,0.0,0.0,0.0,0.0,0,1019.4,1014.2,0,0,0,0,0.02,1.07,6.0,11.3,17,22,15.1,24.9,26.2,22.6,17.9,0.118,0.137,0.194,0.308,0,0.0,0.0,0.0,0.0,0.0,0.0,0.0,0.0,0.0,0.0,0.0,0.0,0.0,Eucalyptus L'Hér.; Tracheophyta; Magnoliopsida
2005,2005-02-18,Porto,Vila Nova de Gaia,Pedroso,R Rio Serra,41.064143,-8.5572235,NC,131.0,2005-02-18T14:00,11.5,45,-0.1,8.4,0.0,0.0,0.0,0.0,0,1020.9,1005.0,1,0,1,0,0.3,0.75,9.8,12.8,54,58,25.9,12.0,7.8,8.9,11.1,0.247,0.274,0.317,0.329,1,3600.0,608.1,525.2,82.9,917.6,608.1,801.6,631.0,545.0,86.0,917.6,631.0,831.8,Magnoliopsida; Eucalyptus L'Hér.; Tracheophyta
2005,2005-08-03,Porto,Amarante,Mancelos,LG.CHEÍNHO,41.2757739,-8.1585546,NC,247.0,2005-08-03T21:00,25.3,36,9.1,24.0,0.0,0.0,0.0,0.0,0,1019.3,991.0,0,0,0,0,0.08,2.07,7.9,11.0,47,38,16.2,23.9,23.9,20.6,17.6,0.115,0.153,0.228,0.33,0,0.0,0.0,0.0,0.0,0.0,0.0,0.0,0.0,0.0,0.0,0.0,0.0,0.0,Tracheophyta; Magnoliopsida; Eucalyptus L'Hér.; Pinus pinaster Aiton; Vitis vinifera L.; 
2005,2005-08-03,Porto,Lousada,Lodares,LG.QUINTA DA LAMA,41.2389255,-8.2922928,NC,201.0,2005-08-03T22:00,23.2,43,9.8,21.6,0.0,0.0,0.0,0.0,0,1019.4,996.1,0,0,0,0,0.09,1.63,10.5,14.7,59,54,20.2,23.1,24.3,20.8,17.6,0.135,0.147,0.207,0.316,0,0.0,0.0,0.0,0.0,0.0,0.0,0.0,0.0,0.0,0.0,0.0,0.0,0.0,Magnoliopsida; Tracheophyta; Eucalyptus L'Hér.; Pinus pinaster Aiton
2005,2005-08-04,Porto,Paredes,Gandra,LG.GRANJA,41.1963232,-8.4359653,NC,145.0,2005-08-04T06:00,20.9,42,7.4,16.6,0.0,0.0,0.0,0.0,0,1019.6,1002.6,0,0,0,0,0.19,1.44,24.6,41.8,78,82,46.4,20.9,23.7,21.4,18.1,0.143,0.139,0.185,0.31,1,0.0,15.3,5.1,10.2,58.4,5.9,93.0,6.0,2.0,4.0,28.0,6.0,36.6,Magnoliopsida; Pinus pinaster Aiton; Eucalyptus L'Hér.; Tracheophyta; Vitis vinifera L.
2005,2005-07-22,Porto,Vila do Conde,Mosteiró,R D Maria II,41.2800819,-8.6608312,NC,59.0,2005-07-22T06:00,16.4,95,15.6,17.8,0.0,0.0,0.0,0.0,3,1017.7,1010.6,86,95,0,0,0.01,0.1,4.1,5.1,315,315,6.5,19.3,23.9,22.1,17.5,0.091,0.151,0.226,0.304,1,0.0,25.9,4.7,21.2,45.7,12.9,136.4,11.0,2.0,9.0,22.8,11.0,58.0,Eucalyptus L'Hér.
2005,2005-02-20,Porto,Paços de Ferreira,Freamunde,Freamunde d,41.2896178,-8.335305,NC,357.0,2005-02-20T13:00,11.0,47,0.1,7.1,0.0,0.0,0.0,0.0,2,1019.0,976.4,79,76,18,0,0.26,0.7,12.4,16.6,22,24,37.1,8.1,3.9,5.4,8.1,0.265,0.295,0.338,0.358,1,3600.0,516.6,296.5,220.1,483.1,516.6,858.7,514.0,295.0,219.0,483.1,514.0,854.5,Tracheophyta; Eucalyptus L'Hér.; Magnoliopsida; Pinus pinaster Aiton; 
2005,2005-07-31,Porto,Penafiel,Recezinhos (são Martinho),Saida da A4,41.2269782,-8.218782,NC,291.0,2005-07-31T15:00,26.7,39,11.5,26.7,0.0,0.0,0.0,0.0,0,1014.4,981.4,8,0,0,27,0.57,2.14,11.6,14.7,334,338,28.1,28.7,21.0,20.2,16.9,0.177,0.154,0.226,0.319,1,3600.0,737.2,593.7,143.5,752.0,737.2,1048.0,781.0,629.0,152.0,752.0,781.0,1110.3,Eucalyptus L'Hér.; Magnoliopsida; Vitis vinifera L.; Tracheophyta; Quercus L.
2005,2005-08-05,Porto,Vila Nova de Gaia,Mafamude,Quinta Mourilhe,41.11230175,-8.59788539633546,NC,201.0,2005-08-05T12:00,34.0,20,7.7,34.1,0.0,0.0,0.0,0.0,0,1017.4,995.0,0,0,0,1,0.74,4.26,9.0,11.2,85,88,24.5,33.8,25.3,21.4,17.9,0.113,0.139,0.191,0.296,1,3600.0,932.2,820.1,112.0,910.1,932.2,1197.8,907.0,798.0,109.0,910.1,907.0,1165.5,Magnoliopsida; Tracheophyta; Pinus pinaster Aiton; Pinus pinea L.
2005,2005-08-01,Porto,Penafiel,Santa Marta,Portela do Monte \ POV,41.2095739,-8.257567,NC,338.0,2005-08-01T15:00,26.3,34,9.4,25.4,0.0,0.0,0.0,0.0,0,1015.6,977.3,1,0,1,0,0.56,2.25,13.0,16.7,332,335,30.6,28.6,21.1,20.0,16.8,0.153,0.157,0.232,0.332,1,3600.0,713.4,590.7,122.7,750.1,713.4,1045.6,756.0,626.0,130.0,750.1,756.0,1108.0,Eucalyptus L'Hér.; Magnoliopsida; Tracheophyta; Vitis vinifera L.
2005,2005-07-19,Porto,Amarante,Travanca,Lug. Monte Cima,41.2723342,-8.1914233,NC,208.0,2005-07-19T23:00,23.8,62,16.2,25.2,0.0,0.0,0.0,0.0,0,1019.8,995.7,0,0,0,0,0.02,1.11,5.9,7.8,101,68,12.2,23.4,24.8,21.3,16.4,0.116,0.148,0.222,0.322,0,0.0,0.0,0.0,0.0,0.0,0.0,0.0,0.0,0.0,0.0,0.0,0.0,0.0,Tracheophyta; Magnoliopsida; Eucalyptus L'Hér.; Vitis vinifera L.; Pinus pinaster Aiton; 
2005,2005-08-01,Porto,Maia,Milheirós,Monte das Cruzes,41.22341805,-8.592715135160201,NC,68.0,2005-08-01T15:00,26.8,45,13.9,26.3,0.0,0.0,0.0,0.0,0,1015.8,1008.0,0,0,0,0,0.58,1.94,20.3,26.4,337,340,35.3,29.7,22.9,21.4,18.4,0.166,0.144,0.199,0.301,1,3600.0,745.2,630.9,114.3,798.4,745.2,1049.3,789.0,668.0,121.0,798.4,789.0,1111.0,Tracheophyta; Magnoliopsida; Eucalyptus L'Hér.; 
2005,2005-07-20,Porto,Vila Nova de Gaia,Pedroso,R. Monte Morado,41.064143,-8.5572235,NC,131.0,2005-07-20T06:00,22.0,54,12.3,21.0,0.0,0.0,0.0,0.0,0,1019.7,1004.4,0,0,0,0,0.09,1.21,12.0,24.4,97,98,25.6,20.6,23.9,21.7,17.3,0.117,0.143,0.21,0.31,1,165.48,37.4,18.7,18.7,175.1,19.1,141.6,16.0,8.0,8.0,89.1,16.0,60.5,Magnoliopsida; Eucalyptus L'Hér.; Tracheophyta
2005,2005-02-19,Porto,Felgueiras,Várzea,BOAVISTA,41.3525259,-8.1921213,NC,278.0,2005-02-19T16:00,13.0,49,2.4,10.2,0.0,0.0,0.0,0.0,0,1022.2,988.9,0,0,0,0,0.22,0.77,7.3,9.3,340,344,18.7,11.2,5.3,5.9,8.7,0.279,0.305,0.345,0.364,1,3600.0,368.7,303.6,65.1,838.6,368.7,506.7,436.0,359.0,77.0,838.6,436.0,599.3,Magnoliopsida; Eucalyptus L'Hér.; Tracheophyta; Pinus pinaster Aiton; Vitis vinifera L.; Castanea sativa Mill.; Quercus L.; Olea europaea L.; Acacia Mill.; Pinales; 
2005,2005-07-19,Porto,Felgueiras,Pombeiro de Ribavizela,Lug. Picoto,41.3846665,-8.2182526,NC,233.0,2005-07-19T23:00,22.3,65,15.4,22.6,0.0,0.0,0.0,0.0,0,1020.0,993.0,0,0,0,0,0.05,0.95,10.9,15.3,63,60,17.3,23.3,24.7,21.1,16.4,0.097,0.161,0.251,0.353,0,0.0,0.0,0.0,0.0,0.0,0.0,0.0,0.0,0.0,0.0,0.0,0.0,0.0,Magnoliopsida; Eucalyptus L'Hér.; Vitis vinifera L.; Tracheophyta
2005,2005-07-22,Porto,Baião,Gove,CRASTO,41.1565523,-8.0445058,NC,659.0,2005-07-22T12:00,27.5,47,15.1,31.2,0.0,0.0,0.0,0.0,0,1015.7,942.9,6,0,0,20,0.66,1.97,3.7,4.7,299,302,20.9,32.4,23.9,20.8,15.2,0.108,0.14,0.206,0.304,1,3600.0,952.7,849.2,103.6,918.8,952.7,1224.5,929.0,828.0,101.0,918.8,929.0,1194.0,Tracheophyta; Magnoliopsida; Pinales; Eucalyptus L'Hér.; Vitis vinifera L.; Quercus L.; Pinus pinaster Aiton; 
2005,2005-02-18,Porto,Vila do Conde,Labruge,Moreiro,41.2833073,-8.7308075,NC,6.0,2005-02-18T14:00,12.0,48,1.5,9.6,0.0,0.0,0.0,0.0,0,1021.6,1020.9,1,0,1,0,0.3,0.73,6.8,7.7,3,11,18.4,13.1,8.3,9.3,11.5,0.225,0.272,0.321,0.331,1,3600.0,598.5,517.5,81.0,908.4,598.5,797.8,621.0,537.0,84.0,908.4,621.0,827.9,Magnoliopsida
2005,2005-08-01,Porto,Paços de Ferreira,Ferreira,S. Miguel,41.2663712,-8.3445627,NC,331.0,2005-08-01T20:00,21.5,51,10.8,20.5,0.0,0.0,0.0,0.0,0,1016.7,978.6,0,0,0,0,0.07,1.26,8.3,21.3,355,2,27.0,22.8,21.9,19.9,16.9,0.15,0.157,0.231,0.33,0,880.63,0.0,0.0,0.0,0.0,0.0,0.0,29.0,15.0,14.0,141.6,29.0,82.1,Eucalyptus L'Hér.; Tracheophyta; Magnoliopsida; Quercus L.; Pinus pinaster Aiton; 
2005,2005-07-22,Porto,Marco de Canaveses,Favões,L. REQUIM,41.1151838,-8.2318458,NC,190.0,2005-07-22T21:00,19.9,84,17.1,21.1,0.0,0.0,0.0,0.0,1,1015.4,993.2,32,3,0,97,0.01,0.37,9.7,15.2,318,324,25.2,24.9,26.2,22.3,17.3,0.1,0.148,0.229,0.326,0,0.0,0.0,0.0,0.0,0.0,0.0,0.0,0.0,0.0,0.0,0.0,0.0,0.0,Quercus L.; Tracheophyta; Eucalyptus L'Hér.; Vitis vinifera L.
2005,2005-07-22,Porto,Marco de Canaveses,Vila Boa de Quires,L. BORIZ,41.200721,-8.203458,NC,308.0,2005-07-22T22:00,18.6,88,16.5,20.3,0.0,0.0,0.0,0.0,1,1015.5,979.6,29,1,0,95,0.0,0.27,3.4,6.2,238,249,10.4,22.5,24.8,21.2,16.1,0.104,0.151,0.232,0.322,0,0.0,0.0,0.0,0.0,0.0,0.0,0.0,0.0,0.0,0.0,0.0,0.0,0.0,Pinus pinaster Aiton; Tracheophyta; Eucalyptus L'Hér.; Magnoliopsida; Vitis vinifera L.; Quercus L.; Pinales; 
2005,2005-07-20,Porto,Paços de Ferreira,Ferreira,Lamais,41.2663712,-8.3445627,NC,331.0,2005-07-20T08:00,24.4,41,10.4,22.1,0.0,0.0,0.0,0.0,0,1021.2,983.3,0,0,0,0,0.3,1.79,16.7,24.7,97,98,37.4,22.7,22.7,20.7,15.9,0.096,0.156,0.244,0.336,1,3600.0,413.5,323.7,89.8,683.8,413.5,626.9,336.0,263.0,73.0,683.8,336.0,509.4,Eucalyptus L'Hér.; Tracheophyta; Magnoliopsida; Quercus L.; Pinus pinaster Aiton; 
2005,2005-08-04,Porto,Valongo,Sobrado,ALTO RIBEIRA,41.2115102,-8.4652622,NC,127.0,2005-08-04T07:00,22.5,39,8.0,18.1,0.0,0.0,0.0,0.0,0,1019.5,1004.7,0,0,0,0,0.23,1.65,26.2,41.5,82,86,49.3,22.0,24.0,21.6,18.4,0.123,0.14,0.194,0.297,1,3546.33,184.2,121.2,63.0,471.2,182.7,341.8,117.0,77.0,40.0,467.3,117.0,217.1,Tracheophyta; Eucalyptus L'Hér.; Magnoliopsida; Pinus pinaster Aiton
2005,2005-07-26,Porto,Penafiel,Duas Igrejas,Castanheira de Baixo,41.1925028,-8.2731688,NC,348.0,2005-07-26T15:00,23.0,61,15.2,22.3,0.0,0.0,0.0,0.0,2,1009.3,969.7,61,31,50,10,0.36,1.09,16.6,22.1,202,202,45.7,26.9,22.3,21.0,16.4,0.118,0.151,0.236,0.334,1,3600.0,480.8,285.3,195.5,357.6,480.8,1057.8,509.0,302.0,207.0,357.6,509.0,1119.8,Eucalyptus L'Hér.; Tracheophyta; Magnoliopsida
