year,date,district,municipality,parish,local,latitude,longitude,cause,elevation,hourly.time,hourly.temperature_2m,hourly.relative_humidity_2m,hourly.dew_point_2m,hourly.apparent_temperature,hourly.precipitation,hourly.rain,hourly.snowfall,hourly.snow_depth,hourly.weather_code,hourly.pressure_msl,hourly.surface_pressure,hourly.cloud_cover,hourly.cloud_cover_low,hourly.cloud_cover_mid,hourly.cloud_cover_high,hourly.et0_fao_evapotranspiration,hourly.vapour_pressure_deficit,hourly.wind_speed_10m,hourly.wind_speed_100m,hourly.wind_direction_10m,hourly.wind_direction_100m,hourly.wind_gusts_10m,hourly.soil_temperature_0_to_7cm,hourly.soil_temperature_7_to_28cm,hourly.soil_temperature_28_to_100cm,hourly.soil_temperature_100_to_255cm,hourly.soil_moisture_0_to_7cm,hourly.soil_moisture_7_to_28cm,hourly.soil_moisture_28_to_100cm,hourly.soil_moisture_100_to_255cm,hourly.is_day,hourly.sunshine_duration,hourly.shortwave_radiation_instant,hourly.direct_radiation_instant,hourly.diffuse_radiation_instant,hourly.direct_normal_irradiance_instant,hourly.global_tilted_irradiance_instant,hourly.terrestrial_radiation_instant,hourly.shortwave_radiation,hourly.direct_radiation,hourly.diffuse_radiation,hourly.direct_normal_irradiance,hourly.global_tilted_irradiance,hourly.terrestrial_radiation,scientificNames
2005,2005-10-03,Aveiro,Santa Maria da Feira,Romariz,Portela,40.9428004,-8.4582082,NC,282.0,2005-10-03T18:00,22.6,26,2.2,19.8,0.0,0.0,0.0,0.0,0,1020.5,987.9,0,0,0,0,0.11,2.03,7.7,16.6,28,42,24.1,24.5,21.8,20.8,20.3,0.11,0.143,0.158,0.274,1,2756.66,19.3,12.6,6.7,144.6,16.4,36.7,89.0,58.0,31.0,396.9,89.0,168.9,Eucalyptus L'Hér.; Tracheophyta; Pinales; Magnoliopsida
2005,2005-04-13,Aveiro,Santa Maria da Feira,Fiães,FIÃES,40.9984369,-8.5305727,NC,222.0,2005-04-13T18:00,13.3,67,7.4,10.3,0.0,0.0,0.0,0.0,1,1012.4,986.0,42,14,0,99,0.14,0.5,16.3,22.5,317,319,39.6,16.2,14.4,12.2,10.3,0.256,0.283,0.307,0.304,1,3600.0,173.4,106.6,66.9,491.2,173.4,295.2,249.0,153.0,96.0,491.2,249.0,423.9,Tracheophyta; Eucalyptus L'Hér.; Magnoliopsida
2005,2005-02-28,Aveiro,Oliveira de Azeméis,Palmaz,Ponte Velha,40.7977094,-8.4612322,NC,238.0,2005-02-28T15:00,8.2,28,-9.3,1.6,0.0,0.0,0.0,0.0,0,1004.7,976.2,0,0,0,0,0.29,0.79,26.5,37.1,59,60,60.1,9.6,6.4,7.7,10.0,0.248,0.264,0.294,0.313,1,3600.0,588.9,509.7,79.1,948.7,588.9,749.1,640.0,554.0,86.0,948.7,640.0,814.2,Magnoliopsida; Eucalyptus L'Hér.; Tracheophyta; Pinus pinaster Aiton
2005,2005-06-01,Aveiro,Ovar,Esmoriz,Rua dos Aguaceiros - Agueiro,40.9602526,-8.6228198,NC,51.0,2005-06-01T14:00,28.1,32,9.7,27.4,0.0,0.0,0.0,0.0,0,1015.0,1009.2,0,0,0,0,0.73,2.6,18.4,22.9,343,352,32.8,29.1,21.1,17.2,13.7,0.149,0.216,0.261,0.298,1,3600.0,932.2,823.5,108.8,919.4,932.2,1191.5,960.0,848.0,112.0,919.4,960.0,1227.0,Tracheophyta; Eucalyptus L'Hér.
2005,2005-06-01,Aveiro,Ovar,Esmoriz,Agueiro,40.9602526,-8.6228198,NC,51.0,2005-06-01T09:00,22.5,37,6.9,19.4,0.0,0.0,0.0,0.0,0,1016.7,1010.7,0,0,0,0,0.41,1.72,16.5,22.9,74,77,32.4,21.4,19.7,17.2,13.7,0.158,0.221,0.263,0.298,1,3600.0,643.8,538.6,105.2,807.2,643.8,887.7,569.0,476.0,93.0,807.2,569.0,784.5,Tracheophyta; Eucalyptus L'Hér.
2005,2005-06-01,Aveiro,Santa Maria da Feira,Nogueira da Regedoura,NOGUEIRA DA REGEDOURA,41.00339965,-8.577401228806508,NC,138.0,2005-06-01T12:00,26.3,31,8.1,26.5,0.0,0.0,0.0,0.0,0,1016.5,1000.6,0,0,0,0,0.68,2.35,11.6,15.0,54,60,32.0,26.4,19.8,16.6,13.1,0.153,0.218,0.262,0.298,1,3600.0,981.6,865.0,116.6,921.1,981.6,1249.3,960.0,846.0,114.0,921.1,960.0,1221.9,Tracheophyta; Eucalyptus L'Hér.; Magnoliopsida
2005,2005-05-08,Aveiro,Arouca,Rossas,Sanfins,40.8940749,-8.317524,NC,608.0,2005-05-08T21:00,11.8,85,9.3,10.9,0.0,0.0,0.0,0.0,1,1014.0,943.2,36,27,0,40,0.0,0.21,5.1,9.5,278,279,20.9,14.4,15.4,12.2,9.1,0.286,0.323,0.365,0.365,0,0.0,0.0,0.0,0.0,0.0,0.0,0.0,0.0,0.0,0.0,0.0,0.0,0.0,Pinus pinaster Aiton; Quercus L.; Tracheophyta; Castanea sativa Mill.; Eucalyptus L'Hér.; Magnoliopsida
2005,2005-10-03,Aveiro,Santa Maria da Feira,Romariz,Rua Relvas,40.9364698,-8.4476951,NC,263.0,2005-10-03T21:00,18.1,38,3.7,15.2,0.0,0.0,0.0,0.0,0,1021.1,990.2,0,0,0,0,0.07,1.28,9.2,21.8,64,74,23.4,19.8,21.8,21.2,20.8,0.102,0.153,0.173,0.285,0,0.0,0.0,0.0,0.0,0.0,0.0,0.0,0.0,0.0,0.0,0.0,0.0,0.0,Eucalyptus L'Hér.; Tracheophyta; Pinales; Magnoliopsida; Pinus pinaster Aiton
2005,2005-04-27,Aveiro,Santa Maria da Feira,Mozelos,Bairro da Nª Sª de Fátima,40.99774985,-8.560747557187135,NC,141.0,2005-04-27T17:00,16.1,62,8.8,13.9,0.0,0.0,0.0,0.0,1,1017.4,1000.6,22,0,0,75,0.27,0.7,13.0,16.3,314,315,32.4,19.1,15.4,12.7,11.3,0.294,0.309,0.29,0.301,1,3600.0,425.3,352.2,73.1,791.4,425.3,601.0,506.0,419.0,87.0,791.4,506.0,715.0,Tracheophyta; Eucalyptus L'Hér.; Magnoliopsida; Pinus pinaster Aiton
2005,2005-05-04,Aveiro,Ovar,Válega,Srª de Entre Águas,40.82742785,-8.552567100000001,NC,84.0,2005-05-04T17:00,19.0,64,12.0,16.8,0.0,0.0,0.0,0.0,1,1018.3,1008.4,22,0,0,73,0.29,0.79,19.0,25.5,335,338,45.7,21.0,17.2,14.4,12.1,0.234,0.267,0.289,0.293,1,3600.0,420.6,323.3,97.3,698.4,420.6,622.9,497.0,382.0,115.0,698.4,497.0,736.0,Eucalyptus L'Hér.; Pinus pinaster Aiton; Magnoliopsida
2005,2005-05-07,Aveiro,Oliveira de Azeméis,Oliveira de Azeméis,Corute - Escariz,40.8431067,-8.468516409995193,NC,223.0,2005-05-07T18:00,19.9,62,12.4,19.1,0.0,0.0,0.0,0.0,0,1014.0,988.0,13,0,22,0,0.18,0.89,10.7,14.1,282,285,25.9,21.3,18.1,14.2,11.4,0.199,0.264,0.304,0.307,1,3600.0,193.6,130.1,63.5,454.2,193.6,384.8,256.0,172.0,84.0,454.2,256.0,508.8,Tracheophyta; Pinus pinaster Aiton; Eucalyptus L'Hér.
2005,2005-04-29,Aveiro,Águeda,Barrô,BARRÔ,40.5326613,-8.468756532957448,NC,43.0,2005-04-29T22:00,16.0,85,13.5,16.7,0.0,0.0,0.0,0.0,0,1014.7,1009.6,0,0,0,0,0.0,0.27,3.4,5.2,302,326,10.8,15.4,17.1,13.7,12.0,0.194,0.234,0.242,0.246,0,0.0,0.0,0.0,0.0,0.0,0.0,0.0,0.0,0.0,0.0,0.0,0.0,0.0,Magnoliopsida; Tracheophyta; Pinus pinaster Aiton
2005,2005-02-21,Aveiro,Ovar,Esmoriz,ESMORIZ,40.9627695,-8.6355218,NC,8.0,2005-02-21T20:00,7.1,61,0.2,1.6,0.0,0.0,0.0,0.0,0,1013.0,1012.0,14,15,0,0,0.06,0.39,23.7,34.8,347,346,40.7,8.0,9.2,9.5,11.5,0.192,0.233,0.284,0.306,0,0.0,0.0,0.0,0.0,0.0,0.0,0.0,0.0,0.0,0.0,0.0,0.0,0.0,Tracheophyta; Magnoliopsida
2005,2005-05-13,Aveiro,Espinho,Silvalde,SILVALDE,40.990344,-8.6407363,NC,8.0,2005-05-13T22:00,13.4,84,10.7,12.0,0.0,0.0,0.0,0.0,1,1019.7,1018.7,27,15,22,0,0.01,0.25,10.8,16.7,285,289,22.7,15.1,17.1,15.9,12.9,0.342,0.276,0.273,0.3,0,0.0,0.0,0.0,0.0,0.0,0.0,0.0,0.0,0.0,0.0,0.0,0.0,0.0,Tracheophyta
2005,2005-05-24,Aveiro,Ovar,Válega,Patial,40.82742785,-8.552567100000001,NC,84.0,2005-05-24T21:00,18.2,87,16.0,19.7,0.0,0.0,0.0,0.0,0,1018.2,1008.2,0,0,0,0,0.0,0.28,3.8,12.3,343,3,13.0,18.9,19.0,15.5,13.1,0.209,0.269,0.274,0.291,0,0.0,0.0,0.0,0.0,0.0,0.0,0.0,0.0,0.0,0.0,0.0,0.0,0.0,Eucalyptus L'Hér.; Pinus pinaster Aiton; Magnoliopsida
2005,2005-10-05,Aveiro,Santa Maria da Feira,Mozelos,Outeiro,40.99774985,-8.560747557187135,NC,141.0,2005-10-05T00:00,14.1,64,7.3,12.3,0.0,0.0,0.0,0.0,0,1019.5,1002.6,0,0,0,0,0.03,0.59,8.0,13.2,82,68,15.8,16.3,21.8,21.5,21.0,0.091,0.119,0.136,0.262,0,0.0,0.0,0.0,0.0,0.0,0.0,0.0,0.0,0.0,0.0,0.0,0.0,0.0,Tracheophyta; Eucalyptus L'Hér.; Magnoliopsida; Pinus pinaster Aiton
2005,2005-05-26,Aveiro,Oliveira de Azeméis,Carregosa,V.C. Perrinho,40.8832957,-8.4150805,NC,340.0,2005-05-26T11:00,24.6,51,13.7,26.8,0.0,0.0,0.0,0.0,0,1015.2,976.5,0,0,0,0,0.57,1.52,5.9,7.6,194,188,20.2,23.4,17.2,14.5,11.6,0.273,0.315,0.354,0.346,1,3600.0,904.7,787.0,117.7,887.4,904.7,1182.2,861.0,749.0,112.0,887.4,861.0,1125.1,Eucalyptus L'Hér.; Tracheophyta; Magnoliopsida; Pinus pinaster Aiton
2005,2005-04-30,Aveiro,Ovar,São Vicente de Pereira Jusã,SÃO VICENTE DE PEREIRA JUZA,40.8639697,-8.6166571,NC,18.0,2005-04-30T23:00,14.7,79,11.1,12.8,0.0,0.0,0.0,0.0,2,1011.9,1009.7,55,28,0,100,0.02,0.35,15.3,25.0,165,174,24.5,15.5,17.1,14.2,12.3,0.241,0.264,0.264,0.281,0,0.0,0.0,0.0,0.0,0.0,0.0,0.0,0.0,0.0,0.0,0.0,0.0,0.0,Tracheophyta; Magnoliopsida; Eucalyptus L'Hér.
2005,2005-03-09,Aveiro,Santa Maria da Feira,São João de Ver,Ilha,40.943422,-8.537466741838003,NC,188.0,2005-03-09T00:00,4.4,44,-6.8,-0.1,0.0,0.0,0.0,0.0,1,1027.1,1003.7,25,0,0,82,0.04,0.47,10.1,22.0,86,92,25.2,5.3,8.3,8.0,10.0,0.226,0.261,0.302,0.329,0,0.0,0.0,0.0,0.0,0.0,0.0,0.0,0.0,0.0,0.0,0.0,0.0,0.0,Tracheophyta; Eucalyptus L'Hér.; Magnoliopsida; Pinus pinaster Aiton
2005,2005-05-02,Aveiro,Santa Maria da Feira,Espargo,Rio de Lourido,40.9242118,-8.5615281,NC,135.0,2005-05-02T00:00,14.0,90,12.3,12.0,0.1,0.1,0.0,0.0,51,1013.0,996.9,55,51,9,11,0.01,0.16,18.3,32.7,190,195,36.0,14.6,16.0,13.7,11.6,0.262,0.26,0.263,0.281,0,0.0,0.0,0.0,0.0,0.0,0.0,0.0,0.0,0.0,0.0,0.0,0.0,0.0,Tracheophyta; Eucalyptus L'Hér.; Magnoliopsida
2005,2005-05-28,Aveiro,Aveiro,Aradas,Quinta do Picado,40.6100251,-8.6480901,NC,25.0,2005-05-28T23:00,16.4,88,14.4,15.7,0.0,0.0,0.0,0.0,2,1015.4,1012.4,52,26,0,97,0.01,0.23,15.3,21.1,333,335,21.2,17.6,19.9,17.1,13.9,0.067,0.148,0.177,0.209,0,0.0,0.0,0.0,0.0,0.0,0.0,0.0,0.0,0.0,0.0,0.0,0.0,0.0,Tracheophyta; Magnoliopsida; Pinus pinaster Aiton
2005,2005-10-05,Aveiro,Santa Maria da Feira,São João de Ver,Rua Joaquim Pinto,40.943422,-8.537466741838003,NC,188.0,2005-10-05T12:00,25.5,18,-0.2,23.6,0.0,0.0,0.0,0.0,0,1018.9,997.3,0,0,0,0,0.48,2.66,5.0,7.0,111,111,17.3,27.3,20.4,21.4,21.0,0.109,0.142,0.158,0.273,1,3600.0,736.4,641.9,94.5,925.9,736.4,948.6,717.0,625.0,92.0,925.9,717.0,923.6,Tracheophyta; Eucalyptus L'Hér.; Magnoliopsida; Pinus pinaster Aiton
2005,2005-10-05,Aveiro,Santa Maria da Feira,Sanguedo,4 Caminhos,41.0092747,-8.515097239744568,NC,183.0,2005-10-05T14:00,26.5,17,-0.4,25.0,0.0,0.0,0.0,0.0,0,1017.8,996.8,0,0,0,0,0.45,2.86,1.9,1.5,292,284,11.9,30.8,20.7,21.2,20.8,0.109,0.122,0.131,0.259,1,3600.0,664.4,577.9,86.5,919.8,664.4,859.8,699.0,608.0,91.0,919.8,699.0,904.5,Tracheophyta; Eucalyptus L'Hér.; Magnoliopsida
2005,2005-05-30,Aveiro,Aveiro,Cacia,CACIA,40.6848394,-8.5982266,NC,13.0,2005-05-30T15:00,26.9,43,13.3,24.6,0.0,0.0,0.0,0.0,1,1019.3,1017.8,23,0,21,36,0.63,2.01,31.5,41.5,341,344,51.1,29.7,20.4,17.2,14.1,0.07,0.148,0.179,0.211,1,3600.0,799.4,687.3,112.2,854.5,799.4,1070.5,848.0,729.0,119.0,854.5,848.0,1135.5,Tracheophyta; Magnoliopsida
2005,2005-05-30,Aveiro,Santa Maria da Feira,Louredo,Parada,40.9871338,-8.4667638,NC,161.0,2005-05-30T17:00,24.8,50,13.6,22.6,0.0,0.0,0.0,0.0,0,1018.3,999.7,8,0,11,6,0.42,1.58,23.1,33.5,339,341,42.1,25.0,19.7,16.1,12.8,0.199,0.237,0.278,0.301,1,3600.0,472.9,381.3,91.6,738.3,472.9,687.4,547.0,441.0,106.0,738.3,547.0,795.1,Tracheophyta; Eucalyptus L'Hér.; Magnoliopsida
2005,2005-10-05,Aveiro,Santa Maria da Feira,Milheirós de Poiares,Espinheiro,40.918673,-8.4807078,NC,226.0,2005-10-05T14:00,26.4,17,-0.4,24.9,0.0,0.0,0.0,0.0,0,1017.8,992.0,0,0,0,0,0.45,2.84,1.9,1.5,292,284,11.9,30.1,20.9,21.2,20.7,0.109,0.142,0.158,0.273,1,3600.0,664.4,577.9,86.5,918.7,664.4,860.8,699.0,608.0,91.0,918.7,699.0,905.6,Tracheophyta; Magnoliopsida; Eucalyptus L'Hér.; Pinales
2005,2005-05-24,Aveiro,Ovar,Arada,ARADA,40.91515315,-8.60123260003466,NC,69.0,2005-05-24T16:00,23.3,58,14.4,22.3,0.0,0.0,0.0,0.0,0,1018.0,1009.9,1,0,0,3,0.46,1.21,22.4,29.0,332,337,36.7,24.7,18.7,15.5,13.2,0.227,0.252,0.245,0.279,1,3600.0,659.1,564.7,94.4,847.7,659.1,888.5,726.0,622.0,104.0,847.7,726.0,978.7,Tracheophyta; Eucalyptus L'Hér.; Pinus pinaster Aiton; Magnoliopsida
2005,2005-05-06,Aveiro,Ílhavo,Ílhavo (são Salvador),Vista Alegre,40.5893764,-8.6826535,NC,14.0,2005-05-06T12:00,25.4,29,6.3,25.2,0.0,0.0,0.0,0.0,1,1019.3,1017.7,28,0,0,92,0.62,2.29,8.7,11.9,60,76,27.4,27.6,18.3,15.7,12.9,0.07,0.158,0.2,0.216,1,3600.0,910.1,703.3,206.8,775.3,910.1,1219.7,889.0,687.0,202.0,775.3,889.0,1191.4,Tracheophyta
2005,2005-05-25,Aveiro,Oliveira de Azeméis,Fajões,S. Miguel do Mato,40.9173379,-8.4234658,NC,350.0,2005-05-25T22:00,15.5,89,13.7,16.1,0.0,0.0,0.0,0.0,0,1019.8,978.6,19,0,0,64,0.0,0.19,3.6,4.7,354,4,7.9,16.9,18.4,14.3,11.6,0.274,0.318,0.355,0.346,0,0.0,0.0,0.0,0.0,0.0,0.0,0.0,0.0,0.0,0.0,0.0,0.0,0.0,Tracheophyta; Pinus pinaster Aiton; Magnoliopsida
2005,2005-10-05,Aveiro,Oliveira de Azeméis,Nogueira do Cravo,Monte Belo,40.8560743,-8.4453526,NC,204.0,2005-10-05T23:00,14.8,58,6.6,12.9,0.0,0.0,0.0,0.0,0,1017.6,993.3,0,0,0,0,0.03,0.71,7.3,7.5,70,55,12.6,16.9,21.6,21.3,20.9,0.108,0.141,0.158,0.273,0,0.0,0.0,0.0,0.0,0.0,0.0,0.0,0.0,0.0,0.0,0.0,0.0,0.0,Tracheophyta; Eucalyptus L'Hér.; Pinus pinaster Aiton
2005,2005-02-01,Aveiro,Oliveira do Bairro,Troviscal,Limeira,40.506918600000006,-8.560473409577213,NC,57.0,2005-02-01T19:00,9.9,67,4.1,7.2,0.0,0.0,0.0,0.0,0,1028.4,1021.4,0,0,0,0,0.02,0.4,8.9,20.3,27,25,15.8,9.1,8.6,8.7,12.0,0.112,0.162,0.201,0.189,0,0.0,0.0,0.0,0.0,0.0,0.0,0.0,0.0,0.0,0.0,0.0,0.0,0.0,Tracheophyta; Eucalyptus L'Hér.; Vitis vinifera L.; Pinus pinaster Aiton
2005,2005-02-28,Aveiro,Ovar,Esmoriz,R. do Agueiro,40.9602526,-8.6228198,NC,51.0,2005-02-28T11:00,6.3,37,-7.4,-1.2,0.0,0.0,0.0,0.0,0,1007.7,1001.4,0,0,0,0,0.23,0.61,31.4,40.6,58,60,55.4,7.4,6.5,8.7,10.9,0.242,0.246,0.279,0.305,1,3600.0,621.2,531.2,90.0,917.6,621.2,807.1,566.0,484.0,82.0,917.6,566.0,735.5,Tracheophyta; Eucalyptus L'Hér.
2005,2005-05-06,Aveiro,Santa Maria da Feira,Romariz,Carvalhal,40.9427185,-8.4605098,NC,322.0,2005-05-06T23:00,13.5,78,9.8,12.2,0.0,0.0,0.0,0.0,0,1018.1,979.9,0,0,0,0,0.01,0.34,8.8,16.6,55,34,14.8,14.5,16.8,13.7,10.9,0.259,0.307,0.343,0.338,0,0.0,0.0,0.0,0.0,0.0,0.0,0.0,0.0,0.0,0.0,0.0,0.0,0.0,Eucalyptus L'Hér.; Tracheophyta; Olea europaea L.; Pinales; Magnoliopsida
2005,2005-05-26,Aveiro,Santa Maria da Feira,Canedo,Sobreda,41.017568,-8.4518566,NC,188.0,2005-05-26T16:00,23.7,49,12.4,24.5,0.0,0.0,0.0,0.0,0,1014.9,993.2,0,0,0,0,0.47,1.49,6.9,8.9,261,256,24.1,25.4,19.5,15.3,12.4,0.23,0.264,0.286,0.302,1,3600.0,655.8,562.2,93.6,841.5,655.8,890.5,722.0,619.0,103.0,841.5,722.0,980.5,Pinus pinaster Aiton; Tracheophyta; Eucalyptus L'Hér.; Magnoliopsida
2005,2005-02-03,Aveiro,Sever do Vouga,Silva Escura,Sequeiros,40.7578177,-8.391287453981723,NC,298.0,2005-02-03T10:00,6.9,63,0.2,2.9,0.0,0.0,0.0,0.0,0,1029.3,992.7,0,0,0,0,0.11,0.37,12.6,18.7,88,88,30.2,6.0,6.3,7.7,11.2,0.284,0.306,0.34,0.343,1,3600.0,334.0,260.7,73.2,731.7,334.0,501.7,269.0,210.0,59.0,731.7,269.0,404.1,Magnoliopsida; Pinus pinaster Aiton; Eucalyptus L'Hér.; Vitis vinifera L.
2005,2005-10-06,Aveiro,Espinho,Silvalde,Rua Porto,40.9903511,-8.6407154,NC,8.0,2005-10-06T14:00,27.6,20,2.7,25.4,0.0,0.0,0.0,0.0,0,1014.8,1013.9,0,0,0,0,0.52,2.96,9.4,8.3,277,265,19.8,32.5,21.7,22.2,21.8,0.09,0.118,0.135,0.261,1,3600.0,658.6,572.1,86.5,917.2,658.6,854.1,693.0,602.0,91.0,917.2,693.0,898.7,Tracheophyta
2005,2005-05-28,Aveiro,Vale de Cambra,Cepelos,Merlães,40.824295,-8.358874,NC,516.0,2005-05-28T15:00,22.8,62,15.2,24.0,0.0,0.0,0.0,0.0,3,1014.0,955.7,82,0,87,98,0.48,1.05,11.4,14.7,294,298,25.9,23.6,17.2,14.2,10.8,0.288,0.316,0.366,0.365,1,3600.0,700.8,429.5,271.3,537.2,700.8,1065.0,744.0,456.0,288.0,537.2,744.0,1130.6,Eucalyptus L'Hér.; Magnoliopsida; Pinus pinaster Aiton
2005,2005-05-07,Aveiro,Mealhada,Casal Comba,Ponte Viadores,40.3585141,-8.4522844,NC,53.0,2005-05-07T13:00,25.4,38,10.0,25.3,0.0,0.0,0.0,0.0,1,1014.9,1008.8,26,0,40,8,0.56,2.01,10.2,12.4,252,248,29.2,27.6,18.9,15.3,12.2,0.089,0.151,0.184,0.199,1,3600.0,776.6,567.5,209.1,622.7,776.6,1224.7,780.0,570.0,210.0,622.7,780.0,1230.0,Magnoliopsida; Pinus pinaster Aiton; Vitis vinifera L.; Tracheophyta
2005,2005-10-07,Aveiro,Oliveira de Azeméis,Travanca,Suzana,40.8142477,-8.4827757,NC,106.0,2005-10-07T05:00,10.9,74,6.5,9.4,0.0,0.0,0.0,0.0,0,1014.0,1001.2,19,0,0,64,0.0,0.34,4.4,4.5,125,166,8.6,13.3,20.5,21.8,21.4,0.092,0.13,0.147,0.249,0,0.0,0.0,0.0,0.0,0.0,0.0,0.0,0.0,0.0,0.0,0.0,0.0,0.0,Eucalyptus L'Hér.; Magnoliopsida; Tracheophyta
2005,2005-03-09,Aveiro,Vale de Cambra,Arões,Souto Mau,40.78752165,-8.285909350460457,NC,410.0,2005-03-09T14:00,13.1,30,-4.0,10.7,0.0,0.0,0.0,0.0,1,1025.2,976.5,21,0,0,70,0.38,1.05,6.3,7.8,103,103,24.5,13.3,6.4,6.4,8.6,0.231,0.275,0.312,0.341,1,3600.0,718.3,616.9,101.4,928.0,718.3,922.8,744.0,639.0,105.0,928.0,744.0,955.8,Magnoliopsida; Pinus pinaster Aiton; Tracheophyta; Eucalyptus L'Hér.
2005,2005-10-07,Aveiro,Santa Maria da Feira,São João de Ver,Quinta do Arieiro,40.943422,-8.537466741838003,NC,188.0,2005-10-07T12:00,27.0,21,2.5,25.2,0.0,0.0,0.0,0.0,1,1013.9,992.5,50,0,43,80,0.49,2.83,6.4,7.7,227,221,14.8,27.6,20.0,21.3,21.0,0.108,0.14,0.157,0.272,1,3600.0,706.6,599.8,106.8,877.2,706.6,936.6,688.0,584.0,104.0,877.2,688.0,912.0,Tracheophyta; Eucalyptus L'Hér.; Magnoliopsida; Pinus pinaster Aiton
2005,2005-05-07,Aveiro,Vale de Cambra,Roge,Sandiães,40.8529519,-8.3562767,NC,370.0,2005-05-07T21:00,14.8,87,12.6,14.6,0.0,0.0,0.0,0.0,0,1015.2,971.8,16,0,26,1,0.0,0.22,6.4,8.8,243,251,13.3,16.2,16.8,13.3,10.4,0.262,0.311,0.351,0.346,0,0.0,0.0,0.0,0.0,0.0,0.0,0.0,0.0,0.0,0.0,0.0,0.0,0.0,Tracheophyta; Eucalyptus L'Hér.; Pinus pinaster Aiton; Magnoliopsida
2005,2005-05-28,Aveiro,Espinho,Anta,Esmojães,41.007855,-8.6187792,NC,39.0,2005-05-28T16:00,22.1,65,15.1,20.4,0.0,0.0,0.0,0.0,1,1015.2,1010.6,44,0,28,92,0.4,0.94,27.2,36.4,331,334,43.2,24.8,19.3,16.5,13.5,0.203,0.246,0.269,0.298,1,3600.0,620.1,439.2,180.9,653.1,620.1,895.7,682.0,483.0,199.0,653.1,682.0,985.1,Eucalyptus L'Hér.; Tracheophyta; Pinus pinaster Aiton; Magnoliopsida
2005,2005-02-02,Aveiro,Estarreja,Beduído,Póvoa de Baixo,40.7585404,-8.5897652,NC,11.0,2005-02-02T11:00,11.9,59,4.3,8.5,0.0,0.0,0.0,0.0,0,1030.5,1029.1,0,0,0,0,0.19,0.57,14.3,18.6,51,58,27.4,9.8,7.5,9.4,12.7,0.234,0.27,0.308,0.301,1,3600.0,445.8,364.9,80.8,795.3,445.8,646.3,397.0,325.0,72.0,795.3,397.0,575.6,Magnoliopsida; Tracheophyta; Pinus pinaster Aiton
2005,2005-02-28,Aveiro,Arouca,Várzea,VÁRZEA,40.923669700000005,-8.304524590280023,NC,258.0,2005-02-28T20:00,3.6,32,-11.7,-2.1,0.0,0.0,0.0,0.0,0,1007.0,975.5,0,0,0,0,0.07,0.54,15.5,32.0,77,78,41.0,4.6,5.9,6.8,9.4,0.28,0.298,0.319,0.341,0,0.0,0.0,0.0,0.0,0.0,0.0,0.0,0.0,0.0,0.0,0.0,0.0,0.0,Pinus pinaster Aiton; Tracheophyta; Eucalyptus L'Hér.; Magnoliopsida; Vitis vinifera L.
2005,2005-05-29,Aveiro,Ovar,São João,São João,40.8678427,-8.596697894916149,NC,38.0,2005-05-29T08:00,16.5,81,13.2,14.4,0.0,0.0,0.0,0.0,2,1016.7,1012.2,57,63,0,0,0.14,0.36,21.2,25.9,345,346,33.8,17.9,18.0,16.7,13.7,0.19,0.22,0.239,0.278,1,3600.0,331.5,206.9,124.6,409.2,331.5,673.3,274.0,171.0,103.0,409.2,274.0,556.5,Eucalyptus L'Hér.; Magnoliopsida; Tracheophyta; Pinus pinaster Aiton; Acacia Mill.; 
2005,2005-02-28,Aveiro,Santa Maria da Feira,São Paio de Oleiros,Fial,40.9908653,-8.5940565,NC,104.0,2005-02-28T22:00,3.2,35,-10.8,-3.3,0.0,0.0,0.0,0.0,0,1008.9,996.0,0,0,0,0,0.08,0.5,21.4,35.9,77,80,44.6,4.4,7.1,8.3,10.6,0.233,0.244,0.279,0.305,0,0.0,0.0,0.0,0.0,0.0,0.0,0.0,0.0,0.0,0.0,0.0,0.0,0.0,Tracheophyta; Pinus pinaster Aiton; Eucalyptus L'Hér.; Magnoliopsida; Acacia Mill.
2005,2005-10-07,Aveiro,Oliveira de Azeméis,Nogueira do Cravo,Cimo Vila,40.8927534,-8.4461691,NC,309.0,2005-10-07T18:00,23.2,32,5.8,21.3,0.0,0.0,0.0,0.0,0,1013.2,977.9,4,0,6,0,0.08,1.93,5.8,8.9,330,339,18.4,25.0,21.2,20.6,20.5,0.1,0.148,0.172,0.284,1,2353.19,3.3,2.0,1.4,22.5,2.5,7.0,66.0,39.0,27.0,288.7,66.0,139.5,Magnoliopsida; Tracheophyta; Eucalyptus L'Hér.; Pinus pinaster Aiton
2005,2005-04-30,Aveiro,Santa Maria da Feira,Romariz,Goim,40.9432863,-8.4386917,NC,347.0,2005-04-30T21:00,13.6,79,10.0,12.8,0.0,0.0,0.0,0.0,1,1012.8,971.9,30,0,0,99,0.0,0.33,6.0,9.6,213,214,19.4,14.9,15.9,12.3,10.2,0.311,0.341,0.363,0.347,0,0.0,0.0,0.0,0.0,0.0,0.0,0.0,0.0,0.0,0.0,0.0,0.0,0.0,Eucalyptus L'Hér.; Tracheophyta; Pinales
2005,2005-10-08,Aveiro,Oliveira de Azeméis,Nogueira do Cravo,Cimo Vila,40.8927534,-8.4461691,NC,309.0,2005-10-08T06:00,14.7,52,4.9,12.6,0.0,0.0,0.0,0.0,0,1015.2,978.8,12,0,9,21,0.03,0.81,6.1,11.3,152,197,15.1,14.0,19.4,20.6,20.5,0.1,0.148,0.172,0.284,0,0.0,0.0,0.0,0.0,0.0,0.0,0.0,0.0,0.0,0.0,0.0,0.0,0.0,Magnoliopsida; Tracheophyta; Eucalyptus L'Hér.; Pinus pinaster Aiton
2005,2005-04-30,Aveiro,Santa Maria da Feira,Romariz,Goim,40.9432863,-8.4386917,NC,347.0,2005-04-30T23:00,12.5,82,9.5,11.6,0.0,0.0,0.0,0.0,1,1012.5,971.5,31,2,0,98,0.0,0.26,5.7,10.2,162,190,17.6,13.7,15.5,12.3,10.2,0.312,0.341,0.363,0.347,0,0.0,0.0,0.0,0.0,0.0,0.0,0.0,0.0,0.0,0.0,0.0,0.0,0.0,Eucalyptus L'Hér.; Tracheophyta; Pinales
2005,2005-05-08,Aveiro,Ovar,Esmoriz,ESMORIZ,40.96277635,-8.63534580069145,NC,8.0,2005-05-08T20:00,15.6,77,11.5,14.9,0.0,0.0,0.0,0.0,1,1013.5,1012.5,23,24,0,5,0.03,0.42,7.6,10.2,245,247,19.1,18.3,18.7,15.7,12.6,0.197,0.243,0.277,0.3,0,0.0,0.0,0.0,0.0,0.0,0.0,0.0,12.0,4.0,8.0,45.5,12.0,59.1,Tracheophyta; Magnoliopsida
2005,2005-05-04,Aveiro,Sever do Vouga,Talhadas,Vide,40.6659637,-8.3272991,NC,486.0,2005-05-04T13:00,18.8,53,9.0,19.2,0.0,0.0,0.0,0.0,1,1019.9,963.8,21,23,0,0,0.55,1.02,11.6,15.0,330,333,33.5,20.1,14.1,12.2,9.8,0.316,0.329,0.353,0.342,1,3600.0,953.6,835.1,118.5,924.7,953.6,1215.4,958.0,839.0,119.0,924.7,958.0,1221.1,Pinus pinaster Aiton; Eucalyptus L'Hér.; Tracheophyta; Magnoliopsida
2005,2005-10-08,Aveiro,Santa Maria da Feira,Santa Maria de Lamas,Valada,40.97821435,-8.570031208138195,NC,120.0,2005-10-08T08:00,15.6,68,9.7,14.5,0.0,0.0,0.0,0.0,1,1016.0,1001.7,28,0,7,80,0.06,0.56,6.7,7.1,106,135,16.2,14.9,19.7,21.4,21.1,0.09,0.117,0.135,0.261,1,3293.17,154.7,74.1,80.6,304.3,146.9,334.0,96.0,46.0,50.0,288.8,96.0,207.2,Tracheophyta; Eucalyptus L'Hér.; Magnoliopsida; Pinus pinaster Aiton
2005,2005-05-05,Aveiro,Vale de Cambra,Cepelos,Póvoa das Chaves,40.843105,-8.344178,NC,440.0,2005-05-05T02:00,8.9,89,7.2,7.0,0.0,0.0,0.0,0.0,0,1017.8,965.2,13,0,0,43,0.0,0.12,8.2,14.0,49,42,23.8,11.4,14.6,12.9,10.2,0.329,0.346,0.367,0.356,0,0.0,0.0,0.0,0.0,0.0,0.0,0.0,0.0,0.0,0.0,0.0,0.0,0.0,Eucalyptus L'Hér.; Magnoliopsida; Pinus pinaster Aiton; Tracheophyta
2005,2005-10-08,Aveiro,Oliveira de Azeméis,Vila de Cucujães,Faria de Cima,40.8768849,-8.5022396,NC,216.0,2005-10-08T11:00,25.1,28,5.3,23.5,0.0,0.0,0.0,0.0,2,1016.6,991.8,63,0,56,98,0.33,2.3,3.4,4.4,148,145,13.7,24.2,19.8,21.0,20.8,0.108,0.14,0.157,0.272,1,3600.0,503.2,290.2,213.1,455.8,503.2,872.5,470.0,271.0,199.0,455.8,470.0,814.9,Magnoliopsida; Tracheophyta
2005,2005-10-09,Aveiro,Vale de Cambra,Macieira de Cambra,Tagim,40.864486,-8.386432,NC,291.0,2005-10-09T04:00,15.3,62,8.2,13.7,0.0,0.0,0.0,0.0,2,1016.9,982.6,62,0,57,91,0.03,0.66,7.9,10.7,87,110,12.6,16.3,20.1,20.6,20.6,0.1,0.147,0.172,0.283,0,0.0,0.0,0.0,0.0,0.0,0.0,0.0,0.0,0.0,0.0,0.0,0.0,0.0,Tracheophyta; Eucalyptus L'Hér.; Magnoliopsida
2005,2005-10-09,Aveiro,Ovar,Maceda,S. Vicente,40.9148096,-8.6285648,NC,28.0,2005-10-09T11:00,27.6,32,9.3,25.2,0.0,0.0,0.0,0.0,1,1017.4,1014.2,34,0,18,78,0.44,2.52,15.5,20.3,192,187,33.5,27.2,21.2,22.0,21.6,0.1,0.108,0.116,0.237,1,3600.0,528.2,379.3,148.9,601.6,528.2,864.7,493.0,354.0,139.0,601.6,493.0,807.0,Pinus pinaster Aiton; Tracheophyta; Magnoliopsida; Eucalyptus L'Hér.
2005,2005-05-09,Aveiro,Santa Maria da Feira,Canedo,Mosteiro,41.03659435,-8.461705213363171,NC,167.0,2005-05-09T16:00,18.4,60,10.5,16.5,0.0,0.0,0.0,0.0,1,1010.7,991.1,39,25,27,0,0.34,0.85,15.6,20.1,244,243,36.7,21.0,17.2,14.7,11.6,0.218,0.248,0.287,0.303,1,3600.0,533.0,391.4,141.6,615.2,533.0,854.1,591.0,434.0,157.0,615.2,591.0,947.1,Eucalyptus L'Hér.
2005,2005-05-08,Aveiro,Santa Maria da Feira,Lobão,LOBÃO,40.98260465,-8.4900676884166,NC,179.0,2005-05-08T17:00,18.2,63,11.1,16.5,0.0,0.0,0.0,0.0,1,1013.2,992.2,43,48,0,0,0.29,0.77,13.7,17.4,265,264,28.8,21.4,17.7,14.6,11.5,0.22,0.253,0.289,0.303,1,3600.0,427.3,349.1,78.2,740.7,427.3,633.0,503.0,411.0,92.0,740.7,503.0,745.2,Eucalyptus L'Hér.; Tracheophyta
2005,2005-10-09,Aveiro,São João da Madeira,São João da Madeira,São João da Madeira,40.897404,-8.490683816868543,NC,222.0,2005-10-09T14:00,23.9,53,13.6,22.5,0.3,0.3,0.0,0.0,51,1016.7,991.1,31,0,2,100,0.34,1.4,17.8,23.7,223,221,39.2,26.7,21.0,20.9,20.7,0.113,0.139,0.157,0.272,1,3600.0,396.4,167.9,228.5,275.7,396.4,835.1,418.0,177.0,241.0,275.7,418.0,880.6,Tracheophyta
2005,2005-05-09,Aveiro,Santa Maria da Feira,Romariz,Carvalhal,40.9427185,-8.4605098,NC,322.0,2005-05-09T00:00,11.4,94,10.4,10.6,0.0,0.0,0.0,0.0,1,1013.5,975.2,46,20,0,93,0.0,0.09,6.1,9.7,177,180,14.4,13.8,16.5,14.1,11.0,0.238,0.292,0.339,0.337,0,0.0,0.0,0.0,0.0,0.0,0.0,0.0,0.0,0.0,0.0,0.0,0.0,0.0,Eucalyptus L'Hér.; Tracheophyta; Olea europaea L.; Pinales; Magnoliopsida
2005,2005-10-19,Aveiro,Santa Maria da Feira,Sanguedo,R: Boa Nova,41.0092747,-8.515097239744568,NC,183.0,2005-10-19T16:00,18.1,59,9.8,15.2,0.2,0.2,0.0,0.0,51,1013.6,992.1,82,39,51,53,0.17,0.86,19.2,29.7,197,197,42.5,17.9,17.2,18.8,20.6,0.329,0.315,0.143,0.257,1,2760.18,143.2,46.7,96.5,152.0,143.2,423.4,178.0,58.0,120.0,152.0,178.0,526.3,Tracheophyta; Eucalyptus L'Hér.; Magnoliopsida
2005,2005-10-20,Aveiro,Ovar,Arada,ARADA,40.91515315,-8.60123260003466,NC,69.0,2005-10-20T18:00,15.9,71,10.7,15.2,0.0,0.0,0.0,0.0,0,1012.9,1004.7,2,1,0,2,0.03,0.52,6.5,12.1,273,287,11.9,16.7,17.8,19.3,21.2,0.361,0.34,0.133,0.236,0,823.8,0.0,0.0,0.0,0.0,0.0,0.0,27.0,15.0,12.0,147.0,27.0,81.4,Tracheophyta; Eucalyptus L'Hér.; Pinus pinaster Aiton; Magnoliopsida
2005,2005-05-12,Aveiro,Santa Maria da Feira,Fiães,Chouza de Cima,40.9835425,-8.5177043,NC,171.0,2005-05-12T23:00,12.8,88,10.9,11.9,0.0,0.0,0.0,0.0,3,1012.2,991.8,90,72,41,1,0.0,0.17,8.0,15.6,198,214,18.4,14.8,16.7,14.9,11.8,0.308,0.27,0.284,0.303,0,0.0,0.0,0.0,0.0,0.0,0.0,0.0,0.0,0.0,0.0,0.0,0.0,0.0,Pinus pinaster Aiton; Magnoliopsida; Tracheophyta; Eucalyptus L'Hér.
2005,2005-02-04,Aveiro,Santa Maria da Feira,Mozelos,Coteiro,40.99774985,-8.560747557187135,NC,141.0,2005-02-04T06:00,4.1,77,0.4,0.3,0.0,0.0,0.0,0.0,0,1025.4,1007.8,0,0,0,0,0.01,0.19,11.8,26.1,59,64,29.9,3.8,6.6,8.3,11.5,0.244,0.266,0.301,0.307,0,0.0,0.0,0.0,0.0,0.0,0.0,0.0,0.0,0.0,0.0,0.0,0.0,0.0,Tracheophyta; Eucalyptus L'Hér.; Magnoliopsida; Pinus pinaster Aiton
2005,2005-05-31,Aveiro,Ovar,Esmoriz,ESMORIZ,40.96277635,-8.63534580069145,NC,8.0,2005-05-31T21:00,22.1,64,15.1,21.1,0.0,0.0,0.0,0.0,0,1017.0,1016.1,1,0,1,0,0.08,0.95,18.4,32.0,354,1,30.6,22.3,21.9,17.3,13.9,0.159,0.222,0.263,0.298,0,0.0,0.0,0.0,0.0,0.0,0.0,0.0,0.0,0.0,0.0,0.0,0.0,0.0,Tracheophyta; Magnoliopsida
2005,2005-05-11,Aveiro,Santa Maria da Feira,Sanguedo,Rua do Miogo,41.0092747,-8.515097239744568,NC,183.0,2005-05-11T19:00,15.7,83,12.8,15.6,0.2,0.2,0.0,0.0,51,1010.5,988.9,90,84,23,3,0.06,0.31,7.1,9.5,330,331,19.8,17.8,16.7,14.7,11.7,0.34,0.261,0.285,0.303,1,3600.0,47.1,20.0,27.1,181.3,47.1,148.2,87.0,37.0,50.0,181.3,87.0,273.8,Tracheophyta; Eucalyptus L'Hér.; Magnoliopsida
2005,2005-05-31,Aveiro,Ovar,Esmoriz,ESMORIZ,40.96277635,-8.63534580069145,NC,8.0,2005-05-31T23:00,20.7,68,14.6,20.2,0.0,0.0,0.0,0.0,0,1017.2,1016.3,0,0,0,0,0.05,0.79,13.8,25.3,7,17,22.3,20.5,21.6,17.3,13.9,0.159,0.222,0.263,0.298,0,0.0,0.0,0.0,0.0,0.0,0.0,0.0,0.0,0.0,0.0,0.0,0.0,0.0,Tracheophyta; Magnoliopsida
2005,2005-05-12,Aveiro,Ílhavo,Ílhavo (são Salvador),Ermida,40.5735604,-8.6578087,NC,28.0,2005-05-12T14:00,19.5,62,12.1,19.5,0.0,0.0,0.0,0.0,0,1010.8,1007.5,11,8,7,0,0.46,0.86,14.6,16.9,290,290,27.4,24.4,18.2,16.5,13.2,0.139,0.144,0.193,0.215,1,3600.0,790.6,612.3,178.3,702.9,790.6,1167.8,816.0,632.0,184.0,702.9,816.0,1205.3,Tracheophyta; Pinus pinaster Aiton; Eucalyptus L'Hér.; Magnoliopsida
2005,2005-05-24,Aveiro,Santa Maria da Feira,Argoncilhe,Rua das Gândaras,41.0183885,-8.5477254,NC,225.0,2005-05-24T14:00,24.0,52,13.5,25.3,0.0,0.0,0.0,0.0,0,1018.0,992.1,7,0,0,22,0.59,1.43,12.2,14.4,304,307,25.2,24.5,16.9,14.5,12.1,0.263,0.285,0.29,0.302,1,3600.0,888.5,721.7,166.8,814.6,888.5,1181.8,916.0,744.0,172.0,814.6,916.0,1218.3,Eucalyptus L'Hér.; Magnoliopsida; Tracheophyta; Quercus L.
2005,2005-05-26,Aveiro,Ílhavo,Gafanha da Encarnação,GAFANHA DA ENCARNAÇÃO,40.6302572,-8.7302736,NC,1.0,2005-05-26T13:00,26.1,40,11.5,27.4,0.0,0.0,0.0,0.0,0,1016.0,1015.9,0,0,0,0,0.67,2.03,10.5,11.2,278,276,27.7,31.7,20.6,17.1,14.2,0.066,0.16,0.183,0.213,1,3600.0,959.6,843.0,116.6,898.8,959.6,1250.1,963.0,846.0,117.0,898.8,963.0,1254.6,Tracheophyta
2005,2005-05-30,Aveiro,Vagos,Fonte de Angeão,Gândara,40.4408443,-8.6802297,NC,49.0,2005-05-30T20:00,20.6,61,12.9,17.3,0.0,0.0,0.0,0.0,1,1018.2,1012.4,42,0,20,100,0.14,0.94,28.7,44.8,352,355,48.6,22.3,20.7,17.1,14.0,0.056,0.104,0.131,0.172,0,982.42,0.0,0.0,0.0,0.0,0.0,0.0,34.0,15.0,19.0,131.3,34.0,93.0,Pinus pinaster Aiton; Tracheophyta
2005,2005-02-02,Aveiro,Espinho,Espinho,Rua Pinha,40.9680602,-8.6250963,NC,39.0,2005-02-02T22:00,7.5,78,3.9,4.3,0.0,0.0,0.0,0.0,0,1029.8,1024.9,0,0,0,0,0.01,0.23,11.9,25.5,65,74,18.0,7.2,8.8,8.9,12.3,0.247,0.268,0.302,0.307,0,0.0,0.0,0.0,0.0,0.0,0.0,0.0,0.0,0.0,0.0,0.0,0.0,0.0,Tracheophyta; Eucalyptus L'Hér.; Pinus pinaster Aiton; Magnoliopsida
2005,2005-05-31,Aveiro,Vale de Cambra,São Pedro de Castelões,Aguincheira,40.8299538,-8.397111101527628,NC,218.0,2005-05-31T08:00,19.7,47,8.1,17.2,0.0,0.0,0.0,0.0,0,1020.2,994.6,4,0,0,15,0.25,1.21,13.4,18.4,76,78,29.5,19.1,18.8,16.3,12.8,0.179,0.253,0.305,0.32,1,3600.0,434.9,325.0,109.9,638.4,434.9,677.4,360.0,269.0,91.0,638.4,360.0,560.7,Tracheophyta; Magnoliopsida
2005,2005-05-22,Aveiro,Santa Maria da Feira,Mosteiró,Mosteirô,40.8979551,-8.537524,NC,115.0,2005-05-22T16:00,16.8,60,9.1,14.5,0.0,0.0,0.0,0.0,1,1020.2,1006.5,42,25,33,0,0.33,0.76,16.6,21.4,311,311,36.0,19.9,17.0,15.2,12.9,0.313,0.327,0.324,0.325,1,3600.0,553.3,428.1,125.2,646.0,553.3,884.6,610.0,472.0,138.0,646.0,610.0,975.4,Magnoliopsida; Pinales; Eucalyptus L'Hér.; Tracheophyta; Pinus pinaster Aiton
2005,2005-02-02,Aveiro,Santa Maria da Feira,Espargo,Barroca,40.9273123,-8.5799542,NC,93.0,2005-02-02T22:00,7.9,70,2.9,4.7,0.0,0.0,0.0,0.0,0,1030.3,1018.7,0,0,0,0,0.02,0.32,10.4,24.6,76,85,21.2,7.4,8.8,8.9,12.1,0.23,0.249,0.283,0.287,0,0.0,0.0,0.0,0.0,0.0,0.0,0.0,0.0,0.0,0.0,0.0,0.0,0.0,Eucalyptus L'Hér.; Tracheophyta; Magnoliopsida; Pinus pinaster Aiton
2005,2005-11-05,Aveiro,Estarreja,Beduído,ESTARREJA,40.77887295,-8.542015290694803,NC,67.0,2005-11-05T18:00,13.8,77,9.8,12.1,0.0,0.0,0.0,0.0,0,1028.4,1020.2,0,0,0,0,0.03,0.36,11.0,18.8,349,348,15.5,14.7,15.5,17.3,20.5,0.345,0.355,0.348,0.243,0,0.0,0.0,0.0,0.0,0.0,0.0,0.0,7.0,3.0,4.0,44.0,7.0,34.6,Pinus pinaster Aiton; Tracheophyta; Magnoliopsida; Eucalyptus L'Hér.
2005,2005-05-23,Aveiro,Santa Maria da Feira,Sanguedo,Miogo,41.0038841,-8.5139069,NC,153.0,2005-05-23T20:00,14.8,78,10.9,13.2,0.0,0.0,0.0,0.0,0,1020.8,1002.5,2,0,0,8,0.04,0.37,12.7,19.5,335,341,25.6,17.0,17.2,14.9,12.5,0.273,0.292,0.291,0.302,0,1022.01,0.0,0.0,0.0,0.0,0.0,0.0,31.0,16.0,15.0,149.1,31.0,84.1,Tracheophyta; Eucalyptus L'Hér.; Magnoliopsida
2005,2005-11-22,Aveiro,Estarreja,Beduído,ESTARREJA,40.77887295,-8.542015290694803,NC,67.0,2005-11-22T15:00,19.4,61,11.7,17.9,0.0,0.0,0.0,0.0,0,1013.5,1005.6,14,5,12,9,0.2,0.88,13.6,21.0,102,103,29.9,17.5,14.6,14.9,19.0,0.337,0.346,0.336,0.258,1,3600.0,265.8,199.8,66.0,626.5,265.8,447.2,310.0,233.0,77.0,626.5,310.0,521.6,Pinus pinaster Aiton; Tracheophyta; Magnoliopsida; Eucalyptus L'Hér.
2005,2005-12-23,Aveiro,Albergaria-a-Velha,Branca,BRANCA,40.7685436,-8.4830412,NC,156.0,2005-12-23T00:00,4.0,74,-0.2,0.2,0.0,0.0,0.0,0.0,0,1025.7,1006.2,0,0,0,0,0.01,0.21,11.5,21.3,94,101,24.8,5.0,7.8,10.1,15.5,0.317,0.33,0.356,0.303,0,0.0,0.0,0.0,0.0,0.0,0.0,0.0,0.0,0.0,0.0,0.0,0.0,0.0,Tracheophyta; Eucalyptus L'Hér.
2005,2005-12-23,Aveiro,Santa Maria da Feira,Arrifana,Santo Estevão,40.89630765,-8.5105737106581,NC,250.0,2005-12-23T03:00,2.8,72,-1.7,-1.3,0.0,0.0,0.0,0.0,0,1025.5,994.3,0,0,0,0,0.02,0.21,11.6,18.5,95,98,25.2,3.8,6.7,9.5,15.0,0.339,0.349,0.371,0.321,0,0.0,0.0,0.0,0.0,0.0,0.0,0.0,0.0,0.0,0.0,0.0,0.0,0.0,Eucalyptus L'Hér.; Magnoliopsida; Tracheophyta; Pinus pinaster Aiton; Pinales
2005,2005-12-24,Aveiro,Santa Maria da Feira,Canedo,Sousanil,41.0181327,-8.4471354,NC,152.0,2005-12-24T00:00,4.4,81,1.5,1.0,0.0,0.0,0.0,0.0,1,1022.0,1003.1,21,7,24,1,0.01,0.16,10.9,16.2,99,111,21.6,5.1,7.2,9.5,15.2,0.34,0.35,0.373,0.334,0,0.0,0.0,0.0,0.0,0.0,0.0,0.0,0.0,0.0,0.0,0.0,0.0,0.0,Pinus pinaster Aiton; Eucalyptus L'Hér.; Tracheophyta; Magnoliopsida
2005,2005-03-10,Aveiro,Oliveira do Bairro,Mamarrosa,Auto-Estrada Km 228,40.506918600000006,-8.560473409577213,NC,57.0,2005-03-10T14:00,18.6,22,-3.3,16.4,0.0,0.0,0.0,0.0,1,1021.1,1014.3,30,0,0,100,0.45,1.66,5.8,6.6,266,261,19.8,21.2,10.3,9.1,10.4,0.066,0.121,0.173,0.186,1,3600.0,726.2,630.6,95.6,937.1,726.2,933.6,752.0,653.0,99.0,937.1,752.0,966.7,Tracheophyta; Eucalyptus L'Hér.; Vitis vinifera L.; Pinus pinaster Aiton
2005,2005-03-10,Aveiro,Mealhada,Pampilhosa,Canedo,40.3431096,-8.4427648,NC,87.0,2005-03-10T19:00,14.2,39,0.4,11.3,0.0,0.0,0.0,0.0,2,1021.0,1010.5,50,0,34,100,0.06,0.99,5.7,9.2,305,318,13.3,13.9,10.6,8.2,9.7,0.064,0.123,0.165,0.167,0,0.0,0.0,0.0,0.0,0.0,0.0,0.0,6.0,0.0,6.0,0.0,6.0,61.0,Tracheophyta; Pinus pinaster Aiton; Olea europaea L.; Eucalyptus L'Hér.
2005,2005-03-11,Aveiro,Ovar,Maceda,Travessa do Alto,40.9317899,-8.6084384,NC,71.0,2005-03-11T06:00,7.1,66,1.1,4.6,0.0,0.0,0.0,0.0,1,1018.8,1010.0,45,0,60,31,0.0,0.35,3.9,4.3,124,185,6.8,7.5,9.8,9.2,10.5,0.174,0.202,0.248,0.285,0,0.0,0.0,0.0,0.0,0.0,0.0,0.0,0.0,0.0,0.0,0.0,0.0,0.0,Tracheophyta; Magnoliopsida; Eucalyptus L'Hér.; Pinus pinaster Aiton
2005,2005-03-12,Aveiro,Espinho,Anta,Rua do Cavião,41.007855,-8.6187792,NC,39.0,2005-03-12T06:00,7.4,57,-0.5,3.6,0.0,0.0,0.0,0.0,2,1011.3,1006.5,56,4,39,98,0.03,0.44,10.7,22.2,123,140,13.3,7.3,10.1,9.4,10.5,0.172,0.217,0.268,0.304,0,0.0,0.0,0.0,0.0,0.0,0.0,0.0,0.0,0.0,0.0,0.0,0.0,0.0,Eucalyptus L'Hér.; Tracheophyta; Pinus pinaster Aiton; Magnoliopsida
2005,2005-05-26,Aveiro,Santa Maria da Feira,Sanguedo,Candal,41.0092747,-8.515097239744568,NC,183.0,2005-05-26T18:00,22.0,51,11.5,21.7,0.0,0.0,0.0,0.0,0,1014.2,993.0,0,0,0,0,0.24,1.29,5.8,6.8,277,273,20.9,23.6,19.9,15.3,12.4,0.228,0.263,0.285,0.302,1,3600.0,289.9,229.2,60.7,689.3,289.9,443.2,368.0,291.0,77.0,689.3,368.0,562.7,Tracheophyta; Eucalyptus L'Hér.; Magnoliopsida
2005,2005-03-13,Aveiro,Aveiro,Esgueira,Taboeira,40.6523699,-8.5901667,NC,24.0,2005-03-13T03:00,7.3,95,6.5,5.9,0.0,0.0,0.0,0.0,3,1009.8,1006.9,83,82,15,1,0.0,0.05,3.3,2.7,131,157,10.4,7.8,12.0,10.2,10.4,0.065,0.135,0.183,0.22,0,0.0,0.0,0.0,0.0,0.0,0.0,0.0,0.0,0.0,0.0,0.0,0.0,0.0,Magnoliopsida; Tracheophyta; Pinus pinaster Aiton; Eucalyptus L'Hér.
2005,2005-05-26,Aveiro,Oliveira de Azeméis,Carregosa,Cardeal,40.8832957,-8.4150805,NC,340.0,2005-05-26T18:00,22.2,51,11.4,21.9,0.0,0.0,0.0,0.0,0,1014.2,975.2,0,0,0,0,0.23,1.32,5.1,6.5,274,270,21.2,23.0,19.3,14.6,11.7,0.256,0.309,0.352,0.345,1,3600.0,290.4,229.0,61.4,690.3,290.4,442.2,369.0,291.0,78.0,690.3,369.0,561.9,Eucalyptus L'Hér.; Tracheophyta; Magnoliopsida; Pinus pinaster Aiton
2005,2005-03-13,Aveiro,Santa Maria da Feira,Vila Maior,Cedofeita,41.0205913,-8.4733829,NC,170.0,2005-03-13T17:00,14.0,68,8.2,12.3,0.0,0.0,0.0,0.0,3,1010.3,990.1,84,58,53,0,0.14,0.51,8.3,11.0,252,251,25.2,15.1,11.4,8.8,9.6,0.189,0.22,0.268,0.306,1,3600.0,189.2,113.7,75.5,382.2,189.2,411.9,243.0,146.0,97.0,382.2,243.0,529.0,Tracheophyta; Eucalyptus L'Hér.; Pinus pinaster Aiton; Magnoliopsida
2005,2005-03-13,Aveiro,Santa Maria da Feira,Romariz,Duas Igrejas,40.9556613,-8.4689201,NC,294.0,2005-03-13T21:00,10.4,85,8.1,9.2,0.0,0.0,0.0,0.0,1,1011.9,976.8,22,17,12,0,0.0,0.19,4.7,5.8,302,292,10.1,9.8,10.3,7.7,8.6,0.216,0.259,0.307,0.339,0,0.0,0.0,0.0,0.0,0.0,0.0,0.0,0.0,0.0,0.0,0.0,0.0,0.0,Eucalyptus L'Hér.; Tracheophyta; Olea europaea L.; Pinales
2005,2005-05-28,Aveiro,Santa Maria da Feira,Vale,Cedofeita,40.9767379,-8.4317791,NC,213.0,2005-05-28T16:00,22.3,66,15.7,21.9,0.0,0.0,0.0,0.0,1,1014.8,990.2,46,0,31,91,0.4,0.9,19.6,25.8,324,327,34.6,24.0,18.5,15.4,12.2,0.257,0.296,0.342,0.338,1,3600.0,597.1,403.5,193.6,601.2,597.1,894.0,657.0,444.0,213.0,601.2,657.0,983.7,Magnoliopsida; Tracheophyta; Eucalyptus L'Hér.; Pinales
2005,2005-03-16,Aveiro,Oliveira de Azeméis,Ul,Outeiro,40.84935785,-8.480502645259385,NC,195.0,2005-03-16T18:00,16.1,64,9.3,14.4,0.0,0.0,0.0,0.0,1,1026.4,1003.1,27,3,18,45,0.1,0.66,10.3,16.3,331,332,26.3,16.1,12.7,9.9,9.8,0.157,0.221,0.279,0.31,1,3600.0,79.7,41.8,37.8,338.7,79.7,170.7,141.0,74.0,67.0,338.7,141.0,302.1,Tracheophyta
2005,2005-02-03,Aveiro,Estarreja,Beduído,Póvoa de Baixo,40.7585404,-8.5897652,NC,11.0,2005-02-03T16:00,14.0,43,1.6,10.8,0.0,0.0,0.0,0.0,0,1025.8,1024.5,0,0,0,0,0.2,0.92,9.4,10.5,358,4,20.9,13.5,9.2,9.4,12.7,0.224,0.266,0.307,0.301,1,3600.0,294.1,237.2,56.8,783.9,294.1,426.1,357.0,288.0,69.0,783.9,357.0,517.3,Magnoliopsida; Tracheophyta; Pinus pinaster Aiton
2005,2005-05-31,Aveiro,Santa Maria da Feira,Mozelos,Moselos,40.99774985,-8.560747557187135,NC,141.0,2005-05-31T19:00,23.6,59,15.2,23.3,0.0,0.0,0.0,0.0,0,1016.8,1000.5,0,0,0,0,0.17,1.18,14.0,24.5,334,340,28.4,24.4,21.1,16.4,13.0,0.159,0.222,0.263,0.298,1,3600.0,116.1,79.1,37.0,491.3,116.1,214.3,182.0,124.0,58.0,491.3,182.0,335.8,Tracheophyta; Eucalyptus L'Hér.; Magnoliopsida; Pinus pinaster Aiton
2005,2005-03-16,Aveiro,Santa Maria da Feira,São João de Ver,Gueifar,40.943422,-8.537466741838003,NC,188.0,2005-03-16T18:00,15.8,66,9.4,14.4,0.0,0.0,0.0,0.0,1,1026.6,1004.1,21,1,15,38,0.09,0.62,8.4,13.9,329,329,21.6,15.9,12.7,9.9,9.9,0.188,0.237,0.293,0.328,1,3600.0,84.8,45.2,39.6,366.4,84.8,170.6,150.0,80.0,70.0,366.4,150.0,301.9,Tracheophyta; Eucalyptus L'Hér.; Magnoliopsida; Pinus pinaster Aiton
2005,2005-01-30,Aveiro,Ovar,Esmoriz,ESMORIZ,40.96277635,-8.63534580069145,NC,8.0,2005-01-30T06:00,4.4,73,0.0,-0.7,0.0,0.0,0.0,0.0,0,1024.6,1023.6,0,0,0,0,0.03,0.23,20.7,34.1,83,83,27.7,4.3,6.9,9.3,12.8,0.26,0.277,0.305,0.307,0,0.0,0.0,0.0,0.0,0.0,0.0,0.0,0.0,0.0,0.0,0.0,0.0,0.0,Tracheophyta; Magnoliopsida
2005,2005-05-31,Aveiro,Oliveira do Bairro,Oiã,Malhapão,40.5457687,-8.54097,NC,58.0,2005-05-31T23:00,20.5,73,15.4,21.8,0.0,0.0,0.0,0.0,0,1017.2,1010.4,1,0,1,0,0.0,0.66,3.8,10.0,49,41,12.2,20.6,22.3,17.2,13.6,0.104,0.172,0.208,0.241,0,0.0,0.0,0.0,0.0,0.0,0.0,0.0,0.0,0.0,0.0,0.0,0.0,0.0,Eucalyptus L'Hér.; Tracheophyta; Pinus pinaster Aiton
2005,2005-03-18,Aveiro,Santa Maria da Feira,Lourosa,Rua de Lourosela,40.9832135,-8.5365083,NC,221.0,2005-03-18T10:00,19.2,39,4.7,15.9,0.0,0.0,0.0,0.0,0,1021.2,995.2,1,0,0,3,0.32,1.37,14.0,20.2,108,109,32.4,15.8,12.3,9.8,9.2,0.172,0.208,0.263,0.305,1,3600.0,546.0,455.8,90.2,807.1,546.0,780.1,478.0,399.0,79.0,807.1,478.0,682.9,Tracheophyta; Pinus pinaster Aiton; Olea europaea L.; Magnoliopsida
2005,2005-03-18,Aveiro,Arouca,Alvarenga,Bouças,40.9826184,-8.1870141,NC,298.0,2005-03-18T18:00,21.6,39,7.1,20.0,0.0,0.0,0.0,0.0,1,1018.3,983.8,31,0,16,72,0.12,1.57,6.1,7.9,242,223,19.8,17.7,13.0,8.2,7.4,0.212,0.263,0.313,0.345,1,3459.84,73.2,22.3,50.9,175.3,73.2,175.8,128.0,39.0,89.0,175.3,128.0,307.2,Eucalyptus L'Hér.; Quercus L.; Pinus pinaster Aiton; Magnoliopsida
2005,2005-03-19,Aveiro,Castelo de Paiva,Bairros,BAIRROS,41.027231400000005,-8.251373094059069,NC,252.0,2005-03-19T23:00,11.5,95,10.7,10.8,0.0,0.0,0.0,0.0,2,1017.0,986.8,68,46,40,9,0.0,0.07,6.4,11.9,153,183,14.8,12.5,13.6,9.9,8.6,0.24,0.254,0.309,0.349,0,0.0,0.0,0.0,0.0,0.0,0.0,0.0,0.0,0.0,0.0,0.0,0.0,0.0,Eucalyptus L'Hér.; Pinus pinaster Aiton; Vitis vinifera L.; Magnoliopsida
2005,2005-03-20,Aveiro,Albergaria-a-Velha,Ribeira de Fráguas,Telhadela,40.764668,-8.4493504,NC,164.0,2005-03-20T10:00,16.0,75,11.5,14.7,0.0,0.0,0.0,0.0,3,1013.9,994.5,91,5,94,100,0.13,0.46,11.6,17.3,158,159,27.7,14.4,13.7,11.4,10.1,0.162,0.211,0.274,0.309,1,0.0,206.1,5.7,200.4,9.9,206.1,796.6,181.0,5.0,176.0,9.9,181.0,699.5,Eucalyptus L'Hér.; Magnoliopsida; Tracheophyta
2005,2005-03-20,Aveiro,Oliveira de Azeméis,Carregosa,CARREGOSA,40.8830213,-8.4137621,NC,344.0,2005-03-20T11:00,16.3,67,10.1,15.6,0.0,0.0,0.0,0.0,3,1013.3,973.1,91,9,88,100,0.17,0.62,5.4,7.8,172,167,18.7,14.3,12.4,10.1,8.7,0.212,0.244,0.302,0.344,1,0.0,291.3,10.8,280.5,15.8,291.3,942.6,270.0,10.0,260.0,15.8,270.0,873.7,Eucalyptus L'Hér.; Pinus pinaster Aiton; Magnoliopsida; Tracheophyta
2005,2005-04-01,Aveiro,Ovar,Maceda,Rua Via Férrea,40.9192182,-8.6387864,NC,16.0,2005-04-01T15:00,18.0,73,13.0,16.7,0.0,0.0,0.0,0.0,1,1009.2,1007.3,25,7,15,31,0.31,0.56,16.3,20.6,242,237,38.2,20.3,16.7,13.4,11.3,0.308,0.317,0.271,0.283,1,3600.0,541.5,371.3,170.3,556.4,541.5,914.3,582.0,399.0,183.0,556.4,582.0,982.6,Pinus pinaster Aiton; Magnoliopsida; Tracheophyta; Eucalyptus L'Hér.
2005,2005-01-31,Aveiro,Anadia,Vilarinho do Bairro,Pedralva,40.4333139,-8.5126388,NC,80.0,2005-01-31T16:00,12.5,45,0.8,9.2,0.0,0.0,0.0,0.0,0,1029.1,1019.3,0,0,0,0,0.18,0.8,9.4,12.8,47,52,21.2,12.1,7.7,8.2,11.9,0.15,0.188,0.221,0.207,1,3600.0,280.8,225.1,55.7,768.3,280.8,412.9,343.0,275.0,68.0,768.3,343.0,504.4,Vitis vinifera L.; Tracheophyta; Pinus pinaster Aiton; Magnoliopsida; Eucalyptus L'Hér.; Pinales
2005,2005-02-21,Aveiro,Espinho,Guetim,GUETIM,41.01698745,-8.604875022597696,NC,93.0,2005-02-21T16:00,9.9,44,-1.7,4.6,0.0,0.0,0.0,0.0,1,1012.2,1000.9,32,13,34,0,0.2,0.68,20.2,26.9,338,340,40.0,11.5,8.6,8.9,10.9,0.192,0.233,0.284,0.306,1,3600.0,320.9,198.3,122.6,524.0,320.9,529.5,377.0,233.0,144.0,524.0,377.0,622.0,Eucalyptus L'Hér.; Tracheophyta; Magnoliopsida
2005,2005-02-21,Aveiro,Santa Maria da Feira,Argoncilhe,Vendas de Pereira,41.0183885,-8.5477254,NC,225.0,2005-02-21T21:00,5.0,64,-1.2,0.8,0.0,0.0,0.0,0.0,0,1012.8,985.3,4,4,0,0,0.03,0.31,12.5,24.6,342,342,29.5,5.9,7.6,8.0,10.0,0.208,0.238,0.287,0.308,0,0.0,0.0,0.0,0.0,0.0,0.0,0.0,0.0,0.0,0.0,0.0,0.0,0.0,Eucalyptus L'Hér.; Magnoliopsida; Tracheophyta; Quercus L.
2005,2005-02-24,Aveiro,Santa Maria da Feira,São João de Ver,Zona Industrial,40.943422,-8.537466741838003,NC,188.0,2005-02-24T01:00,3.7,96,3.1,1.3,0.0,0.0,0.0,0.0,0,1010.7,987.6,7,7,1,0,0.0,0.04,5.8,12.6,60,66,11.5,5.8,7.9,8.6,10.6,0.34,0.282,0.312,0.331,0,0.0,0.0,0.0,0.0,0.0,0.0,0.0,0.0,0.0,0.0,0.0,0.0,0.0,Tracheophyta; Eucalyptus L'Hér.; Magnoliopsida; Pinus pinaster Aiton
2005,2005-02-27,Aveiro,Vale de Cambra,Vila Chã,Lordelo,40.8546788,-8.397136,NC,226.0,2005-02-27T16:00,11.6,34,-3.8,6.5,0.0,0.0,0.0,0.0,0,1007.4,980.5,0,0,0,0,0.26,0.91,17.1,23.7,65,66,35.6,10.3,5.6,7.1,9.6,0.295,0.302,0.32,0.341,1,3600.0,421.9,359.3,62.6,888.6,421.9,564.1,492.0,419.0,73.0,888.6,492.0,657.7,Tracheophyta; Eucalyptus L'Hér.
2005,2005-04-29,Aveiro,Santa Maria da Feira,Romariz,Goim,40.9432863,-8.4386917,NC,347.0,2005-04-29T23:00,13.1,92,11.8,13.3,0.0,0.0,0.0,0.0,0,1014.2,973.2,0,0,0,0,0.0,0.12,2.2,1.5,90,225,9.0,13.2,15.2,12.1,10.2,0.328,0.35,0.365,0.347,0,0.0,0.0,0.0,0.0,0.0,0.0,0.0,0.0,0.0,0.0,0.0,0.0,0.0,Eucalyptus L'Hér.; Tracheophyta; Pinales
2005,2005-05-06,Aveiro,Oliveira de Azeméis,Fajões,Fajões,40.9177814,-8.4232909,NC,354.0,2005-05-06T10:00,18.5,47,7.0,16.4,0.0,0.0,0.0,0.0,0,1020.9,979.6,10,0,0,34,0.42,1.12,15.2,20.7,83,82,42.1,17.0,14.1,13.1,10.5,0.296,0.328,0.355,0.346,1,3600.0,775.0,658.2,116.8,864.0,775.0,1024.3,710.0,603.0,107.0,864.0,710.0,938.4,Pinus pinaster Aiton; Tracheophyta; Magnoliopsida
2005,2005-05-06,Aveiro,Mealhada,Barcouço,BARCOUÇO,40.3064678,-8.469902360856825,NC,129.0,2005-05-06T09:00,19.1,39,4.8,15.1,0.0,0.0,0.0,0.0,1,1019.8,1004.6,27,0,0,91,0.35,1.36,18.7,25.6,88,89,39.2,19.3,17.0,14.7,11.7,0.054,0.115,0.146,0.162,1,3600.0,574.7,447.4,127.3,711.9,574.7,845.0,501.0,390.0,111.0,711.9,501.0,736.6,Tracheophyta; Pinus pinaster Aiton; Eucalyptus L'Hér.; Vitis vinifera L.; Olea europaea L.; Magnoliopsida
2005,2005-05-22,Aveiro,Aveiro,Aradas,Bom Sucesso,40.6014864,-8.6451997,NC,26.0,2005-05-22T04:00,11.8,93,10.7,10.5,0.2,0.2,0.0,0.0,51,1017.6,1014.4,31,16,28,0,0.0,0.1,10.5,16.9,322,320,17.3,13.0,16.5,15.9,13.5,0.138,0.184,0.185,0.21,0,0.0,0.0,0.0,0.0,0.0,0.0,0.0,0.0,0.0,0.0,0.0,0.0,0.0,Tracheophyta; Magnoliopsida; Pinus pinaster Aiton
2005,2005-02-03,Aveiro,Santa Maria da Feira,Fornos,Corgas,40.9151831,-8.5252884,NC,148.0,2005-02-03T16:00,13.1,45,1.4,10.2,0.0,0.0,0.0,0.0,0,1025.9,1008.0,0,0,0,0,0.18,0.83,6.6,9.2,45,51,23.4,12.3,8.4,8.6,12.0,0.273,0.296,0.331,0.332,1,3600.0,289.5,234.4,55.1,782.7,289.5,421.6,352.0,285.0,67.0,782.7,352.0,512.7,Tracheophyta; Eucalyptus L'Hér.; Pinales; Pinus pinaster Aiton
2005,2005-05-29,Aveiro,Anadia,Avelãs de Cima,Serra da Gralheira,40.4896558,-8.4006553,NC,78.0,2005-05-29T03:00,13.9,99,13.7,13.9,0.0,0.0,0.0,0.0,2,1014.8,1005.4,59,58,0,22,0.0,0.02,7.9,13.0,309,316,12.6,16.3,19.0,16.6,13.3,0.17,0.24,0.274,0.294,0,0.0,0.0,0.0,0.0,0.0,0.0,0.0,0.0,0.0,0.0,0.0,0.0,0.0,Tracheophyta; Eucalyptus L'Hér.
2005,2005-02-03,Aveiro,Estarreja,Beduído,Póvoa de Baixo,40.7585404,-8.5897652,NC,11.0,2005-02-03T23:00,5.6,74,1.2,2.0,0.0,0.0,0.0,0.0,0,1025.3,1023.9,0,0,0,0,0.02,0.24,11.5,20.1,58,61,18.0,6.5,9.1,9.5,12.7,0.224,0.265,0.306,0.301,0,0.0,0.0,0.0,0.0,0.0,0.0,0.0,0.0,0.0,0.0,0.0,0.0,0.0,Magnoliopsida; Tracheophyta; Pinus pinaster Aiton
2005,2005-05-31,Aveiro,Vale de Cambra,São Pedro de Castelões,Aguincheira,40.8299538,-8.397111101527628,NC,218.0,2005-05-31T15:00,28.1,40,13.3,29.2,0.0,0.0,0.0,0.0,1,1017.4,992.6,32,0,54,0,0.62,2.27,10.8,13.8,360,6,28.1,28.8,20.7,16.4,12.8,0.165,0.248,0.304,0.32,1,3600.0,792.9,684.5,108.4,851.2,792.9,1070.1,841.0,726.0,115.0,851.2,841.0,1135.0,Tracheophyta; Magnoliopsida
2005,2005-06-01,Aveiro,Espinho,Guetim,GUETIM - Rua da Picadela,41.0084406,-8.6215403,NC,37.0,2005-06-01T14:00,28.2,32,9.8,27.5,0.0,0.0,0.0,0.0,0,1015.0,1010.8,0,0,0,0,0.73,2.61,18.4,22.9,343,352,32.8,29.2,21.1,17.3,13.7,0.149,0.216,0.261,0.298,1,3600.0,932.3,823.5,108.8,919.7,932.3,1191.1,960.0,848.0,112.0,919.7,960.0,1226.5,Eucalyptus L'Hér.; Tracheophyta; Pinus pinaster Aiton; Magnoliopsida
2005,2005-02-19,Leiria,Pombal,Abiul,Casais Novos,39.9161851,-8.6279171,NC,69.0,2005-02-19T13:00,13.2,34,-2.3,10.3,0.0,0.0,0.0,0.0,0,1023.9,1015.5,0,0,0,0,0.34,1.0,7.9,9.0,357,5,20.2,17.1,9.1,10.2,11.8,0.057,0.117,0.166,0.167,1,3600.0,673.9,583.4,90.5,928.6,673.9,879.5,670.0,580.0,90.0,928.6,670.0,874.4,Tracheophyta; Magnoliopsida
2005,2005-08-19,Leiria,Leiria,Leiria,Quinta de Vale de Lobos,39.733098,-8.7991158,NC,52.0,2005-08-19T11:00,24.4,58,15.5,24.6,0.0,0.0,0.0,0.0,1,1018.5,1012.4,28,0,0,94,0.49,1.29,18.8,24.5,356,359,43.9,28.0,23.0,22.2,19.0,0.051,0.061,0.074,0.145,1,3600.0,805.8,634.6,171.1,772.8,805.8,1096.8,758.0,597.0,161.0,772.8,758.0,1031.8,Tracheophyta; Pinus pinaster Aiton; Eucalyptus L'Hér.; Magnoliopsida; Acacia Mill.; ; Vitis vinifera L.; Pinales
2005,2005-08-19,Leiria,Leiria,Santa Eufémia,Quinta do Sirol/Zona Industrial,39.7619541,-8.7476931,NC,99.0,2005-08-19T13:00,29.5,39,14.1,29.1,0.0,0.0,0.0,0.0,1,1018.0,1006.7,27,0,0,90,0.7,2.51,22.6,29.7,338,341,52.9,33.9,24.8,23.6,19.6,0.078,0.104,0.113,0.186,1,3600.0,890.4,721.5,168.9,813.6,890.4,1184.4,891.0,722.0,169.0,813.6,891.0,1185.2,Tracheophyta; Pinus pinaster Aiton; Eucalyptus L'Hér.; Magnoliopsida; Acacia Mill.; Olea europaea L.
2005,2005-02-19,Leiria,Alcobaça,Évora de Alcobaça,Capuchos,39.5315166,-8.9625584,NC,103.0,2005-02-19T19:00,9.8,72,5.0,6.4,0.0,0.0,0.0,0.0,0,1022.2,1009.6,0,0,0,0,0.05,0.34,14.9,27.6,352,353,28.4,11.1,10.7,10.6,12.6,0.121,0.195,0.24,0.253,0,0.0,0.0,0.0,0.0,0.0,0.0,0.0,2.0,1.0,1.0,17.6,2.0,18.6,Vitis vinifera L.; Magnoliopsida; Tracheophyta; Olea europaea L.
2005,2005-08-20,Leiria,Batalha,Batalha,Casal Marra,39.6716884,-8.8501491,NC,98.0,2005-08-20T14:00,26.8,39,11.8,26.4,0.0,0.0,0.0,0.0,0,1019.6,1008.3,0,0,0,0,0.65,2.13,18.3,23.6,340,344,43.9,33.9,24.3,22.4,19.0,0.05,0.061,0.072,0.141,1,3600.0,863.4,757.7,105.7,900.7,863.4,1124.1,890.0,781.0,109.0,900.7,890.0,1158.7,Tracheophyta; Pinus pinaster Aiton; Eucalyptus L'Hér.
2005,2005-08-20,Leiria,Porto de Mós,São Bento,PAIA,39.51776705,-8.778642467020365,NC,528.0,2005-08-20T14:00,28.2,25,6.6,28.1,0.0,0.0,0.0,0.0,0,1019.1,960.2,0,0,0,0,0.65,2.86,8.6,10.8,358,360,30.2,34.6,24.5,22.5,18.4,0.091,0.135,0.159,0.241,1,3600.0,860.2,756.4,103.8,898.8,860.2,1124.5,887.0,780.0,107.0,898.8,887.0,1159.6,Tracheophyta; Olea europaea L.; Magnoliopsida
2005,2005-08-16,Leiria,Nazaré,Famalicão,Raposos / Bica,39.5315015,-9.0858829,NC,37.0,2005-08-16T21:00,20.3,87,18.2,22.5,0.0,0.0,0.0,0.0,0,1011.1,1006.8,9,10,0,0,0.0,0.3,5.3,6.8,332,335,18.7,24.4,28.3,24.3,20.7,0.043,0.067,0.106,0.176,0,0.0,0.0,0.0,0.0,0.0,0.0,0.0,0.0,0.0,0.0,0.0,0.0,0.0,Eucalyptus L'Hér.; Pinus pinaster Aiton; Tracheophyta; Magnoliopsida
2005,2005-08-20,Leiria,Leiria,Marrazes,PINHEIROS - PORTUCEL,39.7625962,-8.8059313,NC,99.0,2005-08-20T15:00,28.0,34,10.6,26.2,0.0,0.0,0.0,0.0,0,1019.1,1007.7,0,0,0,0,0.64,2.51,22.4,29.7,336,339,46.8,35.4,25.0,22.5,18.9,0.049,0.062,0.068,0.133,1,3600.0,757.7,660.2,97.5,882.3,757.7,999.9,808.0,704.0,104.0,882.3,808.0,1066.3,Tracheophyta; Pinus pinaster Aiton; Eucalyptus L'Hér.; Magnoliopsida; Acacia Mill.
2005,2005-02-19,Leiria,Leiria,Colmeias,Casal do Monte,39.7835361,-8.6853887,NC,231.0,2005-02-19T17:00,12.3,42,-0.2,7.8,0.0,0.0,0.0,0.0,0,1022.0,994.2,0,0,0,0,0.18,0.82,15.6,20.6,334,335,32.4,14.2,9.2,9.3,11.3,0.108,0.167,0.213,0.222,1,3600.0,206.8,161.1,45.7,729.3,206.8,309.2,285.0,222.0,63.0,729.3,285.0,426.1,Tracheophyta; Pinus pinaster Aiton; Eucalyptus L'Hér.; Magnoliopsida; Acacia Mill.; Olea europaea L.
2005,2005-08-20,Leiria,Óbidos,Gaeiras,Gaeiras,39.3561487,-9.112645771289008,NC,25.0,2005-08-20T17:00,24.5,51,13.6,21.4,0.0,0.0,0.0,0.0,0,1018.5,1015.6,0,0,0,0,0.4,1.51,29.0,40.2,349,350,52.9,30.2,25.8,24.1,20.6,0.091,0.132,0.159,0.236,1,3600.0,428.0,354.9,73.2,784.1,428.0,604.8,509.0,422.0,87.0,784.1,509.0,719.2,Eucalyptus L'Hér.; Tracheophyta; Magnoliopsida; Castanea sativa Mill.
2005,2005-08-23,Leiria,Pombal,Vila Cã,Viuveiro,39.8203235,-8.5383281,NC,258.0,2005-08-23T09:00,24.8,36,8.9,23.7,0.0,0.0,0.0,0.0,0,1018.4,988.8,0,0,0,0,0.3,1.99,5.2,6.6,65,68,15.1,25.8,24.8,24.2,19.9,0.096,0.134,0.146,0.224,1,3600.0,526.5,431.3,95.2,760.8,526.5,758.4,448.0,367.0,81.0,760.8,448.0,645.3,Eucalyptus L'Hér.; Pinus pinaster Aiton; Tracheophyta; Magnoliopsida
2005,2005-08-23,Leiria,Leiria,Santa Catarina da Serra,Casal da Fartaria,39.6940613,-8.6360926,NC,246.0,2005-08-23T13:00,30.7,26,8.9,31.4,0.0,0.0,0.0,0.0,0,1017.1,989.4,0,0,0,0,0.69,3.26,7.3,8.0,303,306,22.0,39.8,25.5,23.4,19.3,0.059,0.078,0.083,0.146,1,3600.0,902.7,795.9,106.8,908.4,902.7,1172.1,904.0,797.0,107.0,908.4,904.0,1173.8,Tracheophyta; Pinus pinaster Aiton; Eucalyptus L'Hér.; Magnoliopsida; Acacia Mill.
2005,2005-08-21,Leiria,Marinha Grande,Marinha Grande,Embra,39.7479008,-8.9117537,NC,101.0,2005-08-21T10:00,25.2,33,7.9,22.7,0.0,0.0,0.0,0.0,0,1021.0,1009.3,0,0,0,0,0.48,2.15,16.1,19.3,10,21,24.5,28.4,23.5,22.4,19.1,0.05,0.061,0.072,0.141,1,3600.0,692.1,589.1,103.0,827.4,692.1,951.7,625.0,532.0,93.0,827.4,625.0,859.4,Pinus pinaster Aiton; Tracheophyta
2005,2005-02-20,Leiria,Pombal,São Simão de Litém,Marra,39.8334549,-8.6119137,NC,180.0,2005-02-20T20:00,8.9,66,3.0,4.3,0.0,0.0,0.0,0.0,0,1015.4,993.5,0,0,0,0,0.05,0.39,20.4,36.3,343,346,41.4,9.9,9.9,9.7,12.0,0.145,0.207,0.257,0.265,0,0.0,0.0,0.0,0.0,0.0,0.0,0.0,0.0,0.0,0.0,0.0,0.0,0.0,Pinus pinaster Aiton; Magnoliopsida; Tracheophyta; Olea europaea L.; Eucalyptus L'Hér.
2005,2005-08-24,Leiria,Pombal,Santiago de Litém,Santiais,39.8448611,-8.606208024297935,NC,172.0,2005-08-24T08:00,17.5,87,15.3,17.9,0.0,0.0,0.0,0.0,1,1016.9,996.6,35,38,0,3,0.11,0.26,9.6,12.9,326,330,22.3,20.5,24.7,24.2,20.2,0.096,0.134,0.146,0.224,1,3600.0,299.9,199.5,100.4,511.8,299.9,521.7,227.0,151.0,76.0,511.8,227.0,394.8,Pinus pinaster Aiton; Tracheophyta; Magnoliopsida; Eucalyptus L'Hér.; Olea europaea L.
2005,2005-01-02,Leiria,Óbidos,Sobral Da Lagoa,Capeleira,39.3436113,-9.1476584,NC,155.0,2005-01-02T18:00,10.9,88,9.1,7.6,0.0,0.0,0.0,0.0,0,1034.9,1015.8,0,0,0,0,0.03,0.15,21.4,33.1,8,8,38.2,11.2,11.3,11.6,15.3,0.233,0.248,0.228,0.246,0,0.0,0.0,0.0,0.0,0.0,0.0,0.0,5.0,2.0,3.0,30.6,5.0,31.1,Magnoliopsida; Tracheophyta; Eucalyptus L'Hér.; Vitis vinifera L.; Pinus pinaster Aiton
2005,2005-08-23,Leiria,Nazaré,Famalicão,Raposos,39.5252936,-9.0653113,NC,177.0,2005-08-23T07:00,16.8,88,14.8,16.6,0.0,0.0,0.0,0.0,0,1018.2,997.2,2,2,0,0,0.03,0.24,12.6,20.5,5,11,22.7,17.9,23.6,23.6,20.2,0.082,0.126,0.149,0.223,1,2254.43,122.7,74.4,48.3,378.8,89.0,262.8,61.0,37.0,24.0,274.9,61.0,130.7,Magnoliopsida; Tracheophyta; Pinus pinaster Aiton; Eucalyptus L'Hér.
2005,2005-08-24,Leiria,Alvaiázere,Maçãs de Dona Maria,Alqueidão,39.8429828,-8.3359505,NC,301.0,2005-08-24T22:00,16.9,75,12.4,15.5,0.0,0.0,0.0,0.0,0,1016.3,981.0,1,1,0,0,0.03,0.49,14.8,25.4,321,328,31.3,22.7,27.7,25.1,20.9,0.096,0.147,0.166,0.248,0,0.0,0.0,0.0,0.0,0.0,0.0,0.0,0.0,0.0,0.0,0.0,0.0,0.0,Tracheophyta; Eucalyptus L'Hér.; Pinus pinaster Aiton
2005,2005-08-23,Leiria,Pedrógão Grande,Pedrógão Grande,Mingacho,39.8972356,-8.1564002,NC,340.0,2005-08-23T10:00,27.8,25,6.2,26.4,0.0,0.0,0.0,0.0,0,1018.0,979.6,0,0,0,0,0.46,2.79,6.1,7.9,90,93,18.7,30.3,25.6,25.0,20.6,0.106,0.149,0.158,0.235,1,3600.0,698.7,598.1,100.6,839.6,698.7,953.0,632.0,541.0,91.0,839.6,632.0,862.0,Pinus pinaster Aiton; Magnoliopsida; Eucalyptus L'Hér.; Olea europaea L.
2005,2005-08-24,Leiria,Pombal,Pombal,TRAVASSO,39.8910792,-8.6665323,NC,141.0,2005-08-24T14:00,25.8,50,14.6,25.9,0.0,0.0,0.0,0.0,0,1016.0,999.8,7,0,0,23,0.59,1.67,20.5,25.8,326,330,40.0,34.8,24.5,22.9,19.1,0.048,0.059,0.064,0.126,1,3600.0,837.9,722.6,115.3,874.6,837.9,1105.8,865.0,746.0,119.0,874.6,865.0,1141.6,Eucalyptus L'Hér.; Tracheophyta; Olea europaea L.; Magnoliopsida
2005,2005-08-25,Leiria,Pombal,Pombal,Vale Coimbra,39.8959966,-8.6810197,Desconhecida,147.0,2005-08-25T06:00,15.1,98,14.7,14.5,0.0,0.0,0.0,0.0,3,1016.8,999.3,90,100,0,0,0.0,0.04,14.3,24.9,348,350,25.9,16.3,23.2,22.9,19.1,0.048,0.059,0.064,0.126,1,0.0,0.0,0.0,0.0,0.0,0.0,0.0,0.0,0.0,0.0,0.0,0.0,0.0,Eucalyptus L'Hér.; Tracheophyta
2005,2005-08-24,Leiria,Leiria,Parceiros,Mouratos,39.7268928,-8.867429,NC,108.0,2005-08-24T22:00,15.8,85,13.4,14.6,0.0,0.0,0.0,0.0,0,1017.6,1004.7,4,4,0,0,0.01,0.26,15.8,27.5,333,338,33.8,18.4,23.5,22.3,19.2,0.049,0.06,0.071,0.14,0,0.0,0.0,0.0,0.0,0.0,0.0,0.0,0.0,0.0,0.0,0.0,0.0,0.0,Tracheophyta; Pinus pinaster Aiton; Eucalyptus L'Hér.; Magnoliopsida; Acacia Mill.; Pinales; Vitis vinifera L.
2005,2005-08-16,Leiria,Leiria,Marrazes,Vale S.Miguel,39.7499913,-8.8017491,NC,37.0,2005-08-16T23:00,17.9,98,17.5,19.9,0.0,0.0,0.0,0.0,0,1010.7,1006.3,0,0,0,0,0.0,0.05,4.6,4.2,252,239,7.9,20.6,26.7,22.9,19.1,0.051,0.064,0.068,0.134,0,0.0,0.0,0.0,0.0,0.0,0.0,0.0,0.0,0.0,0.0,0.0,0.0,0.0,Tracheophyta; Pinus pinaster Aiton; Eucalyptus L'Hér.; Magnoliopsida; Acacia Mill.
2005,2005-02-20,Leiria,Marinha Grande,Marinha Grande,Charneca da Amieira,39.7677753,-8.8810761,NC,88.0,2005-02-20T23:00,8.6,74,4.2,2.6,0.0,0.0,0.0,0.0,0,1016.8,1006.0,0,0,0,0,0.05,0.3,31.8,43.4,5,5,51.8,9.0,10.6,10.7,12.1,0.06,0.12,0.164,0.176,0,0.0,0.0,0.0,0.0,0.0,0.0,0.0,0.0,0.0,0.0,0.0,0.0,0.0,Magnoliopsida; Pinus pinaster Aiton; Tracheophyta
2005,2005-08-17,Leiria,Alcobaça,Cela,Bica,39.5282088,-9.0567685,NC,176.0,2005-08-17T10:00,23.4,58,14.6,24.7,0.0,0.0,0.0,0.0,0,1012.6,992.3,1,1,0,0,0.4,1.22,5.2,6.3,326,329,15.5,29.5,25.2,23.9,19.9,0.084,0.127,0.151,0.224,1,3600.0,687.0,564.2,122.8,781.7,687.0,963.1,621.0,510.0,111.0,781.7,621.0,870.6,Tracheophyta; Pinus pinaster Aiton; Magnoliopsida; Vitis vinifera L.; Eucalyptus L'Hér.
2005,2005-08-18,Leiria,Pombal,Pombal,Cardeais,39.92194355,-8.636895489112948,Desconhecida,58.0,2005-08-18T00:00,17.3,97,16.8,17.4,0.0,0.0,0.0,0.0,3,1015.4,1008.5,80,89,0,0,0.0,0.07,15.8,25.3,336,337,24.5,19.8,26.4,23.3,19.2,0.049,0.059,0.066,0.13,0,0.0,0.0,0.0,0.0,0.0,0.0,0.0,0.0,0.0,0.0,0.0,0.0,0.0,Tracheophyta; Pinus pinaster Aiton; Olea europaea L.; Magnoliopsida; Eucalyptus L'Hér.
2005,2005-08-18,Leiria,Marinha Grande,Marinha Grande,Casal Galego,39.749638,-8.924546,NC,95.0,2005-08-18T23:00,18.7,93,17.5,17.0,0.0,0.0,0.0,0.0,2,1018.7,1007.4,68,60,4,38,0.01,0.15,29.6,42.9,347,349,46.8,20.3,24.3,22.5,19.0,0.051,0.061,0.072,0.141,0,0.0,0.0,0.0,0.0,0.0,0.0,0.0,0.0,0.0,0.0,0.0,0.0,0.0,Tracheophyta
2005,2005-08-25,Leiria,Pombal,Albergaria dos Doze,CARTARIA,39.8041312,-8.5749076,NC,230.0,2005-08-25T16:00,25.3,59,16.8,24.5,0.0,0.0,0.0,0.0,0,1015.3,989.0,3,3,0,0,0.42,1.31,23.2,30.9,327,328,48.2,30.7,24.6,23.7,19.9,0.096,0.134,0.146,0.224,1,3600.0,534.1,424.3,109.9,715.5,534.1,794.0,598.0,475.0,123.0,715.5,598.0,889.0,Eucalyptus L'Hér.; Magnoliopsida; Pinus pinaster Aiton; Olea europaea L.; Tracheophyta
2005,2005-08-20,Leiria,Peniche,Serra D El-rei,CEZAREDAS,39.3566221,-9.3812853,NC,15.0,2005-08-20T12:00,25.0,49,13.5,24.0,0.0,0.0,0.0,0.0,0,1020.7,1018.9,3,0,0,10,0.58,1.62,24.6,32.0,5,8,44.6,32.9,24.5,24.0,20.9,0.044,0.065,0.105,0.177,1,3600.0,896.3,783.0,113.3,890.6,896.3,1174.7,870.0,760.0,110.0,890.6,870.0,1140.2,Tracheophyta; Magnoliopsida
2005,2005-08-20,Leiria,Leiria,Milagres,PEG /MILAGRES,39.791411,-8.7956787,NC,113.0,2005-08-20T16:00,27.3,35,10.5,24.1,0.0,0.0,0.0,0.0,0,1019.0,1006.0,0,0,0,0,0.56,2.37,26.5,36.1,338,340,49.0,34.1,25.1,22.5,18.8,0.049,0.062,0.068,0.133,1,3600.0,593.6,499.3,94.3,812.6,593.6,821.0,661.0,556.0,105.0,812.6,661.0,914.3,Tracheophyta; Pinus pinaster Aiton; Eucalyptus L'Hér.; Magnoliopsida; Acacia Mill.; Olea europaea L.
2005,2005-08-25,Leiria,Alcobaça,Pataias,PATAIAS,39.6555557,-8.9849885,NC,80.0,2005-08-25T10:00,19.8,85,17.1,19.0,0.0,0.0,0.0,0.0,2,1017.5,1008.1,76,85,0,0,0.2,0.35,22.5,30.7,354,356,34.9,22.2,21.8,22.3,19.6,0.049,0.06,0.083,0.155,1,3600.0,417.2,190.8,226.3,272.0,417.2,939.4,376.0,172.0,204.0,272.0,376.0,846.7,Pinus pinaster Aiton; Tracheophyta; Magnoliopsida
2005,2005-08-27,Leiria,Pombal,Pombal,Motes,39.92194355,-8.636895489112948,Desconhecida,58.0,2005-08-27T18:00,22.5,71,17.0,22.0,0.0,0.0,0.0,0.0,1,1018.9,1012.1,29,32,0,0,0.18,0.78,20.2,27.7,319,322,36.7,28.3,24.2,23.1,19.7,0.049,0.059,0.064,0.127,1,3600.0,172.2,118.6,53.6,516.2,172.2,307.9,244.0,168.0,76.0,516.2,244.0,436.2,Tracheophyta; Pinus pinaster Aiton; Olea europaea L.; Magnoliopsida; Eucalyptus L'Hér.
2005,2005-08-25,Leiria,Alvaiázere,Maçãs de Dona Maria,Cabaços,39.8598075,-8.3423958,NC,255.0,2005-08-25T19:00,22.5,68,16.3,21.9,0.0,0.0,0.0,0.0,0,1015.4,986.0,0,0,0,0,0.11,0.87,18.8,28.9,324,327,43.2,28.5,27.2,25.3,21.2,0.096,0.147,0.166,0.247,1,2919.79,22.2,13.5,8.7,154.9,19.5,47.5,84.0,51.0,33.0,334.1,84.0,179.5,Pinus pinaster Aiton; Magnoliopsida; Olea europaea L.; Tracheophyta; Vitis vinifera L.; Eucalyptus L'Hér.
2005,2005-02-21,Leiria,Leiria,Monte Redondo,Casal Novo,39.8951806,-8.833845,NC,42.0,2005-02-21T11:00,9.7,55,1.2,4.4,0.0,0.0,0.0,0.0,0,1014.8,1009.7,13,8,9,0,0.22,0.54,23.4,29.5,350,351,49.3,11.6,9.8,10.7,12.2,0.057,0.116,0.161,0.169,1,3600.0,551.2,454.0,97.2,818.0,551.2,776.3,499.0,411.0,88.0,818.0,499.0,702.8,Tracheophyta; Pinus pinaster Aiton; Eucalyptus L'Hér.; Magnoliopsida; Acacia Mill.
2005,2005-08-26,Leiria,Alcobaça,Aljubarrota (Prazeres),Molianos,39.5719302,-8.9442444,NC,134.0,2005-08-26T16:00,24.1,52,13.8,22.7,0.0,0.0,0.0,0.0,0,1018.7,1003.2,4,0,0,12,0.44,1.43,21.3,27.0,332,333,44.3,33.6,24.7,23.7,20.8,0.056,0.078,0.099,0.172,1,3600.0,575.5,486.1,89.4,817.3,575.5,796.8,644.0,544.0,100.0,817.3,644.0,891.7,Tracheophyta; Eucalyptus L'Hér.; Vitis vinifera L.; Magnoliopsida; Pinus pinaster Aiton
2005,2005-08-28,Leiria,Marinha Grande,Marinha Grande,Casal Galego,39.749638,-8.924546,NC,95.0,2005-08-28T03:00,18.1,98,17.8,18.9,0.0,0.0,0.0,0.0,3,1018.5,1007.2,90,100,0,0,0.0,0.04,14.2,21.7,351,354,20.9,18.9,22.3,22.1,19.4,0.05,0.06,0.07,0.139,0,0.0,0.0,0.0,0.0,0.0,0.0,0.0,0.0,0.0,0.0,0.0,0.0,0.0,Tracheophyta
2005,2005-08-30,Leiria,Leiria,Souto De Carpalhosa,São Miguel,39.841889,-8.814779,NC,67.0,2005-08-30T23:00,18.3,86,16.0,19.2,0.0,0.0,0.0,0.0,1,1017.4,1009.4,26,0,0,87,0.0,0.29,8.1,15.6,328,337,12.2,20.5,24.4,22.4,19.6,0.049,0.06,0.066,0.131,0,0.0,0.0,0.0,0.0,0.0,0.0,0.0,0.0,0.0,0.0,0.0,0.0,0.0,Tracheophyta; Pinus pinaster Aiton; Eucalyptus L'Hér.; Magnoliopsida; Acacia Mill.
2005,2005-08-22,Leiria,Alcobaça,Aljubarrota (Prazeres),MOLIANOS,39.5719302,-8.9442444,NC,134.0,2005-08-22T01:00,19.3,60,11.3,18.2,0.0,0.0,0.0,0.0,0,1019.8,1004.0,0,0,0,0,0.04,0.9,9.7,22.0,42,55,20.5,19.6,25.7,24.0,20.6,0.056,0.078,0.101,0.173,0,0.0,0.0,0.0,0.0,0.0,0.0,0.0,0.0,0.0,0.0,0.0,0.0,0.0,Tracheophyta; Eucalyptus L'Hér.; Vitis vinifera L.; Magnoliopsida; Pinus pinaster Aiton
2005,2005-08-31,Leiria,Óbidos,Óbidos (santa Maria),Trás do Outeiro,39.3846025,-9.1703518,Desconhecida,35.0,2005-08-31T14:00,23.1,67,16.5,23.8,0.0,0.0,0.0,0.0,0,1017.4,1013.3,0,0,0,0,0.43,0.94,16.2,20.1,323,327,32.8,33.0,24.4,23.3,21.2,0.048,0.061,0.094,0.168,1,3600.0,668.6,424.8,243.8,525.6,668.6,1085.2,691.0,439.0,252.0,525.6,691.0,1121.6,Tracheophyta; Magnoliopsida
2005,2005-02-22,Leiria,Caldas da Rainha,Caldas Da Rainha (santo Onofre),CALDAS DA RAINHA,39.4067465,-9.1402586,NC,48.0,2005-02-22T02:00,8.6,67,2.8,4.8,0.0,0.0,0.0,0.0,3,1013.7,1007.8,95,80,39,0,0.03,0.37,14.2,22.4,330,330,28.1,8.6,10.5,11.2,13.1,0.129,0.196,0.237,0.261,0,0.0,0.0,0.0,0.0,0.0,0.0,0.0,0.0,0.0,0.0,0.0,0.0,0.0,Tracheophyta; Magnoliopsida
2005,2005-09-02,Leiria,Leiria,Marrazes,Casal Carolino,39.7527128,-8.7959911,NC,107.0,2005-09-02T00:00,17.1,97,16.6,17.5,0.0,0.0,0.0,0.0,2,1017.8,1005.1,76,84,0,0,0.0,0.07,13.4,24.2,333,342,24.1,18.4,23.2,22.1,19.4,0.049,0.06,0.066,0.131,0,0.0,0.0,0.0,0.0,0.0,0.0,0.0,0.0,0.0,0.0,0.0,0.0,0.0,Tracheophyta; Pinus pinaster Aiton; Eucalyptus L'Hér.; Magnoliopsida; Acacia Mill.
2005,2005-08-22,Leiria,Alcobaça,Benedita,Fonte Mariana/(Moinhos Novos),39.40944,-8.9802075,NC,200.0,2005-08-22T14:00,28.5,24,6.1,26.0,0.0,0.0,0.0,0.0,0,1019.9,997.1,0,0,0,0,0.73,2.95,21.5,27.0,342,344,43.6,36.0,25.4,23.9,20.3,0.093,0.149,0.176,0.255,1,3600.0,870.8,767.0,103.8,915.7,870.8,1120.2,898.0,791.0,107.0,915.7,898.0,1155.2,Tracheophyta; Vitis vinifera L.; Eucalyptus L'Hér.; Magnoliopsida; Olea europaea L.
2005,2005-08-23,Leiria,Pedrógão Grande,Pedrógão Grande,Vale da Manta,39.9201368,-8.150925617120933,NC,373.0,2005-08-23T15:00,32.1,21,7.1,31.2,0.0,0.0,0.0,0.0,0,1016.0,974.6,0,0,0,0,0.65,3.78,10.9,13.2,304,305,24.1,39.8,27.6,24.8,20.4,0.105,0.149,0.158,0.235,1,3600.0,743.3,649.8,93.5,887.0,743.3,980.2,795.0,695.0,100.0,887.0,795.0,1048.3,Tracheophyta; Pinus pinaster Aiton; Magnoliopsida; Acacia Mill.; Olea europaea L.
2005,2005-08-16,Leiria,Leiria,Maceira,Venda,39.6960395,-8.9116229,NC,168.0,2005-08-16T22:00,18.1,95,17.3,19.9,0.0,0.0,0.0,0.0,0,1011.0,991.3,9,10,0,0,0.0,0.1,5.4,5.8,188,176,7.2,20.9,25.8,22.0,18.4,0.052,0.062,0.072,0.142,0,0.0,0.0,0.0,0.0,0.0,0.0,0.0,0.0,0.0,0.0,0.0,0.0,0.0,Tracheophyta; Pinus pinaster Aiton; Eucalyptus L'Hér.; Magnoliopsida; Acacia Mill.
2005,2005-08-23,Leiria,Pedrógão Grande,Pedrógão Grande,Vale do Barco,39.9321379,-8.1406939,NC,410.0,2005-08-23T15:00,32.0,21,6.7,30.9,0.0,0.0,0.0,0.0,0,1016.0,970.6,0,0,0,0,0.65,3.76,10.9,13.2,304,305,24.1,39.9,27.7,25.0,20.6,0.108,0.15,0.16,0.236,1,3600.0,743.4,649.9,93.5,887.5,743.4,979.7,795.0,695.0,100.0,887.5,795.0,1047.8,Eucalyptus L'Hér.; Magnoliopsida; Pinus pinaster Aiton; Tracheophyta; Olea europaea L.
2005,2005-08-28,Leiria,Marinha Grande,Marinha Grande,Pilado,39.8072814,-8.9121087,NC,44.0,2005-08-28T02:00,17.8,99,17.6,18.7,0.0,0.0,0.0,0.0,3,1018.7,1013.5,90,100,0,0,0.0,0.03,13.2,20.8,349,351,18.0,18.8,22.2,21.9,19.4,0.051,0.06,0.072,0.144,0,0.0,0.0,0.0,0.0,0.0,0.0,0.0,0.0,0.0,0.0,0.0,0.0,0.0,Pinus pinaster Aiton; Eucalyptus L'Hér.; Tracheophyta
2005,2005-08-24,Leiria,Figueiró dos Vinhos,Arega,AREGA,39.8545424,-8.3098463,NC,369.0,2005-08-24T13:00,29.3,37,13.0,30.5,0.0,0.0,0.0,0.0,0,1015.1,973.8,14,0,0,45,0.68,2.58,12.2,14.7,304,306,29.5,36.1,26.3,24.6,20.2,0.106,0.149,0.156,0.229,1,3600.0,899.7,788.0,111.7,904.4,899.7,1166.2,902.0,790.0,112.0,904.4,902.0,1169.1,Tracheophyta; Eucalyptus L'Hér.; Pinus pinaster Aiton
2005,2005-08-19,Leiria,Bombarral,Roliça,Azambujeira dos Carros,39.3136813,-9.1838008,NC,36.0,2005-08-19T22:00,20.7,68,14.6,18.3,0.0,0.0,0.0,0.0,0,1018.6,1014.3,0,0,0,0,0.1,0.79,27.1,42.1,4,7,47.2,21.8,24.5,23.2,19.9,0.048,0.061,0.086,0.16,0,0.0,0.0,0.0,0.0,0.0,0.0,0.0,0.0,0.0,0.0,0.0,0.0,0.0,Magnoliopsida; Tracheophyta; Eucalyptus L'Hér.; Vitis vinifera L.; Pinales; Pinus pinaster Aiton; 
2005,2005-08-19,Leiria,Nazaré,Famalicão,Raposos,39.5252936,-9.0653113,NC,177.0,2005-08-19T22:00,20.6,63,13.2,18.5,0.0,0.0,0.0,0.0,0,1018.4,997.7,0,0,0,0,0.09,0.91,20.9,37.0,3,7,41.8,22.3,25.1,23.8,20.0,0.083,0.126,0.15,0.223,0,0.0,0.0,0.0,0.0,0.0,0.0,0.0,0.0,0.0,0.0,0.0,0.0,0.0,Magnoliopsida; Tracheophyta; Pinus pinaster Aiton; Eucalyptus L'Hér.
2005,2005-08-28,Leiria,Marinha Grande,Marinha Grande,Garcia,39.7495952,-8.9298895,NC,92.0,2005-08-28T03:00,18.1,98,17.8,18.9,0.0,0.0,0.0,0.0,3,1018.5,1007.6,90,100,0,0,0.0,0.04,14.2,21.7,351,354,20.9,18.9,22.3,22.1,19.4,0.05,0.06,0.07,0.139,0,0.0,0.0,0.0,0.0,0.0,0.0,0.0,0.0,0.0,0.0,0.0,0.0,0.0,Tracheophyta
2005,2005-08-24,Leiria,Caldas da Rainha,Caldas Da Rainha (nossa Senhora Do Pópulo),Lagoa Parceira,39.3954877,-9.1147373,NC,131.0,2005-08-24T13:00,22.5,60,14.3,22.4,0.0,0.0,0.0,0.0,0,1016.7,1001.4,10,0,0,33,0.52,1.1,21.5,26.7,342,344,41.4,29.5,23.4,23.2,20.1,0.091,0.132,0.158,0.235,1,3600.0,884.4,751.5,132.9,857.8,884.4,1172.6,885.0,752.0,133.0,857.8,885.0,1173.4,Vitis vinifera L.; Tracheophyta; Eucalyptus L'Hér.; Magnoliopsida
2005,2005-08-20,Leiria,Leiria,Caranguejeira,CALDELAS,39.7305829,-8.7039979,NC,113.0,2005-08-20T13:00,27.9,33,10.2,27.7,0.0,0.0,0.0,0.0,0,1019.9,1006.9,0,0,0,0,0.68,2.51,15.4,19.2,349,352,40.7,34.9,24.3,22.4,18.8,0.049,0.062,0.068,0.133,1,3600.0,911.3,801.4,109.9,906.4,911.3,1181.3,912.0,802.0,110.0,906.4,912.0,1182.3,Tracheophyta; Pinus pinaster Aiton; Eucalyptus L'Hér.; Magnoliopsida; Acacia Mill.; Olea europaea L.
2005,2005-08-24,Leiria,Caldas da Rainha,Caldas Da Rainha (nossa Senhora Do Pópulo),CALDAS,39.4059714,-9.1346217,NC,59.0,2005-08-24T15:00,22.9,59,14.4,21.6,0.0,0.0,0.0,0.0,0,1016.5,1009.6,8,0,0,25,0.48,1.15,26.0,32.1,346,347,43.9,30.4,24.4,23.7,20.6,0.091,0.132,0.158,0.235,1,3600.0,739.9,632.2,107.7,855.2,739.9,989.4,790.0,675.0,115.0,855.2,790.0,1056.5,Tracheophyta; Magnoliopsida
2005,2005-08-24,Leiria,Caldas da Rainha,São Gregório,FANADIA,39.358541,-9.062497989670522,NC,132.0,2005-08-24T18:00,19.7,69,13.9,17.5,0.0,0.0,0.0,0.0,0,1015.9,1000.4,4,0,0,14,0.19,0.71,23.9,32.2,337,338,44.3,25.8,24.2,23.2,20.1,0.091,0.132,0.158,0.235,1,3600.0,210.2,159.1,51.1,644.6,210.2,330.4,292.0,221.0,71.0,644.6,292.0,458.9,Tracheophyta; Eucalyptus L'Hér.; Magnoliopsida
2005,2005-08-25,Leiria,Pombal,Vila Cã,Fontinha,39.8305622,-8.5425839,NC,270.0,2005-08-25T04:00,13.7,97,13.3,12.3,0.0,0.0,0.0,0.0,2,1016.2,984.1,66,73,0,0,0.0,0.04,16.9,29.8,333,337,30.6,17.6,24.6,24.1,19.9,0.096,0.134,0.145,0.224,0,0.0,0.0,0.0,0.0,0.0,0.0,0.0,0.0,0.0,0.0,0.0,0.0,0.0,Pinus pinaster Aiton; Eucalyptus L'Hér.; Magnoliopsida; Tracheophyta
2005,2005-08-30,Leiria,Leiria,Santa Catarina da Serra,Quinta da Sardinha,39.6804488,-8.6578726,NC,258.0,2005-08-30T17:00,25.0,54,15.1,24.5,0.0,0.0,0.0,0.0,0,1016.0,986.5,0,0,0,0,0.33,1.46,15.6,20.3,304,303,33.5,33.5,25.3,22.6,19.4,0.057,0.077,0.084,0.149,1,3600.0,357.8,287.9,69.9,713.0,357.8,541.9,435.0,350.0,85.0,713.0,435.0,658.9,Tracheophyta; Pinus pinaster Aiton; Eucalyptus L'Hér.; Magnoliopsida; Acacia Mill.; Olea europaea L.
2005,2005-08-21,Leiria,Óbidos,A dos Negros,Areirinha,39.3313589,-9.0955705,NC,149.0,2005-08-21T18:00,23.0,46,10.8,19.9,0.0,0.0,0.0,0.0,0,1017.7,1000.4,0,0,0,0,0.29,1.51,22.8,32.1,348,350,50.4,27.9,25.3,23.2,19.7,0.086,0.119,0.141,0.218,1,3600.0,223.0,172.5,50.4,663.8,223.0,347.5,305.0,236.0,69.0,663.8,305.0,475.3,Magnoliopsida; Tracheophyta; Vitis vinifera L.
2005,2005-09-04,Leiria,Óbidos,Olho Marinho,OLHO MARINHO,39.3377013,-9.2223641,NC,24.0,2005-09-04T12:00,25.3,48,13.5,25.7,0.0,0.0,0.0,0.0,0,1023.5,1020.7,0,0,0,0,0.56,1.69,15.0,18.5,349,353,30.2,31.9,23.3,22.6,20.6,0.048,0.06,0.082,0.158,1,3600.0,843.3,736.2,107.1,880.7,843.3,1124.6,819.0,715.0,104.0,880.7,819.0,1092.1,Magnoliopsida; Tracheophyta; Eucalyptus L'Hér.
2005,2005-09-01,Leiria,Leiria,Santa Catarina da Serra,Casal da Fonte da Pedra,39.6710831,-8.6503218,NC,235.0,2005-09-01T12:00,25.4,53,15.2,26.1,0.0,0.0,0.0,0.0,0,1016.7,989.8,10,0,0,35,0.56,1.52,17.4,22.1,338,341,41.0,30.9,23.3,22.7,19.6,0.058,0.077,0.083,0.149,1,3600.0,858.8,744.7,114.2,882.7,858.8,1133.2,835.0,724.0,111.0,882.7,835.0,1101.8,Tracheophyta; Pinus pinaster Aiton; Eucalyptus L'Hér.; Magnoliopsida; Acacia Mill.; Olea europaea L.
2005,2005-08-21,Leiria,Porto de Mós,Calvaria de Cima,Vale de Água,39.6248239,-8.8751694,NC,133.0,2005-08-21T05:00,18.1,59,10.0,16.2,0.0,0.0,0.0,0.0,0,1019.0,1003.2,0,0,0,0,0.06,0.84,12.9,27.5,36,44,22.0,17.9,25.0,24.0,20.5,0.056,0.078,0.101,0.173,0,0.0,0.0,0.0,0.0,0.0,0.0,0.0,0.0,0.0,0.0,0.0,0.0,0.0,Eucalyptus L'Hér.; Tracheophyta; Magnoliopsida; Pinus pinaster Aiton; Vitis vinifera L.
2005,2005-08-16,Leiria,Nazaré,Famalicão,Quinta Nova,39.5315015,-9.0858829,NC,37.0,2005-08-16T20:00,20.8,85,18.2,22.3,0.0,0.0,0.0,0.0,0,1010.6,1006.3,15,17,0,0,0.03,0.37,10.1,13.2,325,325,27.7,26.7,28.4,24.3,20.7,0.043,0.067,0.106,0.176,0,0.0,0.0,0.0,0.0,0.0,0.0,0.0,8.0,3.0,5.0,38.1,8.0,46.8,Eucalyptus L'Hér.; Pinus pinaster Aiton; Tracheophyta; Magnoliopsida
2005,2005-02-28,Leiria,Pombal,Almagreira,Barros da Paz,39.9935382,-8.6487767,NC,38.0,2005-02-28T10:00,6.3,39,-6.7,-0.5,0.0,0.0,0.0,0.0,0,1005.3,1000.6,1,0,0,4,0.19,0.59,26.5,35.1,59,62,54.0,7.2,7.3,9.5,11.4,0.151,0.148,0.167,0.166,1,3600.0,479.5,391.2,88.4,818.2,479.5,666.6,407.0,332.0,75.0,818.2,407.0,565.8,Pinus pinaster Aiton; Tracheophyta; Olea europaea L.; Magnoliopsida; Eucalyptus L'Hér.
2005,2005-08-20,Leiria,Alcobaça,Aljubarrota (Prazeres),MOLIANOS,39.5719302,-8.9442444,NC,134.0,2005-08-20T19:00,22.9,55,13.2,19.9,0.0,0.0,0.0,0.0,0,1019.2,1003.6,8,4,0,15,0.19,1.27,27.0,46.4,357,360,52.6,28.1,26.5,24.0,20.5,0.056,0.078,0.101,0.173,1,3485.71,46.3,30.2,16.1,346.6,45.5,88.8,115.0,75.0,40.0,446.4,115.0,220.3,Tracheophyta; Eucalyptus L'Hér.; Vitis vinifera L.; Magnoliopsida; Pinus pinaster Aiton
2005,2005-08-26,Leiria,Ansião,Alvorge,Mata de Baixo,39.9758637,-8.5180487,NC,256.0,2005-08-26T14:00,26.1,44,12.8,25.8,0.0,0.0,0.0,0.0,0,1018.1,988.9,1,0,0,4,0.6,1.9,18.6,23.9,313,314,43.9,33.8,24.4,23.3,19.3,0.069,0.09,0.099,0.171,1,3600.0,823.6,716.2,107.4,875.1,823.6,1096.4,851.0,740.0,111.0,875.1,851.0,1132.8,Tracheophyta; Magnoliopsida; Pinus pinaster Aiton
2005,2005-08-26,Leiria,Leiria,Bajouca,BAJOUCA,39.8933207,-8.7768829,Desconhecida,144.0,2005-08-26T17:00,21.8,57,13.0,19.6,0.0,0.0,0.0,0.0,0,1018.8,1002.0,0,0,0,0,0.32,1.12,21.8,28.7,322,325,41.4,29.2,23.2,22.0,18.9,0.049,0.059,0.068,0.134,1,3600.0,393.1,321.6,71.5,759.6,393.1,567.2,473.0,387.0,86.0,759.6,473.0,682.6,Tracheophyta; Pinus pinaster Aiton; Eucalyptus L'Hér.; Magnoliopsida; Acacia Mill.
2005,2005-09-10,Leiria,Leiria,Milagres,Colónia Agricola,39.8056674,-8.7817221,NC,131.0,2005-09-10T16:00,20.1,60,12.0,17.9,0.0,0.0,0.0,0.0,1,1020.6,1005.2,38,21,31,0,0.32,0.95,19.3,25.4,297,297,43.6,24.8,20.6,21.3,19.5,0.108,0.06,0.065,0.129,1,3600.0,445.8,334.3,111.4,638.0,445.8,707.2,508.0,381.0,127.0,638.0,508.0,805.9,Tracheophyta; Pinus pinaster Aiton; Eucalyptus L'Hér.; Magnoliopsida; Acacia Mill.
2005,2005-09-18,Leiria,Marinha Grande,Marinha Grande,São Pedro de Muel,39.7495952,-8.9298895,NC,92.0,2005-09-18T16:00,23.9,37,8.2,19.7,0.0,0.0,0.0,0.0,0,1018.9,1008.2,0,0,0,0,0.45,1.88,26.2,32.6,342,344,38.9,30.6,23.0,21.5,20.0,0.052,0.06,0.068,0.136,1,3600.0,481.4,406.0,75.5,836.8,481.4,657.5,555.0,468.0,87.0,836.8,555.0,758.0,Tracheophyta
2005,2005-08-30,Leiria,Peniche,Atouguia da Baleia,Bufarda,39.34781665,-9.334225849608696,NC,11.0,2005-08-30T21:00,19.6,86,17.1,20.4,0.0,0.0,0.0,0.0,1,1016.9,1015.6,28,1,0,89,0.01,0.32,11.6,16.8,338,337,21.2,23.2,25.4,23.4,21.4,0.045,0.064,0.102,0.175,0,0.0,0.0,0.0,0.0,0.0,0.0,0.0,0.0,0.0,0.0,0.0,0.0,0.0,Eucalyptus L'Hér.; Magnoliopsida; Tracheophyta; Pinus pinaster Aiton; Pinus pinea L.; 
2005,2005-09-01,Leiria,Pedrógão Grande,Pedrógão Grande,Mingacho,39.8972356,-8.1564002,NC,340.0,2005-09-01T13:00,29.1,37,12.8,30.0,0.0,0.0,0.0,0.0,0,1015.7,977.5,13,0,0,42,0.66,2.56,12.2,15.3,332,333,33.1,34.8,25.3,24.8,21.2,0.106,0.148,0.157,0.232,1,3600.0,865.7,760.1,105.6,899.9,865.7,1134.7,869.0,763.0,106.0,899.9,869.0,1139.0,Pinus pinaster Aiton; Magnoliopsida; Eucalyptus L'Hér.; Olea europaea L.
2005,2005-02-20,Leiria,Pedrógão Grande,Graça,Pinheiro do Bordalo,39.9119685,-8.2262719,NC,389.0,2005-02-20T17:00,12.7,40,-0.7,8.0,0.0,0.0,0.0,0.0,2,1014.7,968.8,52,49,13,0,0.17,0.89,17.3,25.1,337,339,36.4,12.3,7.9,7.7,10.0,0.17,0.231,0.289,0.284,1,3600.0,136.8,60.1,76.7,273.5,136.8,307.4,189.0,83.0,106.0,273.5,189.0,424.7,Pinus pinaster Aiton; Eucalyptus L'Hér.; Magnoliopsida; Tracheophyta; Olea europaea L.; Acacia Mill.; 
2005,2005-09-01,Leiria,Pombal,Vila Cã,Marco da Pipa,39.8554173,-8.5294818,NC,303.0,2005-09-01T19:00,21.4,64,14.4,20.1,0.0,0.0,0.0,0.0,0,1016.3,981.3,0,0,0,0,0.11,0.91,18.7,29.9,330,334,42.1,26.7,25.3,23.4,20.1,0.099,0.136,0.147,0.226,1,2337.33,1.9,1.1,0.8,13.2,1.4,4.0,65.0,39.0,26.0,284.3,65.0,137.5,Magnoliopsida; Pinus pinaster Aiton; Olea europaea L.; Vitis vinifera L.; Eucalyptus L'Hér.; Tracheophyta
2005,2005-09-21,Leiria,Alvaiázere,Pelmá,Casal do Rei,39.7875719,-8.4500591,NC,177.0,2005-09-21T13:00,28.5,26,7.1,28.3,0.0,0.0,0.0,0.0,0,1016.0,995.9,4,0,0,15,0.6,2.88,7.4,8.6,299,303,23.8,32.6,22.8,22.8,21.5,0.098,0.133,0.142,0.218,1,3600.0,810.0,710.7,99.3,926.9,810.0,1040.9,816.0,716.0,100.0,926.9,816.0,1048.6,Pinus pinaster Aiton; Olea europaea L.; Magnoliopsida; Tracheophyta; Quercus L.
2005,2005-09-02,Leiria,Pedrógão Grande,Pedrógão Grande,Gaga,39.9170642,-8.1523603,NC,360.0,2005-09-02T12:00,29.4,37,13.1,31.7,0.0,0.0,0.0,0.0,0,1017.8,977.4,0,0,0,0,0.6,2.6,3.6,3.6,276,270,23.0,34.4,25.1,24.6,21.2,0.106,0.148,0.157,0.231,1,3600.0,857.9,758.3,99.7,903.4,857.9,1128.1,835.0,738.0,97.0,903.4,835.0,1097.9,Tracheophyta; Olea europaea L.; Eucalyptus L'Hér.; Magnoliopsida; Acacia Mill.; Pinus pinaster Aiton
2005,2005-09-03,Leiria,Leiria,Santa Catarina da Serra,QUINTA DA SARDINHA,39.6804488,-8.6578726,NC,258.0,2005-09-03T10:00,24.1,47,12.2,24.4,0.0,0.0,0.0,0.0,0,1021.3,991.5,0,0,0,0,0.39,1.59,4.8,5.7,333,342,18.0,26.0,22.4,22.5,19.5,0.057,0.077,0.083,0.148,1,3600.0,667.2,566.0,101.2,832.1,667.2,914.6,600.0,509.0,91.0,832.1,600.0,822.5,Tracheophyta; Pinus pinaster Aiton; Eucalyptus L'Hér.; Magnoliopsida; Acacia Mill.; Olea europaea L.
2005,2005-08-16,Leiria,Alcobaça,Aljubarrota (Prazeres),MOLIANOS,39.5719302,-8.9442444,NC,134.0,2005-08-16T16:00,27.5,52,16.7,28.2,0.0,0.0,0.0,0.0,0,1010.0,994.8,0,0,0,0,0.5,1.77,15.7,19.1,290,290,34.6,39.0,28.1,23.9,20.3,0.057,0.079,0.102,0.174,1,3600.0,606.5,496.5,109.9,786.6,606.5,842.1,673.0,551.0,122.0,786.6,673.0,934.5,Tracheophyta; Eucalyptus L'Hér.; Vitis vinifera L.; Magnoliopsida; Pinus pinaster Aiton
2005,2005-08-17,Leiria,Leiria,Bajouca,Bajouca,39.8933207,-8.7768829,NC,144.0,2005-08-17T14:00,25.9,58,16.9,27.6,0.0,0.0,0.0,0.0,0,1012.1,995.6,17,19,0,0,0.59,1.42,16.9,19.6,304,306,34.9,36.2,25.0,22.2,18.5,0.05,0.06,0.069,0.136,1,3600.0,862.0,755.2,106.8,890.7,862.0,1131.6,888.0,778.0,110.0,890.7,888.0,1165.8,Tracheophyta; Pinus pinaster Aiton; Eucalyptus L'Hér.; Magnoliopsida; Acacia Mill.
2005,2005-02-19,Leiria,Caldas da Rainha,Caldas Da Rainha (nossa Senhora Do Pópulo),Imaginário,39.401913,-9.1027328,NC,91.0,2005-02-19T17:00,11.8,53,2.6,7.6,0.0,0.0,0.0,0.0,0,1022.1,1011.0,0,0,0,0,0.16,0.65,17.4,22.7,347,349,33.1,14.3,10.7,10.9,12.8,0.131,0.199,0.237,0.261,1,3600.0,212.4,166.3,46.1,727.1,212.4,320.1,290.0,227.0,63.0,727.1,290.0,437.1,Magnoliopsida; Tracheophyta; Eucalyptus L'Hér.; Vitis vinifera L.; Pinus pinaster Aiton
2005,2005-08-22,Leiria,Pombal,Almagreira,ALMAGREIRA,39.9935382,-8.6487767,NC,38.0,2005-08-22T17:00,28.4,29,8.7,24.5,0.0,0.0,0.0,0.0,0,1019.4,1015.0,0,0,0,0,0.5,2.75,24.3,33.2,333,336,46.8,35.9,27.5,24.0,19.8,0.049,0.059,0.064,0.126,1,3600.0,415.1,344.0,71.1,783.8,415.1,587.0,496.0,411.0,85.0,783.8,496.0,701.3,Pinus pinaster Aiton; Tracheophyta; Olea europaea L.; Magnoliopsida; Eucalyptus L'Hér.
2005,2005-09-22,Leiria,Alvaiázere,Maçãs de Dona Maria,Barqueiro,39.8749462,-8.3336088,NC,377.0,2005-09-22T14:00,28.3,26,7.1,27.4,0.0,0.0,0.0,0.0,0,1015.7,973.4,0,0,0,0,0.59,2.84,10.4,12.8,290,292,24.8,33.2,22.4,22.0,21.2,0.108,0.151,0.154,0.221,1,3600.0,743.3,652.4,90.9,925.9,743.3,957.1,777.0,682.0,95.0,925.9,777.0,1000.4,Tracheophyta; Pinales; Magnoliopsida; Pinus pinaster Aiton; Eucalyptus L'Hér.; Olea europaea L.; Vitis vinifera L.
2005,2005-03-01,Leiria,Pombal,Vila Cã,Outeiro de Galegas,39.8621812,-8.5644898,NC,144.0,2005-03-01T19:00,7.1,57,-0.8,3.9,0.0,0.0,0.0,0.0,1,1006.1,988.6,23,8,26,0,0.04,0.44,6.9,10.8,96,86,13.7,7.7,7.5,9.0,11.2,0.163,0.179,0.204,0.208,0,0.0,0.0,0.0,0.0,0.0,0.0,0.0,7.0,2.0,5.0,27.8,7.0,39.6,Olea europaea L.; Tracheophyta; Pinus pinaster Aiton; Magnoliopsida
2005,2005-08-19,Leiria,Pedrógão Grande,Graça,Carvalheira Grande,39.9022425,-8.2207027,NC,369.0,2005-08-19T13:00,31.8,28,11.0,32.5,0.0,0.0,0.0,0.0,1,1017.3,976.3,23,0,0,77,0.7,3.38,10.2,12.7,23,25,36.4,36.4,26.3,24.7,20.2,0.106,0.15,0.159,0.236,1,3600.0,883.4,718.7,164.7,812.2,883.4,1181.9,885.0,720.0,165.0,812.2,885.0,1184.1,Pinus pinaster Aiton; Eucalyptus L'Hér.; Magnoliopsida; Tracheophyta; Olea europaea L.; Acacia Mill.; 
2005,2005-09-07,Leiria,Ansião,Pousaflores,Pereiro de Cima,39.8761048,-8.3894241,NC,333.0,2005-09-07T07:00,16.0,96,15.3,16.0,0.0,0.0,0.0,0.0,3,1011.4,972.5,89,94,1,12,0.02,0.08,12.5,20.6,321,327,29.5,18.2,21.1,23.5,20.9,0.203,0.148,0.154,0.222,1,0.0,28.6,0.0,28.6,0.0,17.9,217.1,13.0,0.0,13.0,0.0,13.0,98.8,Magnoliopsida; Olea europaea L.; Eucalyptus L'Hér.; Pinus pinaster Aiton; Vitis vinifera L.
