year,date,district,municipality,parish,local,latitude,longitude,cause,elevation,hourly.time,hourly.temperature_2m,hourly.relative_humidity_2m,hourly.dew_point_2m,hourly.apparent_temperature,hourly.precipitation,hourly.rain,hourly.snowfall,hourly.snow_depth,hourly.weather_code,hourly.pressure_msl,hourly.surface_pressure,hourly.cloud_cover,hourly.cloud_cover_low,hourly.cloud_cover_mid,hourly.cloud_cover_high,hourly.et0_fao_evapotranspiration,hourly.vapour_pressure_deficit,hourly.wind_speed_10m,hourly.wind_speed_100m,hourly.wind_direction_10m,hourly.wind_direction_100m,hourly.wind_gusts_10m,hourly.soil_temperature_0_to_7cm,hourly.soil_temperature_7_to_28cm,hourly.soil_temperature_28_to_100cm,hourly.soil_temperature_100_to_255cm,hourly.soil_moisture_0_to_7cm,hourly.soil_moisture_7_to_28cm,hourly.soil_moisture_28_to_100cm,hourly.soil_moisture_100_to_255cm,hourly.is_day,hourly.sunshine_duration,hourly.shortwave_radiation_instant,hourly.direct_radiation_instant,hourly.diffuse_radiation_instant,hourly.direct_normal_irradiance_instant,hourly.global_tilted_irradiance_instant,hourly.terrestrial_radiation_instant,hourly.shortwave_radiation,hourly.direct_radiation,hourly.diffuse_radiation,hourly.direct_normal_irradiance,hourly.global_tilted_irradiance,hourly.terrestrial_radiation,scientificNames
2005,2005-03-17,Viana do Castelo,Ponte da Barca,Vila Chã (são João Baptista),Golfeiro,41.7941167,-8.3350706,NC,255.0,2005-03-17T19:00,21.6,41,7.7,20.1,0.0,0.0,0.0,0.0,0,1023.8,994.1,9,0,15,0,0.07,1.53,6.2,6.8,339,328,13.0,14.8,12.0,7.7,7.5,0.229,0.275,0.327,0.376,0,251.05,0.0,0.0,0.0,0.0,0.0,0.0,19.0,9.0,10.0,91.6,19.0,75.7,Vitis vinifera L.; Magnoliopsida; Pinus pinaster Aiton; Tracheophyta; Quercus L.
2005,2005-03-13,Viana do Castelo,Viana do Castelo,Montaria,Pedrulhos,41.8138336,-8.7538867,NC,291.0,2005-03-13T16:00,12.7,72,7.8,10.7,0.0,0.0,0.0,0.0,3,1009.7,975.3,100,96,60,0,0.17,0.41,9.7,12.7,225,223,30.6,13.9,9.4,7.5,8.8,0.237,0.277,0.325,0.368,1,3600.0,298.8,147.2,151.6,322.3,298.8,632.5,343.0,169.0,174.0,322.3,343.0,726.2,Magnoliopsida; Tracheophyta; Pinus pinaster Aiton; Eucalyptus L'Hér.
2005,2005-03-14,Viana do Castelo,Viana do Castelo,Cardielos,Junto ao Rio,41.7130468,-8.7391575,NC,34.0,2005-03-14T12:00,13.8,68,7.9,11.9,0.0,0.0,0.0,0.0,3,1014.5,1010.4,88,93,7,0,0.2,0.51,9.0,11.3,196,197,23.0,13.8,10.3,9.6,10.5,0.206,0.266,0.323,0.369,1,1480.22,365.1,77.0,288.1,109.3,365.1,974.5,351.0,74.0,277.0,109.3,351.0,937.0,Magnoliopsida; Eucalyptus L'Hér.; Tracheophyta
2005,2005-10-02,Viana do Castelo,Ponte da Barca,Bravães,Gosende,41.7976926,-8.4509651,NC,69.0,2005-10-02T00:00,15.2,71,10.0,11.4,0.0,0.0,0.0,0.0,0,1022.4,1014.1,0,0,0,0,0.06,0.49,26.3,42.1,13,20,45.0,17.7,21.6,20.7,20.4,0.109,0.171,0.204,0.319,0,0.0,0.0,0.0,0.0,0.0,0.0,0.0,0.0,0.0,0.0,0.0,0.0,0.0,Eucalyptus L'Hér.; Vitis vinifera L.; Magnoliopsida; Pinus pinaster Aiton; Tracheophyta
2005,2005-09-02,Viana do Castelo,Caminha,Âncora,ÂNCORA,41.796673,-8.855721251420555,NC,33.0,2005-09-02T17:00,22.6,69,16.6,23.5,0.0,0.0,0.0,0.0,0,1018.4,1014.5,8,9,0,0,0.27,0.85,9.6,10.3,290,295,22.7,29.3,24.1,22.3,19.9,0.089,0.162,0.238,0.337,1,3600.0,352.0,277.3,74.7,717.1,352.0,519.8,429.0,338.0,91.0,717.1,429.0,633.5,Eucalyptus L'Hér.; Magnoliopsida; Tracheophyta; Pinus pinaster Aiton
2005,2005-03-18,Viana do Castelo,Viana do Castelo,Vila Franca,Viso,41.6845345,-8.7416926,NC,17.0,2005-03-18T02:00,11.8,79,8.2,9.9,0.0,0.0,0.0,0.0,0,1021.7,1019.6,0,0,0,0,0.01,0.3,9.7,16.3,94,121,22.3,12.0,13.6,10.7,10.6,0.186,0.258,0.319,0.368,0,0.0,0.0,0.0,0.0,0.0,0.0,0.0,0.0,0.0,0.0,0.0,0.0,0.0,Eucalyptus L'Hér.; Magnoliopsida; Tracheophyta
2005,2005-09-03,Viana do Castelo,Valença,São Pedro da Torre,Monte,41.9936143,-8.666368,NC,18.0,2005-09-03T02:00,17.6,98,17.3,19.5,0.0,0.0,0.0,0.0,0,1019.8,1017.6,3,3,0,0,0.0,0.03,4.4,5.2,235,236,8.6,18.7,23.6,22.6,20.0,0.103,0.146,0.21,0.326,0,0.0,0.0,0.0,0.0,0.0,0.0,0.0,0.0,0.0,0.0,0.0,0.0,0.0,Pinus pinaster Aiton; Tracheophyta; Eucalyptus L'Hér.; Magnoliopsida; 
2005,2005-10-07,Viana do Castelo,Arcos de Valdevez,Cabana Maior,Bouças Donas,41.90334355,-8.329251037255563,NC,685.0,2005-10-07T21:00,15.4,57,6.9,14.1,0.0,0.0,0.0,0.0,0,1015.1,936.6,8,0,9,7,0.0,0.75,3.4,2.9,122,120,10.4,15.8,18.0,17.6,17.7,0.159,0.233,0.259,0.371,0,0.0,0.0,0.0,0.0,0.0,0.0,0.0,0.0,0.0,0.0,0.0,0.0,0.0,Magnoliopsida; Tracheophyta
2005,2005-10-08,Viana do Castelo,Monção,Messegães,Louça,42.0776183,-8.3663993,NC,80.0,2005-10-08T09:00,19.4,70,13.7,20.0,0.0,0.0,0.0,0.0,1,1016.4,1007.0,28,0,0,94,0.15,0.68,4.0,4.6,95,141,12.6,16.3,17.3,19.4,19.9,0.105,0.164,0.2,0.313,1,3600.0,325.5,204.5,121.0,510.6,325.5,549.1,261.0,164.0,97.0,510.6,261.0,440.3,Magnoliopsida; Vitis vinifera L.; Eucalyptus L'Hér.; Pinales; Pinus pinaster Aiton; Tracheophyta; 
2005,2005-02-20,Viana do Castelo,Monção,Trute,Maneta,42.0103089,-8.4753657,NC,174.0,2005-02-20T01:00,4.5,85,2.2,-0.1,0.0,0.0,0.0,0.0,0,1024.1,1002.5,5,6,0,0,0.01,0.13,19.6,30.4,17,21,42.1,4.7,6.3,6.8,9.2,0.29,0.313,0.351,0.374,0,0.0,0.0,0.0,0.0,0.0,0.0,0.0,0.0,0.0,0.0,0.0,0.0,0.0,Pinus pinaster Aiton; Magnoliopsida; Eucalyptus L'Hér.; Vitis vinifera L.; Tracheophyta; 
2005,2005-01-30,Viana do Castelo,Ponte de Lima,Arcozelo,Sabadão,41.7918096,-8.5927082,NC,35.0,2005-01-30T00:00,5.1,80,1.9,1.4,0.0,0.0,0.0,0.0,0,1023.2,1018.8,0,0,0,0,0.01,0.18,13.0,22.6,56,68,22.3,5.8,7.9,9.3,12.4,0.331,0.345,0.373,0.375,0,0.0,0.0,0.0,0.0,0.0,0.0,0.0,0.0,0.0,0.0,0.0,0.0,0.0,Magnoliopsida; Vitis vinifera L.; Tracheophyta; Eucalyptus L'Hér.; Pinus pinaster Aiton; Olea europaea L.
2005,2005-10-08,Viana do Castelo,Caminha,Vilarelho,Vilarelho,41.874058,-8.8342666,NC,8.0,2005-10-08T17:00,20.9,56,11.7,21.0,0.0,0.0,0.0,0.0,2,1016.7,1015.8,62,0,54,100,0.11,1.09,3.1,3.8,306,311,14.0,24.8,20.5,20.5,20.8,0.081,0.167,0.225,0.323,1,3600.0,109.6,34.9,74.7,184.1,109.6,260.1,160.0,51.0,109.0,184.1,160.0,379.7,Tracheophyta; Eucalyptus L'Hér.; Pinus pinaster Aiton
2005,2005-03-13,Viana do Castelo,Ponte de Lima,Ribeira,Santa Catarina,41.7633736,-8.555046,NC,85.0,2005-03-13T00:00,7.6,90,6.0,5.8,0.0,0.0,0.0,0.0,1,1010.4,1000.0,27,17,19,0,0.0,0.11,6.2,8.3,144,162,10.8,7.9,10.1,8.5,9.9,0.232,0.275,0.325,0.368,0,0.0,0.0,0.0,0.0,0.0,0.0,0.0,0.0,0.0,0.0,0.0,0.0,0.0,Tracheophyta; Magnoliopsida; Eucalyptus L'Hér.; Pinus pinaster Aiton
2005,2005-02-20,Viana do Castelo,Valença,Friestas,Lavandeiras,42.0447506,-8.5679013,NC,52.0,2005-02-20T01:00,5.8,81,2.9,1.3,0.0,0.0,0.0,0.0,0,1023.3,1016.8,2,2,0,0,0.02,0.18,19.7,32.3,8,12,41.4,6.2,8.0,8.4,10.6,0.281,0.308,0.348,0.373,0,0.0,0.0,0.0,0.0,0.0,0.0,0.0,0.0,0.0,0.0,0.0,0.0,0.0,Pinus pinaster Aiton; Magnoliopsida; Tracheophyta; Vitis vinifera L.; 
2005,2005-10-09,Viana do Castelo,Arcos de Valdevez,Ázere,Nunide,41.8645807,-8.3916654,NC,208.0,2005-10-09T05:00,13.5,65,7.2,11.8,0.0,0.0,0.0,0.0,2,1016.9,992.1,58,0,50,94,0.02,0.54,6.6,7.7,103,118,9.7,14.1,18.3,19.2,19.6,0.103,0.16,0.199,0.312,0,0.0,0.0,0.0,0.0,0.0,0.0,0.0,0.0,0.0,0.0,0.0,0.0,0.0,Vitis vinifera L.; Magnoliopsida; Pinus pinaster Aiton; Eucalyptus L'Hér.; Tracheophyta; Acacia Mill.
2005,2005-03-16,Viana do Castelo,Vila Nova de Cerveira,Reboreda,Gamil,41.9619955,-8.7275393,NC,22.0,2005-03-16T15:00,17.8,66,11.4,16.9,0.0,0.0,0.0,0.0,1,1026.2,1023.6,36,1,22,74,0.29,0.7,9.4,12.1,223,217,27.7,16.3,11.4,9.2,9.7,0.236,0.275,0.324,0.367,1,3600.0,471.7,314.2,157.6,525.6,471.7,826.6,509.0,339.0,170.0,525.6,509.0,891.9,Pinus pinaster Aiton; Magnoliopsida; Eucalyptus L'Hér.; Tracheophyta
2005,2005-03-10,Viana do Castelo,Arcos de Valdevez,Sabadim,Cestães,41.907053,-8.4581156,NC,129.0,2005-03-10T20:00,11.6,62,4.6,9.9,0.0,0.0,0.0,0.0,1,1021.1,1005.4,30,0,0,100,0.0,0.52,3.1,3.2,36,333,6.5,8.7,8.7,7.2,9.3,0.257,0.29,0.33,0.37,0,0.0,0.0,0.0,0.0,0.0,0.0,0.0,0.0,0.0,0.0,0.0,0.0,0.0,Pinus pinaster Aiton; Magnoliopsida; Eucalyptus L'Hér.; Tracheophyta
2005,2005-02-20,Viana do Castelo,Ponte da Barca,Nogueira,Santa Catarina,41.796566,-8.4199105,NC,105.0,2005-02-20T18:00,9.7,64,3.3,5.2,0.0,0.0,0.0,0.0,0,1018.0,1005.2,6,2,7,0,0.07,0.43,20.5,30.6,359,1,44.6,9.3,7.6,7.3,9.6,0.283,0.31,0.35,0.379,1,2757.87,20.5,12.3,8.2,141.1,17.4,40.7,85.0,51.0,34.0,359.4,85.0,168.8,Tracheophyta; Magnoliopsida; Vitis vinifera L.; Pinus pinaster Aiton
2005,2005-02-20,Viana do Castelo,Arcos de Valdevez,Sabadim,Cabanas,41.9123752,-8.4794467,NC,540.0,2005-02-20T19:00,5.1,78,1.6,2.2,0.0,0.0,0.0,0.0,0,1017.9,953.0,9,10,0,0,0.02,0.19,7.2,19.1,357,4,33.8,5.6,5.2,5.1,7.6,0.298,0.318,0.353,0.383,0,0.0,0.0,0.0,0.0,0.0,0.0,0.0,1.0,0.0,1.0,0.0,1.0,7.8,Eucalyptus L'Hér.; Magnoliopsida; Tracheophyta
2005,2005-03-18,Viana do Castelo,Melgaço,Cousso,Pousada,42.0595829,-8.2986206,NC,582.0,2005-03-18T14:00,20.8,37,5.6,19.2,0.0,0.0,0.0,0.0,0,1018.5,952.3,0,0,0,0,0.48,1.54,11.5,16.1,141,141,44.3,17.6,9.7,6.1,6.1,0.274,0.322,0.366,0.401,1,3600.0,725.1,637.2,87.9,924.1,725.1,952.5,751.0,660.0,91.0,924.1,751.0,986.5,Quercus L.; Magnoliopsida; Pinus pinaster Aiton
2005,2005-03-12,Viana do Castelo,Caminha,Dem,Aldeia Nova - Castanheirinho,41.8408718,-8.7699022,NC,253.0,2005-03-12T14:00,15.4,51,5.2,14.1,0.0,0.0,0.0,0.0,1,1009.5,979.8,45,11,59,0,0.34,0.87,4.1,4.7,255,247,18.4,14.7,8.4,7.5,9.1,0.242,0.28,0.326,0.368,1,3600.0,594.3,412.6,181.7,618.3,594.3,924.9,615.0,427.0,188.0,618.3,615.0,957.0,Pinus pinaster Aiton; Eucalyptus L'Hér.; Magnoliopsida; Tracheophyta; Quercus L.
2005,2005-03-18,Viana do Castelo,Melgaço,Cousso,Virtelo,42.05921125,-8.298923438534105,NC,582.0,2005-03-18T16:00,21.0,38,6.0,18.6,0.0,0.0,0.0,0.0,2,1017.7,951.6,66,0,71,77,0.36,1.56,9.8,14.9,163,160,43.9,17.8,10.4,6.2,6.1,0.27,0.321,0.366,0.401,1,3600.0,466.4,389.6,76.9,827.0,466.4,650.6,534.0,446.0,88.0,827.0,534.0,744.9,Quercus L.; Magnoliopsida; Pinus pinaster Aiton
2005,2005-01-09,Viana do Castelo,Monção,Anhões,Costa da Lomba,41.9941148,-8.4374465,NC,435.0,2005-01-09T21:00,1.3,82,-1.4,-2.2,0.0,0.0,0.0,0.0,0,1028.6,974.7,0,0,0,0,0.0,0.12,8.5,18.2,144,171,27.4,2.0,4.9,6.5,10.7,0.352,0.361,0.379,0.378,0,0.0,0.0,0.0,0.0,0.0,0.0,0.0,0.0,0.0,0.0,0.0,0.0,0.0,Magnoliopsida; Pinus pinaster Aiton; Quercus L.; Eucalyptus L'Hér.; 
2005,2005-10-02,Viana do Castelo,Valença,Fontoura,Rio Torto,41.9613979,-8.6416119,NC,52.0,2005-10-02T03:00,13.3,75,9.0,9.8,0.0,0.0,0.0,0.0,0,1023.2,1016.9,0,0,0,0,0.04,0.38,22.3,35.6,21,27,42.5,15.6,20.1,20.4,20.1,0.119,0.177,0.203,0.315,0,0.0,0.0,0.0,0.0,0.0,0.0,0.0,0.0,0.0,0.0,0.0,0.0,0.0,Pinus pinaster Aiton; Tracheophyta; Magnoliopsida
2005,2005-10-09,Viana do Castelo,Ponte da Barca,Azias,Granja,41.775554,-8.363502,NC,530.0,2005-10-09T16:00,20.4,61,12.7,18.9,0.0,0.0,0.0,0.0,1,1017.3,956.8,34,0,9,96,0.17,0.92,15.8,22.2,235,234,38.5,23.2,18.4,17.8,18.3,0.107,0.166,0.208,0.32,1,322.5,148.5,24.8,123.8,70.8,148.5,479.9,180.0,30.0,150.0,70.8,180.0,581.6,Magnoliopsida; Eucalyptus L'Hér.; Tracheophyta; Pinus pinaster Aiton
2005,2005-03-18,Viana do Castelo,Arcos de Valdevez,Aboim das Choças,Junto EN 101,41.9237483,-8.456035,NC,146.0,2005-03-18T15:00,23.2,38,8.1,21.5,0.0,0.0,0.0,0.0,1,1017.8,1000.8,24,1,20,38,0.46,1.77,12.6,14.8,272,264,24.1,20.4,13.0,9.3,9.0,0.221,0.269,0.321,0.368,1,3600.0,616.5,534.9,81.6,883.9,616.5,835.9,665.0,577.0,88.0,883.9,665.0,901.7,Quercus L.; Magnoliopsida; Pinus pinaster Aiton; Acacia Mill.; Tracheophyta
2005,2005-03-14,Viana do Castelo,Monção,Pias,Vila Boa,42.0211452,-8.5079393,Desconhecida,115.0,2005-03-14T16:00,15.5,59,7.4,13.8,0.0,0.0,0.0,0.0,2,1013.3,999.6,64,68,5,0,0.25,0.73,7.2,10.0,198,193,18.4,15.2,10.1,8.1,9.1,0.245,0.28,0.326,0.368,1,3600.0,404.6,296.5,108.1,645.4,404.6,635.9,464.0,340.0,124.0,645.4,464.0,729.3,Magnoliopsida; Eucalyptus L'Hér.; Pinus pinaster Aiton; Vitis vinifera L.; Tracheophyta; Quercus L.; 
2005,2005-09-03,Viana do Castelo,Viana do Castelo,Areosa,junto Quinta Paulo Ferreira,41.7191326,-8.8554855,NC,16.0,2005-09-03T14:00,24.0,52,13.4,25.2,0.0,0.0,0.0,0.0,0,1021.4,1019.5,0,0,0,0,0.54,1.45,10.7,11.4,282,281,25.6,31.3,23.1,22.3,20.1,0.088,0.162,0.238,0.336,1,3600.0,801.8,703.3,98.5,907.7,801.8,1041.9,830.0,728.0,102.0,907.7,830.0,1078.5,Tracheophyta; Magnoliopsida; Acacia Mill.; Eucalyptus L'Hér.
2005,2005-09-04,Viana do Castelo,Arcos de Valdevez,Aguiã,Bouça Soeiro,41.8838066,-8.4319789,NC,68.0,2005-09-04T00:00,19.2,76,14.9,20.3,0.0,0.0,0.0,0.0,1,1022.6,1014.5,34,0,11,92,0.0,0.53,3.9,3.7,326,331,9.4,19.8,24.5,22.9,20.1,0.1,0.144,0.209,0.326,0,0.0,0.0,0.0,0.0,0.0,0.0,0.0,0.0,0.0,0.0,0.0,0.0,0.0,Tracheophyta; Eucalyptus L'Hér.; Magnoliopsida
2005,2005-02-19,Viana do Castelo,Viana do Castelo,Montaria,Srª. Minho,41.7981159,-8.6907542,NC,772.0,2005-02-19T01:00,-2.2,88,-3.9,-6.0,0.0,0.0,0.0,0.0,0,1025.1,930.8,0,0,0,0,0.0,0.06,7.7,13.9,79,73,20.5,-0.1,3.0,3.9,6.3,0.285,0.311,0.35,0.376,0,0.0,0.0,0.0,0.0,0.0,0.0,0.0,0.0,0.0,0.0,0.0,0.0,0.0,Magnoliopsida; Tracheophyta
2005,2005-03-13,Viana do Castelo,Melgaço,Chaviães,CHAVIÃES,42.127632,-8.240226580225071,NC,268.0,2005-03-13T14:00,14.3,60,6.8,11.6,0.0,0.0,0.0,0.0,3,1009.8,978.2,90,99,2,0,0.23,0.65,13.3,17.4,232,230,33.8,13.0,7.7,6.3,8.6,0.35,0.386,0.424,0.448,1,3600.0,378.5,201.8,176.7,302.5,378.5,924.0,392.0,209.0,183.0,302.5,392.0,957.0,Vitis vinifera L.; Magnoliopsida; Quercus L.; Pinus pinaster Aiton; Tracheophyta
2005,2005-03-17,Viana do Castelo,Melgaço,Paderne,Eira,42.0888298,-8.2753654,NC,239.0,2005-03-17T07:00,5.4,99,5.2,3.1,0.0,0.0,0.0,0.0,0,1027.0,997.4,18,10,15,0,0.01,0.01,8.0,9.8,63,73,20.5,6.2,8.6,7.5,7.6,0.258,0.289,0.331,0.37,1,0.0,6.0,0.0,6.0,0.0,1.5,59.6,2.0,0.0,2.0,0.0,2.0,19.7,Tracheophyta; Vitis vinifera L.; Magnoliopsida; Quercus L.
2005,2005-03-15,Viana do Castelo,Monção,Barbeita,Cascarneiro,42.0601177,-8.393014,NC,67.0,2005-03-15T13:00,18.9,50,8.2,17.2,0.0,0.0,0.0,0.0,0,1020.0,1012.0,0,0,0,0,0.42,1.09,14.4,19.5,181,177,35.3,16.4,9.9,8.1,8.9,0.254,0.286,0.329,0.37,1,3600.0,722.3,609.1,113.2,849.9,722.3,991.6,721.0,608.0,113.0,849.9,721.0,989.8,Tracheophyta; Vitis vinifera L.; Eucalyptus L'Hér.; Magnoliopsida; Pinus pinaster Aiton; 
2005,2005-10-09,Viana do Castelo,Monção,Merufe,Granja de Cima,41.999186,-8.3679976,NC,325.0,2005-10-09T16:00,21.0,65,14.1,20.0,0.0,0.0,0.0,0.0,1,1016.5,979.0,38,0,14,100,0.19,0.87,15.8,22.8,235,232,36.0,24.1,19.3,18.8,19.2,0.104,0.16,0.202,0.316,1,3600.0,205.9,91.8,114.1,261.2,205.9,481.9,249.0,111.0,138.0,261.2,249.0,582.8,Pinus pinaster Aiton; Magnoliopsida; Tracheophyta; Eucalyptus L'Hér.; Vitis vinifera L.; Pinales; Quercus L.; 
2005,2005-09-04,Viana do Castelo,Viana do Castelo,Vila Fria,Recta dos Alpões,41.6625255,-8.7617649,NC,44.0,2005-09-04T14:00,22.9,65,16.1,24.2,0.0,0.0,0.0,0.0,0,1022.7,1017.5,5,0,8,2,0.46,0.97,12.6,15.9,272,274,25.9,30.3,22.9,22.1,20.0,0.086,0.161,0.237,0.336,1,3600.0,721.2,572.5,148.7,742.8,721.2,1036.9,747.0,593.0,154.0,742.8,747.0,1074.0,Eucalyptus L'Hér.; Tracheophyta; Magnoliopsida; Pinus pinaster Aiton
2005,2005-08-18,Viana do Castelo,Caminha,Âncora,Lage,41.7959527,-8.8510326,NC,48.0,2005-08-18T16:00,24.4,59,15.7,22.8,0.0,0.0,0.0,0.0,0,1016.3,1010.7,0,0,0,0,0.44,1.27,27.9,38.6,335,338,52.9,29.8,24.7,22.8,19.0,0.086,0.18,0.25,0.343,1,3600.0,599.3,511.0,88.3,832.0,599.3,820.0,665.0,567.0,98.0,832.0,665.0,910.0,Eucalyptus L'Hér.; Magnoliopsida; Tracheophyta; Pinus pinaster Aiton
2005,2005-03-15,Viana do Castelo,Ponte da Barca,Vila Nova De Muía,Santa Rita,41.80600765,-8.415000093962036,NC,38.0,2005-03-15T14:00,19.7,47,8.0,18.4,0.0,0.0,0.0,0.0,0,1020.1,1015.6,0,0,0,0,0.44,1.22,12.2,16.0,199,189,28.4,17.5,10.5,8.4,9.1,0.236,0.277,0.327,0.373,1,3600.0,703.4,601.9,101.5,883.9,703.4,942.2,728.0,623.0,105.0,883.9,728.0,975.2,Magnoliopsida; Tracheophyta; Vitis vinifera L.; Pinus pinaster Aiton
2005,2005-03-14,Viana do Castelo,Arcos de Valdevez,Aguiã,Bouça Soeiro,41.8838066,-8.4319789,NC,68.0,2005-03-14T20:00,13.1,81,10.0,12.2,0.0,0.0,0.0,0.0,0,1015.6,1007.4,6,7,0,0,0.0,0.28,6.5,9.5,236,241,13.7,11.5,10.9,8.2,9.2,0.253,0.285,0.328,0.369,0,0.0,0.0,0.0,0.0,0.0,0.0,0.0,0.0,0.0,0.0,0.0,0.0,0.0,Tracheophyta; Eucalyptus L'Hér.; Magnoliopsida
2005,2005-03-10,Viana do Castelo,Monção,Riba de Mouro,Corga,42.0353783,-8.3219049,NC,391.0,2005-03-10T23:00,8.1,60,0.7,5.7,0.0,0.0,0.0,0.0,1,1020.6,973.5,30,0,0,100,0.0,0.43,2.5,1.1,98,18,10.1,3.8,6.0,5.1,7.3,0.273,0.302,0.336,0.372,0,0.0,0.0,0.0,0.0,0.0,0.0,0.0,0.0,0.0,0.0,0.0,0.0,0.0,Pinus pinaster Aiton; Magnoliopsida; Quercus L.; Tracheophyta; Vitis vinifera L.; Eucalyptus L'Hér.; 
2005,2005-03-17,Viana do Castelo,Viana do Castelo,Alvarães,Costeira,41.6272244,-8.7482233,NC,43.0,2005-03-17T14:00,22.0,45,9.6,22.7,0.0,0.0,0.0,0.0,0,1024.6,1019.5,5,0,8,0,0.45,1.44,2.3,3.6,39,84,15.1,20.9,12.4,10.1,10.3,0.194,0.251,0.311,0.354,1,3600.0,697.8,589.6,108.3,852.2,697.8,956.2,722.0,610.0,112.0,852.2,722.0,989.3,Tracheophyta; Eucalyptus L'Hér.; Pinus pinaster Aiton
2005,2005-03-11,Viana do Castelo,Paredes de Coura,Castanheira,Chavião,41.8911734,-8.5455629,NC,503.0,2005-03-11T15:00,13.6,41,0.5,11.0,0.0,0.0,0.0,0.0,1,1015.7,956.9,29,0,1,93,0.3,0.92,4.4,5.3,55,62,14.8,13.0,6.2,4.7,6.9,0.275,0.303,0.337,0.378,1,3600.0,528.5,335.4,193.1,584.0,528.5,796.3,572.0,363.0,209.0,584.0,572.0,861.9,Quercus L.; Magnoliopsida; Tracheophyta; Castanea sativa Mill.; Eucalyptus L'Hér.; Pinus pinaster Aiton; 
2005,2005-03-18,Viana do Castelo,Viana do Castelo,Lanheses,Monte,41.7500482,-8.6827137,NC,62.0,2005-03-18T17:00,20.0,48,8.7,18.3,0.0,0.0,0.0,0.0,2,1018.2,1010.9,63,0,57,97,0.22,1.21,9.7,13.0,297,284,23.8,20.0,14.6,10.6,10.3,0.174,0.255,0.318,0.368,1,3600.0,249.7,142.2,107.5,450.8,249.7,435.8,316.0,180.0,136.0,450.8,316.0,551.5,Tracheophyta; Magnoliopsida; Pinus pinaster Aiton
2005,2005-09-06,Viana do Castelo,Arcos de Valdevez,Guilhadeses,Fontão Covo,41.8328399,-8.4204023,NC,33.0,2005-09-06T12:00,20.9,75,16.2,20.8,0.0,0.0,0.0,0.0,1,1014.0,1010.1,43,48,0,0,0.38,0.62,20.1,25.5,314,317,38.2,24.1,22.1,22.9,20.3,0.278,0.146,0.211,0.329,1,3600.0,711.3,529.3,181.9,656.7,711.3,1085.5,692.0,515.0,177.0,656.7,692.0,1056.0,Tracheophyta; Vitis vinifera L.
2005,2005-03-17,Viana do Castelo,Arcos de Valdevez,Prozelo,Campo Transladario,41.8659112,-8.4389934,NC,129.0,2005-03-17T18:00,20.7,61,12.9,20.3,0.0,0.0,0.0,0.0,0,1023.5,1008.3,20,0,33,0,0.12,0.95,9.2,11.3,339,333,13.0,17.8,12.8,8.7,8.8,0.235,0.277,0.325,0.368,1,3600.0,96.1,65.2,30.9,520.8,96.1,173.1,168.0,114.0,54.0,520.8,168.0,302.5,Eucalyptus L'Hér.; Magnoliopsida; Quercus L.
2005,2005-09-12,Viana do Castelo,Viana do Castelo,Areosa,São Mamede,41.7303664,-8.8291614,NC,271.0,2005-09-12T17:00,21.9,61,14.0,21.9,0.0,0.0,0.0,0.0,0,1016.6,985.3,10,0,17,0,0.23,1.02,9.1,13.9,326,335,25.2,22.9,19.6,19.8,19.0,0.28,0.218,0.219,0.328,1,3600.0,277.5,205.2,72.4,613.9,277.5,451.5,349.0,258.0,91.0,613.9,349.0,567.8,Eucalyptus L'Hér.; Magnoliopsida
2005,2005-01-30,Viana do Castelo,Melgaço,Penso,PENSO,42.0798463,-8.3241606,NC,135.0,2005-01-30T18:00,8.3,66,2.3,5.2,0.0,0.0,0.0,0.0,0,1028.1,1011.4,0,0,0,0,0.03,0.38,9.7,14.4,22,37,18.4,7.0,5.7,7.2,10.8,0.34,0.352,0.375,0.377,0,777.56,0.0,0.0,0.0,0.0,0.0,0.0,27.0,15.0,12.0,157.7,27.0,73.6,Magnoliopsida; Eucalyptus L'Hér.; Vitis vinifera L.; Tracheophyta; Pinus pinaster Aiton
2005,2005-03-13,Viana do Castelo,Arcos de Valdevez,Jolda (madalena),Bouça,41.8011971,-8.5021651,NC,102.0,2005-03-13T01:00,7.8,87,5.7,6.1,0.0,0.0,0.0,0.0,2,1010.2,997.8,51,34,30,8,0.0,0.14,3.9,5.2,124,168,10.8,7.1,9.1,7.2,8.7,0.245,0.283,0.33,0.374,0,0.0,0.0,0.0,0.0,0.0,0.0,0.0,0.0,0.0,0.0,0.0,0.0,0.0,Vitis vinifera L.; Castanea sativa Mill.; Magnoliopsida; Eucalyptus L'Hér.; Pinus pinaster Aiton; Tracheophyta; Olea europaea L.
2005,2005-03-13,Viana do Castelo,Valença,Sanfins,Eiras,42.0274576,-8.5726555,NC,193.0,2005-03-13T15:00,13.9,69,8.4,11.8,0.0,0.0,0.0,0.0,3,1009.8,986.9,87,91,8,0,0.24,0.49,11.6,14.2,244,240,27.4,14.2,9.1,7.4,8.8,0.25,0.284,0.327,0.369,1,3600.0,431.1,280.3,150.8,481.1,431.1,806.9,466.0,303.0,163.0,481.1,466.0,872.3,Pinus pinaster Aiton; Magnoliopsida; Eucalyptus L'Hér.
2005,2005-03-14,Viana do Castelo,Vila Nova de Cerveira,Cornes,Aspera,41.9520006,-8.6792268,NC,62.0,2005-03-14T21:00,11.8,88,9.9,11.2,0.0,0.0,0.0,0.0,0,1016.1,1008.6,10,10,2,0,0.0,0.16,4.0,7.6,185,225,10.8,10.6,10.8,8.5,9.5,0.245,0.28,0.326,0.368,0,0.0,0.0,0.0,0.0,0.0,0.0,0.0,0.0,0.0,0.0,0.0,0.0,0.0,Tracheophyta; Magnoliopsida; Pinus pinaster Aiton; Eucalyptus L'Hér.
2005,2005-03-19,Viana do Castelo,Ponte de Lima,Anais,Desconhecido,41.6986811,-8.5253797,NC,265.0,2005-03-19T11:00,19.3,45,7.0,17.0,0.0,0.0,0.0,0.0,2,1017.1,986.2,65,14,68,40,0.35,1.23,10.1,13.3,186,182,41.0,16.0,10.9,8.4,7.6,0.213,0.265,0.322,0.372,1,3600.0,594.9,389.8,205.1,582.5,594.9,923.8,551.0,361.0,190.0,582.5,551.0,855.7,Eucalyptus L'Hér.; Pinus pinaster Aiton; Tracheophyta
2005,2005-10-02,Viana do Castelo,Valença,Verdoejo,São Tomé,42.0223828,-8.5934111,NC,546.0,2005-10-02T15:00,21.1,31,3.4,18.2,0.0,0.0,0.0,0.0,0,1020.9,958.6,0,0,0,0,0.4,1.73,11.6,15.8,74,73,37.4,23.6,17.9,18.0,17.8,0.11,0.171,0.205,0.319,1,3600.0,545.2,467.1,78.0,879.6,545.2,725.5,601.0,515.0,86.0,879.6,601.0,799.8,Magnoliopsida; Vitis vinifera L.; Pinus pinaster Aiton; Tracheophyta; Eucalyptus L'Hér.; 
2005,2005-02-28,Viana do Castelo,Melgaço,Penso,Zona Industrial,42.0822811,-8.319188,NC,202.0,2005-02-28T16:00,7.4,37,-6.3,1.7,0.0,0.0,0.0,0.0,0,1005.8,981.4,0,0,0,0,0.22,0.65,19.1,27.8,46,49,48.6,8.1,4.9,6.0,8.6,0.306,0.324,0.346,0.373,1,3600.0,420.0,353.2,66.9,889.7,420.0,553.5,490.0,412.0,78.0,889.7,490.0,645.7,Magnoliopsida; Vitis vinifera L.; Tracheophyta; Pinus pinaster Aiton; Quercus L.
2005,2005-09-14,Viana do Castelo,Viana do Castelo,Areosa,Poço Negro,41.7238768,-8.84738256952297,NC,120.0,2005-09-14T11:00,24.8,53,14.6,26.7,0.0,0.0,0.0,0.0,0,1023.4,1009.4,0,0,0,0,0.44,1.47,3.1,6.5,111,124,12.6,25.2,20.0,20.3,19.7,0.216,0.209,0.235,0.333,1,3600.0,718.9,616.5,102.4,849.9,718.9,980.9,674.0,578.0,96.0,849.9,674.0,919.6,Tracheophyta; Eucalyptus L'Hér.; Magnoliopsida; Acacia Mill.
2005,2005-02-19,Viana do Castelo,Ponte da Barca,Touvedo (São Lourenço),Senhora da Saúde,41.7972187,-8.361529341022397,NC,200.0,2005-02-19T12:00,10.3,59,2.7,7.9,0.0,0.0,0.0,0.0,0,1025.3,1000.9,0,0,0,0,0.27,0.51,6.6,8.7,45,48,22.0,8.2,4.4,6.5,9.0,0.296,0.317,0.354,0.383,1,3600.0,624.6,540.6,84.0,920.9,624.6,821.9,595.0,515.0,80.0,920.9,595.0,783.0,Eucalyptus L'Hér.; Magnoliopsida; Pinus pinaster Aiton; Vitis vinifera L.
2005,2005-10-02,Viana do Castelo,Caminha,Venade,Castanheirinho,41.8516796,-8.8080275,NC,35.0,2005-10-02T18:00,21.4,44,8.6,18.8,0.0,0.0,0.0,0.0,0,1020.4,1016.3,0,0,0,0,0.14,1.43,15.0,25.7,11,20,25.9,23.4,21.4,20.9,20.7,0.087,0.174,0.227,0.325,1,2882.27,24.0,15.6,8.5,178.9,21.0,46.7,91.0,59.0,32.0,397.5,91.0,176.9,Magnoliopsida; Pinus pinaster Aiton; Tracheophyta
2005,2005-03-15,Viana do Castelo,Ponte da Barca,Grovelas,Soutelo,41.888884,-8.466879,NC,276.0,2005-03-15T16:00,18.0,50,7.6,15.6,0.0,0.0,0.0,0.0,0,1020.0,987.6,0,0,0,0,0.32,1.03,12.0,16.5,219,212,37.1,16.6,10.2,7.3,8.0,0.245,0.283,0.329,0.374,1,3600.0,465.7,395.9,69.8,855.2,465.7,640.6,534.0,454.0,80.0,855.2,534.0,734.5,Magnoliopsida; Eucalyptus L'Hér.; Quercus L.
2005,2005-02-20,Viana do Castelo,Valença,Sanfins,Barreira,42.018387,-8.5788326,NC,342.0,2005-02-20T21:00,5.0,80,1.8,1.6,0.0,0.0,0.0,0.0,0,1018.9,977.1,17,19,0,0,0.01,0.17,10.2,21.1,10,14,33.5,5.6,6.7,6.6,8.8,0.281,0.306,0.347,0.374,0,0.0,0.0,0.0,0.0,0.0,0.0,0.0,0.0,0.0,0.0,0.0,0.0,0.0,Magnoliopsida; Pinus pinaster Aiton; Eucalyptus L'Hér.
2005,2005-03-15,Viana do Castelo,Monção,Luzio,Leiradelo,41.982478,-8.4620655,NC,388.0,2005-03-15T18:00,15.0,63,8.1,13.5,0.0,0.0,0.0,0.0,0,1020.5,974.8,0,0,0,0,0.09,0.63,7.0,13.5,235,224,28.4,14.1,10.0,6.5,7.2,0.251,0.289,0.331,0.371,1,3600.0,91.9,64.9,27.0,567.6,91.9,158.3,167.0,118.0,49.0,567.6,167.0,287.6,Magnoliopsida; Pinus pinaster Aiton; Quercus L.; Eucalyptus L'Hér.; 
2005,2005-03-15,Viana do Castelo,Monção,Merufe,Menanços,42.0297394,-8.3967117,NC,221.0,2005-03-15T18:00,15.9,65,9.3,14.3,0.0,0.0,0.0,0.0,0,1020.6,994.4,0,0,0,0,0.1,0.64,9.7,17.4,225,218,26.3,14.7,10.5,7.0,7.8,0.257,0.292,0.332,0.37,1,3600.0,94.2,66.5,27.7,572.8,94.2,160.6,170.0,120.0,50.0,572.8,170.0,289.8,Pinus pinaster Aiton; Magnoliopsida; Tracheophyta; Eucalyptus L'Hér.; Vitis vinifera L.; Pinales; Quercus L.; 
2005,2005-10-02,Viana do Castelo,Valença,Fontoura,Bouça Velha,41.956145,-8.6328706,NC,68.0,2005-10-02T19:00,17.9,52,8.0,14.6,0.0,0.0,0.0,0.0,0,1021.2,1013.1,0,0,0,0,0.13,0.98,19.5,32.4,28,35,38.2,20.1,20.3,20.2,20.0,0.116,0.175,0.202,0.315,0,0.0,0.0,0.0,0.0,0.0,0.0,0.0,1.0,0.0,1.0,0.0,1.0,13.3,Pinus pinaster Aiton; Tracheophyta; Vitis vinifera L.; Eucalyptus L'Hér.; Magnoliopsida
2005,2005-03-19,Viana do Castelo,Viana do Castelo,Lanheses,Jnt ao Rio,41.7382855,-8.6743377,NC,36.0,2005-03-19T15:00,19.0,55,9.7,17.0,0.0,0.0,0.0,0.0,2,1013.6,1009.3,77,2,76,100,0.29,0.99,13.1,17.8,201,188,40.7,19.5,14.3,11.1,10.5,0.17,0.252,0.317,0.367,1,3600.0,403.7,129.9,273.7,211.9,403.7,846.2,435.0,140.0,295.0,211.9,435.0,911.9,Pinus pinaster Aiton; Magnoliopsida; Tracheophyta
2005,2005-03-13,Viana do Castelo,Caminha,Vila Praia de Âncora,Lombom,41.8158407,-8.8666642,NC,14.0,2005-03-13T15:00,14.5,71,9.2,12.8,0.0,0.0,0.0,0.0,3,1009.9,1008.2,100,88,34,0,0.25,0.49,10.3,12.0,241,237,26.3,16.8,11.2,9.5,10.7,0.203,0.267,0.324,0.369,1,3600.0,444.5,288.0,156.5,490.4,444.5,813.4,480.0,311.0,169.0,490.4,480.0,878.3,Tracheophyta; Magnoliopsida; Pinus pinaster Aiton
2005,2005-03-15,Viana do Castelo,Valença,Sanfins,Soutelo,42.0224382,-8.5715511,NC,192.0,2005-03-15T20:00,12.1,90,10.4,11.0,0.0,0.0,0.0,0.0,0,1021.9,998.7,15,0,0,50,0.0,0.15,8.5,13.8,192,208,20.5,11.9,11.2,8.0,8.7,0.239,0.278,0.325,0.369,0,0.0,0.0,0.0,0.0,0.0,0.0,0.0,0.0,0.0,0.0,0.0,0.0,0.0,Pinus pinaster Aiton; Magnoliopsida; Eucalyptus L'Hér.
2005,2005-03-13,Viana do Castelo,Melgaço,Cousso,COUÇO,42.0595829,-8.2986206,NC,582.0,2005-03-13T17:00,11.3,70,6.1,9.1,0.0,0.0,0.0,0.0,3,1009.8,942.1,100,98,89,0,0.12,0.4,8.3,11.7,252,252,29.2,10.8,6.7,4.4,6.2,0.305,0.336,0.372,0.402,1,3600.0,177.0,94.7,82.3,327.6,177.0,400.3,228.0,122.0,106.0,327.6,228.0,515.8,Quercus L.; Magnoliopsida; Pinus pinaster Aiton
2005,2005-03-13,Viana do Castelo,Melgaço,Cousso,COUÇO,42.0595829,-8.2986206,NC,582.0,2005-03-13T19:00,9.6,84,6.9,7.9,0.0,0.0,0.0,0.0,2,1010.9,942.7,74,66,24,0,0.02,0.2,6.3,8.8,246,251,17.3,8.9,6.9,4.4,6.2,0.305,0.336,0.372,0.402,0,0.0,0.0,0.0,0.0,0.0,0.0,0.0,9.0,2.0,7.0,22.5,9.0,63.1,Quercus L.; Magnoliopsida; Pinus pinaster Aiton
2005,2005-03-04,Viana do Castelo,Ponte da Barca,Sampriz,Pedras Pintas,41.7862876,-8.3880126,NC,342.0,2005-03-04T13:00,7.9,41,-4.5,2.6,0.0,0.0,0.0,0.0,2,1020.6,979.2,62,43,38,0,0.28,0.63,22.2,30.9,32,34,58.7,6.9,3.4,4.9,7.8,0.309,0.317,0.343,0.38,1,3600.0,690.2,553.8,136.4,830.6,690.2,927.8,688.0,552.0,136.0,830.6,688.0,924.9,Magnoliopsida; Tracheophyta; Vitis vinifera L.
2005,2005-03-13,Viana do Castelo,Ponte da Barca,Vila Nova De Muía,Sto Antonio de Cutinho,41.80600765,-8.415000093962036,NC,38.0,2005-03-13T19:00,12.6,84,10.1,11.7,0.0,0.0,0.0,0.0,1,1011.0,1006.4,26,14,22,0,0.02,0.23,6.8,7.6,267,267,11.2,12.4,10.7,7.8,9.1,0.241,0.281,0.329,0.374,0,0.0,0.0,0.0,0.0,0.0,0.0,0.0,14.0,5.0,9.0,54.6,14.0,66.7,Magnoliopsida; Tracheophyta; Vitis vinifera L.; Pinus pinaster Aiton
2005,2005-03-19,Viana do Castelo,Valença,Gandra,Mondim de Cima,41.9981185,-8.6101189,NC,106.0,2005-03-19T19:00,14.5,81,11.3,13.2,1.1,1.1,0.0,0.0,55,1017.0,1004.3,100,29,97,99,0.04,0.32,12.0,22.0,189,195,32.4,15.1,13.8,9.9,9.2,0.221,0.264,0.32,0.366,0,0.0,0.0,0.0,0.0,0.0,0.0,0.0,5.0,0.0,5.0,0.0,5.0,83.0,Magnoliopsida; Eucalyptus L'Hér.; Tracheophyta; Vitis vinifera L.; Pinus pinaster Aiton; Acacia Mill.; 
2005,2005-03-14,Viana do Castelo,Ponte de Lima,Serdedelo,Magalhedo,41.7503357,-8.5397454,NC,226.0,2005-03-14T14:00,15.1,58,6.9,12.9,0.0,0.0,0.0,0.0,3,1013.7,987.0,82,76,23,0,0.3,0.72,9.5,12.1,209,210,23.0,14.4,8.9,7.1,8.1,0.252,0.285,0.33,0.375,1,3600.0,542.0,323.6,218.3,477.9,542.0,937.6,561.0,335.0,226.0,477.9,561.0,970.5,Magnoliopsida; Eucalyptus L'Hér.; Pinus pinaster Aiton; Tracheophyta
2005,2005-09-15,Viana do Castelo,Viana do Castelo,Geraz Do Lima (santa Leocádia),Paredes,41.7001377,-8.6533636,NC,185.0,2005-09-15T14:00,27.5,46,14.7,28.7,0.0,0.0,0.0,0.0,0,1020.2,999.0,0,0,0,0,0.53,2.0,9.8,10.9,306,304,22.0,28.2,21.7,20.2,19.4,0.198,0.205,0.218,0.326,1,3600.0,699.4,588.9,110.5,816.5,699.4,975.9,728.0,613.0,115.0,816.5,728.0,1015.8,Magnoliopsida; Tracheophyta; Pinus pinaster Aiton; Olea europaea L.; Eucalyptus L'Hér.
2005,2005-03-18,Viana do Castelo,Viana do Castelo,Perre,Portelas,41.7226783,-8.7785788,NC,63.0,2005-03-18T03:00,11.1,77,7.2,9.4,0.0,0.0,0.0,0.0,0,1021.1,1013.4,0,0,0,0,0.01,0.31,7.2,12.1,90,127,21.6,11.4,13.1,10.4,10.3,0.186,0.257,0.319,0.368,0,0.0,0.0,0.0,0.0,0.0,0.0,0.0,0.0,0.0,0.0,0.0,0.0,0.0,Tracheophyta; Eucalyptus L'Hér.; Vitis vinifera L.; Magnoliopsida
2005,2005-02-20,Viana do Castelo,Monção,Trute,Maneta,42.0103089,-8.4753657,NC,174.0,2005-02-20T23:00,4.7,89,3.1,0.8,0.0,0.0,0.0,0.0,3,1018.1,996.6,100,66,70,1,0.0,0.09,16.0,23.7,9,10,36.7,5.3,6.8,6.9,9.2,0.289,0.311,0.349,0.374,0,0.0,0.0,0.0,0.0,0.0,0.0,0.0,0.0,0.0,0.0,0.0,0.0,0.0,Pinus pinaster Aiton; Magnoliopsida; Eucalyptus L'Hér.; Vitis vinifera L.; Tracheophyta; 
2005,2005-03-20,Viana do Castelo,Melgaço,Penso,Pomar,42.0770929,-8.3334276,NC,152.0,2005-03-20T09:00,14.6,85,12.1,13.9,0.0,0.0,0.0,0.0,3,1014.2,996.1,86,8,82,100,0.08,0.25,9.7,18.2,153,162,32.4,12.7,11.9,9.4,8.2,0.256,0.278,0.327,0.369,1,0.0,161.3,25.0,136.3,59.5,161.3,580.5,129.0,20.0,109.0,59.5,129.0,464.1,Magnoliopsida; Eucalyptus L'Hér.; Vitis vinifera L.; Quercus L.; Pinus pinaster Aiton; Tracheophyta
2005,2005-02-28,Viana do Castelo,Ponte de Lima,Arcozelo,Arrifana,41.7918096,-8.5927082,NC,35.0,2005-02-28T22:00,2.6,50,-6.7,-2.8,0.0,0.0,0.0,0.0,0,1009.5,1005.1,0,0,0,0,0.05,0.37,16.6,26.0,63,71,31.3,4.8,7.6,8.6,10.8,0.28,0.304,0.338,0.371,0,0.0,0.0,0.0,0.0,0.0,0.0,0.0,0.0,0.0,0.0,0.0,0.0,0.0,Magnoliopsida; Vitis vinifera L.; Tracheophyta; Eucalyptus L'Hér.; Pinus pinaster Aiton; Olea europaea L.
2005,2005-03-05,Viana do Castelo,Ponte de Lima,Arca,Desconhecido,41.7617931,-8.5763975,NC,56.0,2005-03-05T00:00,3.4,65,-2.7,-1.4,0.0,0.0,0.0,0.0,0,1024.4,1017.3,0,0,0,0,0.03,0.28,15.6,24.9,19,20,28.1,4.6,7.1,7.9,10.5,0.277,0.297,0.334,0.37,0,0.0,0.0,0.0,0.0,0.0,0.0,0.0,0.0,0.0,0.0,0.0,0.0,0.0,Tracheophyta; Magnoliopsida; Pinus pinaster Aiton
2005,2005-03-18,Viana do Castelo,Ponte da Barca,Crasto,Souto,41.7740223,-8.431444,NC,137.0,2005-03-18T21:00,17.4,58,9.1,16.1,0.0,0.0,0.0,0.0,0,1018.7,1002.4,0,0,0,0,0.03,0.83,7.3,9.2,33,42,14.4,13.0,13.4,8.9,8.4,0.211,0.266,0.322,0.372,0,0.0,0.0,0.0,0.0,0.0,0.0,0.0,0.0,0.0,0.0,0.0,0.0,0.0,Vitis vinifera L.; Tracheophyta; Magnoliopsida; Eucalyptus L'Hér.; Pinus pinaster Aiton; Castanea sativa Mill.; Quercus L.
2005,2005-03-18,Viana do Castelo,Ponte de Lima,Refóios do Lima,Cedofeita,41.7933146,-8.542976,NC,68.0,2005-03-18T13:00,23.3,37,7.6,22.4,0.0,0.0,0.0,0.0,0,1018.8,1010.9,0,0,0,1,0.52,1.82,10.5,15.8,153,145,32.0,19.7,12.3,9.2,8.8,0.218,0.268,0.323,0.372,1,3600.0,775.1,682.0,93.1,929.1,775.1,1014.0,774.0,681.0,93.0,929.1,774.0,1012.5,Magnoliopsida; Eucalyptus L'Hér.; Tracheophyta; Vitis vinifera L.
2005,2005-03-19,Viana do Castelo,Ponte da Barca,Sampriz,Formiga,41.7862876,-8.3880126,NC,342.0,2005-03-19T16:00,19.1,52,9.1,17.2,0.0,0.0,0.0,0.0,3,1013.9,974.3,90,0,100,100,0.19,1.06,11.4,16.2,198,192,40.7,17.5,12.3,8.2,7.4,0.222,0.273,0.326,0.375,1,0.0,178.4,9.6,168.8,20.1,178.4,659.8,204.0,11.0,193.0,20.1,204.0,754.4,Magnoliopsida; Tracheophyta; Vitis vinifera L.
2005,2005-03-18,Viana do Castelo,Caminha,Riba de Âncora,Juia,41.8112515,-8.8186725,NC,65.0,2005-03-18T13:00,20.7,43,7.7,19.9,0.0,0.0,0.0,0.0,0,1018.9,1011.2,0,0,0,0,0.48,1.4,10.4,15.5,166,155,36.4,20.9,13.8,10.9,10.7,0.172,0.253,0.317,0.366,1,3600.0,771.6,677.4,94.2,922.5,771.6,1014.3,770.0,676.0,94.0,922.5,770.0,1012.3,Pinus pinaster Aiton; Tracheophyta; Magnoliopsida; Eucalyptus L'Hér.
2005,2005-10-02,Viana do Castelo,Melgaço,Paderne,Peso,42.103836,-8.2869151,NC,69.0,2005-10-02T21:00,15.1,65,8.6,13.2,0.0,0.0,0.0,0.0,0,1021.4,1013.1,0,0,0,0,0.03,0.6,10.4,16.3,46,59,23.0,17.8,20.3,20.6,20.4,0.11,0.171,0.201,0.316,0,0.0,0.0,0.0,0.0,0.0,0.0,0.0,0.0,0.0,0.0,0.0,0.0,0.0,Tracheophyta; Vitis vinifera L.; Pinus pinaster Aiton; Magnoliopsida; Eucalyptus L'Hér.
2005,2005-03-18,Viana do Castelo,Ponte da Barca,Vila Chã (são João Baptista),Golfeiro,41.7941167,-8.3350706,NC,255.0,2005-03-18T15:00,23.3,36,7.2,21.7,0.0,0.0,0.0,0.0,1,1017.5,988.1,22,0,4,65,0.46,1.84,10.6,15.0,170,163,43.9,19.6,11.9,8.0,7.5,0.221,0.272,0.326,0.375,1,3600.0,626.4,541.1,85.2,893.8,626.4,836.2,676.0,584.0,92.0,893.8,676.0,902.5,Vitis vinifera L.; Magnoliopsida; Pinus pinaster Aiton; Tracheophyta; Quercus L.
2005,2005-03-20,Viana do Castelo,Melgaço,Vila,Assadura,42.1192813,-8.2525827,NC,187.0,2005-03-20T02:00,10.0,94,9.0,8.8,0.0,0.0,0.0,0.0,2,1014.3,991.7,60,14,29,100,0.0,0.08,6.5,16.6,124,150,29.5,10.7,12.5,9.0,8.0,0.254,0.278,0.327,0.369,0,0.0,0.0,0.0,0.0,0.0,0.0,0.0,0.0,0.0,0.0,0.0,0.0,0.0,Vitis vinifera L.; Magnoliopsida; Tracheophyta; Quercus L.; Eucalyptus L'Hér.; Pinus pinaster Aiton
2005,2005-02-19,Viana do Castelo,Valença,Cerdal,Gondim,41.9671706,-8.6062365,NC,166.0,2005-02-19T14:00,12.0,56,3.6,7.6,0.0,0.0,0.0,0.0,0,1024.6,1004.5,15,17,0,0,0.26,0.62,20.3,25.3,17,20,41.0,11.2,6.6,7.7,10.0,0.284,0.309,0.349,0.374,1,3600.0,538.0,389.5,148.5,687.6,538.0,793.0,558.0,404.0,154.0,687.6,558.0,822.5,Magnoliopsida; Tracheophyta; Pinus pinaster Aiton; Eucalyptus L'Hér.; Vitis vinifera L.; 
2005,2005-03-17,Viana do Castelo,Valença,São Julião,Cacharia,41.9429791,-8.6556759,NC,138.0,2005-03-17T20:00,16.9,71,11.7,16.2,0.0,0.0,0.0,0.0,0,1023.7,1007.2,4,0,7,0,0.02,0.55,8.9,12.6,21,358,14.4,15.5,13.8,10.2,10.2,0.176,0.255,0.318,0.366,0,0.0,0.0,0.0,0.0,0.0,0.0,0.0,0.0,0.0,0.0,0.0,0.0,0.0,Pinus pinaster Aiton; Tracheophyta; Vitis vinifera L.; Magnoliopsida; Eucalyptus L'Hér.; 
2005,2005-01-27,Viana do Castelo,Monção,Troporiz,Soalhoso,42.0585189,-8.5242691,NC,22.0,2005-01-27T13:00,7.7,44,-3.7,1.2,0.0,0.0,0.0,0.0,1,1021.7,1019.0,40,43,3,0,0.21,0.58,26.4,34.0,32,33,54.4,7.3,5.9,9.5,12.1,0.34,0.353,0.375,0.375,1,3600.0,484.7,360.0,124.7,730.7,484.7,695.0,482.0,358.0,124.0,730.7,482.0,691.1,Pinus pinaster Aiton; Tracheophyta; Vitis vinifera L.; Magnoliopsida; Eucalyptus L'Hér.; 
2005,2005-03-15,Viana do Castelo,Ponte de Lima,Arcozelo,Vilar,41.7918096,-8.5927082,NC,35.0,2005-03-15T22:00,10.6,91,9.3,9.6,0.0,0.0,0.0,0.0,0,1022.7,1018.4,19,0,0,63,0.0,0.11,5.9,3.9,133,158,9.0,10.4,12.2,9.6,10.2,0.221,0.268,0.322,0.367,0,0.0,0.0,0.0,0.0,0.0,0.0,0.0,0.0,0.0,0.0,0.0,0.0,0.0,Magnoliopsida; Vitis vinifera L.; Tracheophyta; Eucalyptus L'Hér.; Pinus pinaster Aiton; Olea europaea L.
2005,2005-10-03,Viana do Castelo,Ponte da Barca,Cuide de Vila Verde,Danaia,41.7780312,-8.4172177,NC,71.0,2005-10-03T13:00,23.6,33,6.5,22.7,0.0,0.0,0.0,0.0,0,1022.2,1013.9,0,0,0,0,0.49,1.95,7.6,11.0,65,79,26.3,25.9,19.4,20.6,20.4,0.106,0.168,0.204,0.318,1,3600.0,721.6,626.6,95.0,912.9,721.6,938.2,729.0,633.0,96.0,912.9,729.0,947.8,Vitis vinifera L.; Tracheophyta; Magnoliopsida; Pinus pinaster Aiton
2005,2005-04-06,Viana do Castelo,Viana do Castelo,Afife,Armada,41.7698019,-8.8501526,NC,69.0,2005-04-06T18:00,16.5,77,12.4,16.2,0.0,0.0,0.0,0.0,1,1016.6,1008.4,24,2,0,74,0.12,0.43,7.6,9.4,357,7,11.9,17.5,15.3,13.0,10.8,0.363,0.381,0.395,0.373,1,3600.0,152.3,95.9,56.4,481.5,152.3,272.1,224.0,141.0,83.0,481.5,224.0,400.1,Magnoliopsida; Tracheophyta; Eucalyptus L'Hér.
2005,2005-01-29,Viana do Castelo,Valença,Taião,Picoes,41.990382,-8.5846855,NC,320.0,2005-01-29T23:00,3.4,83,0.8,0.1,0.0,0.0,0.0,0.0,0,1024.3,984.7,0,0,0,0,0.0,0.13,9.2,21.7,64,63,31.3,3.8,5.6,7.0,10.3,0.336,0.348,0.372,0.377,0,0.0,0.0,0.0,0.0,0.0,0.0,0.0,0.0,0.0,0.0,0.0,0.0,0.0,Magnoliopsida; Eucalyptus L'Hér.; Tracheophyta; Vitis vinifera L.; Pinus pinaster Aiton; Acacia Mill.; 
2005,2005-03-19,Viana do Castelo,Viana do Castelo,Anha,Praia do Rodanho,41.6659709,-8.7959069,NC,35.0,2005-03-19T13:00,19.5,51,9.2,17.8,0.0,0.0,0.0,0.0,2,1015.4,1011.3,59,24,13,99,0.41,1.1,14.8,20.5,183,177,41.4,19.6,13.8,11.1,10.5,0.172,0.253,0.317,0.367,1,3600.0,690.0,500.8,189.3,676.3,690.0,1022.2,689.0,500.0,189.0,676.3,689.0,1020.7,Magnoliopsida; Pinus pinaster Aiton; Tracheophyta; Eucalyptus L'Hér.
2005,2005-10-03,Viana do Castelo,Arcos de Valdevez,Gondoriz,Seixal,41.8876169,-8.4318967,NC,44.0,2005-10-03T14:00,24.2,36,8.3,23.6,0.0,0.0,0.0,0.0,0,1022.0,1016.8,0,0,0,0,0.46,1.93,6.9,6.7,332,344,17.3,27.5,19.9,20.8,20.7,0.111,0.169,0.201,0.315,1,3600.0,654.9,565.4,89.5,897.7,654.9,860.9,688.0,594.0,94.0,897.7,688.0,904.4,Vitis vinifera L.; Tracheophyta; Eucalyptus L'Hér.; Magnoliopsida
2005,2005-03-18,Viana do Castelo,Ponte de Lima,Rendufe,Além (Mte),41.8588402,-8.5557057,NC,455.0,2005-03-18T09:00,15.2,61,7.8,13.5,0.0,0.0,0.0,0.0,0,1021.4,968.1,0,0,0,0,0.16,0.67,7.5,11.4,107,125,24.8,10.8,9.0,7.1,6.9,0.237,0.277,0.326,0.373,1,3600.0,366.0,284.2,81.7,688.3,366.0,570.5,291.0,226.0,65.0,688.3,291.0,453.6,Magnoliopsida; Eucalyptus L'Hér.; Tracheophyta; Quercus L.
2005,2005-03-18,Viana do Castelo,Vila Nova de Cerveira,Cornes,Aspera,41.9520006,-8.6792268,NC,62.0,2005-03-18T16:00,23.0,43,9.6,21.5,0.0,0.0,0.0,0.0,1,1017.8,1010.6,37,0,13,97,0.35,1.61,9.7,12.1,266,253,31.0,20.6,13.7,9.7,9.5,0.217,0.268,0.321,0.367,1,3600.0,447.4,329.2,118.2,690.1,447.4,658.9,511.0,376.0,135.0,690.1,511.0,752.6,Tracheophyta; Magnoliopsida; Pinus pinaster Aiton; Eucalyptus L'Hér.
2005,2005-03-18,Viana do Castelo,Arcos de Valdevez,São Jorge,Lodeiro,41.822374,-8.3769036,NC,77.0,2005-03-18T10:00,20.2,42,6.8,17.2,0.0,0.0,0.0,0.0,0,1021.1,1012.0,0,0,0,0,0.32,1.37,15.1,22.6,115,115,30.2,15.4,11.3,9.1,8.8,0.224,0.269,0.324,0.372,1,3600.0,539.3,447.9,91.4,804.0,539.3,769.5,472.0,392.0,80.0,804.0,472.0,673.5,Tracheophyta; Pinus pinaster Aiton; Vitis vinifera L.; Magnoliopsida
2005,2005-03-18,Viana do Castelo,Ponte de Lima,Ribeira,Paço \ CAS,41.7633736,-8.555046,NC,85.0,2005-03-18T23:00,11.9,82,9.0,10.7,0.0,0.0,0.0,0.0,1,1018.2,1007.9,36,0,13,95,0.0,0.25,6.5,12.7,56,82,12.2,12.1,14.0,10.3,9.9,0.201,0.259,0.318,0.366,0,0.0,0.0,0.0,0.0,0.0,0.0,0.0,0.0,0.0,0.0,0.0,0.0,0.0,Tracheophyta; Magnoliopsida; Eucalyptus L'Hér.; Pinus pinaster Aiton
2005,2005-09-18,Viana do Castelo,Ponte de Lima,Cepões,Aveleira,41.8237187,-8.5954092,NC,63.0,2005-09-18T06:00,10.7,73,6.0,8.1,0.0,0.0,0.0,0.0,0,1020.4,1012.7,0,0,0,0,0.02,0.35,11.4,21.6,77,88,27.0,13.8,19.8,21.1,20.3,0.161,0.198,0.217,0.325,0,0.0,0.0,0.0,0.0,0.0,0.0,0.0,0.0,0.0,0.0,0.0,0.0,0.0,Tracheophyta; Pinus pinaster Aiton; Vitis vinifera L.; Magnoliopsida; Olea europaea L.; Eucalyptus L'Hér.
2005,2005-03-05,Viana do Castelo,Ponte de Lima,Labrujó,Monte da Madalena,41.8543636,-8.541474,NC,526.0,2005-03-05T15:00,8.6,70,3.5,5.4,0.1,0.1,0.0,0.0,51,1022.1,959.3,97,100,12,0,0.14,0.33,11.4,15.6,325,326,35.6,6.9,3.0,4.1,7.0,0.313,0.319,0.343,0.38,1,2490.5,257.1,78.3,178.8,143.0,257.1,761.8,279.0,85.0,194.0,143.0,279.0,826.6,Magnoliopsida; Eucalyptus L'Hér.; Quercus L.
2005,2005-03-18,Viana do Castelo,Valença,Friestas,Lavandeiras,42.0447506,-8.5679013,NC,52.0,2005-03-18T19:00,17.8,73,12.9,17.3,0.0,0.0,0.0,0.0,1,1018.8,1012.6,27,2,23,37,0.04,0.55,9.8,11.6,8,5,12.6,16.9,14.3,9.8,9.5,0.216,0.268,0.321,0.367,0,170.36,0.0,0.0,0.0,0.0,0.0,0.0,22.0,8.0,14.0,79.9,22.0,78.2,Pinus pinaster Aiton; Magnoliopsida; Tracheophyta; Vitis vinifera L.; 
2005,2005-09-19,Viana do Castelo,Viana do Castelo,Alvarães,Paço,41.642535,-8.7428802,NC,68.0,2005-09-19T14:00,24.6,28,4.6,23.0,0.0,0.0,0.0,0.0,0,1021.9,1014.0,0,0,0,0,0.54,2.24,10.2,11.0,318,322,17.6,27.7,20.3,21.0,20.3,0.132,0.171,0.201,0.31,1,3600.0,734.7,640.7,94.0,910.9,734.7,953.8,766.0,668.0,98.0,910.9,766.0,994.4,Tracheophyta; Pinus pinaster Aiton; Eucalyptus L'Hér.; Magnoliopsida
2005,2005-01-31,Viana do Castelo,Viana do Castelo,Lanheses,Monte,41.7500482,-8.6827137,NC,62.0,2005-01-31T15:00,11.3,55,2.5,8.1,0.0,0.0,0.0,0.0,0,1030.7,1023.1,0,0,0,0,0.21,0.61,10.5,12.5,6,12,19.4,12.0,7.9,9.2,12.2,0.316,0.338,0.371,0.376,1,3600.0,414.0,348.2,65.8,867.6,414.0,565.5,459.0,386.0,73.0,867.6,459.0,627.0,Tracheophyta; Magnoliopsida; Pinus pinaster Aiton
2005,2005-03-20,Viana do Castelo,Monção,Luzio,Leiradelo,41.982478,-8.4620655,NC,388.0,2005-03-20T10:00,14.5,78,10.7,13.1,0.0,0.0,0.0,0.0,3,1013.3,967.9,94,6,98,100,0.12,0.36,11.0,17.0,161,163,37.4,12.4,10.9,8.4,7.2,0.251,0.275,0.326,0.37,1,0.0,214.1,19.4,194.7,34.2,214.1,781.7,188.0,17.0,171.0,34.2,188.0,686.6,Magnoliopsida; Pinus pinaster Aiton; Quercus L.; Eucalyptus L'Hér.; 
2005,2005-03-20,Viana do Castelo,Melgaço,Vila,Assadura,42.1192813,-8.2525827,NC,187.0,2005-03-20T13:00,17.3,62,10.0,15.3,0.0,0.0,0.0,0.0,3,1012.7,990.7,100,99,100,100,0.23,0.75,13.9,22.0,197,190,40.3,15.0,12.0,9.2,8.0,0.256,0.278,0.327,0.369,1,1125.05,342.2,72.0,270.2,97.5,342.2,1019.6,342.0,72.0,270.0,97.5,342.0,1018.9,Vitis vinifera L.; Magnoliopsida; Tracheophyta; Quercus L.; Eucalyptus L'Hér.; Pinus pinaster Aiton
2005,2005-10-04,Viana do Castelo,Valença,Gandra,Onzar,42.0055903,-8.6164853,NC,96.0,2005-10-04T23:00,13.5,79,9.8,12.2,0.0,0.0,0.0,0.0,0,1019.9,1008.3,0,0,0,0,0.01,0.33,8.7,9.2,60,51,14.8,14.6,19.2,19.8,19.9,0.11,0.17,0.202,0.314,0,0.0,0.0,0.0,0.0,0.0,0.0,0.0,0.0,0.0,0.0,0.0,0.0,0.0,Magnoliopsida; Eucalyptus L'Hér.; Tracheophyta; Vitis vinifera L.; Pinus pinaster Aiton; Acacia Mill.; 
2005,2005-03-18,Viana do Castelo,Viana do Castelo,Alvarães,Corredoura,41.642535,-8.7428802,NC,68.0,2005-03-18T13:00,22.3,37,7.1,21.3,0.0,0.0,0.0,0.0,0,1018.9,1010.9,0,0,0,0,0.5,1.69,10.4,15.5,166,155,36.4,20.2,13.4,10.3,10.1,0.187,0.248,0.31,0.354,1,3600.0,771.3,677.1,94.2,920.3,771.3,1016.4,770.0,676.0,94.0,920.3,770.0,1014.7,Tracheophyta; Pinus pinaster Aiton; Eucalyptus L'Hér.; Magnoliopsida
2005,2005-03-19,Viana do Castelo,Melgaço,Penso,Varios,42.0822811,-8.319188,NC,202.0,2005-03-19T05:00,8.1,86,5.9,6.0,0.0,0.0,0.0,0.0,1,1016.6,992.0,32,0,3,100,0.0,0.15,7.1,20.3,105,143,23.0,9.0,11.3,8.5,7.8,0.239,0.281,0.328,0.369,0,0.0,0.0,0.0,0.0,0.0,0.0,0.0,0.0,0.0,0.0,0.0,0.0,0.0,Magnoliopsida; Vitis vinifera L.; Tracheophyta; Pinus pinaster Aiton; Quercus L.
2005,2005-03-08,Viana do Castelo,Ponte de Lima,Bárrio,Picaranha,41.8237187,-8.5954092,NC,63.0,2005-03-08T18:00,11.8,47,0.7,8.9,0.0,0.0,0.0,0.0,0,1026.0,1018.3,0,0,0,0,0.08,0.74,6.6,6.6,351,13,13.3,11.5,8.6,8.1,10.2,0.25,0.287,0.33,0.369,1,3600.0,77.0,53.5,23.5,574.4,77.0,129.3,154.0,107.0,47.0,574.4,154.0,258.7,Tracheophyta; Pinus pinaster Aiton; Vitis vinifera L.; Magnoliopsida; Olea europaea L.; Eucalyptus L'Hér.
2005,2005-03-16,Viana do Castelo,Arcos de Valdevez,Miranda,Ribeiro,41.8380165,-8.5084299,NC,516.0,2005-03-16T04:00,7.0,83,4.3,4.7,0.0,0.0,0.0,0.0,0,1024.0,961.9,8,2,1,17,0.0,0.17,6.1,7.4,93,141,17.6,4.8,7.8,6.1,6.6,0.261,0.291,0.332,0.377,0,0.0,0.0,0.0,0.0,0.0,0.0,0.0,0.0,0.0,0.0,0.0,0.0,0.0,Magnoliopsida; Quercus L.; Pinus pinaster Aiton; Tracheophyta
2005,2005-04-09,Viana do Castelo,Ponte da Barca,Sampriz,Goge,41.7862876,-8.3880126,NC,342.0,2005-04-09T15:00,12.2,48,1.5,8.6,0.0,0.0,0.0,0.0,0,1027.0,986.0,2,2,0,0,0.36,0.74,19.2,26.6,26,28,49.3,14.3,10.4,10.9,8.3,0.356,0.377,0.404,0.394,1,3600.0,723.2,626.2,96.9,913.5,723.2,935.2,776.0,672.0,104.0,913.5,776.0,1003.5,Magnoliopsida; Tracheophyta; Vitis vinifera L.
2005,2005-03-05,Viana do Castelo,Ponte de Lima,Facha,Serra Formigosa,41.7138908,-8.6170908,NC,85.0,2005-03-05T15:00,11.6,68,5.9,7.6,0.0,0.0,0.0,0.0,3,1022.6,1012.2,99,94,24,0,0.21,0.44,20.0,24.7,332,331,40.0,11.7,7.4,7.9,10.4,0.256,0.282,0.325,0.357,1,3600.0,424.5,251.0,173.5,454.8,424.5,767.6,460.0,272.0,188.0,454.8,460.0,831.8,Tracheophyta; Pinus pinaster Aiton; Magnoliopsida; Eucalyptus L'Hér.
2005,2005-10-05,Viana do Castelo,Vila Nova de Cerveira,Covas,Valinho,41.8952476,-8.6797571,NC,312.0,2005-10-05T17:00,21.2,36,5.5,19.4,0.0,0.0,0.0,0.0,0,1017.3,981.2,0,0,0,0,0.17,1.62,5.1,8.4,309,313,17.6,23.7,18.7,18.8,18.9,0.106,0.166,0.208,0.317,1,3600.0,183.7,140.9,42.8,688.1,183.7,280.2,262.0,201.0,61.0,688.1,262.0,399.7,Magnoliopsida; Pinus pinaster Aiton; Eucalyptus L'Hér.
2005,2005-03-09,Viana do Castelo,Monção,Merufe,Bouças,42.0297394,-8.3967117,NC,221.0,2005-03-09T12:00,11.0,39,-2.4,9.1,0.0,0.0,0.0,0.0,1,1027.8,1000.9,22,0,0,74,0.33,0.8,2.2,3.0,99,104,14.0,7.8,3.8,5.5,8.0,0.292,0.311,0.339,0.372,1,3600.0,709.2,562.4,146.8,831.3,709.2,939.0,681.0,540.0,141.0,831.3,681.0,901.7,Pinus pinaster Aiton; Magnoliopsida; Tracheophyta; Eucalyptus L'Hér.; Vitis vinifera L.; Pinales; Quercus L.; 
2005,2005-03-09,Viana do Castelo,Monção,Tangil,Pulgido,42.022956,-8.364877,NC,134.0,2005-03-09T22:00,7.7,70,2.7,5.0,0.0,0.0,0.0,0.0,0,1025.7,1009.1,0,0,0,0,0.01,0.31,7.4,7.1,61,41,16.2,4.5,6.8,6.4,8.6,0.275,0.301,0.334,0.371,0,0.0,0.0,0.0,0.0,0.0,0.0,0.0,0.0,0.0,0.0,0.0,0.0,0.0,Magnoliopsida; Pinus pinaster Aiton; Vitis vinifera L.; Tracheophyta; Quercus L.; 
2005,2005-10-06,Viana do Castelo,Melgaço,Cristoval,São Gregório,42.141178,-8.1968025,NC,230.0,2005-10-06T01:00,13.0,72,8.0,11.8,0.0,0.0,0.0,0.0,0,1017.7,990.2,0,0,0,0,0.0,0.43,5.1,8.0,86,85,11.5,13.5,18.8,19.5,19.3,0.192,0.277,0.289,0.397,0,0.0,0.0,0.0,0.0,0.0,0.0,0.0,0.0,0.0,0.0,0.0,0.0,0.0,Quercus L.; Magnoliopsida; Vitis vinifera L.; Pinus pinaster Aiton
2005,2005-03-19,Viana do Castelo,Monção,Portela,Cachave,41.9811234,-8.4851149,NC,280.0,2005-03-19T14:00,21.0,46,8.9,19.8,0.0,0.0,0.0,0.0,2,1014.2,981.8,77,30,35,98,0.42,1.35,10.5,14.1,186,177,43.6,18.9,12.1,8.6,7.8,0.221,0.27,0.322,0.367,1,3600.0,628.0,407.7,220.3,586.0,628.0,960.6,650.0,422.0,228.0,586.0,650.0,994.2,Magnoliopsida; Eucalyptus L'Hér.; Quercus L.; Vitis vinifera L.; Pinus pinaster Aiton; 
2005,2005-03-16,Viana do Castelo,Paredes de Coura,Vascões,Ramos,41.8986465,-8.5101008,NC,555.0,2005-03-16T14:00,16.6,56,7.7,14.8,0.0,0.0,0.0,0.0,2,1025.8,961.2,67,6,55,96,0.29,0.84,8.2,11.1,218,216,34.9,13.9,8.2,5.9,6.4,0.258,0.29,0.332,0.377,1,3600.0,454.8,143.9,310.9,210.7,454.8,944.2,471.0,149.0,322.0,210.7,471.0,977.8,Magnoliopsida; Quercus L.; Tracheophyta; Eucalyptus L'Hér.; Pinales; 
2005,2005-04-09,Viana do Castelo,Paredes de Coura,Insalde,Boalhosa,41.9485994,-8.5329017,NC,509.0,2005-04-09T23:00,3.8,70,-1.2,0.0,0.0,0.0,0.0,0.0,0,1031.8,969.4,0,0,0,0,0.01,0.24,10.0,23.0,49,49,33.5,6.4,9.5,10.1,7.7,0.358,0.375,0.402,0.39,0,0.0,0.0,0.0,0.0,0.0,0.0,0.0,0.0,0.0,0.0,0.0,0.0,0.0,Quercus L.; Magnoliopsida; Eucalyptus L'Hér.; Pinus pinaster Aiton; Tracheophyta; 
2005,2005-01-09,Viana do Castelo,Viana do Castelo,Afife,Gamosa,41.7772119,-8.8505326,NC,63.0,2005-01-09T22:00,6.5,80,3.3,3.2,0.0,0.0,0.0,0.0,0,1028.6,1020.7,3,3,0,0,0.01,0.19,12.0,21.3,141,158,27.0,6.6,8.3,9.7,13.3,0.334,0.348,0.367,0.376,0,0.0,0.0,0.0,0.0,0.0,0.0,0.0,0.0,0.0,0.0,0.0,0.0,0.0,Magnoliopsida; Eucalyptus L'Hér.; Tracheophyta; Pinus pinaster Aiton
2005,2005-04-10,Viana do Castelo,Arcos de Valdevez,Grade,Vilela,41.8807263,-8.3705327,NC,229.0,2005-04-10T09:00,8.5,63,1.7,5.8,0.0,0.0,0.0,0.0,0,1031.3,1003.1,0,0,0,0,0.18,0.42,6.2,8.4,69,70,19.8,9.3,8.8,11.3,9.1,0.351,0.366,0.393,0.374,1,3600.0,515.4,423.0,92.4,800.2,515.4,720.7,435.0,357.0,78.0,800.2,435.0,608.3,Magnoliopsida; Pinus pinaster Aiton; Tracheophyta; Quercus L.; Acacia Mill.
2005,2005-04-13,Viana do Castelo,Monção,Valadares,Bemposta,42.07767675,-8.374620302382713,NC,57.0,2005-04-13T06:00,6.0,96,5.4,3.8,0.0,0.0,0.0,0.0,0,1016.6,1009.5,4,4,0,0,0.0,0.03,7.2,7.6,63,82,14.0,8.4,11.7,11.8,10.0,0.321,0.345,0.384,0.374,1,0.0,0.0,0.0,0.0,0.0,0.0,0.0,0.0,0.0,0.0,0.0,0.0,0.0,Magnoliopsida; Vitis vinifera L.; Eucalyptus L'Hér.; Pinales; Pinus pinaster Aiton; Tracheophyta; 
2005,2005-03-19,Viana do Castelo,Valença,Taião,Taiao de Baixo,41.99064135,-8.586253231794167,NC,289.0,2005-03-19T23:00,12.0,89,10.2,10.9,0.0,0.0,0.0,0.0,2,1016.0,981.5,55,29,27,41,0.0,0.16,8.0,17.7,153,167,29.2,11.9,12.5,9.0,8.1,0.243,0.265,0.32,0.368,0,0.0,0.0,0.0,0.0,0.0,0.0,0.0,0.0,0.0,0.0,0.0,0.0,0.0,Magnoliopsida; Eucalyptus L'Hér.; Tracheophyta; Vitis vinifera L.; Pinus pinaster Aiton; Acacia Mill.; 
2005,2005-01-31,Viana do Castelo,Viana do Castelo,Mazarefes,Ferrais,41.6784413,-8.7670414,NC,18.0,2005-01-31T14:00,11.3,54,2.4,8.0,0.0,0.0,0.0,0.0,0,1031.0,1028.8,0,0,0,0,0.24,0.61,10.7,13.2,42,45,22.3,12.4,7.9,9.5,12.5,0.318,0.338,0.371,0.376,1,3600.0,507.1,432.3,74.8,897.0,507.1,679.1,529.0,451.0,78.0,897.0,529.0,708.5,Eucalyptus L'Hér.; Tracheophyta; Magnoliopsida; Pinales
2005,2005-04-08,Viana do Castelo,Arcos de Valdevez,São Cosme e São Damião,Boia,41.9097721,-8.4308805,NC,141.0,2005-04-08T20:00,7.3,55,-1.1,0.5,0.0,0.0,0.0,0.0,0,1023.2,1005.8,0,0,0,0,0.08,0.46,31.0,42.7,22,23,56.5,10.8,13.2,12.4,9.6,0.358,0.377,0.397,0.373,0,0.0,0.0,0.0,0.0,0.0,0.0,0.0,0.0,0.0,0.0,0.0,0.0,0.0,Pinus pinaster Aiton; Magnoliopsida; Eucalyptus L'Hér.
2005,2005-05-06,Viana do Castelo,Ponte de Lima,Arcozelo,Sto Ovideo,41.7918096,-8.5927082,NC,35.0,2005-05-06T22:00,15.0,87,12.9,14.5,0.0,0.0,0.0,0.0,0,1018.4,1014.2,15,0,0,49,0.0,0.22,9.6,17.1,20,7,15.1,15.9,17.5,14.4,11.9,0.341,0.366,0.389,0.38,0,0.0,0.0,0.0,0.0,0.0,0.0,0.0,0.0,0.0,0.0,0.0,0.0,0.0,Magnoliopsida; Vitis vinifera L.; Tracheophyta; Eucalyptus L'Hér.; Pinus pinaster Aiton; Olea europaea L.
2005,2005-10-06,Viana do Castelo,Arcos de Valdevez,Sistelo,Quebrada,41.9673413,-8.4052624,NC,425.0,2005-10-06T15:00,24.3,26,3.7,22.2,0.0,0.0,0.0,0.0,0,1015.4,967.2,0,0,0,0,0.39,2.24,5.7,6.4,288,286,20.5,27.1,18.1,18.6,18.8,0.096,0.162,0.202,0.316,1,3600.0,525.5,447.9,77.7,878.3,525.5,698.2,582.0,496.0,86.0,878.3,582.0,773.3,Magnoliopsida; Pinus pinaster Aiton
2005,2005-10-07,Viana do Castelo,Valença,Verdoejo,Barreiras,42.0223828,-8.5934111,NC,546.0,2005-10-07T12:00,23.7,28,4.2,22.1,0.0,0.0,0.0,0.0,0,1014.3,952.9,4,0,0,14,0.47,2.11,7.4,9.2,203,201,22.3,23.5,15.8,17.4,17.8,0.102,0.163,0.203,0.317,1,3600.0,715.7,622.3,93.4,928.3,715.7,918.3,697.0,606.0,91.0,928.3,697.0,894.3,Magnoliopsida; Vitis vinifera L.; Pinus pinaster Aiton; Tracheophyta; Eucalyptus L'Hér.; 
2005,2005-04-08,Viana do Castelo,Valença,Cerdal,Gondelim,41.966323,-8.5815508,NC,480.0,2005-04-08T21:00,4.6,58,-2.9,-0.4,0.0,0.0,0.0,0.0,1,1024.3,965.9,25,28,0,0,0.05,0.36,17.4,31.6,30,30,51.1,8.0,11.0,10.4,7.6,0.36,0.379,0.403,0.385,0,0.0,0.0,0.0,0.0,0.0,0.0,0.0,0.0,0.0,0.0,0.0,0.0,0.0,Magnoliopsida; Tracheophyta; Pinus pinaster Aiton; Eucalyptus L'Hér.; Vitis vinifera L.; 
2005,2005-03-10,Viana do Castelo,Arcos de Valdevez,Senharei,Soutelo,41.888884,-8.466879,NC,276.0,2005-03-10T06:00,-2.1,84,-4.5,-5.5,0.0,0.0,0.0,0.0,0,1023.3,988.4,2,0,0,6,0.0,0.09,4.7,7.2,99,108,13.0,1.0,4.5,5.9,8.2,0.274,0.3,0.335,0.375,0,0.0,0.0,0.0,0.0,0.0,0.0,0.0,0.0,0.0,0.0,0.0,0.0,0.0,Magnoliopsida; Eucalyptus L'Hér.; Quercus L.
2005,2005-03-11,Viana do Castelo,Monção,Bela,Telheira,42.0669616,-8.4281841,NC,50.0,2005-03-11T00:00,6.3,76,2.3,3.7,0.0,0.0,0.0,0.0,1,1020.5,1014.3,30,0,0,100,0.0,0.23,5.9,6.5,76,90,11.9,5.2,7.9,7.1,9.1,0.268,0.297,0.333,0.371,0,0.0,0.0,0.0,0.0,0.0,0.0,0.0,0.0,0.0,0.0,0.0,0.0,0.0,Magnoliopsida; Eucalyptus L'Hér.; Tracheophyta; Pinus pinaster Aiton; Vitis vinifera L.; 
2005,2005-03-18,Viana do Castelo,Melgaço,Cubalhão,Cortelhas,42.0550453,-8.2428505,NC,797.0,2005-03-18T14:00,19.4,38,4.5,16.5,0.0,0.0,0.0,0.0,0,1019.1,929.3,0,0,0,0,0.47,1.4,17.3,24.2,138,138,48.2,16.9,9.2,5.7,5.8,0.297,0.339,0.378,0.411,1,3600.0,722.9,632.2,90.7,917.6,722.9,951.7,749.0,655.0,94.0,917.6,749.0,986.0,Magnoliopsida; Quercus L.
2005,2005-09-20,Viana do Castelo,Ponte da Barca,Sampriz,Livramento,41.77465835,-8.37914978253291,NC,615.0,2005-09-20T07:00,8.7,91,7.2,7.3,0.0,0.0,0.0,0.0,0,1021.6,948.7,0,0,0,0,0.01,0.11,4.2,6.5,110,124,15.8,11.1,16.3,18.6,18.1,0.218,0.275,0.264,0.377,1,478.72,49.9,27.2,22.7,224.7,27.5,164.3,22.0,12.0,10.0,123.8,22.0,72.5,Magnoliopsida; Tracheophyta; Pinus pinaster Aiton; Quercus L.
2005,2005-03-12,Viana do Castelo,Viana do Castelo,Serreleis,Barco do Porto,41.7015056,-8.7463592,NC,3.0,2005-03-12T13:00,16.5,50,6.1,15.5,0.0,0.0,0.0,0.0,1,1010.1,1009.7,31,1,18,63,0.37,0.93,4.7,6.3,212,193,14.8,16.4,9.9,9.3,10.8,0.21,0.27,0.325,0.369,1,3600.0,664.0,483.5,180.6,683.8,664.0,980.0,662.0,482.0,180.0,683.8,662.0,977.0,Magnoliopsida; Pinales; Tracheophyta
2005,2005-03-18,Viana do Castelo,Melgaço,Roussas,Paçô,42.1205423,-8.2447086,NC,356.0,2005-03-18T19:00,17.5,63,10.4,16.8,0.0,0.0,0.0,0.0,0,1019.0,977.4,12,1,18,2,0.04,0.74,5.6,6.9,315,321,15.8,15.5,12.2,7.6,8.0,0.31,0.37,0.418,0.447,0,252.6,0.0,0.0,0.0,0.0,0.0,0.0,21.0,9.0,12.0,91.5,21.0,75.9,Magnoliopsida; Tracheophyta; Quercus L.; Vitis vinifera L.; Pinus pinaster Aiton; Eucalyptus L'Hér.
2005,2005-04-09,Viana do Castelo,Valença,Friestas,Friestes,42.0447506,-8.5679013,NC,52.0,2005-04-09T23:00,6.7,67,0.9,2.2,0.0,0.0,0.0,0.0,0,1029.5,1023.0,0,0,0,0,0.04,0.33,17.1,28.3,28,34,38.2,8.9,11.8,12.6,10.4,0.338,0.361,0.389,0.37,0,0.0,0.0,0.0,0.0,0.0,0.0,0.0,0.0,0.0,0.0,0.0,0.0,0.0,Pinus pinaster Aiton; Magnoliopsida; Tracheophyta; Vitis vinifera L.; 
2005,2005-03-19,Viana do Castelo,Viana do Castelo,Castelo do Neiva,Sendim de Cima,41.6237388,-8.7950443,NC,56.0,2005-03-19T14:00,21.2,45,8.9,19.2,0.0,0.0,0.0,0.0,1,1014.1,1007.5,49,5,24,99,0.4,1.37,13.4,18.5,175,167,38.2,20.1,14.1,10.9,10.3,0.174,0.239,0.303,0.344,1,3600.0,580.9,293.9,287.1,419.5,580.9,967.1,601.0,304.0,297.0,419.5,601.0,1000.5,Tracheophyta; Pinus pinaster Aiton; Eucalyptus L'Hér.; Magnoliopsida
2005,2005-09-20,Viana do Castelo,Viana do Castelo,Areosa,São Mamede,41.7303664,-8.8291614,NC,271.0,2005-09-20T13:00,24.4,32,6.6,24.8,0.0,0.0,0.0,0.0,0,1019.7,988.6,0,0,0,0,0.52,2.08,2.4,2.9,207,187,16.6,26.1,18.7,19.5,19.1,0.141,0.196,0.216,0.324,1,3600.0,790.7,693.4,97.4,924.7,790.7,1017.4,796.0,698.0,98.0,924.7,796.0,1024.1,Eucalyptus L'Hér.; Magnoliopsida
2005,2005-05-12,Viana do Castelo,Ponte de Lima,Fornelos,Desconhecido,41.7501969,-8.5733712,NC,111.0,2005-05-12T16:00,17.3,70,11.7,16.3,0.0,0.0,0.0,0.0,0,1010.5,997.4,13,14,1,0,0.33,0.6,13.7,16.9,272,271,31.0,20.3,16.6,14.5,11.8,0.358,0.369,0.378,0.379,1,3600.0,571.6,457.7,114.0,711.6,571.6,862.1,632.0,506.0,126.0,711.6,632.0,953.2,Magnoliopsida; Tracheophyta; Pinus pinaster Aiton; Eucalyptus L'Hér.
2005,2005-03-19,Viana do Castelo,Melgaço,Paderne,Varios,42.0888298,-8.2753654,NC,239.0,2005-03-19T17:00,17.7,64,10.9,16.0,0.0,0.0,0.0,0.0,3,1015.2,987.2,97,8,100,98,0.13,0.72,13.3,22.4,232,226,35.6,17.0,12.9,8.5,7.7,0.23,0.278,0.327,0.369,1,616.35,101.8,25.3,76.6,80.5,101.8,432.9,129.0,32.0,97.0,80.5,129.0,548.5,Tracheophyta; Vitis vinifera L.; Magnoliopsida; Quercus L.
2005,2005-04-10,Viana do Castelo,Paredes de Coura,Insalde,Boalhosa,41.9485994,-8.5329017,NC,509.0,2005-04-10T15:00,14.5,51,4.4,12.7,0.0,0.0,0.0,0.0,0,1028.8,968.8,0,0,0,0,0.4,0.81,11.8,15.4,31,33,33.8,15.8,9.8,9.9,7.7,0.349,0.37,0.4,0.391,1,3600.0,720.6,629.3,91.4,914.7,720.6,937.9,773.0,675.0,98.0,914.7,773.0,1006.1,Quercus L.; Magnoliopsida; Eucalyptus L'Hér.; Pinus pinaster Aiton; Tracheophyta; 
2005,2005-03-12,Viana do Castelo,Melgaço,Cristoval,Campo do Souto,42.1211108,-8.1974645,NC,432.0,2005-03-12T14:00,14.0,47,3.0,12.1,0.0,0.0,0.0,0.0,3,1010.2,959.8,100,64,95,1,0.2,0.84,1.6,1.8,27,37,13.7,11.5,5.8,5.0,7.6,0.353,0.388,0.425,0.448,1,3600.0,322.4,161.2,161.2,243.5,322.4,917.5,334.0,167.0,167.0,243.5,334.0,950.6,Vitis vinifera L.; Magnoliopsida; Castanea sativa Mill.; Pinus pinaster Aiton; Quercus L.
2005,2005-03-12,Viana do Castelo,Caminha,Orbacém,Lombom,41.8044395,-8.7717625,NC,93.0,2005-03-12T16:00,15.2,59,7.3,13.3,0.0,0.0,0.0,0.0,1,1009.2,998.2,29,3,44,0,0.24,0.7,8.3,9.8,272,262,18.7,16.8,10.8,9.2,10.6,0.197,0.266,0.324,0.367,1,3600.0,378.8,268.2,110.6,590.9,378.8,629.0,435.0,308.0,127.0,590.9,435.0,722.4,Tracheophyta; Magnoliopsida; Pinus pinaster Aiton; Eucalyptus L'Hér.; Quercus L.
2005,2005-04-10,Viana do Castelo,Caminha,Arga de Cima,Arada,41.8323888,-8.693352,NC,560.0,2005-04-10T16:00,13.9,51,4.0,11.5,0.0,0.0,0.0,0.0,0,1028.2,962.3,0,0,0,0,0.33,0.78,10.4,13.8,2,6,31.7,15.0,9.8,9.5,7.5,0.332,0.359,0.393,0.379,1,3600.0,570.1,490.1,80.0,878.5,570.1,760.5,641.0,551.0,90.0,878.5,641.0,855.1,Pinus pinaster Aiton; Magnoliopsida
2005,2005-09-22,Viana do Castelo,Viana do Castelo,Barroselas,Junto á Urbanização da Feijó,41.6471968,-8.7014513,NC,69.0,2005-09-22T14:00,23.9,52,13.5,23.9,0.0,0.0,0.0,0.0,1,1017.1,1009.1,30,1,0,97,0.48,1.41,14.0,17.3,318,324,24.8,27.7,20.5,20.8,20.3,0.116,0.165,0.2,0.309,1,3600.0,687.6,560.3,127.4,813.7,687.6,935.2,718.0,585.0,133.0,813.7,718.0,976.5,Tracheophyta; Magnoliopsida; Quercus L.; Eucalyptus L'Hér.
2005,2005-09-24,Viana do Castelo,Arcos de Valdevez,São Jorge,Lodeiro,41.822374,-8.3769036,NC,77.0,2005-09-24T22:00,16.1,98,15.8,17.1,0.0,0.0,0.0,0.0,1,1019.3,1010.1,44,17,0,97,0.0,0.03,7.3,13.3,303,308,15.1,18.6,21.0,20.5,20.3,0.137,0.188,0.207,0.322,0,0.0,0.0,0.0,0.0,0.0,0.0,0.0,0.0,0.0,0.0,0.0,0.0,0.0,Tracheophyta; Pinus pinaster Aiton; Vitis vinifera L.; Magnoliopsida
2005,2005-03-18,Viana do Castelo,Caminha,Azevedo,Aguieira,41.8422112,-8.817162,NC,87.0,2005-03-18T23:00,12.4,84,9.8,11.2,0.0,0.0,0.0,0.0,1,1018.3,1007.8,34,0,17,79,0.0,0.22,7.8,9.0,68,92,14.8,12.7,14.6,11.0,10.6,0.166,0.251,0.317,0.366,0,0.0,0.0,0.0,0.0,0.0,0.0,0.0,0.0,0.0,0.0,0.0,0.0,0.0,Magnoliopsida; Pinus pinaster Aiton; Eucalyptus L'Hér.
2005,2005-02-19,Viana do Castelo,Vila Nova de Cerveira,Sopo,Curros,41.9069165,-8.7368647,NC,270.0,2005-02-19T17:00,11.6,56,3.0,8.0,0.0,0.0,0.0,0.0,1,1022.8,990.3,23,26,0,0,0.14,0.61,13.4,21.0,8,12,38.5,10.8,7.7,7.8,10.0,0.274,0.305,0.348,0.373,1,3600.0,184.6,141.5,43.1,687.9,184.6,287.9,257.0,197.0,60.0,687.9,257.0,400.9,Eucalyptus L'Hér.; Pinus pinaster Aiton; Tracheophyta; Magnoliopsida
2005,2005-05-26,Viana do Castelo,Paredes de Coura,Coura,Lousado,41.91106,-8.55959,NC,374.0,2005-05-26T21:00,16.1,81,12.9,15.7,0.0,0.0,0.0,0.0,0,1013.8,970.2,0,0,0,0,0.01,0.35,8.9,12.3,137,159,24.5,17.1,18.1,13.7,10.8,0.304,0.341,0.386,0.391,0,0.0,0.0,0.0,0.0,0.0,0.0,0.0,0.0,0.0,0.0,0.0,0.0,0.0,Pinus pinaster Aiton; Magnoliopsida; Tracheophyta; Quercus L.; Eucalyptus L'Hér.; 
2005,2005-05-28,Viana do Castelo,Monção,Troporiz,Soalhosa,42.0585189,-8.5242691,NC,22.0,2005-05-28T04:00,12.7,97,12.2,11.1,0.0,0.0,0.0,0.0,2,1019.0,1016.3,78,54,0,99,0.0,0.04,15.9,24.5,354,359,26.3,14.5,16.6,15.6,12.7,0.332,0.339,0.381,0.384,0,0.0,0.0,0.0,0.0,0.0,0.0,0.0,0.0,0.0,0.0,0.0,0.0,0.0,Pinus pinaster Aiton; Tracheophyta; Vitis vinifera L.; Magnoliopsida; Eucalyptus L'Hér.; 
2005,2005-09-25,Viana do Castelo,Melgaço,Roussas,ROUSSAS,42.11290885,-8.258067279809108,NC,182.0,2005-09-25T16:00,22.2,55,12.6,20.8,0.0,0.0,0.0,0.0,0,1018.3,997.1,6,6,0,3,0.3,1.21,15.3,21.1,330,333,37.8,24.4,20.3,19.8,19.6,0.144,0.188,0.204,0.319,1,3600.0,371.5,277.6,94.0,651.4,371.5,579.8,435.0,325.0,110.0,651.4,435.0,678.8,Tracheophyta; Vitis vinifera L.; Magnoliopsida; Eucalyptus L'Hér.; Pinus pinaster Aiton
2005,2005-03-06,Viana do Castelo,Arcos de Valdevez,Ázere,Castelo,41.8645807,-8.3916654,NC,208.0,2005-03-06T15:00,10.8,48,0.2,6.1,0.0,0.0,0.0,0.0,0,1021.5,996.3,11,8,7,0,0.28,0.68,20.3,25.5,17,19,42.5,11.5,6.7,6.0,8.6,0.299,0.308,0.336,0.371,1,3600.0,563.6,464.0,99.6,838.7,563.6,769.0,611.0,503.0,108.0,838.7,611.0,833.7,Vitis vinifera L.; Magnoliopsida; Pinus pinaster Aiton; Eucalyptus L'Hér.; Tracheophyta; Acacia Mill.
2005,2005-03-08,Viana do Castelo,Arcos de Valdevez,Paçô,Vilar,41.8295743,-8.4118568,NC,50.0,2005-03-08T17:00,13.4,36,-1.3,10.4,0.0,0.0,0.0,0.0,0,1025.7,1019.6,0,0,0,0,0.17,0.98,4.6,5.9,39,52,14.8,12.1,7.1,6.9,9.2,0.264,0.296,0.335,0.375,1,3600.0,263.8,207.1,56.8,758.1,263.8,379.3,344.0,270.0,74.0,758.1,344.0,494.6,Tracheophyta; Pinus pinaster Aiton; Magnoliopsida; Eucalyptus L'Hér.
2005,2005-09-26,Viana do Castelo,Ponte de Lima,Cepões,Aveleira,41.8237187,-8.5954092,NC,63.0,2005-09-26T14:00,24.2,43,10.8,23.6,0.0,0.0,0.0,0.0,0,1019.6,1012.3,13,0,0,44,0.47,1.72,10.7,11.5,320,328,16.9,27.2,20.4,20.5,20.3,0.132,0.178,0.214,0.322,1,3600.0,646.1,493.2,152.9,739.4,646.1,908.1,676.0,516.0,160.0,739.4,676.0,950.1,Tracheophyta; Pinus pinaster Aiton; Vitis vinifera L.; Magnoliopsida; Olea europaea L.; Eucalyptus L'Hér.
2005,2005-04-06,Viana do Castelo,Viana do Castelo,Mazarefes,Junto IC1,41.6784413,-8.7670414,NC,18.0,2005-04-06T17:00,17.2,75,12.6,16.6,0.0,0.0,0.0,0.0,0,1017.0,1014.8,15,2,0,44,0.19,0.5,9.7,10.6,345,350,14.0,18.5,15.5,13.3,11.2,0.364,0.381,0.395,0.373,1,3600.0,282.5,148.2,134.3,387.5,282.5,522.7,345.0,181.0,164.0,387.5,345.0,638.2,Eucalyptus L'Hér.; Tracheophyta; Magnoliopsida; Pinales
2005,2005-04-09,Viana do Castelo,Valença,Friestas,Quinta Nova,42.0447506,-8.5679013,NC,52.0,2005-04-09T14:00,13.3,48,2.7,9.6,0.0,0.0,0.0,0.0,0,1027.7,1021.4,0,0,0,0,0.39,0.79,23.8,30.4,18,21,48.2,15.0,11.7,12.6,10.4,0.342,0.365,0.39,0.37,1,3600.0,830.5,727.1,103.5,936.3,830.5,1059.3,859.0,752.0,107.0,936.3,859.0,1095.6,Pinus pinaster Aiton; Magnoliopsida; Tracheophyta; Vitis vinifera L.; 
2005,2005-01-31,Viana do Castelo,Paredes de Coura,Padornelo,Alto da Coguluda,41.9236844,-8.5408827,NC,376.0,2005-01-31T20:00,3.0,83,0.4,-0.6,0.0,0.0,0.0,0.0,0,1031.2,984.5,0,0,0,0,0.0,0.13,10.5,20.9,49,46,27.0,3.2,4.7,6.1,9.8,0.337,0.349,0.375,0.382,0,0.0,0.0,0.0,0.0,0.0,0.0,0.0,0.0,0.0,0.0,0.0,0.0,0.0,Quercus L.; Eucalyptus L'Hér.; Tracheophyta; Pinus pinaster Aiton; Magnoliopsida; 
2005,2005-03-09,Viana do Castelo,Caminha,Riba de Âncora,Juia,41.8112515,-8.8186725,NC,65.0,2005-03-09T11:00,10.7,42,-1.6,7.7,0.0,0.0,0.0,0.0,1,1027.8,1019.8,27,0,0,89,0.27,0.75,6.0,7.5,107,107,19.4,10.7,7.5,8.9,10.9,0.22,0.276,0.327,0.368,1,3600.0,631.1,491.6,139.5,799.5,631.1,853.5,579.0,451.0,128.0,799.5,579.0,783.0,Pinus pinaster Aiton; Tracheophyta; Magnoliopsida; Eucalyptus L'Hér.
2005,2005-03-13,Viana do Castelo,Arcos de Valdevez,Gondoriz,Ferreiros,41.9110284,-8.4075451,NC,389.0,2005-03-13T12:00,13.4,59,5.5,11.2,0.0,0.0,0.0,0.0,2,1010.9,965.3,62,66,4,0,0.23,0.63,7.6,9.6,239,236,23.8,12.0,7.4,6.0,7.5,0.272,0.298,0.335,0.378,1,3600.0,432.5,204.8,227.7,293.7,432.5,965.9,416.0,197.0,219.0,293.7,416.0,929.2,Pinus pinaster Aiton; Magnoliopsida; Tracheophyta; Vitis vinifera L.; Quercus L.
2005,2005-04-12,Viana do Castelo,Paredes de Coura,Castanheira,Pena,41.8911734,-8.5455629,NC,503.0,2005-04-12T15:00,17.3,47,5.9,15.4,0.0,0.0,0.0,0.0,2,1021.2,962.9,56,60,3,0,0.4,1.05,11.4,15.0,66,66,30.6,17.3,11.3,9.8,7.8,0.331,0.357,0.394,0.391,1,3600.0,644.5,472.8,171.6,680.7,644.5,946.0,691.0,507.0,184.0,680.7,691.0,1014.4,Quercus L.; Magnoliopsida; Tracheophyta; Castanea sativa Mill.; Eucalyptus L'Hér.; Pinus pinaster Aiton; 
2005,2005-04-13,Viana do Castelo,Ponte de Lima,Ponte de Lima,S. Gonçalo,41.780958,-8.5012667,NC,83.0,2005-04-13T15:00,17.3,54,7.8,14.8,0.0,0.0,0.0,0.0,1,1013.3,1003.5,26,0,0,88,0.42,0.92,20.7,25.5,329,331,40.7,19.0,13.8,11.9,9.9,0.313,0.345,0.388,0.389,1,3600.0,727.2,609.5,117.6,870.5,727.2,953.0,779.0,653.0,126.0,870.5,779.0,1020.9,Tracheophyta; Eucalyptus L'Hér.; Vitis vinifera L.; Pinus pinaster Aiton; Magnoliopsida
2005,2005-04-12,Viana do Castelo,Ponte de Lima,Vilar do Monte,Costa,41.836137,-8.5495344,NC,544.0,2005-04-12T17:00,16.8,48,5.7,15.5,0.0,0.0,0.0,0.0,0,1018.7,955.8,1,0,2,0,0.25,1.0,2.2,3.3,90,77,17.6,16.3,11.7,9.5,7.5,0.329,0.356,0.393,0.391,1,3600.0,378.5,310.0,68.4,780.9,378.5,540.7,459.0,376.0,83.0,780.9,459.0,655.7,Magnoliopsida; Pinus pinaster Aiton; Eucalyptus L'Hér.; Tracheophyta; Quercus L.
2005,2005-05-06,Viana do Castelo,Ponte de Lima,Beiral do Lima,Vila Chä,41.7613569,-8.4844494,NC,334.0,2005-05-06T18:00,21.3,47,9.6,20.4,0.0,0.0,0.0,0.0,0,1018.3,979.7,5,0,0,18,0.21,1.34,5.4,7.4,312,317,13.7,19.7,15.7,12.2,9.5,0.344,0.372,0.397,0.396,1,3600.0,262.6,209.4,53.1,731.1,262.6,385.1,346.0,276.0,70.0,731.1,346.0,507.5,Tracheophyta; Eucalyptus L'Hér.; Magnoliopsida; Pinus pinaster Aiton
2005,2005-03-17,Viana do Castelo,Arcos de Valdevez,Vale,Casares,41.8384985,-8.3696615,NC,185.0,2005-03-17T21:00,15.4,67,9.3,13.7,0.0,0.0,0.0,0.0,0,1023.3,1001.2,1,0,1,1,0.03,0.57,10.4,15.8,46,45,16.9,12.2,12.3,8.2,8.1,0.222,0.27,0.324,0.372,0,0.0,0.0,0.0,0.0,0.0,0.0,0.0,0.0,0.0,0.0,0.0,0.0,0.0,Vitis vinifera L.; Pinus pinaster Aiton; Tracheophyta; Magnoliopsida; Quercus L.; Eucalyptus L'Hér.; Acacia Mill.; 
2005,2005-03-18,Viana do Castelo,Ponte da Barca,Sampriz,Formiga,41.7862876,-8.3880126,NC,342.0,2005-03-18T06:00,6.9,81,3.8,4.2,0.0,0.0,0.0,0.0,0,1020.7,979.1,0,0,0,0,0.0,0.19,8.1,16.4,77,105,26.3,7.1,9.8,7.6,7.3,0.241,0.28,0.329,0.376,0,0.0,0.0,0.0,0.0,0.0,0.0,0.0,0.0,0.0,0.0,0.0,0.0,0.0,Magnoliopsida; Tracheophyta; Vitis vinifera L.
2005,2005-01-31,Viana do Castelo,Vila Nova de Cerveira,Gondar,Espírito Santo,41.9122396,-8.6794927,NC,226.0,2005-01-31T19:00,7.7,69,2.4,3.8,0.0,0.0,0.0,0.0,0,1030.5,1002.6,0,0,0,0,0.03,0.32,15.3,23.3,27,32,28.8,7.0,7.2,8.1,11.3,0.326,0.342,0.371,0.375,0,0.0,0.0,0.0,0.0,0.0,0.0,0.0,0.0,0.0,0.0,0.0,0.0,0.0,Magnoliopsida; Eucalyptus L'Hér.; Pinus pinaster Aiton
2005,2005-06-01,Viana do Castelo,Ponte da Barca,Paço Vedro de Magalhães,São Sebastião,41.7961954,-8.4069532,NC,81.0,2005-06-01T13:00,26.2,44,13.0,27.6,0.0,0.0,0.0,0.0,0,1016.7,1007.4,0,0,0,0,0.68,1.9,13.1,15.5,339,348,26.6,26.1,19.1,16.0,12.4,0.249,0.308,0.367,0.395,1,3600.0,975.6,860.0,115.6,918.5,975.6,1245.6,979.0,863.0,116.0,918.5,979.0,1249.9,Tracheophyta; Eucalyptus L'Hér.; Pinus pinaster Aiton; Vitis vinifera L.; Magnoliopsida
2005,2005-04-10,Viana do Castelo,Ponte da Barca,Lavradas,São Mamede,41.7762726,-8.4656096,NC,312.0,2005-04-10T19:00,12.6,62,5.4,10.3,0.0,0.0,0.0,0.0,0,1027.5,990.0,0,0,0,0,0.05,0.56,7.9,16.1,330,344,24.8,13.0,11.7,10.8,8.6,0.339,0.364,0.397,0.39,1,2523.24,10.4,6.5,3.9,74.3,8.2,20.5,77.0,48.0,29.0,342.2,77.0,151.9,Quercus L.; Magnoliopsida; Eucalyptus L'Hér.; Pinus pinaster Aiton; Vitis vinifera L.
2005,2005-06-21,Viana do Castelo,Ponte da Barca,Britelo,Paradamonte,41.855434,-8.2701302,NC,231.0,2005-06-21T13:00,28.1,58,19.2,32.8,0.0,0.0,0.0,0.0,0,1016.8,990.6,0,0,0,0,0.68,1.58,7.9,8.8,286,289,22.0,30.5,23.1,19.1,13.7,0.165,0.235,0.311,0.385,1,3600.0,951.1,810.4,140.7,857.8,951.1,1251.2,953.0,812.0,141.0,857.8,953.0,1253.6,Magnoliopsida; Quercus L.; Pinus pinaster Aiton; Tracheophyta; Vitis vinifera L.; Olea europaea L.
2005,2005-03-09,Viana do Castelo,Viana do Castelo,Geraz Do Lima (santa Maria),Xisto,41.7071247,-8.680829,NC,35.0,2005-03-09T14:00,12.8,36,-1.9,11.6,0.0,0.0,0.0,0.0,1,1026.0,1021.7,21,0,0,69,0.37,0.95,1.0,1.3,225,146,15.5,14.8,8.3,8.7,10.7,0.222,0.278,0.329,0.37,1,3600.0,712.3,614.7,97.6,937.3,712.3,910.2,737.0,636.0,101.0,937.3,737.0,941.8,Eucalyptus L'Hér.; Vitis vinifera L.; Pinus pinaster Aiton; Olea europaea L.; Tracheophyta
2005,2005-03-09,Viana do Castelo,Ponte de Lima,Gaifar,Cachada,41.649398,-8.5601091,NC,161.0,2005-03-09T17:00,12.4,37,-1.8,9.6,0.0,0.0,0.0,0.0,0,1024.7,1005.2,0,0,0,1,0.16,0.91,2.9,4.3,330,336,14.0,12.4,7.4,6.9,9.0,0.232,0.276,0.324,0.362,1,3600.0,270.4,216.5,53.9,774.5,270.4,388.0,351.0,281.0,70.0,774.5,351.0,503.6,Vitis vinifera L.; Eucalyptus L'Hér.; Pinus pinaster Aiton; Magnoliopsida; Tracheophyta
2005,2005-04-11,Viana do Castelo,Monção,Valadares,Bemposta,42.07767675,-8.374620302382713,NC,57.0,2005-04-11T17:00,16.2,55,7.1,14.0,0.0,0.0,0.0,0.0,0,1023.1,1016.2,0,0,0,0,0.24,0.83,9.7,13.8,2,9,28.1,16.3,12.6,11.8,9.9,0.324,0.353,0.388,0.374,1,3600.0,353.8,271.3,82.5,686.4,353.8,538.6,429.0,329.0,100.0,686.4,429.0,653.1,Magnoliopsida; Vitis vinifera L.; Eucalyptus L'Hér.; Pinales; Pinus pinaster Aiton; Tracheophyta; 
2005,2005-03-20,Viana do Castelo,Valença,São Pedro da Torre,Igreja,41.9899338,-8.6675593,NC,16.0,2005-03-20T00:00,13.8,88,11.8,12.2,0.0,0.0,0.0,0.0,2,1014.9,1013.0,61,38,0,89,0.01,0.19,14.8,27.3,141,149,31.7,13.3,14.0,10.6,9.8,0.236,0.265,0.32,0.366,0,0.0,0.0,0.0,0.0,0.0,0.0,0.0,0.0,0.0,0.0,0.0,0.0,0.0,Pinus pinaster Aiton; Tracheophyta; Eucalyptus L'Hér.; Magnoliopsida; 
2005,2005-10-07,Viana do Castelo,Caminha,Venade,Aldeia Nova,41.8603964,-8.8095563,NC,4.0,2005-10-07T19:00,18.6,69,12.8,18.2,0.0,0.0,0.0,0.0,0,1013.4,1012.9,8,0,1,26,0.03,0.67,9.0,9.9,358,10,12.2,21.2,20.8,20.7,20.9,0.082,0.168,0.225,0.323,0,0.0,0.0,0.0,0.0,0.0,0.0,0.0,0.0,0.0,0.0,0.0,0.0,0.0,Eucalyptus L'Hér.; Pinus pinaster Aiton; Tracheophyta; Magnoliopsida
2005,2005-04-29,Viana do Castelo,Ponte de Lima,Beiral do Lima,Vila Cha,41.7613569,-8.4844494,NC,334.0,2005-04-29T17:00,20.7,68,14.5,21.1,0.0,0.0,0.0,0.0,1,1014.0,975.5,40,0,20,94,0.21,0.78,7.0,9.2,325,329,19.8,19.2,14.5,11.0,9.1,0.354,0.375,0.404,0.396,1,3600.0,275.7,88.5,187.2,197.6,275.7,604.5,327.0,105.0,222.0,197.6,327.0,717.0,Tracheophyta; Eucalyptus L'Hér.; Magnoliopsida; Pinus pinaster Aiton
2005,2005-05-07,Viana do Castelo,Paredes de Coura,Romarigães,Veiga do Monte,41.8562248,-8.623615,NC,268.0,2005-05-07T16:00,21.5,54,11.9,21.2,0.0,0.0,0.0,0.0,0,1014.4,983.5,5,0,9,0,0.35,1.17,6.4,7.9,286,286,27.0,21.9,16.8,13.2,10.4,0.327,0.359,0.389,0.385,1,3600.0,490.8,370.8,120.0,587.7,490.8,847.8,544.0,411.0,133.0,587.7,544.0,939.6,Eucalyptus L'Hér.; Pinus pinaster Aiton; Magnoliopsida; Tracheophyta; Quercus L.; 
2005,2005-03-18,Viana do Castelo,Ponte de Lima,Ponte de Lima,S.Gonçalo,41.780958,-8.5012667,NC,83.0,2005-03-18T18:00,21.2,67,14.8,21.5,0.0,0.0,0.0,0.0,1,1018.5,1008.7,33,1,10,88,0.11,0.83,8.8,14.8,325,311,14.8,18.4,13.8,9.2,8.7,0.21,0.266,0.322,0.372,1,3600.0,78.7,27.8,50.9,215.5,78.7,178.1,136.0,48.0,88.0,215.5,136.0,307.6,Tracheophyta; Eucalyptus L'Hér.; Vitis vinifera L.; Pinus pinaster Aiton; Magnoliopsida
2005,2005-03-19,Viana do Castelo,Viana do Castelo,Perre,Costa,41.7211032,-8.7947817,NC,24.0,2005-03-19T12:00,19.0,52,8.8,16.7,0.0,0.0,0.0,0.0,3,1016.6,1013.8,100,28,83,85,0.38,1.06,15.9,21.3,183,178,36.7,18.7,13.6,11.2,10.6,0.173,0.253,0.317,0.367,1,3600.0,644.5,458.7,185.8,629.9,644.5,1005.5,621.0,442.0,179.0,629.9,621.0,968.9,Tracheophyta; Vitis vinifera L.; Eucalyptus L'Hér.
2005,2005-04-08,Viana do Castelo,Valença,Gandra,Tuído,41.999056,-8.6334747,NC,28.0,2005-04-08T22:00,7.0,62,0.2,1.5,0.0,0.0,0.0,0.0,0,1024.1,1020.6,0,0,0,0,0.06,0.38,23.4,35.3,23,25,56.2,10.0,13.2,13.1,10.5,0.349,0.37,0.392,0.37,0,0.0,0.0,0.0,0.0,0.0,0.0,0.0,0.0,0.0,0.0,0.0,0.0,0.0,Magnoliopsida; Eucalyptus L'Hér.; Tracheophyta; Vitis vinifera L.; Pinus pinaster Aiton; Acacia Mill.; 
2005,2005-05-07,Viana do Castelo,Ponte de Lima,Arcozelo,Stº Ouvideo,41.7918096,-8.5927082,NC,35.0,2005-05-07T18:00,21.3,58,12.8,21.6,0.0,0.0,0.0,0.0,0,1013.7,1009.6,7,0,12,0,0.16,1.05,3.4,2.2,252,279,11.9,21.1,18.3,14.6,12.0,0.324,0.357,0.387,0.38,1,3600.0,198.4,129.7,68.7,443.6,198.4,392.9,260.0,170.0,90.0,443.6,260.0,515.0,Magnoliopsida; Vitis vinifera L.; Tracheophyta; Eucalyptus L'Hér.; Pinus pinaster Aiton; Olea europaea L.
2005,2005-04-12,Viana do Castelo,Ponte de Lima,Labrujó,Monte Madalena,41.8543636,-8.541474,NC,526.0,2005-04-12T20:00,12.6,69,7.0,11.0,0.0,0.0,0.0,0.0,0,1018.5,956.8,0,0,0,0,0.03,0.46,5.5,6.6,293,292,12.6,12.1,12.0,9.7,7.7,0.329,0.356,0.393,0.391,0,0.0,0.0,0.0,0.0,0.0,0.0,0.0,0.0,0.0,0.0,0.0,0.0,4.2,Magnoliopsida; Eucalyptus L'Hér.; Quercus L.
2005,2005-01-31,Viana do Castelo,Ponte de Lima,Anais,Bom Jesus,41.6986811,-8.5253797,NC,265.0,2005-01-31T18:00,7.4,72,2.8,4.4,0.0,0.0,0.0,0.0,0,1030.2,997.6,0,0,0,0,0.03,0.29,9.5,13.6,9,22,19.8,6.2,4.8,6.2,9.9,0.335,0.348,0.375,0.382,0,1034.85,0.0,0.0,0.0,0.0,0.0,0.0,30.0,17.0,13.0,171.6,30.0,79.2,Eucalyptus L'Hér.; Pinus pinaster Aiton; Tracheophyta
2005,2005-03-10,Viana do Castelo,Ponte de Lima,Arcozelo,Cancelinhas,41.7918096,-8.5927082,NC,35.0,2005-03-10T13:00,15.9,35,0.3,14.4,0.0,0.0,0.0,0.0,1,1022.3,1018.1,29,0,0,97,0.42,1.19,5.3,7.7,118,118,19.8,14.8,8.1,8.4,10.4,0.243,0.282,0.328,0.369,1,3600.0,761.4,658.1,103.3,944.7,761.4,966.4,759.0,656.0,103.0,944.7,759.0,963.4,Magnoliopsida; Vitis vinifera L.; Tracheophyta; Eucalyptus L'Hér.; Pinus pinaster Aiton; Olea europaea L.
2005,2005-03-10,Viana do Castelo,Viana do Castelo,Darque,Urbanizaçao Santoinho,41.683106,-8.796185,NC,18.0,2005-03-10T21:00,8.9,81,5.9,6.8,0.0,0.0,0.0,0.0,1,1020.6,1018.4,30,0,0,100,0.0,0.21,7.9,8.4,47,25,10.8,9.1,10.4,9.0,10.7,0.212,0.274,0.327,0.37,0,0.0,0.0,0.0,0.0,0.0,0.0,0.0,0.0,0.0,0.0,0.0,0.0,0.0,Tracheophyta; Magnoliopsida; Pinus pinaster Aiton; Eucalyptus L'Hér.
2005,2005-03-11,Viana do Castelo,Caminha,Arga de São João,Santo Aginha,41.85085,-8.7456271,NC,395.0,2005-03-11T02:00,1.8,84,-0.7,-1.0,0.0,0.0,0.0,0.0,1,1019.3,970.7,29,0,0,98,0.0,0.11,4.0,4.7,100,81,13.0,3.3,6.1,5.7,7.7,0.254,0.288,0.33,0.372,0,0.0,0.0,0.0,0.0,0.0,0.0,0.0,0.0,0.0,0.0,0.0,0.0,0.0,Magnoliopsida; Pinus pinaster Aiton
2005,2005-04-12,Viana do Castelo,Monção,Valadares,Bemposta,42.07767675,-8.374620302382713,NC,57.0,2005-04-12T16:00,19.3,47,7.6,18.2,0.0,0.0,0.0,0.0,0,1019.5,1012.7,4,4,1,0,0.34,1.2,4.4,5.6,325,333,23.4,18.6,13.3,11.7,10.0,0.316,0.347,0.385,0.374,1,3600.0,502.1,346.3,155.8,616.1,502.1,765.4,564.0,389.0,175.0,616.1,564.0,859.7,Magnoliopsida; Vitis vinifera L.; Eucalyptus L'Hér.; Pinales; Pinus pinaster Aiton; Tracheophyta; 
2005,2005-03-19,Viana do Castelo,Arcos de Valdevez,Mei,Barreirós,41.9196366,-8.4658447,NC,281.0,2005-03-19T12:00,20.0,47,8.2,18.5,0.0,0.0,0.0,0.0,2,1016.5,983.9,53,23,52,4,0.41,1.25,10.9,14.6,207,200,43.9,17.5,11.6,8.7,8.0,0.223,0.272,0.325,0.373,1,3600.0,674.0,495.7,178.4,682.0,674.0,1003.3,650.0,478.0,172.0,682.0,650.0,967.6,Quercus L.; Magnoliopsida; Pinus pinaster Aiton; Acacia Mill.; Eucalyptus L'Hér.
2005,2005-02-01,Viana do Castelo,Valença,Arão,Ameal,42.0247035,-8.6392948,NC,45.0,2005-02-01T15:00,12.5,56,4.0,9.8,0.0,0.0,0.0,0.0,0,1030.3,1024.8,4,2,3,0,0.21,0.63,8.7,10.4,353,358,18.0,11.5,7.1,8.4,11.7,0.327,0.342,0.37,0.375,1,3600.0,393.6,321.4,72.2,799.1,393.6,566.6,436.0,356.0,80.0,799.1,436.0,627.6,Tracheophyta; Magnoliopsida
2005,2005-01-31,Viana do Castelo,Valença,Gandra,Isqueireira,42.0055903,-8.6164853,NC,96.0,2005-01-31T21:00,5.6,80,2.3,1.5,0.0,0.0,0.0,0.0,0,1030.9,1018.9,0,0,0,0,0.02,0.19,15.7,19.5,32,38,25.2,5.7,7.1,8.2,11.4,0.329,0.343,0.37,0.375,0,0.0,0.0,0.0,0.0,0.0,0.0,0.0,0.0,0.0,0.0,0.0,0.0,0.0,Magnoliopsida; Eucalyptus L'Hér.; Tracheophyta; Vitis vinifera L.; Pinus pinaster Aiton; Acacia Mill.; 
2005,2005-02-01,Viana do Castelo,Ponte de Lima,Correlhã,Moure,41.7469111,-8.6114993,NC,22.0,2005-02-01T13:00,12.7,54,3.8,10.0,0.0,0.0,0.0,0.0,0,1031.3,1028.6,0,0,0,0,0.26,0.67,8.5,10.2,36,39,17.6,11.5,7.2,9.1,12.3,0.315,0.331,0.36,0.361,1,3600.0,540.6,459.1,81.5,885.3,540.6,730.6,537.0,456.0,81.0,885.3,537.0,725.7,Magnoliopsida; Tracheophyta; Pinus pinaster Aiton
2005,2005-04-09,Viana do Castelo,Arcos de Valdevez,São Jorge,Barreiro,41.822374,-8.3769036,NC,77.0,2005-04-09T22:00,7.2,62,0.5,2.5,0.0,0.0,0.0,0.0,0,1028.6,1019.0,0,0,0,0,0.05,0.39,18.2,28.7,18,24,35.3,9.3,12.0,12.3,9.8,0.347,0.369,0.4,0.389,0,0.0,0.0,0.0,0.0,0.0,0.0,0.0,0.0,0.0,0.0,0.0,0.0,0.0,Tracheophyta; Pinus pinaster Aiton; Vitis vinifera L.; Magnoliopsida
2005,2005-06-22,Viana do Castelo,Viana do Castelo,Santa Marta De Portuzelo,Samonde,41.7088049,-8.7701948,NC,49.0,2005-06-22T14:00,29.2,45,16.2,32.0,0.0,0.0,0.0,0.0,0,1013.5,1007.9,0,0,0,0,0.68,2.21,10.8,11.9,334,346,17.6,33.3,23.7,19.8,15.0,0.126,0.234,0.313,0.371,1,3600.0,903.9,780.2,123.7,861.6,903.9,1199.0,928.0,801.0,127.0,861.6,928.0,1231.0,Tracheophyta; Magnoliopsida
2005,2005-03-11,Viana do Castelo,Paredes de Coura,Insalde,Casalteiro,41.9485994,-8.5329017,NC,509.0,2005-03-11T07:00,-0.1,88,-1.9,-3.3,0.0,0.0,0.0,0.0,1,1019.2,956.7,29,0,0,97,0.0,0.07,5.1,5.1,98,94,10.8,1.3,4.1,4.6,6.8,0.281,0.305,0.337,0.378,1,0.0,0.0,0.0,0.0,0.0,0.0,15.3,0.0,0.0,0.0,0.0,0.0,0.0,Quercus L.; Magnoliopsida; Eucalyptus L'Hér.; Pinus pinaster Aiton; Tracheophyta; 
2005,2005-06-01,Viana do Castelo,Valença,Gandra,Mondim Cima,42.0055903,-8.6164853,NC,96.0,2005-06-01T23:00,17.9,85,15.3,17.7,0.0,0.0,0.0,0.0,0,1014.4,1003.0,0,0,0,0,0.01,0.31,13.3,18.4,13,12,21.6,18.2,19.8,15.8,12.5,0.244,0.304,0.365,0.382,0,0.0,0.0,0.0,0.0,0.0,0.0,0.0,0.0,0.0,0.0,0.0,0.0,0.0,Magnoliopsida; Eucalyptus L'Hér.; Tracheophyta; Vitis vinifera L.; Pinus pinaster Aiton; Acacia Mill.; 
2005,2005-06-22,Viana do Castelo,Arcos de Valdevez,Jolda (madalena),Igreja,41.8011971,-8.5021651,NC,102.0,2005-06-22T14:00,33.6,32,14.7,35.7,0.0,0.0,0.0,0.0,0,1013.5,1002.1,0,0,0,0,0.75,3.52,10.8,11.9,334,346,17.6,32.5,23.9,19.7,14.3,0.147,0.23,0.307,0.381,1,3600.0,903.5,779.9,123.7,862.6,903.5,1197.2,928.0,801.0,127.0,862.6,928.0,1229.6,Vitis vinifera L.; Castanea sativa Mill.; Magnoliopsida; Eucalyptus L'Hér.; Pinus pinaster Aiton; Tracheophyta; Olea europaea L.
2005,2005-05-24,Viana do Castelo,Ponte de Lima,Cepões,Alto do Cavalo,41.82237,-8.5730107,NC,352.0,2005-05-24T21:00,16.7,94,15.6,17.5,0.0,0.0,0.0,0.0,0,1018.6,977.4,0,0,0,0,0.0,0.12,7.5,9.7,35,22,14.8,16.9,16.6,13.1,10.7,0.329,0.356,0.391,0.388,0,0.0,0.0,0.0,0.0,0.0,0.0,0.0,0.0,0.0,0.0,0.0,0.0,0.0,Magnoliopsida; Pinus pinaster Aiton; Eucalyptus L'Hér.; Quercus L.; Tracheophyta; Vitis vinifera L.
2005,2005-06-21,Viana do Castelo,Viana do Castelo,Santa Marta De Portuzelo,Souto da Silva,41.7088049,-8.7701948,NC,49.0,2005-06-21T17:00,24.4,71,18.9,25.8,0.0,0.0,0.0,0.0,0,1016.1,1010.4,0,0,0,0,0.37,0.88,14.7,19.5,329,335,27.4,29.4,23.8,19.6,14.9,0.133,0.237,0.315,0.371,1,3600.0,514.6,423.5,91.0,774.9,514.6,723.9,588.0,484.0,104.0,774.9,588.0,827.2,Tracheophyta; Magnoliopsida
2005,2005-05-27,Viana do Castelo,Valença,Gandra,Mondim de Cima,41.9981185,-8.6101189,NC,106.0,2005-05-27T23:00,13.9,98,13.6,13.5,0.0,0.0,0.0,0.0,2,1019.4,1006.6,59,62,0,12,0.0,0.03,10.5,18.1,338,339,21.2,15.5,16.9,15.0,12.1,0.332,0.338,0.382,0.384,0,0.0,0.0,0.0,0.0,0.0,0.0,0.0,0.0,0.0,0.0,0.0,0.0,0.0,Magnoliopsida; Eucalyptus L'Hér.; Tracheophyta; Vitis vinifera L.; Pinus pinaster Aiton; Acacia Mill.; 
2005,2005-04-09,Viana do Castelo,Ponte da Barca,Sampriz,Formiga,41.7862876,-8.3880126,NC,342.0,2005-04-09T23:00,4.7,69,-0.6,1.1,0.0,0.0,0.0,0.0,0,1029.6,987.4,0,0,0,0,0.02,0.27,9.4,23.9,40,46,34.6,7.1,10.3,10.9,8.3,0.355,0.374,0.403,0.394,0,0.0,0.0,0.0,0.0,0.0,0.0,0.0,0.0,0.0,0.0,0.0,0.0,0.0,Magnoliopsida; Tracheophyta; Vitis vinifera L.
2005,2005-06-21,Viana do Castelo,Ponte da Barca,Boivães,Bouça,41.7636212,-8.4518719,NC,400.0,2005-06-21T18:00,25.4,67,18.8,27.4,0.0,0.0,0.0,0.0,0,1015.9,970.6,0,0,0,0,0.28,1.07,8.2,11.0,311,319,24.5,27.9,23.2,18.1,12.7,0.152,0.229,0.31,0.382,1,3600.0,329.6,261.6,68.0,707.5,329.6,489.7,407.0,323.0,84.0,707.5,407.0,604.6,Magnoliopsida; Eucalyptus L'Hér.; Pinus pinaster Aiton; Vitis vinifera L.
2005,2005-06-22,Viana do Castelo,Viana do Castelo,Cardielos,São Silvestre,41.7130468,-8.7391575,NC,34.0,2005-06-22T14:00,29.3,45,16.3,32.1,0.0,0.0,0.0,0.0,0,1013.5,1009.6,0,0,0,0,0.68,2.23,10.8,11.9,334,346,17.6,33.4,23.8,19.9,15.1,0.126,0.234,0.313,0.371,1,3600.0,903.9,780.2,123.7,861.6,903.9,1199.0,928.0,801.0,127.0,861.6,928.0,1231.0,Magnoliopsida; Eucalyptus L'Hér.; Tracheophyta
2005,2005-04-11,Viana do Castelo,Arcos de Valdevez,Ermelo,Cumieira,41.8545198,-8.2902329,NC,109.0,2005-04-11T15:00,18.6,50,8.1,18.5,0.0,0.0,0.0,0.0,0,1023.9,1010.9,0,0,0,0,0.46,1.06,7.3,8.9,340,346,20.5,18.8,12.7,12.0,9.9,0.337,0.362,0.397,0.394,1,3600.0,738.5,646.2,92.3,934.4,738.5,942.3,792.0,693.0,99.0,934.4,792.0,1010.6,Magnoliopsida; Quercus L.; Tracheophyta; Pinus pinaster Aiton
2005,2005-06-22,Viana do Castelo,Viana do Castelo,Deocriste,Senhora do Crasto,41.6872738,-8.6939874,NC,236.0,2005-06-22T16:00,29.5,45,16.2,31.6,0.0,0.0,0.0,0.0,0,1013.5,986.9,8,0,0,28,0.55,2.29,7.9,8.9,309,328,19.1,30.9,23.3,18.7,13.8,0.151,0.234,0.309,0.373,1,3600.0,674.1,575.1,98.9,824.3,674.1,923.9,736.0,628.0,108.0,824.3,736.0,1008.8,Magnoliopsida; Eucalyptus L'Hér.; Pinus pinaster Aiton
2005,2005-04-07,Viana do Castelo,Ponte de Lima,Moreira do Lima,Fojo,41.8216813,-8.6803716,NC,572.0,2005-04-07T17:00,14.4,64,7.7,11.4,0.0,0.0,0.0,0.0,1,1010.2,944.2,35,22,26,0,0.21,0.59,16.2,24.2,13,18,41.4,15.6,12.8,9.9,7.2,0.369,0.384,0.402,0.378,1,3600.0,331.2,257.4,73.8,670.1,331.2,524.6,404.0,314.0,90.0,670.1,404.0,639.9,Magnoliopsida; Eucalyptus L'Hér.; Pinus pinaster Aiton
