year,date,district,municipality,parish,local,latitude,longitude,cause,elevation,hourly.time,hourly.temperature_2m,hourly.relative_humidity_2m,hourly.dew_point_2m,hourly.apparent_temperature,hourly.precipitation,hourly.rain,hourly.snowfall,hourly.snow_depth,hourly.weather_code,hourly.pressure_msl,hourly.surface_pressure,hourly.cloud_cover,hourly.cloud_cover_low,hourly.cloud_cover_mid,hourly.cloud_cover_high,hourly.et0_fao_evapotranspiration,hourly.vapour_pressure_deficit,hourly.wind_speed_10m,hourly.wind_speed_100m,hourly.wind_direction_10m,hourly.wind_direction_100m,hourly.wind_gusts_10m,hourly.soil_temperature_0_to_7cm,hourly.soil_temperature_7_to_28cm,hourly.soil_temperature_28_to_100cm,hourly.soil_temperature_100_to_255cm,hourly.soil_moisture_0_to_7cm,hourly.soil_moisture_7_to_28cm,hourly.soil_moisture_28_to_100cm,hourly.soil_moisture_100_to_255cm,hourly.is_day,hourly.sunshine_duration,hourly.shortwave_radiation_instant,hourly.direct_radiation_instant,hourly.diffuse_radiation_instant,hourly.direct_normal_irradiance_instant,hourly.global_tilted_irradiance_instant,hourly.terrestrial_radiation_instant,hourly.shortwave_radiation,hourly.direct_radiation,hourly.diffuse_radiation,hourly.direct_normal_irradiance,hourly.global_tilted_irradiance,hourly.terrestrial_radiation,scientificNames
2005,2005-06-21,Aveiro,Águeda,Belazaima do Chão,BELAZAIMA,40.5282093,-8.3682229,NC,79.0,2005-06-21T21:00,25.3,65,18.2,27.0,0.0,0.0,0.0,0.0,0,1015.9,1006.8,14,0,0,45,0.04,1.13,8.9,16.6,346,360,16.9,27.7,27.1,21.6,15.5,0.098,0.151,0.225,0.285,0,0.0,0.0,0.0,0.0,0.0,0.0,0.0,0.0,0.0,0.0,0.0,0.0,0.0,Eucalyptus L'Hér.; Tracheophyta; Magnoliopsida
2005,2005-02-09,Aveiro,Santa Maria da Feira,Pigeiros,Vinhó,40.9473253,-8.504510476357709,NC,266.0,2005-02-09T22:00,5.9,72,1.3,2.5,0.0,0.0,0.0,0.0,0,1033.3,1000.3,0,0,0,0,0.01,0.26,9.8,17.2,73,61,19.4,6.1,7.8,7.7,10.8,0.269,0.287,0.326,0.332,0,0.0,0.0,0.0,0.0,0.0,0.0,0.0,0.0,0.0,0.0,0.0,0.0,0.0,Eucalyptus L'Hér.; Pinales; Tracheophyta; Pinus pinaster Aiton; Magnoliopsida
2005,2005-06-22,Aveiro,Aveiro,Esgueira,Taboeira,40.6523699,-8.5901667,NC,24.0,2005-06-22T09:00,31.0,36,14.4,32.1,0.0,0.0,0.0,0.0,0,1014.8,1012.1,15,0,0,49,0.38,2.85,2.1,1.1,301,72,14.0,30.0,24.2,21.4,16.2,0.048,0.084,0.142,0.203,1,3600.0,601.2,482.3,118.9,722.0,601.2,884.5,531.0,426.0,105.0,722.0,531.0,781.3,Magnoliopsida; Tracheophyta; Pinus pinaster Aiton; Eucalyptus L'Hér.
2005,2005-06-14,Aveiro,Santa Maria da Feira,Feira,Remolha,40.93811665,-8.567960045030711,NC,105.0,2005-06-14T09:00,18.3,71,12.9,17.6,0.1,0.1,0.0,0.0,51,1017.9,1005.5,56,60,4,0,0.23,0.62,11.2,14.0,225,224,23.0,19.5,19.7,19.4,14.6,0.147,0.131,0.199,0.274,1,3600.0,450.0,273.6,176.4,408.3,450.0,888.5,398.0,242.0,156.0,408.3,398.0,785.8,Eucalyptus L'Hér.; Tracheophyta; Magnoliopsida
2005,2005-06-14,Aveiro,Santa Maria da Feira,Santa Maria de Lamas,LAMAS,40.97821435,-8.570031208138195,NC,120.0,2005-06-14T10:00,19.4,64,12.5,18.4,0.1,0.1,0.0,0.0,51,1018.3,1004.1,96,76,43,7,0.33,0.8,12.2,15.3,223,221,25.9,21.3,19.7,19.3,14.4,0.151,0.158,0.233,0.295,1,3600.0,609.6,404.6,205.0,505.3,609.6,1061.7,562.0,373.0,189.0,505.3,562.0,978.7,Tracheophyta; Eucalyptus L'Hér.; Magnoliopsida; Pinus pinaster Aiton
2005,2005-06-07,Aveiro,Santa Maria da Feira,Sanguedo,Gaeta,41.0092747,-8.515097239744568,NC,183.0,2005-06-07T20:00,29.0,32,10.7,27.4,0.0,0.0,0.0,0.0,0,1015.2,994.5,0,0,0,0,0.16,2.73,12.4,22.4,26,30,26.3,27.1,23.9,17.9,13.3,0.126,0.176,0.252,0.299,1,2003.47,0.0,0.0,0.0,0.0,0.0,0.0,48.0,27.0,21.0,221.1,48.0,110.3,Tracheophyta; Eucalyptus L'Hér.; Magnoliopsida
2005,2005-06-01,Aveiro,Vale de Cambra,Roge,Trebilhadouro,40.8529156,-8.3571708,NC,369.0,2005-06-01T16:00,26.2,35,9.7,25.8,0.0,0.0,0.0,0.0,0,1013.8,972.2,0,0,0,0,0.53,2.2,9.7,12.8,4,10,23.8,26.2,19.8,15.7,11.9,0.192,0.272,0.337,0.344,1,3600.0,670.6,578.7,91.9,855.0,670.6,900.3,737.0,636.0,101.0,855.0,737.0,989.5,Tracheophyta; Eucalyptus L'Hér.; Pinus pinaster Aiton; Magnoliopsida
2005,2005-02-08,Aveiro,Santa Maria da Feira,São João de Ver,São João de Vêr,40.95530765,-8.551133345203194,NC,169.0,2005-02-08T17:00,11.9,58,3.8,9.3,0.0,0.0,0.0,0.0,2,1021.5,1001.1,51,47,15,0,0.1,0.59,8.2,14.7,331,338,20.2,11.3,7.5,7.9,11.1,0.242,0.259,0.297,0.306,1,3600.0,127.0,80.0,47.0,483.3,127.0,232.6,189.0,119.0,70.0,483.3,189.0,346.1,Tracheophyta; Pinus pinaster Aiton; Eucalyptus L'Hér.; Quercus suber L.; Magnoliopsida
2005,2005-06-08,Aveiro,Albergaria-a-Velha,Ribeira de Fráguas,Vilarinho de São Roque,40.7410269,-8.4455598,NC,68.0,2005-06-08T15:00,33.7,32,14.8,35.4,0.0,0.0,0.0,0.0,0,1015.7,1008.0,13,0,14,15,0.69,3.55,10.7,10.2,310,321,32.8,38.5,25.8,19.4,14.3,0.07,0.128,0.196,0.24,1,3600.0,794.2,686.6,107.7,843.9,794.2,1080.1,841.0,727.0,114.0,843.9,841.0,1143.7,Eucalyptus L'Hér.; Pinus pinaster Aiton; Magnoliopsida
2005,2005-06-22,Aveiro,Espinho,Anta,Idanha,41.0169801,-8.6246775,NC,50.0,2005-06-22T19:00,26.2,58,17.3,27.5,0.0,0.0,0.0,0.0,0,1014.8,1009.0,12,0,6,28,0.16,1.42,9.0,11.5,254,256,23.4,31.2,26.9,21.0,15.6,0.094,0.139,0.214,0.293,1,3600.0,126.0,75.9,50.1,399.5,126.0,251.5,186.0,112.0,74.0,399.5,186.0,371.2,Tracheophyta; Eucalyptus L'Hér.; Magnoliopsida; Pinus pinaster Aiton
2005,2005-06-23,Aveiro,Arouca,Escariz,Coruto,40.9403552,-8.4032105,NC,484.0,2005-06-23T23:00,18.2,84,15.5,19.5,0.0,0.0,0.0,0.0,0,1018.1,962.2,11,3,2,25,0.0,0.33,4.3,7.6,246,251,10.4,21.2,23.6,19.6,13.6,0.129,0.198,0.289,0.354,0,0.0,0.0,0.0,0.0,0.0,0.0,0.0,0.0,0.0,0.0,0.0,0.0,0.0,Eucalyptus L'Hér.; Pinus pinaster Aiton; Magnoliopsida
2005,2005-06-24,Aveiro,Santa Maria da Feira,Fiães,Regadio,40.9835425,-8.5177043,NC,171.0,2005-06-24T05:00,16.8,97,16.3,18.1,0.0,0.0,0.0,0.0,2,1017.7,997.4,75,83,0,0,0.0,0.06,6.0,7.8,303,304,16.2,19.5,23.7,20.6,15.0,0.117,0.134,0.21,0.294,0,0.0,0.0,0.0,0.0,0.0,0.0,0.0,0.0,0.0,0.0,0.0,0.0,0.0,Pinus pinaster Aiton; Magnoliopsida; Tracheophyta; Eucalyptus L'Hér.
2005,2005-06-08,Aveiro,Santa Maria da Feira,Feira,Feita,40.9252322,-8.561346269961398,NC,134.0,2005-06-08T23:00,22.0,75,17.3,23.9,0.0,0.0,0.0,0.0,0,1016.3,1000.7,2,0,4,0,0.0,0.66,4.8,10.5,13,22,19.1,23.6,25.2,18.8,13.8,0.107,0.142,0.208,0.275,0,0.0,0.0,0.0,0.0,0.0,0.0,0.0,0.0,0.0,0.0,0.0,0.0,0.0,Tracheophyta; Eucalyptus L'Hér.; Magnoliopsida
2005,2005-06-25,Aveiro,São João da Madeira,São João da Madeira,Pedra Branca,40.897404,-8.490683816868543,NC,222.0,2005-06-25T15:00,23.1,52,12.6,22.9,0.0,0.0,0.0,0.0,1,1016.0,990.4,43,31,17,16,0.48,1.37,13.3,16.2,270,270,33.5,28.5,22.8,20.6,15.0,0.119,0.162,0.244,0.315,1,3600.0,687.1,473.2,213.9,575.8,687.1,1087.9,726.0,500.0,226.0,575.8,726.0,1149.5,Tracheophyta
2005,2005-02-04,Aveiro,Albergaria-a-Velha,São João de Loure,SÃO JOÃO DE LOURE,40.6305869,-8.54164006194918,NC,35.0,2005-02-04T20:00,8.2,74,4.0,4.7,0.0,0.0,0.0,0.0,0,1024.6,1020.3,0,0,0,0,0.02,0.28,14.8,25.4,356,353,24.8,8.3,9.2,8.9,11.6,0.152,0.196,0.238,0.243,0,0.0,0.0,0.0,0.0,0.0,0.0,0.0,0.0,0.0,0.0,0.0,0.0,0.0,Eucalyptus L'Hér.; Magnoliopsida; Tracheophyta; Pinus pinaster Aiton; Acacia Mill.; 
2005,2005-06-02,Aveiro,Oliveira de Azeméis,Ossela,Ossela,40.82920805,-8.434897182618611,NC,238.0,2005-06-02T15:00,26.8,46,14.0,26.7,0.0,0.0,0.0,0.0,1,1013.2,986.2,27,0,0,89,0.61,1.92,19.8,25.6,323,325,42.8,29.4,21.5,16.9,12.8,0.139,0.231,0.298,0.319,1,3600.0,805.5,689.4,116.0,855.0,805.5,1072.4,854.0,731.0,123.0,855.0,854.0,1137.0,Eucalyptus L'Hér.; Tracheophyta; Pinus pinaster Aiton; Magnoliopsida; Vitis vinifera L.
2005,2005-06-02,Aveiro,Arouca,Várzea,São Paio,40.9238309,-8.3004685,NC,232.0,2005-06-02T23:00,15.0,97,14.6,14.8,0.0,0.0,0.0,0.0,3,1016.1,988.6,98,100,0,26,0.0,0.04,11.9,18.7,335,337,23.0,18.1,20.5,16.6,12.5,0.179,0.257,0.327,0.337,0,0.0,0.0,0.0,0.0,0.0,0.0,0.0,0.0,0.0,0.0,0.0,0.0,0.0,Tracheophyta; Eucalyptus L'Hér.; Pinus pinaster Aiton; Magnoliopsida; Vitis vinifera L.
2005,2005-06-04,Aveiro,Vale de Cambra,São Pedro de Castelões,Aguincheira,40.8299538,-8.397111101527628,NC,218.0,2005-06-04T18:00,23.8,51,13.0,21.6,0.0,0.0,0.0,0.0,0,1017.5,992.4,1,0,0,2,0.31,1.45,21.3,29.6,334,336,44.6,26.3,21.5,17.5,13.1,0.128,0.219,0.293,0.318,1,3600.0,304.9,240.4,64.5,691.7,304.9,461.9,383.0,302.0,81.0,691.7,383.0,580.2,Tracheophyta; Magnoliopsida
2005,2005-06-05,Aveiro,Santa Maria da Feira,Feira,Santo André,40.9318298,-8.5537116,NC,155.0,2005-06-05T13:00,28.8,30,9.6,29.2,0.0,0.0,0.0,0.0,0,1018.0,1000.3,4,0,0,12,0.74,2.76,13.0,15.8,355,359,26.3,29.6,20.3,17.4,13.4,0.121,0.165,0.221,0.276,1,3600.0,977.0,861.4,115.6,912.3,977.0,1254.5,980.0,864.0,116.0,912.3,980.0,1258.3,Eucalyptus L'Hér.; Tracheophyta; Magnoliopsida
2005,2005-02-07,Aveiro,Aveiro,Esgueira,Paço,40.6433409,-8.6403931,NC,17.0,2005-02-07T15:00,12.3,51,2.5,10.2,0.1,0.1,0.0,0.0,51,1015.0,1012.9,31,18,19,10,0.23,0.7,2.6,3.4,16,32,18.7,14.3,7.8,8.9,11.7,0.117,0.165,0.211,0.221,1,3600.0,440.8,364.5,76.3,819.0,440.8,625.8,485.0,401.0,84.0,819.0,485.0,688.5,Tracheophyta; Magnoliopsida
2005,2005-06-10,Aveiro,Aveiro,Esgueira,ESGUEIRA,40.6433409,-8.6403931,NC,17.0,2005-06-10T12:00,25.0,55,15.3,26.6,0.0,0.0,0.0,0.0,0,1013.4,1011.4,18,20,0,0,0.6,1.43,14.7,16.3,292,292,29.2,33.6,24.2,20.7,15.1,0.047,0.1,0.156,0.205,1,3600.0,931.0,773.5,157.6,818.2,931.0,1254.4,910.0,756.0,154.0,818.2,910.0,1226.1,Tracheophyta; Magnoliopsida
2005,2005-06-16,Aveiro,Aveiro,Cacia,Ervideiros,40.6607622,-8.6094382,NC,28.0,2005-06-16T09:00,23.4,63,15.9,23.3,0.0,0.0,0.0,0.0,0,1023.9,1020.6,0,0,0,0,0.35,1.06,14.4,18.4,356,360,25.9,24.6,21.2,20.2,15.6,0.066,0.094,0.152,0.205,1,3600.0,600.9,486.6,114.3,727.2,600.9,886.9,531.0,430.0,101.0,727.2,531.0,783.7,Tracheophyta; Eucalyptus L'Hér.; Pinus pinaster Aiton
2005,2005-06-17,Aveiro,Santa Maria da Feira,Vila Maior,VILA MAIOR,41.010273,-8.487896654288974,NC,174.0,2005-06-17T10:00,29.8,40,14.7,30.1,0.0,0.0,0.0,0.0,0,1019.1,999.3,2,0,0,6,0.57,2.51,14.8,19.8,91,92,31.7,27.6,21.7,18.9,14.3,0.138,0.15,0.229,0.297,1,3600.0,775.5,661.6,113.9,826.1,775.5,1061.3,715.0,610.0,105.0,826.1,715.0,978.5,Pinus pinaster Aiton; Eucalyptus L'Hér.; Magnoliopsida
2005,2005-06-05,Aveiro,Águeda,Águeda,Águeda,40.583217000000005,-8.425849906880153,NC,79.0,2005-06-05T15:00,31.1,32,12.2,30.5,0.0,0.0,0.0,0.0,0,1016.7,1007.7,0,0,0,0,0.72,3.09,19.5,25.0,332,335,36.7,32.3,22.4,18.4,13.9,0.119,0.205,0.276,0.309,1,3600.0,821.8,716.1,105.7,884.1,821.8,1076.2,871.0,759.0,112.0,884.1,871.0,1140.7,Tracheophyta; Magnoliopsida; Pinus pinaster Aiton; Eucalyptus L'Hér.
2005,2005-02-09,Aveiro,Arouca,Urrô,Campo do Abade,40.916294,-8.2904033,NC,275.0,2005-02-09T06:00,0.5,88,-1.3,-2.9,0.0,0.0,0.0,0.0,0,1027.3,992.7,0,0,0,0,0.0,0.08,7.2,13.7,90,72,17.6,1.4,4.7,6.8,10.2,0.288,0.301,0.336,0.343,0,0.0,0.0,0.0,0.0,0.0,0.0,0.0,0.0,0.0,0.0,0.0,0.0,0.0,Eucalyptus L'Hér.; Magnoliopsida; Vitis vinifera L.; Pinus pinaster Aiton
2005,2005-06-01,Aveiro,Santa Maria da Feira,Mozelos,MOSELOS - Rua de Vilas,40.99774985,-8.560747557187135,NC,141.0,2005-06-01T17:00,24.6,46,12.3,22.7,0.0,0.0,0.0,0.0,0,1014.1,997.8,0,0,0,0,0.42,1.66,18.7,26.2,337,339,37.8,26.9,21.3,16.7,13.1,0.145,0.214,0.261,0.298,1,3600.0,497.1,416.6,80.5,799.6,497.1,693.0,574.0,481.0,93.0,799.6,574.0,800.2,Tracheophyta; Eucalyptus L'Hér.; Magnoliopsida; Pinus pinaster Aiton
2005,2005-06-17,Aveiro,Anadia,Tamengos,Curia,40.4276531,-8.44000704789682,NC,61.0,2005-06-17T12:00,34.9,28,13.5,37.7,0.0,0.0,0.0,0.0,0,1017.8,1010.9,9,0,0,29,0.72,4.05,4.6,6.6,141,135,22.3,35.4,23.5,19.9,15.1,0.089,0.121,0.181,0.235,1,3600.0,944.6,819.7,124.9,864.9,944.6,1256.0,923.0,801.0,122.0,864.9,923.0,1227.3,Tracheophyta; Eucalyptus L'Hér.; Vitis vinifera L.; Pinus pinaster Aiton
2005,2005-06-10,Aveiro,Santa Maria da Feira,Romariz,Casal do Monte,40.9364698,-8.4476951,NC,263.0,2005-06-10T13:00,26.2,52,15.7,28.3,0.0,0.0,0.0,0.0,0,1012.6,982.7,1,1,0,0,0.63,1.63,13.3,15.8,283,282,31.0,30.4,22.7,18.8,13.4,0.121,0.218,0.308,0.341,1,3600.0,919.4,739.9,179.5,781.5,919.4,1256.4,922.0,742.0,180.0,781.5,922.0,1259.9,Eucalyptus L'Hér.; Tracheophyta; Pinales; Magnoliopsida; Pinus pinaster Aiton
2005,2005-06-02,Aveiro,Aveiro,Eirol,Carcavelos,40.60944885,-8.531584189253898,NC,11.0,2005-06-02T06:00,15.3,90,13.6,15.1,0.0,0.0,0.0,0.0,0,1012.9,1011.6,0,0,0,0,0.02,0.18,9.6,14.8,13,13,12.2,16.1,21.0,18.0,14.0,0.074,0.147,0.193,0.228,1,1066.8,71.9,36.0,36.0,243.0,43.0,196.8,32.0,16.0,16.0,145.2,32.0,87.6,Eucalyptus L'Hér.; Magnoliopsida; Tracheophyta; Vitis vinifera L.
2005,2005-06-05,Aveiro,Oliveira de Azeméis,Vila de Cucujães,Paradela - Fermedo,40.8704631,-8.4977106,NC,159.0,2005-06-05T22:00,20.9,73,15.9,21.5,0.0,0.0,0.0,0.0,0,1017.9,999.3,0,0,0,0,0.03,0.67,10.4,19.5,2,4,23.8,21.6,21.9,17.6,13.5,0.144,0.22,0.292,0.322,0,0.0,0.0,0.0,0.0,0.0,0.0,0.0,0.0,0.0,0.0,0.0,0.0,0.0,Magnoliopsida; Tracheophyta; Pinus pinaster Aiton
2005,2005-06-05,Aveiro,Santa Maria da Feira,Feira,Santo André,40.9318298,-8.5537116,NC,155.0,2005-06-05T16:00,26.9,45,13.9,26.1,0.0,0.0,0.0,0.0,0,1017.5,999.7,0,0,0,0,0.55,1.96,20.3,27.2,337,340,38.9,29.5,21.3,17.4,13.4,0.119,0.163,0.22,0.276,1,3600.0,675.4,580.6,94.8,849.9,675.4,907.7,741.0,637.0,104.0,849.9,741.0,995.9,Eucalyptus L'Hér.; Tracheophyta; Magnoliopsida
2005,2005-06-17,Aveiro,Arouca,Várzea,Casal,40.9252171,-8.3042772,NC,296.0,2005-06-17T16:00,33.3,33,15.1,34.7,0.0,0.0,0.0,0.0,0,1017.1,984.2,8,0,11,6,0.59,3.41,8.7,10.7,308,310,19.8,32.6,23.4,18.5,13.6,0.14,0.209,0.3,0.346,1,3600.0,653.3,538.2,115.1,775.8,653.3,919.2,715.0,589.0,126.0,775.8,715.0,1006.0,Pinus pinaster Aiton; Tracheophyta; Eucalyptus L'Hér.; Magnoliopsida; Vitis vinifera L.
2005,2005-02-05,Aveiro,Espinho,Espinho,Rua General Humberto Delgado,41.0063104,-8.644361922529747,NC,10.0,2005-02-05T15:00,11.4,51,1.7,7.9,0.3,0.3,0.0,0.0,51,1020.2,1019.0,23,4,32,0,0.21,0.66,11.5,13.6,321,323,21.2,12.3,8.2,9.1,12.3,0.239,0.263,0.299,0.306,1,3600.0,369.0,275.6,93.4,639.3,369.0,606.7,407.0,304.0,103.0,639.3,407.0,669.1,Tracheophyta
2005,2005-06-10,Aveiro,Santa Maria da Feira,Romariz,Monte dos Castros,40.9364698,-8.4476951,NC,263.0,2005-06-10T20:00,20.6,70,15.0,21.1,0.0,0.0,0.0,0.0,0,1011.3,980.9,8,0,0,26,0.05,0.72,7.9,11.0,309,311,21.6,24.5,23.8,18.9,13.4,0.119,0.216,0.307,0.34,1,2086.46,0.1,0.0,0.0,0.5,0.1,0.2,48.0,25.0,23.0,201.4,48.0,115.6,Eucalyptus L'Hér.; Tracheophyta; Pinales; Magnoliopsida; Pinus pinaster Aiton
2005,2005-06-06,Aveiro,Vale de Cambra,Cepelos,Merlães,40.824295,-8.358874,NC,516.0,2005-06-06T15:00,30.1,29,9.9,31.0,0.0,0.0,0.0,0.0,0,1016.0,958.9,0,0,0,0,0.67,3.05,7.6,9.5,329,331,17.6,29.0,20.5,16.2,11.6,0.171,0.258,0.337,0.362,1,3600.0,832.3,728.5,103.8,899.7,832.3,1075.5,882.0,772.0,110.0,899.7,882.0,1139.7,Eucalyptus L'Hér.; Magnoliopsida; Pinus pinaster Aiton
2005,2005-06-11,Aveiro,Santa Maria da Feira,Canedo,Costouras,41.017568,-8.4518566,NC,188.0,2005-06-11T02:00,15.5,93,14.3,16.4,0.0,0.0,0.0,0.0,3,1010.6,988.4,86,94,0,4,0.0,0.13,3.3,3.6,311,307,10.8,18.0,22.4,18.9,13.6,0.117,0.161,0.242,0.298,0,0.0,0.0,0.0,0.0,0.0,0.0,0.0,0.0,0.0,0.0,0.0,0.0,0.0,Pinus pinaster Aiton; Tracheophyta; Eucalyptus L'Hér.; Magnoliopsida
2005,2005-06-11,Aveiro,Vale de Cambra,Vila Chã,Cavadas,40.8452507,-8.4147015,NC,286.0,2005-06-11T14:00,24.3,51,13.4,25.1,0.0,0.0,0.0,0.0,1,1009.8,977.3,37,41,0,0,0.59,1.5,14.9,18.7,233,230,34.2,29.9,22.5,19.2,13.5,0.111,0.202,0.292,0.33,1,3600.0,872.9,715.4,157.5,792.0,872.9,1198.4,898.0,736.0,162.0,792.0,898.0,1232.9,Tracheophyta; Magnoliopsida; Eucalyptus L'Hér.
2005,2005-02-08,Aveiro,Santa Maria da Feira,São João de Ver,Albarrada,40.9648675,-8.526477,NC,256.0,2005-02-08T14:00,12.2,52,2.8,10.0,0.0,0.0,0.0,0.0,1,1020.9,990.2,38,30,7,23,0.27,0.68,4.3,5.1,360,4,15.5,10.9,5.3,6.9,10.4,0.289,0.302,0.337,0.343,1,3600.0,532.3,449.7,82.6,854.3,532.3,739.9,554.0,468.0,86.0,854.3,554.0,770.1,Tracheophyta; Eucalyptus L'Hér.; Magnoliopsida
2005,2005-06-26,Aveiro,Santa Maria da Feira,Fiães,Regadio,40.9835425,-8.5177043,NC,171.0,2005-06-26T10:00,23.1,62,15.4,24.7,0.0,0.0,0.0,0.0,1,1017.0,997.2,38,42,0,0,0.43,1.07,6.3,7.5,239,235,18.0,26.5,21.6,20.6,15.2,0.119,0.132,0.207,0.294,1,3600.0,726.5,569.0,157.5,713.6,726.5,1055.5,669.0,524.0,145.0,713.6,669.0,972.0,Pinus pinaster Aiton; Magnoliopsida; Tracheophyta; Eucalyptus L'Hér.
2005,2005-06-05,Aveiro,Albergaria-a-Velha,Albergaria-a-Velha,Albergaria a Velha,40.690328,-8.479538190307041,NC,121.0,2005-06-05T17:00,27.5,45,14.6,26.1,0.0,0.0,0.0,0.0,0,1016.7,1002.8,0,0,0,0,0.47,2.02,21.1,28.1,335,337,42.8,31.0,22.5,18.0,13.7,0.077,0.143,0.205,0.241,1,3600.0,497.4,415.1,82.3,791.5,497.4,696.8,574.0,479.0,95.0,791.5,574.0,804.1,Tracheophyta; Eucalyptus L'Hér.
2005,2005-06-06,Aveiro,Santa Maria da Feira,Rio Meão,Quinta Paradela,40.9702772,-8.5707231900234,NC,143.0,2005-06-06T16:00,30.2,37,14.1,29.8,0.0,0.0,0.0,0.0,0,1016.1,999.9,0,0,0,0,0.61,2.68,18.2,24.0,342,343,31.7,31.6,22.5,17.7,13.5,0.113,0.185,0.249,0.297,1,3600.0,682.8,588.9,93.9,860.6,682.8,909.0,749.0,646.0,103.0,860.6,749.0,997.1,Pinus pinaster Aiton; Tracheophyta; Eucalyptus L'Hér.; Pinales
2005,2005-06-07,Aveiro,Oliveira de Azeméis,Santiago De Riba-ul,Vila Cova Perrinho,40.8431067,-8.468516409995193,NC,223.0,2005-06-07T01:00,20.2,61,12.5,19.7,0.0,0.0,0.0,0.0,0,1015.9,989.9,0,0,0,0,0.04,0.92,8.7,21.4,42,46,25.2,19.9,22.5,17.7,13.2,0.112,0.198,0.271,0.301,0,0.0,0.0,0.0,0.0,0.0,0.0,0.0,0.0,0.0,0.0,0.0,0.0,0.0,Tracheophyta; Pinus pinaster Aiton; Eucalyptus L'Hér.
2005,2005-06-14,Aveiro,Aveiro,Santa Joana,Alagoas,40.6325629,-8.6186883,NC,41.0,2005-06-14T17:00,22.0,58,13.3,20.5,0.0,0.0,0.0,0.0,3,1019.6,1014.8,83,55,37,38,0.34,1.12,17.6,22.2,242,241,30.2,27.5,22.3,20.3,15.4,0.073,0.094,0.151,0.204,1,3600.0,450.2,322.2,128.0,598.7,450.2,713.4,517.0,370.0,147.0,598.7,517.0,819.3,Tracheophyta
2005,2005-06-05,Aveiro,Ovar,São João,Guilhovai,40.8603726,-8.5915315,NC,44.0,2005-06-05T19:00,24.5,61,16.4,23.0,0.0,0.0,0.0,0.0,0,1017.1,1012.0,0,0,0,0,0.21,1.21,24.9,36.6,342,347,41.8,26.4,22.6,18.2,14.2,0.119,0.162,0.22,0.276,1,3600.0,131.2,92.2,39.0,545.9,131.2,224.5,202.0,142.0,60.0,545.9,202.0,345.6,Eucalyptus L'Hér.; Magnoliopsida; Tracheophyta; Pinus pinaster Aiton; Acacia Mill.; 
2005,2005-02-05,Aveiro,Santa Maria da Feira,Fiães,Chouza de Cima,40.9835425,-8.5177043,NC,171.0,2005-02-05T17:00,8.6,68,3.0,5.5,0.0,0.0,0.0,0.0,1,1019.7,998.8,35,6,50,0,0.07,0.36,10.5,15.1,319,320,21.6,9.4,7.4,8.0,11.2,0.254,0.269,0.303,0.309,1,3600.0,66.0,28.7,37.2,189.5,66.0,213.4,101.0,44.0,57.0,189.5,101.0,326.8,Pinus pinaster Aiton; Magnoliopsida; Tracheophyta; Eucalyptus L'Hér.
2005,2005-06-07,Aveiro,Espinho,Anta,Portela Anta,41.007855,-8.6187792,NC,39.0,2005-06-07T16:00,34.4,23,10.1,33.9,0.0,0.0,0.0,0.0,0,1014.7,1010.3,5,0,0,18,0.61,4.21,10.1,13.6,35,50,27.4,33.7,24.3,18.7,14.2,0.107,0.178,0.246,0.296,1,3600.0,642.1,530.8,111.3,774.3,642.1,910.3,704.0,582.0,122.0,774.3,704.0,998.2,Eucalyptus L'Hér.; Tracheophyta; Pinus pinaster Aiton; Magnoliopsida
2005,2005-06-14,Aveiro,Santa Maria da Feira,Sanguedo,Rua do Forno,41.0092747,-8.515097239744568,NC,183.0,2005-06-14T17:00,20.9,57,12.1,19.2,0.0,0.0,0.0,0.0,2,1019.5,998.1,72,57,29,11,0.33,1.06,15.8,20.2,249,248,33.5,25.0,20.6,18.9,14.0,0.16,0.155,0.235,0.298,1,3600.0,433.7,314.4,119.3,586.0,433.7,711.3,498.0,361.0,137.0,586.0,498.0,816.7,Tracheophyta; Eucalyptus L'Hér.; Magnoliopsida
2005,2005-06-07,Aveiro,Santa Maria da Feira,São Paio de Oleiros,Valado,40.984583,-8.5957545,NC,103.0,2005-06-07T22:00,27.0,35,10.0,25.2,0.0,0.0,0.0,0.0,0,1015.9,1004.1,0,0,0,0,0.13,2.33,12.3,24.8,52,62,23.8,25.4,24.5,18.4,13.8,0.106,0.176,0.245,0.296,0,0.0,0.0,0.0,0.0,0.0,0.0,0.0,0.0,0.0,0.0,0.0,0.0,0.0,Eucalyptus L'Hér.; Pinus pinaster Aiton; Tracheophyta; Magnoliopsida
2005,2005-06-07,Aveiro,Oliveira de Azeméis,Ossela,Vermoim,40.8282815,-8.4339702,NC,239.0,2005-06-07T07:00,22.3,43,9.1,18.5,0.0,0.0,0.0,0.0,0,1016.6,989.0,0,0,0,1,0.24,1.54,24.5,41.8,90,87,52.6,21.1,21.9,18.0,13.2,0.114,0.206,0.286,0.317,1,3600.0,255.2,179.7,75.5,534.4,255.2,446.6,186.0,131.0,55.0,534.4,186.0,325.5,Eucalyptus L'Hér.; Tracheophyta; Pinus pinaster Aiton; Magnoliopsida; Vitis vinifera L.
2005,2005-06-14,Aveiro,Mealhada,Casal Comba,Carqueijo,40.3669524,-8.4675807,NC,63.0,2005-06-14T21:00,18.7,79,15.0,19.7,0.0,0.0,0.0,0.0,1,1021.2,1013.7,26,12,0,52,0.0,0.45,4.3,10.4,270,272,21.2,21.0,22.0,19.9,14.8,0.084,0.094,0.142,0.191,0,0.0,0.0,0.0,0.0,0.0,0.0,0.0,0.0,0.0,0.0,0.0,0.0,0.0,Vitis vinifera L.; Tracheophyta; Magnoliopsida; Olea europaea L.
2005,2005-02-07,Aveiro,Aveiro,Requeixo,Taipa,40.5976992,-8.535883,NC,40.0,2005-02-07T14:00,12.1,53,2.8,9.9,0.0,0.0,0.0,0.0,2,1014.7,1009.9,53,25,41,21,0.26,0.66,3.6,4.7,90,90,22.7,12.8,6.9,8.6,11.5,0.155,0.192,0.236,0.243,1,3600.0,514.1,408.4,105.7,775.1,514.1,741.0,535.0,425.0,110.0,775.1,535.0,771.1,Eucalyptus L'Hér.; Magnoliopsida; Tracheophyta; Vitis vinifera L.
2005,2005-06-19,Aveiro,Ovar,São Vicente de Pereira Jusã,SÃO VICENTE DE PEREIRA JUZA,40.8639697,-8.6166571,NC,18.0,2005-06-19T23:00,22.0,87,19.8,24.7,0.0,0.0,0.0,0.0,0,1015.5,1013.4,5,0,5,7,0.0,0.34,7.6,9.2,315,334,15.8,24.1,25.9,20.6,15.6,0.108,0.12,0.186,0.272,0,0.0,0.0,0.0,0.0,0.0,0.0,0.0,0.0,0.0,0.0,0.0,0.0,0.0,Tracheophyta; Magnoliopsida; Eucalyptus L'Hér.
2005,2005-06-09,Aveiro,Murtosa,Bunheiro,BUNHEIRO,40.6472347,-8.73938483729842,NC,0.0,2005-06-09T14:00,27.7,42,13.5,28.6,0.0,0.0,0.0,0.0,0,1016.5,1016.5,0,0,0,0,0.67,2.17,15.6,19.5,289,289,34.2,37.5,26.4,21.0,15.4,0.044,0.112,0.164,0.21,1,3600.0,900.2,783.5,116.7,866.8,900.2,1199.8,926.0,806.0,120.0,866.8,926.0,1234.2,Tracheophyta; Pinus pinaster Aiton; Eucalyptus L'Hér.; Oryza sativa L.; Magnoliopsida; 
2005,2005-06-02,Aveiro,Espinho,Guetim,GUETIM - R.da Picadela,41.0084406,-8.6215403,NC,37.0,2005-06-02T13:00,26.0,52,15.5,26.6,0.0,0.0,0.0,0.0,0,1013.6,1009.3,7,0,0,23,0.65,1.6,22.7,28.6,324,329,41.4,29.0,21.1,17.6,13.8,0.141,0.21,0.259,0.297,1,3600.0,971.9,857.2,114.6,910.3,971.9,1252.3,975.0,860.0,115.0,910.3,975.0,1256.4,Eucalyptus L'Hér.; Tracheophyta; Pinus pinaster Aiton; Magnoliopsida
2005,2005-06-20,Aveiro,Aveiro,Esgueira,TABOEIRA,40.6523699,-8.5901667,NC,24.0,2005-06-20T14:00,27.5,56,17.8,29.1,0.0,0.0,0.0,0.0,0,1015.2,1012.4,1,0,0,3,0.62,1.62,20.3,24.3,307,310,38.2,36.7,25.5,21.1,16.1,0.049,0.086,0.144,0.203,1,3600.0,879.6,744.4,135.3,819.2,879.6,1203.5,904.0,765.0,139.0,819.2,904.0,1236.8,Magnoliopsida; Tracheophyta; Pinus pinaster Aiton; Eucalyptus L'Hér.
2005,2005-02-05,Aveiro,Santa Maria da Feira,Lourosa,Vila Verde,40.9832135,-8.5365083,NC,221.0,2005-02-05T14:00,10.3,51,0.5,7.0,0.0,0.0,0.0,0.0,1,1020.2,993.5,38,37,7,2,0.23,0.62,8.4,10.2,310,309,19.4,11.1,6.4,7.6,10.9,0.251,0.269,0.304,0.309,1,3600.0,474.2,345.6,128.6,674.0,474.2,721.4,494.0,360.0,134.0,674.0,494.0,751.6,Tracheophyta; Pinus pinaster Aiton; Olea europaea L.; Magnoliopsida
2005,2005-06-07,Aveiro,Aveiro,Cacia,Ervideiros,40.6607622,-8.6094382,NC,28.0,2005-06-07T12:00,33.8,23,9.8,34.0,0.0,0.0,0.0,0.0,0,1016.3,1013.1,10,0,0,34,0.79,4.06,12.9,17.9,67,81,35.3,35.2,24.0,19.3,14.6,0.049,0.112,0.164,0.208,1,3600.0,957.4,839.8,117.6,889.4,957.4,1253.9,936.0,821.0,115.0,889.4,936.0,1225.8,Tracheophyta; Eucalyptus L'Hér.; Pinus pinaster Aiton
2005,2005-02-07,Aveiro,Vale de Cambra,Arões,Carvalhal do Chão,40.8305259,-8.2982623,NC,660.0,2005-02-07T18:00,5.5,63,-0.9,2.1,0.0,0.0,0.0,0.0,1,1016.3,937.9,24,21,9,0,0.03,0.33,7.4,11.2,47,57,29.5,5.2,3.7,5.0,8.5,0.309,0.313,0.343,0.355,0,510.4,0.0,0.0,0.0,0.0,0.0,0.0,31.0,11.0,20.0,95.1,31.0,102.7,Magnoliopsida; Eucalyptus L'Hér.; Tracheophyta; Pinus pinaster Aiton
2005,2005-06-11,Aveiro,Vale de Cambra,Macieira de Cambra,Decide,40.8566414,-8.3769951,NC,344.0,2005-06-11T16:00,23.3,54,13.5,23.1,0.0,0.0,0.0,0.0,0,1009.3,970.2,13,14,0,0,0.47,1.31,15.6,20.1,244,243,34.6,28.6,22.2,18.5,12.9,0.118,0.213,0.305,0.34,1,3600.0,661.6,557.5,104.0,809.7,661.6,913.5,725.0,611.0,114.0,809.7,725.0,1001.2,Tracheophyta; Vitis vinifera L.; Eucalyptus L'Hér.; Pinus pinaster Aiton
2005,2005-06-20,Aveiro,Aveiro,Esgueira,Mataducos,40.6603103,-8.6291191,NC,15.0,2005-06-20T20:00,21.5,77,17.2,21.3,0.0,0.0,0.0,0.0,0,1016.5,1014.7,0,0,0,0,0.07,0.59,18.8,26.3,334,338,34.9,26.1,26.1,21.2,16.1,0.049,0.086,0.144,0.203,1,2310.63,6.1,3.3,2.8,37.6,4.6,14.2,56.0,30.0,26.0,231.2,56.0,130.0,Tracheophyta; Pinus pinaster Aiton; Magnoliopsida
2005,2005-06-20,Aveiro,Santa Maria da Feira,Sanguedo,Gaeta,41.0092747,-8.515097239744568,NC,183.0,2005-06-20T22:00,18.9,89,17.1,20.8,0.0,0.0,0.0,0.0,0,1017.9,996.4,3,0,0,9,0.0,0.24,4.6,4.5,321,346,19.1,22.6,24.9,19.9,14.6,0.118,0.14,0.219,0.296,0,0.0,0.0,0.0,0.0,0.0,0.0,0.0,0.0,0.0,0.0,0.0,0.0,0.0,Tracheophyta; Eucalyptus L'Hér.; Magnoliopsida
2005,2005-06-07,Aveiro,Santa Maria da Feira,Rio Meão,Outeiro,40.9702772,-8.5707231900234,NC,143.0,2005-06-07T20:00,28.9,35,12.0,27.7,0.0,0.0,0.0,0.0,0,1015.2,998.9,0,0,0,0,0.15,2.58,12.4,22.4,26,30,26.3,27.9,24.4,18.1,13.6,0.106,0.176,0.245,0.296,1,2020.02,0.0,0.0,0.0,0.0,0.0,0.0,48.0,27.0,21.0,220.2,48.0,111.4,Pinus pinaster Aiton; Tracheophyta; Eucalyptus L'Hér.; Pinales
2005,2005-02-08,Aveiro,Aveiro,Oliveirinha,Quintãs,40.59100735,-8.612515560075536,NC,57.0,2005-02-08T11:00,10.2,64,3.7,8.0,0.0,0.0,0.0,0.0,0,1021.3,1014.3,0,0,0,1,0.19,0.45,5.1,6.9,98,99,20.2,9.2,6.2,8.6,11.4,0.12,0.165,0.211,0.221,1,3600.0,482.8,399.0,83.8,821.9,482.8,682.5,432.0,357.0,75.0,821.9,432.0,610.7,Tracheophyta; Eucalyptus L'Hér.; Magnoliopsida
2005,2005-06-28,Aveiro,Santa Maria da Feira,Escapães,Meia Légua,40.9235118,-8.5030957,NC,274.0,2005-06-28T11:00,20.2,73,15.3,18.2,1.1,1.1,0.0,0.0,55,1016.3,984.5,49,22,35,28,0.31,0.63,25.6,34.6,212,211,50.0,22.8,21.0,20.2,15.0,0.127,0.159,0.239,0.314,1,3600.0,567.2,369.4,197.8,414.4,567.2,1179.7,539.0,351.0,188.0,414.4,539.0,1121.0,Pinus pinaster Aiton; Pinales; Eucalyptus L'Hér.; Tracheophyta
2005,2005-06-08,Aveiro,Santa Maria da Feira,Mosteiró,Calvário,40.9036922,-8.5305294,NC,151.0,2005-06-08T15:00,32.4,34,14.4,34.1,0.0,0.0,0.0,0.0,0,1016.3,999.3,9,0,11,8,0.67,3.23,9.7,11.1,297,299,28.8,34.4,24.8,18.7,13.8,0.123,0.2,0.282,0.321,1,3600.0,797.2,692.3,104.8,851.3,797.2,1079.7,844.0,733.0,111.0,851.3,844.0,1143.1,Pinales; Eucalyptus L'Hér.; Tracheophyta; Pinus pinaster Aiton; Magnoliopsida
2005,2005-06-12,Aveiro,Oliveira de Azeméis,Carregosa,Costeira,40.8874083,-8.4088421,NC,376.0,2005-06-12T12:00,20.5,54,11.0,19.4,0.0,0.0,0.0,0.0,2,1010.1,967.0,74,66,25,0,0.42,1.1,14.2,18.4,240,239,36.0,24.4,20.3,18.3,12.8,0.121,0.212,0.303,0.34,1,3600.0,677.1,364.1,313.0,385.3,677.1,1253.6,662.0,356.0,306.0,385.3,662.0,1225.7,Pinus pinaster Aiton; Magnoliopsida; Eucalyptus L'Hér.; Tracheophyta
2005,2005-06-09,Aveiro,Sever do Vouga,Rocas do Vouga,Póvoa,40.7599485,-8.3439116,NC,384.0,2005-06-09T05:00,17.3,53,7.7,15.2,0.0,0.0,0.0,0.0,0,1016.9,972.2,0,0,0,0,0.05,0.92,10.5,18.7,84,89,29.5,18.0,21.8,17.7,12.4,0.127,0.225,0.313,0.341,0,0.0,0.0,0.0,0.0,0.0,0.0,0.0,0.0,0.0,0.0,0.0,0.0,0.0,Eucalyptus L'Hér.; Tracheophyta
2005,2005-06-02,Aveiro,Espinho,Silvalde,SILVALDE - R.Calvário,40.987077,-8.622739,NC,59.0,2005-06-02T03:00,15.1,91,13.7,15.0,0.0,0.0,0.0,0.0,0,1012.4,1005.4,0,0,0,0,0.0,0.15,9.1,14.7,9,11,13.3,16.6,20.5,17.4,13.7,0.146,0.213,0.26,0.298,0,0.0,0.0,0.0,0.0,0.0,0.0,0.0,0.0,0.0,0.0,0.0,0.0,0.0,Tracheophyta; Eucalyptus L'Hér.; Pinus pinaster Aiton; Acacia Mill.
2005,2005-06-21,Aveiro,Albergaria-a-Velha,Branca,Cristelo,40.7540788,-8.4862112,NC,162.0,2005-06-21T10:00,25.6,56,16.1,28.1,0.0,0.0,0.0,0.0,0,1017.4,998.8,1,0,0,4,0.48,1.46,4.2,4.6,329,342,19.1,28.2,23.3,20.5,15.0,0.098,0.158,0.24,0.295,1,3600.0,767.3,627.3,140.0,783.2,767.3,1060.7,707.0,578.0,129.0,783.2,707.0,977.3,Eucalyptus L'Hér.; Magnoliopsida; Tracheophyta
2005,2005-06-07,Aveiro,Ovar,São João,Alcapedrinha,40.8933845,-8.5844212,NC,81.0,2005-06-07T16:00,34.7,21,9.2,33.9,0.0,0.0,0.0,0.0,0,1014.7,1005.6,5,0,0,18,0.61,4.38,10.1,13.6,35,50,27.4,33.9,24.4,18.5,14.1,0.11,0.149,0.213,0.276,1,3600.0,641.9,530.7,111.2,774.2,641.9,910.3,704.0,582.0,122.0,774.2,704.0,998.3,Eucalyptus L'Hér.; Magnoliopsida; Tracheophyta; Pinus pinaster Aiton; Acacia Mill.; ; Pinales
2005,2005-06-14,Aveiro,Aveiro,Esgueira,Taboeira,40.6523699,-8.5901667,NC,24.0,2005-06-14T21:00,18.9,82,15.8,19.6,0.0,0.0,0.0,0.0,1,1020.7,1017.8,29,14,0,56,0.01,0.38,8.6,13.0,202,214,20.2,20.9,22.2,20.3,15.5,0.078,0.096,0.153,0.205,0,0.0,0.0,0.0,0.0,0.0,0.0,0.0,0.0,0.0,0.0,0.0,0.0,0.0,Magnoliopsida; Tracheophyta; Pinus pinaster Aiton; Eucalyptus L'Hér.
2005,2005-06-30,Aveiro,Santa Maria da Feira,Santa Maria de Lamas,Outeiro,40.9783309,-8.5714356,NC,121.0,2005-06-30T14:00,21.7,65,14.9,21.7,0.0,0.0,0.0,0.0,1,1019.1,1004.9,46,51,0,0,0.45,0.9,18.3,23.2,317,318,37.1,26.7,21.4,20.5,15.9,0.16,0.133,0.205,0.291,1,3600.0,732.4,508.4,224.0,559.9,732.4,1201.6,752.0,522.0,230.0,559.9,752.0,1233.7,Tracheophyta; Eucalyptus L'Hér.; Magnoliopsida; Pinus pinaster Aiton
2005,2005-06-08,Aveiro,Vagos,Covão do Lobo,COVÃO DO LOBO,40.44260370000001,-8.645509724011493,NC,48.0,2005-06-08T02:00,23.1,47,11.2,21.4,0.0,0.0,0.0,0.0,0,1015.2,1009.6,3,0,0,9,0.11,1.49,14.2,27.1,117,107,27.0,24.1,25.9,19.2,14.4,0.062,0.096,0.136,0.184,0,0.0,0.0,0.0,0.0,0.0,0.0,0.0,0.0,0.0,0.0,0.0,0.0,0.0,Pinus pinaster Aiton; Tracheophyta
2005,2005-06-21,Aveiro,Aveiro,Cacia,Ervideiros,40.6607622,-8.6094382,NC,28.0,2005-06-21T11:00,27.1,53,16.8,29.4,0.0,0.0,0.0,0.0,0,1017.6,1014.4,0,0,0,0,0.58,1.68,12.0,13.1,321,328,25.9,33.2,24.0,21.2,16.1,0.049,0.085,0.144,0.203,1,3600.0,882.6,742.7,139.9,830.4,882.6,1184.5,839.0,706.0,133.0,830.4,839.0,1126.0,Tracheophyta; Eucalyptus L'Hér.; Pinus pinaster Aiton
2005,2005-06-15,Aveiro,Santa Maria da Feira,São João de Ver,Lavandeira,40.943422,-8.537466741838003,NC,188.0,2005-06-15T18:00,21.6,63,14.2,21.4,0.0,0.0,0.0,0.0,2,1023.7,1001.7,61,42,0,78,0.24,0.97,10.6,13.4,294,294,27.7,25.5,21.6,19.0,14.3,0.153,0.183,0.267,0.319,1,3600.0,291.6,208.7,83.0,571.9,291.6,483.7,362.0,259.0,103.0,571.9,362.0,600.3,Tracheophyta; Eucalyptus L'Hér.; Magnoliopsida; Pinus pinaster Aiton
2005,2005-06-09,Aveiro,Aveiro,Esgueira,Quinta do Simão,40.65773345,-8.610473470300539,NC,28.0,2005-06-09T18:00,26.5,45,13.6,25.3,0.0,0.0,0.0,0.0,0,1014.9,1011.7,12,0,0,40,0.32,1.9,16.3,20.6,319,324,23.8,31.7,26.3,20.3,14.9,0.049,0.103,0.159,0.207,1,3600.0,280.4,184.3,96.1,515.5,280.4,474.4,350.0,230.0,120.0,515.5,350.0,592.2,Tracheophyta; Eucalyptus L'Hér.; Pinus pinaster Aiton
2005,2005-06-03,Aveiro,Sever do Vouga,Rocas do Vouga,Póvoa,40.7599485,-8.3439116,NC,384.0,2005-06-03T18:00,19.5,68,13.4,18.2,0.0,0.0,0.0,0.0,0,1016.7,972.3,17,0,0,56,0.23,0.73,16.6,22.5,318,320,42.5,22.9,19.9,16.1,11.9,0.173,0.258,0.331,0.344,1,3600.0,300.1,235.8,64.3,685.5,300.1,457.3,378.0,297.0,81.0,685.5,378.0,576.0,Eucalyptus L'Hér.; Tracheophyta
2005,2005-06-16,Aveiro,Águeda,Segadães,Fontinha,40.5941892,-8.4596416,NC,84.0,2005-06-16T14:00,29.0,46,16.0,31.3,0.0,0.0,0.0,0.0,0,1021.0,1011.4,0,0,0,0,0.68,2.18,12.6,15.4,340,344,35.3,33.5,22.3,19.5,14.9,0.075,0.101,0.166,0.222,1,3600.0,905.3,787.7,117.7,868.4,905.3,1202.1,931.0,810.0,121.0,868.4,931.0,1236.2,Eucalyptus L'Hér.; Tracheophyta; Pinus pinaster Aiton
2005,2005-06-10,Aveiro,Vale de Cambra,Vila Cova de Perrinho,VILA COVA DE PERRINHO,40.88818835,-8.389790117710223,NC,462.0,2005-06-10T18:00,23.5,58,14.8,23.7,0.0,0.0,0.0,0.0,0,1011.3,959.2,0,0,0,0,0.26,1.21,9.7,12.4,297,296,22.7,27.1,22.9,17.9,12.4,0.136,0.233,0.322,0.36,1,3600.0,301.8,231.4,70.5,651.0,301.8,471.6,377.0,289.0,88.0,651.0,377.0,589.1,Eucalyptus L'Hér.; Pinus pinaster Aiton; Tracheophyta
2005,2005-06-01,Aveiro,Castelo de Paiva,Real,REAL - Vale da Mata,41.0338464,-8.2910799,NC,173.0,2005-06-01T17:00,25.5,43,12.1,23.8,0.0,0.0,0.0,0.0,0,1014.1,994.3,0,0,0,0,0.44,1.85,17.0,24.3,328,331,33.5,25.9,20.6,16.3,12.4,0.201,0.265,0.325,0.333,1,3600.0,498.3,418.7,79.6,808.2,498.3,689.2,576.0,484.0,92.0,808.2,576.0,796.6,Eucalyptus L'Hér.; Vitis vinifera L.; Pinus pinaster Aiton; Tracheophyta; Magnoliopsida
2005,2005-06-12,Aveiro,Santa Maria da Feira,Sanguedo,Gaeta,41.0092747,-8.515097239744568,NC,183.0,2005-06-12T13:00,21.5,55,12.2,20.5,0.1,0.1,0.0,0.0,51,1010.0,988.8,53,41,27,0,0.46,1.14,17.6,22.2,242,243,36.4,26.3,21.2,19.1,13.8,0.119,0.157,0.238,0.298,1,3600.0,726.1,448.8,277.3,473.8,726.1,1256.5,728.0,450.0,278.0,473.8,728.0,1259.8,Tracheophyta; Eucalyptus L'Hér.; Magnoliopsida
2005,2005-06-30,Aveiro,Santa Maria da Feira,Canedo,Sousanil,41.0181327,-8.4471354,NC,152.0,2005-06-30T18:00,20.7,67,14.3,19.1,0.0,0.0,0.0,0.0,0,1019.7,1001.9,9,10,0,0,0.24,0.81,20.3,27.0,327,329,40.7,24.8,22.0,20.5,15.8,0.162,0.171,0.258,0.326,1,3600.0,304.9,220.8,84.1,595.0,304.9,490.9,377.0,273.0,104.0,595.0,377.0,607.1,Pinus pinaster Aiton; Eucalyptus L'Hér.; Tracheophyta; Magnoliopsida
2005,2005-06-08,Aveiro,Espinho,Guetim,GUETIM,41.01698745,-8.604875022597696,NC,93.0,2005-06-08T17:00,27.2,47,14.9,26.3,0.0,0.0,0.0,0.0,0,1015.8,1005.1,17,0,25,8,0.39,1.91,16.8,23.1,318,321,38.5,32.3,25.5,18.8,14.0,0.101,0.171,0.243,0.296,1,3600.0,397.2,309.4,87.8,582.8,397.2,704.9,457.0,356.0,101.0,582.8,457.0,811.0,Eucalyptus L'Hér.; Tracheophyta; Magnoliopsida
2005,2005-06-03,Aveiro,Espinho,Anta,ANTA - R. do Carvalhal,41.007855,-8.6187792,NC,39.0,2005-06-03T03:00,14.4,95,13.6,12.1,0.0,0.0,0.0,0.0,3,1015.6,1010.9,99,83,0,82,0.0,0.08,23.7,30.7,343,344,31.7,16.9,20.5,17.8,13.9,0.138,0.207,0.258,0.297,0,0.0,0.0,0.0,0.0,0.0,0.0,0.0,0.0,0.0,0.0,0.0,0.0,0.0,Eucalyptus L'Hér.; Tracheophyta; Pinus pinaster Aiton; Magnoliopsida
2005,2005-02-07,Aveiro,Vale de Cambra,Arões,Carvalhal do Chão,40.8305259,-8.2982623,NC,660.0,2005-02-07T13:00,6.9,66,1.1,3.5,0.1,0.1,0.0,0.0,51,1016.1,938.1,34,19,23,9,0.2,0.34,10.2,13.0,82,84,33.8,5.2,2.5,5.0,8.6,0.31,0.314,0.343,0.355,1,3600.0,494.5,324.7,169.9,581.7,494.5,784.8,492.0,323.0,169.0,581.7,492.0,780.8,Magnoliopsida; Eucalyptus L'Hér.; Tracheophyta; Pinus pinaster Aiton
2005,2005-06-12,Aveiro,Espinho,Paramos,Rua 32,40.9759416,-8.6385737,NC,4.0,2005-06-12T17:00,21.1,62,13.5,20.2,0.0,0.0,0.0,0.0,2,1009.9,1009.4,78,75,7,22,0.3,0.95,13.6,17.3,258,258,28.1,26.7,23.0,20.2,15.0,0.103,0.159,0.234,0.295,1,3600.0,403.9,262.9,141.0,490.8,403.9,710.4,464.0,302.0,162.0,490.8,464.0,816.1,Tracheophyta; Magnoliopsida
2005,2005-06-21,Aveiro,Ovar,Esmoriz,R. Desportiva,40.9602526,-8.6228198,NC,51.0,2005-06-21T17:00,27.4,58,18.3,27.5,0.0,0.0,0.0,0.0,0,1015.4,1009.5,0,0,0,0,0.44,1.55,21.9,28.4,335,340,34.6,33.7,25.8,20.8,15.5,0.096,0.141,0.217,0.293,1,3600.0,518.4,431.2,87.3,794.0,518.4,719.1,594.0,494.0,100.0,794.0,594.0,823.9,Tracheophyta; Eucalyptus L'Hér.
2005,2005-06-08,Aveiro,Arouca,Rossas,Zendo,40.8940749,-8.317524,NC,608.0,2005-06-08T21:00,22.9,68,16.8,24.6,0.0,0.0,0.0,0.0,0,1016.5,948.1,8,0,12,3,0.01,0.89,5.2,7.6,16,25,14.4,22.7,22.3,16.4,11.2,0.146,0.242,0.328,0.361,0,0.0,0.0,0.0,0.0,0.0,0.0,0.0,0.0,0.0,0.0,0.0,0.0,0.0,Pinus pinaster Aiton; Quercus L.; Tracheophyta; Castanea sativa Mill.; Eucalyptus L'Hér.; Magnoliopsida
2005,2005-06-09,Aveiro,Aveiro,Cacia,Ervideiros,40.6607622,-8.6094382,NC,28.0,2005-06-09T10:00,27.9,37,11.9,27.6,0.0,0.0,0.0,0.0,0,1017.3,1014.1,0,0,0,0,0.54,2.36,12.5,15.0,224,215,27.0,31.0,24.5,20.2,14.8,0.049,0.105,0.16,0.207,1,3600.0,772.6,658.6,113.9,822.3,772.6,1063.1,712.0,607.0,105.0,822.3,712.0,979.8,Tracheophyta; Eucalyptus L'Hér.; Pinus pinaster Aiton
2005,2005-06-04,Aveiro,Oliveira de Azeméis,Macieira de Sarnes,MACIEIRA DE SARNES - Maninhos,40.905214,-8.4654957,NC,238.0,2005-06-04T16:00,24.4,47,12.2,22.7,0.0,0.0,0.0,0.0,0,1017.6,990.2,9,0,0,31,0.51,1.63,22.4,29.8,334,337,40.3,26.6,20.1,16.9,12.9,0.153,0.228,0.296,0.322,1,3600.0,670.3,573.8,96.5,842.9,670.3,904.6,736.0,630.0,106.0,842.9,736.0,993.3,Magnoliopsida; Eucalyptus L'Hér.; Pinus pinaster Aiton; Tracheophyta; Pinales
2005,2005-06-09,Aveiro,Águeda,Castanheira do Vouga,Talhada,40.54088125,-8.315119898213013,NC,157.0,2005-06-09T13:00,29.2,41,14.4,31.3,0.0,0.0,0.0,0.0,0,1016.0,998.2,0,0,0,0,0.71,2.4,11.2,13.0,276,275,34.2,33.1,24.5,19.4,13.7,0.104,0.184,0.264,0.307,1,3600.0,950.1,829.5,120.6,874.6,950.1,1258.9,953.0,832.0,121.0,874.6,953.0,1262.7,Magnoliopsida; Eucalyptus L'Hér.
2005,2005-06-05,Aveiro,Oliveira de Azeméis,Ossela,São Martinho,40.8499759,-8.4342465,NC,252.0,2005-06-05T14:00,29.5,33,11.8,29.9,0.0,0.0,0.0,0.0,0,1017.6,989.1,3,0,0,11,0.74,2.76,15.9,19.8,342,344,33.1,29.9,20.9,17.5,13.1,0.143,0.234,0.312,0.333,1,3600.0,926.6,813.9,112.7,905.5,926.6,1194.4,954.0,838.0,116.0,905.5,954.0,1229.7,Eucalyptus L'Hér.; Magnoliopsida; Tracheophyta; Pinus pinaster Aiton
2005,2005-06-05,Aveiro,Santa Maria da Feira,Mozelos,Rua de Vilas - Moselos,40.99774985,-8.560747557187135,NC,141.0,2005-06-05T16:00,26.4,50,15.0,26.0,0.0,0.0,0.0,0.0,0,1017.5,1001.3,0,0,0,0,0.53,1.73,20.3,27.2,337,340,38.9,29.4,21.4,17.4,13.4,0.12,0.191,0.252,0.297,1,3600.0,675.4,580.6,94.8,849.9,675.4,907.7,741.0,637.0,104.0,849.9,741.0,995.8,Tracheophyta; Eucalyptus L'Hér.; Magnoliopsida; Pinus pinaster Aiton
2005,2005-06-09,Aveiro,Santa Maria da Feira,Romariz,Mouquim,40.9323884,-8.4623543,NC,274.0,2005-06-09T15:00,25.8,47,13.6,25.8,0.0,0.0,0.0,0.0,0,1016.0,984.8,0,0,0,0,0.54,1.75,15.0,18.4,294,296,34.6,30.5,23.6,18.3,13.1,0.12,0.196,0.279,0.32,1,3600.0,707.4,590.3,117.1,726.0,707.4,1079.2,749.0,625.0,124.0,726.0,749.0,1142.7,Tracheophyta; Eucalyptus L'Hér.; Pinales
2005,2005-06-06,Aveiro,Albergaria-a-Velha,São João de Loure,SÃO JOÃO DE LOURE,40.6305869,-8.54164006194918,NC,35.0,2005-06-06T10:00,28.5,35,11.6,28.1,0.0,0.0,0.0,0.0,0,1017.0,1013.0,0,0,0,0,0.57,2.52,13.4,16.3,354,6,27.4,28.9,21.7,18.6,14.2,0.066,0.128,0.185,0.227,1,3600.0,795.1,681.2,113.9,849.9,795.1,1064.8,733.0,628.0,105.0,849.9,733.0,981.6,Eucalyptus L'Hér.; Magnoliopsida; Tracheophyta; Pinus pinaster Aiton; Acacia Mill.; 
2005,2005-06-12,Aveiro,Oliveira de Azeméis,Carregosa,Costeira,40.8874083,-8.4088421,NC,376.0,2005-06-12T19:00,17.6,75,13.2,17.0,0.0,0.0,0.0,0.0,2,1010.1,966.6,56,55,10,0,0.1,0.5,11.2,15.2,272,274,32.0,21.9,21.0,18.4,12.9,0.125,0.211,0.302,0.34,1,3600.0,103.3,54.3,49.0,304.9,103.3,236.3,156.0,82.0,74.0,304.9,156.0,356.7,Pinus pinaster Aiton; Magnoliopsida; Eucalyptus L'Hér.; Tracheophyta
2005,2005-06-06,Aveiro,São João da Madeira,São João da Madeira,Costa - Cucujães,40.897404,-8.490683816868543,NC,222.0,2005-06-06T17:00,29.8,37,13.4,28.5,0.0,0.0,0.0,0.0,0,1015.7,990.6,0,0,0,0,0.51,2.65,17.4,24.4,342,344,33.8,29.8,22.5,17.4,13.1,0.137,0.213,0.289,0.322,1,3600.0,505.8,424.2,81.5,805.8,505.8,699.3,583.0,489.0,94.0,805.8,583.0,806.0,Tracheophyta
2005,2005-06-06,Aveiro,Estarreja,Beduído,Santiais,40.77887295,-8.542015290694803,NC,67.0,2005-06-06T18:00,28.9,45,15.9,27.6,0.0,0.0,0.0,0.0,0,1015.1,1007.4,0,0,0,0,0.39,2.18,23.2,33.3,341,347,44.3,30.1,23.6,18.3,14.1,0.114,0.156,0.216,0.276,1,3600.0,317.1,252.4,64.7,716.4,317.1,467.9,397.0,316.0,81.0,716.4,397.0,585.9,Pinus pinaster Aiton; Tracheophyta; Magnoliopsida; Eucalyptus L'Hér.
2005,2005-06-17,Aveiro,Aveiro,Nariz,NARIZ,40.55050205,-8.589731402306981,NC,43.0,2005-06-17T02:00,19.4,93,18.3,21.5,0.0,0.0,0.0,0.0,0,1018.6,1013.5,0,0,0,0,0.0,0.16,6.3,12.5,59,41,10.8,19.6,23.4,20.3,15.6,0.054,0.091,0.149,0.203,0,0.0,0.0,0.0,0.0,0.0,0.0,0.0,0.0,0.0,0.0,0.0,0.0,0.0,Eucalyptus L'Hér.; Magnoliopsida; Pinus pinaster Aiton; Tracheophyta
2005,2005-06-09,Aveiro,Oliveira de Azeméis,Cesar,Vilarinho,40.9123659,-8.4330609,NC,343.0,2005-06-09T15:00,26.0,49,14.4,26.5,0.0,0.0,0.0,0.0,0,1015.6,976.7,0,0,0,0,0.53,1.73,13.0,16.3,289,292,39.2,30.2,23.2,18.1,12.8,0.122,0.221,0.311,0.341,1,3600.0,689.4,587.4,102.0,722.3,689.4,1079.4,730.0,622.0,108.0,722.3,730.0,1142.9,Tracheophyta; Pinus pinaster Aiton; Magnoliopsida
2005,2005-02-05,Aveiro,Albergaria-a-Velha,Valmaior,VALMAIOR,40.690328,-8.479538190307041,NC,121.0,2005-02-05T19:00,7.6,76,3.6,5.1,0.2,0.2,0.0,0.0,51,1019.5,1004.6,56,18,67,0,0.0,0.25,6.9,13.5,317,326,14.8,8.1,8.2,8.4,11.3,0.168,0.21,0.253,0.256,0,0.0,0.0,0.0,0.0,0.0,0.0,0.0,0.0,0.0,0.0,0.0,0.0,0.0,Tracheophyta; Eucalyptus L'Hér.
2005,2005-06-15,Aveiro,Oliveira de Azeméis,Carregosa,Costeira,40.8874083,-8.4088421,NC,376.0,2005-06-15T22:00,16.7,87,14.5,17.3,0.0,0.0,0.0,0.0,1,1025.0,980.7,21,5,0,54,0.0,0.25,6.2,10.1,339,343,16.9,19.0,20.3,18.0,13.2,0.164,0.208,0.297,0.339,0,0.0,0.0,0.0,0.0,0.0,0.0,0.0,0.0,0.0,0.0,0.0,0.0,0.0,Pinus pinaster Aiton; Magnoliopsida; Eucalyptus L'Hér.; Tracheophyta
2005,2005-06-07,Aveiro,Santa Maria da Feira,Escapães,Nadais,40.9235118,-8.5030957,NC,274.0,2005-06-07T21:00,27.1,32,9.2,25.1,0.0,0.0,0.0,0.0,0,1015.7,984.6,0,0,0,0,0.14,2.43,12.5,23.5,46,49,27.0,25.3,23.7,17.6,12.9,0.128,0.205,0.285,0.321,0,0.0,0.0,0.0,0.0,0.0,0.0,0.0,0.0,0.0,0.0,0.0,0.0,0.0,Pinus pinaster Aiton; Pinales; Eucalyptus L'Hér.; Tracheophyta
2005,2005-06-16,Aveiro,Oliveira de Azeméis,Carregosa,Costeira,40.8874083,-8.4088421,NC,376.0,2005-06-16T16:00,26.9,53,16.5,28.9,0.0,0.0,0.0,0.0,0,1020.4,977.8,0,0,0,0,0.51,1.66,9.0,11.3,337,343,28.1,28.8,21.3,18.0,13.3,0.151,0.206,0.295,0.339,1,3600.0,660.5,552.7,107.8,797.5,660.5,918.4,723.0,605.0,118.0,797.5,723.0,1005.4,Pinus pinaster Aiton; Magnoliopsida; Eucalyptus L'Hér.; Tracheophyta
2005,2005-06-03,Aveiro,Santa Maria da Feira,Rio Meão,RIO MEÃO - Qta Paradinha,40.9702772,-8.5707231900234,NC,143.0,2005-06-03T11:00,20.2,54,10.6,19.8,0.0,0.0,0.0,0.0,1,1017.8,1001.0,28,1,0,91,0.49,1.09,14.2,17.4,324,326,34.9,23.4,19.2,17.1,13.2,0.137,0.206,0.258,0.297,1,3600.0,882.6,729.2,153.4,817.7,882.6,1185.5,840.0,694.0,146.0,817.7,840.0,1128.3,Pinus pinaster Aiton; Tracheophyta; Eucalyptus L'Hér.; Pinales
2005,2005-06-09,Aveiro,Castelo de Paiva,Sobrado,Felgueiras,41.0399396,-8.2542468,NC,358.0,2005-06-09T16:00,25.8,51,14.8,25.9,0.0,0.0,0.0,0.0,0,1015.4,974.9,1,0,0,2,0.47,1.63,13.8,17.7,298,299,33.1,29.4,23.0,17.7,12.3,0.128,0.229,0.319,0.349,1,3600.0,585.2,393.8,191.4,575.7,585.2,908.0,642.0,432.0,210.0,575.7,642.0,996.1,Pinus pinaster Aiton; Eucalyptus L'Hér.; Tracheophyta; Vitis vinifera L.; Magnoliopsida
2005,2005-06-16,Aveiro,Aveiro,Esgueira,TABOEIRA,40.6523699,-8.5901667,NC,24.0,2005-06-16T18:00,25.5,62,17.6,24.5,0.0,0.0,0.0,0.0,0,1020.6,1017.8,0,0,0,0,0.31,1.25,25.5,35.1,338,343,44.3,30.1,24.0,20.2,15.7,0.059,0.093,0.151,0.205,1,3600.0,309.8,239.0,70.8,656.2,309.8,482.8,385.0,297.0,88.0,656.2,385.0,599.9,Magnoliopsida; Tracheophyta; Pinus pinaster Aiton; Eucalyptus L'Hér.
2005,2005-06-17,Aveiro,Santa Maria da Feira,Vila Maior,VILA MAIOR,41.010273,-8.487896654288974,NC,174.0,2005-06-17T08:00,25.5,48,13.6,24.2,0.0,0.0,0.0,0.0,0,1019.2,999.2,0,0,0,0,0.31,1.71,16.9,24.5,92,93,33.8,22.8,21.4,18.9,14.3,0.139,0.15,0.23,0.297,1,3600.0,439.6,344.4,95.1,672.7,439.6,678.5,365.0,286.0,79.0,672.7,365.0,563.4,Pinus pinaster Aiton; Eucalyptus L'Hér.; Magnoliopsida
2005,2005-06-17,Aveiro,Oliveira de Azeméis,Carregosa,CARREGOSA,40.8830213,-8.4137621,NC,344.0,2005-06-17T14:00,33.6,29,13.3,37.2,0.0,0.0,0.0,0.0,0,1017.7,979.6,14,0,19,9,0.7,3.67,0.8,1.5,63,76,15.8,32.9,22.6,18.3,13.5,0.139,0.203,0.292,0.338,1,3600.0,913.3,800.5,112.8,883.2,913.3,1201.0,939.0,823.0,116.0,883.2,939.0,1234.7,Eucalyptus L'Hér.; Pinus pinaster Aiton; Magnoliopsida; Tracheophyta
2005,2005-06-17,Aveiro,Santa Maria da Feira,Feira,Remolha,40.93811665,-8.567960045030711,NC,105.0,2005-06-17T15:00,33.8,31,14.4,35.5,0.0,0.0,0.0,0.0,0,1017.0,1005.2,14,0,12,23,0.7,3.62,10.2,12.5,309,311,18.0,35.9,24.3,19.5,14.8,0.116,0.123,0.191,0.273,1,3600.0,805.0,698.1,106.9,851.5,805.0,1086.4,851.0,738.0,113.0,851.5,851.0,1148.5,Eucalyptus L'Hér.; Tracheophyta; Magnoliopsida
2005,2005-07-01,Aveiro,Oliveira de Azeméis,Carregosa,CARREGOSA,40.8830213,-8.4137621,NC,344.0,2005-07-01T13:00,25.8,45,12.9,28.3,0.0,0.0,0.0,0.0,0,1019.8,980.6,0,0,0,0,0.66,1.84,6.9,8.3,6,18,24.1,27.9,20.2,19.5,15.0,0.143,0.175,0.264,0.332,1,3600.0,958.1,838.2,119.9,883.4,958.1,1255.4,959.0,839.0,120.0,883.4,959.0,1256.6,Eucalyptus L'Hér.; Pinus pinaster Aiton; Magnoliopsida; Tracheophyta
2005,2005-06-08,Aveiro,Vale de Cambra,São Pedro de Castelões,Decide,40.8321421,-8.392403,NC,202.0,2005-06-08T02:00,25.0,25,3.6,20.9,0.0,0.0,0.0,0.0,0,1016.0,992.8,1,0,0,3,0.19,2.37,17.3,35.3,88,89,32.0,23.0,23.6,18.1,13.4,0.127,0.205,0.284,0.321,0,0.0,0.0,0.0,0.0,0.0,0.0,0.0,0.0,0.0,0.0,0.0,0.0,0.0,Tracheophyta; Magnoliopsida
2005,2005-02-08,Aveiro,Arouca,Albergaria da Serra,SÃO PEDRO VELHO,40.8685183,-8.2752777,NC,948.0,2005-02-08T08:00,-4.6,94,-5.4,-8.5,0.0,0.0,0.0,0.0,0,1020.8,906.1,0,0,0,0,0.01,0.03,7.2,15.9,90,86,21.6,-2.1,0.2,3.0,6.6,0.313,0.314,0.343,0.355,1,0.0,13.1,5.2,7.8,60.0,4.5,84.9,5.0,2.0,3.0,30.1,5.0,32.5,Magnoliopsida; Quercus L.; Eucalyptus L'Hér.; Tracheophyta
2005,2005-06-09,Aveiro,Santa Maria da Feira,Canedo,Sousamil,41.017568,-8.4518566,NC,188.0,2005-06-09T23:00,20.2,71,14.7,21.3,0.0,0.0,0.0,0.0,0,1015.2,993.3,4,0,0,12,0.0,0.7,3.7,5.4,331,360,11.5,21.3,23.8,18.7,13.5,0.118,0.165,0.244,0.299,0,0.0,0.0,0.0,0.0,0.0,0.0,0.0,0.0,0.0,0.0,0.0,0.0,0.0,Pinus pinaster Aiton; Tracheophyta; Eucalyptus L'Hér.; Magnoliopsida
2005,2005-06-18,Aveiro,Oliveira de Azeméis,Carregosa,Costeira,40.8874083,-8.4088421,NC,376.0,2005-06-18T08:00,23.2,66,16.5,25.1,0.0,0.0,0.0,0.0,0,1018.5,975.5,0,0,0,0,0.21,0.97,2.4,2.9,333,353,11.2,23.2,21.9,18.4,13.4,0.135,0.201,0.291,0.338,1,3600.0,392.8,279.5,113.3,546.3,392.8,678.0,326.0,232.0,94.0,546.3,326.0,562.7,Pinus pinaster Aiton; Magnoliopsida; Eucalyptus L'Hér.; Tracheophyta
2005,2005-02-09,Aveiro,Anadia,Arcos,Avenida Laranjeiras,40.4447398,-8.4350994,NC,37.0,2005-02-09T14:00,16.2,42,3.3,14.0,0.0,0.0,0.0,0.0,0,1028.4,1023.9,4,4,0,0,0.32,1.07,5.6,7.1,63,66,23.4,14.7,8.2,8.8,11.7,0.178,0.212,0.254,0.254,1,3600.0,558.6,477.8,80.8,888.3,558.6,756.0,581.0,497.0,84.0,888.3,581.0,786.3,Tracheophyta; Vitis vinifera L.; Magnoliopsida
2005,2005-06-18,Aveiro,Espinho,Paramos,Paramos,40.9756945,-8.6369061,NC,7.0,2005-06-18T16:00,27.0,58,18.2,27.1,0.0,0.0,0.0,0.0,1,1017.1,1016.3,29,0,2,93,0.49,1.49,24.3,30.3,331,335,39.6,32.9,25.5,20.4,15.5,0.107,0.148,0.224,0.294,1,3600.0,625.3,441.6,183.8,634.8,625.3,921.6,684.0,483.0,201.0,634.8,684.0,1008.0,Tracheophyta; Magnoliopsida
2005,2005-06-08,Aveiro,Santa Maria da Feira,Mosteiró,Calvário,40.9036922,-8.5305294,NC,151.0,2005-06-08T05:00,20.2,54,10.5,18.1,0.0,0.0,0.0,0.0,0,1017.0,999.3,2,0,0,8,0.09,1.09,15.3,30.7,98,99,23.4,20.9,23.4,18.5,13.8,0.128,0.205,0.284,0.321,0,0.0,0.0,0.0,0.0,0.0,0.0,0.0,0.0,0.0,0.0,0.0,0.0,0.0,Pinales; Eucalyptus L'Hér.; Tracheophyta; Pinus pinaster Aiton; Magnoliopsida
2005,2005-06-18,Aveiro,Santa Maria da Feira,Feira,Remolha,40.93811665,-8.567960045030711,NC,105.0,2005-06-18T16:00,27.1,53,16.8,27.6,0.0,0.0,0.0,0.0,1,1016.9,1004.8,34,1,11,87,0.49,1.67,16.8,21.4,315,318,30.2,32.5,25.0,19.8,14.9,0.111,0.121,0.188,0.272,1,3600.0,614.4,424.2,190.2,609.8,614.4,921.6,672.0,464.0,208.0,609.8,672.0,1008.0,Eucalyptus L'Hér.; Tracheophyta; Magnoliopsida
2005,2005-06-10,Aveiro,Arouca,São Miguel do Mato,Cavaco - Fermedo,40.9652253,-8.397602,NC,363.0,2005-06-10T23:00,16.8,85,14.2,17.6,0.0,0.0,0.0,0.0,0,1011.4,969.2,17,1,0,54,0.0,0.29,3.7,5.0,281,291,9.4,20.1,22.6,18.3,12.8,0.12,0.216,0.307,0.34,0,0.0,0.0,0.0,0.0,0.0,0.0,0.0,0.0,0.0,0.0,0.0,0.0,0.0,Eucalyptus L'Hér.; Pinus pinaster Aiton; Magnoliopsida; Tracheophyta
2005,2005-06-12,Aveiro,Santa Maria da Feira,Rio Meão,Casais de Baixo,40.9702772,-8.5707231900234,NC,143.0,2005-06-12T17:00,20.2,62,12.6,18.8,0.0,0.0,0.0,0.0,2,1009.9,993.2,62,45,32,9,0.27,0.9,14.6,18.9,260,261,34.2,25.8,22.1,19.3,14.1,0.103,0.159,0.234,0.295,1,3600.0,364.7,221.1,143.6,412.8,364.7,710.4,419.0,254.0,165.0,412.8,419.0,816.1,Pinus pinaster Aiton; Tracheophyta; Eucalyptus L'Hér.; Pinales
2005,2005-06-08,Aveiro,Santa Maria da Feira,Rio Meão,Quinta da Paradinha,40.9702772,-8.5707231900234,NC,143.0,2005-06-08T17:00,26.9,47,14.6,26.0,0.0,0.0,0.0,0.0,1,1016.1,999.7,27,0,28,35,0.38,1.88,16.2,22.0,323,325,41.8,32.0,25.2,18.5,13.7,0.101,0.171,0.243,0.296,1,3600.0,395.4,312.8,82.6,589.4,395.4,704.6,455.0,360.0,95.0,589.4,455.0,810.9,Pinus pinaster Aiton; Tracheophyta; Eucalyptus L'Hér.; Pinales
2005,2005-06-03,Aveiro,Oliveira de Azeméis,Carregosa,CARREGOSA - Perrinho,40.8832957,-8.4150805,NC,340.0,2005-06-03T13:00,22.1,50,11.0,22.8,0.0,0.0,0.0,0.0,1,1016.8,977.7,26,0,0,87,0.6,1.34,12.6,15.9,307,309,31.7,24.8,19.2,16.4,12.2,0.178,0.26,0.332,0.344,1,3600.0,958.7,791.3,167.4,839.2,958.7,1253.6,962.0,794.0,168.0,839.2,962.0,1257.9,Eucalyptus L'Hér.; Tracheophyta; Magnoliopsida; Pinus pinaster Aiton
2005,2005-06-18,Aveiro,Ovar,Maceda,MACEDA,40.9269413,-8.6167846,NC,31.0,2005-06-18T19:00,23.8,72,18.5,23.6,0.0,0.0,0.0,0.0,1,1016.8,1013.2,28,0,0,93,0.15,0.82,22.1,30.2,338,343,40.3,28.3,25.8,20.3,15.4,0.111,0.121,0.188,0.272,1,3600.0,107.1,39.1,68.0,209.2,107.1,247.4,159.0,58.0,101.0,209.2,159.0,367.4,Tracheophyta; Magnoliopsida; Eucalyptus L'Hér.
2005,2005-06-04,Aveiro,Espinho,Anta,ANTA - R. de Belmonte,41.007855,-8.6187792,NC,39.0,2005-06-04T15:00,25.2,46,12.8,22.9,0.0,0.0,0.0,0.0,0,1017.9,1013.4,1,0,0,2,0.6,1.74,31.0,40.7,337,340,47.2,28.5,20.8,17.9,14.0,0.127,0.198,0.255,0.297,1,3600.0,818.4,710.8,107.6,878.6,818.4,1075.2,867.0,753.0,114.0,878.6,867.0,1139.1,Eucalyptus L'Hér.; Tracheophyta; Pinus pinaster Aiton; Magnoliopsida
2005,2005-07-01,Aveiro,Santa Maria da Feira,Escapães,Nadais,40.9235118,-8.5030957,NC,274.0,2005-07-01T15:00,25.9,45,13.0,25.4,0.0,0.0,0.0,0.0,0,1019.0,987.7,0,0,0,0,0.6,1.84,20.5,26.2,338,342,41.0,28.9,21.1,19.7,15.2,0.145,0.157,0.235,0.313,1,3600.0,810.5,703.5,107.0,855.8,810.5,1087.6,856.0,743.0,113.0,855.8,856.0,1148.7,Pinus pinaster Aiton; Pinales; Eucalyptus L'Hér.; Tracheophyta
2005,2005-06-18,Aveiro,Oliveira de Azeméis,Cesar,Vilarinho,40.9123659,-8.4330609,NC,343.0,2005-06-18T22:00,20.9,86,18.6,23.7,0.0,0.0,0.0,0.0,1,1017.8,978.2,30,0,3,93,0.0,0.34,2.5,4.6,225,225,8.3,23.3,24.1,18.9,13.7,0.127,0.198,0.289,0.337,0,0.0,0.0,0.0,0.0,0.0,0.0,0.0,0.0,0.0,0.0,0.0,0.0,0.0,Tracheophyta; Pinus pinaster Aiton; Magnoliopsida
2005,2005-06-13,Aveiro,Aveiro,Santa Joana,Griné,40.6325629,-8.6186883,NC,41.0,2005-06-13T19:00,19.0,76,14.6,18.2,0.1,0.1,0.0,0.0,51,1012.8,1008.0,20,17,8,0,0.12,0.54,16.3,21.4,276,278,30.2,23.0,22.3,20.5,15.3,0.07,0.095,0.152,0.204,1,3600.0,116.2,73.7,42.5,409.2,116.2,238.9,175.0,111.0,64.0,409.2,175.0,359.7,Tracheophyta
2005,2005-06-19,Aveiro,Santa Maria da Feira,Sanguedo,Gaeta,41.0092747,-8.515097239744568,NC,183.0,2005-06-19T11:00,28.0,54,17.8,30.6,0.0,0.0,0.0,0.0,1,1015.1,994.3,35,0,16,84,0.49,1.75,6.6,9.5,49,61,19.8,29.6,23.3,19.5,14.4,0.125,0.144,0.223,0.296,1,3600.0,707.5,449.9,257.6,503.1,707.5,1184.7,673.0,428.0,245.0,503.1,673.0,1126.9,Tracheophyta; Eucalyptus L'Hér.; Magnoliopsida
2005,2005-07-01,Aveiro,Aveiro,Esgueira,ESGUEIRA,40.6433409,-8.6403931,NC,17.0,2005-07-01T19:00,22.5,64,15.5,20.2,0.0,0.0,0.0,0.0,0,1018.9,1016.9,0,0,0,0,0.2,0.97,28.9,41.2,343,346,49.7,26.3,23.3,21.2,17.2,0.063,0.075,0.132,0.198,1,3600.0,141.9,100.0,41.9,526.3,141.9,251.4,210.0,148.0,62.0,526.3,210.0,372.1,Tracheophyta; Magnoliopsida
2005,2005-06-14,Aveiro,Aveiro,Esgueira,Taboeira,40.6523699,-8.5901667,NC,24.0,2005-06-14T14:00,22.6,51,12.1,22.6,0.0,0.0,0.0,0.0,1,1019.2,1016.4,20,15,2,19,0.54,1.33,15.3,17.9,231,230,31.0,28.2,21.5,20.3,15.5,0.083,0.096,0.154,0.206,1,3600.0,837.3,646.7,190.6,713.5,837.3,1201.7,861.0,665.0,196.0,713.5,861.0,1235.7,Magnoliopsida; Tracheophyta; Pinus pinaster Aiton; Eucalyptus L'Hér.
2005,2005-06-19,Aveiro,Espinho,Paramos,Rua Coração Jesus,40.9759416,-8.6385737,NC,4.0,2005-06-19T15:00,29.2,55,19.1,29.9,0.0,0.0,0.0,0.0,0,1013.6,1013.1,16,0,9,34,0.54,1.83,22.7,28.0,306,313,41.0,34.1,25.4,20.7,15.6,0.103,0.146,0.222,0.294,1,3600.0,648.1,487.3,160.8,593.6,648.1,1087.3,685.0,515.0,170.0,593.6,685.0,1149.2,Tracheophyta; Magnoliopsida
2005,2005-07-02,Aveiro,Ílhavo,Ílhavo (são Salvador),Zona Industrial Ervosas,40.59666885,-8.681942750143929,NC,3.0,2005-07-02T20:00,21.9,75,17.3,21.5,0.0,0.0,0.0,0.0,0,1017.0,1016.6,0,0,0,0,0.08,0.65,20.9,31.0,333,338,35.6,26.5,25.6,21.7,17.8,0.049,0.082,0.141,0.204,1,2331.77,6.6,3.6,2.9,41.6,5.0,14.9,58.0,32.0,26.0,245.0,58.0,131.4,Tracheophyta
2005,2005-06-10,Aveiro,Estarreja,Veiros,VEIROS,40.73905105,-8.596595927325211,NC,1.0,2005-06-10T14:00,25.1,53,14.9,26.1,0.0,0.0,0.0,0.0,0,1012.4,1012.3,2,2,1,0,0.57,1.5,15.0,17.3,300,301,31.7,34.3,24.7,20.7,15.2,0.049,0.101,0.158,0.207,1,3600.0,828.2,628.9,199.3,695.9,828.2,1199.3,852.0,647.0,205.0,695.9,852.0,1233.8,Tracheophyta; Eucalyptus L'Hér.; Magnoliopsida
2005,2005-06-20,Aveiro,Oliveira de Azeméis,Ul,Cavalar,40.8431067,-8.468516409995193,NC,223.0,2005-06-20T13:00,27.6,56,18.0,30.9,0.0,0.0,0.0,0.0,0,1014.9,989.6,0,0,0,0,0.66,1.62,12.4,14.7,287,287,33.1,33.1,24.3,19.9,14.5,0.099,0.159,0.241,0.296,1,3600.0,936.2,804.4,131.7,846.4,936.2,1258.8,938.0,806.0,132.0,846.4,938.0,1261.2,Tracheophyta; Pinus pinaster Aiton; Eucalyptus L'Hér.
2005,2005-06-22,Aveiro,Santa Maria da Feira,Souto,Macieira,40.9126139,-8.55256649638887,NC,135.0,2005-06-22T03:00,17.5,93,16.3,18.8,0.0,0.0,0.0,0.0,2,1014.5,998.6,62,37,0,97,0.0,0.14,6.0,10.2,73,72,11.9,19.0,24.1,20.3,15.1,0.105,0.117,0.181,0.271,0,0.0,0.0,0.0,0.0,0.0,0.0,0.0,0.0,0.0,0.0,0.0,0.0,0.0,Magnoliopsida; Eucalyptus L'Hér.; Tracheophyta; Castanea sativa Mill.; Pinales
2005,2005-06-20,Aveiro,Oliveira de Azeméis,Carregosa,Costeira,40.8874083,-8.4088421,NC,376.0,2005-06-20T13:00,27.5,57,18.2,31.2,0.0,0.0,0.0,0.0,0,1014.6,972.3,0,0,0,0,0.65,1.58,10.4,12.6,268,268,32.0,31.8,23.6,19.1,13.6,0.119,0.194,0.285,0.337,1,3600.0,929.2,789.5,139.7,831.0,929.2,1258.3,931.0,791.0,140.0,831.0,931.0,1260.7,Pinus pinaster Aiton; Magnoliopsida; Eucalyptus L'Hér.; Tracheophyta
2005,2005-02-09,Aveiro,Santa Maria da Feira,Lourosa,Zona Industrial Casalinho,40.9832135,-8.5365083,NC,221.0,2005-02-09T18:00,12.0,55,3.3,9.3,0.0,0.0,0.0,0.0,0,1030.2,1003.4,0,0,0,0,0.05,0.63,8.0,14.8,36,41,16.2,10.3,7.8,7.4,10.6,0.249,0.263,0.3,0.309,1,1954.28,0.0,0.0,0.0,0.0,0.0,0.0,55.0,35.0,20.0,289.4,55.0,112.0,Tracheophyta; Pinus pinaster Aiton; Olea europaea L.; Magnoliopsida
2005,2005-06-21,Aveiro,Arouca,Espiunca,Vila Viçosa,40.9882652,-8.2222888,NC,223.0,2005-06-21T03:00,17.0,99,16.9,18.8,0.0,0.0,0.0,0.0,3,1016.7,990.4,84,93,0,1,0.0,0.01,4.3,8.0,360,352,11.2,19.5,23.3,19.5,13.8,0.128,0.202,0.292,0.338,0,0.0,0.0,0.0,0.0,0.0,0.0,0.0,0.0,0.0,0.0,0.0,0.0,0.0,Eucalyptus L'Hér.; Pinus pinaster Aiton; Tracheophyta; Olea europaea L.
2005,2005-06-08,Aveiro,Vale de Cambra,Cepelos,Merlães,40.824295,-8.358874,NC,516.0,2005-06-08T21:00,23.5,68,17.4,25.3,0.0,0.0,0.0,0.0,0,1016.1,957.8,11,0,15,6,0.02,0.92,5.8,7.7,360,11,14.4,23.3,22.9,17.0,11.8,0.146,0.242,0.328,0.361,0,0.0,0.0,0.0,0.0,0.0,0.0,0.0,0.0,0.0,0.0,0.0,0.0,0.0,Eucalyptus L'Hér.; Magnoliopsida; Pinus pinaster Aiton
2005,2005-06-03,Aveiro,Santa Maria da Feira,Mosteiró,Calvário,40.9036922,-8.5305294,NC,151.0,2005-06-03T20:00,16.0,83,13.1,14.7,0.0,0.0,0.0,0.0,2,1018.1,1000.1,54,38,0,65,0.04,0.32,15.8,24.2,330,332,39.2,20.5,20.9,17.4,13.4,0.159,0.233,0.298,0.323,1,1861.01,0.0,0.0,0.0,0.0,0.0,0.0,42.0,22.0,20.0,185.0,42.0,101.2,Pinales; Eucalyptus L'Hér.; Tracheophyta; Pinus pinaster Aiton; Magnoliopsida
2005,2005-06-10,Aveiro,Santa Maria da Feira,Feira,Santo André,40.9318298,-8.5537116,NC,155.0,2005-06-10T15:00,23.6,55,14.0,24.3,0.0,0.0,0.0,0.0,0,1012.0,994.1,0,0,0,0,0.51,1.31,12.7,15.1,299,298,33.1,30.7,23.4,19.1,13.8,0.105,0.136,0.204,0.275,1,3600.0,741.8,584.0,157.8,716.6,741.8,1081.4,785.0,618.0,167.0,716.6,785.0,1144.4,Eucalyptus L'Hér.; Tracheophyta; Magnoliopsida
2005,2005-02-08,Aveiro,Vale de Cambra,Arões,Carvalhal do Chão,40.8305259,-8.2982623,NC,660.0,2005-02-08T17:00,9.5,51,-0.1,6.7,0.0,0.0,0.0,0.0,1,1021.5,943.7,43,41,10,0,0.09,0.58,4.7,9.7,58,59,24.8,7.4,3.8,4.9,8.5,0.308,0.313,0.342,0.355,1,3600.0,122.5,79.9,42.6,493.2,122.5,227.7,184.0,120.0,64.0,493.2,184.0,342.0,Magnoliopsida; Eucalyptus L'Hér.; Tracheophyta; Pinus pinaster Aiton
2005,2005-06-19,Aveiro,São João da Madeira,São João da Madeira,Casal do Ló,40.897404,-8.490683816868543,NC,222.0,2005-06-19T15:00,28.9,51,17.8,31.6,0.0,0.0,0.0,0.0,1,1013.6,988.5,23,0,6,63,0.51,1.95,6.8,8.2,328,331,32.8,32.4,24.5,19.5,14.4,0.122,0.173,0.257,0.317,1,3600.0,647.9,487.1,160.8,594.0,647.9,1086.3,685.0,515.0,170.0,594.0,685.0,1148.5,Tracheophyta
2005,2005-06-19,Aveiro,Oliveira de Azeméis,Carregosa,Costeira,40.8874083,-8.4088421,NC,376.0,2005-06-19T18:00,27.2,58,18.1,28.9,0.0,0.0,0.0,0.0,0,1013.3,971.0,18,0,8,43,0.28,1.53,8.8,11.3,289,292,26.6,29.7,24.5,18.9,13.6,0.121,0.195,0.286,0.337,1,3600.0,293.5,212.1,81.4,578.7,293.5,485.4,364.0,263.0,101.0,578.7,364.0,602.0,Pinus pinaster Aiton; Magnoliopsida; Eucalyptus L'Hér.; Tracheophyta
2005,2005-06-04,Aveiro,Anadia,São Lourenço do Bairro,Couvelha,40.445132,-8.5271965,NC,70.0,2005-06-04T14:00,26.7,38,11.1,25.9,0.0,0.0,0.0,0.0,0,1017.1,1009.0,0,0,0,0,0.68,2.18,20.6,26.2,331,333,38.2,31.1,21.0,18.1,13.7,0.068,0.12,0.157,0.194,1,3600.0,913.9,799.3,114.6,887.7,913.9,1196.6,941.0,823.0,118.0,887.7,941.0,1232.1,Vitis vinifera L.; Eucalyptus L'Hér.; Tracheophyta; Pinus pinaster Aiton
2005,2005-06-10,Aveiro,Castelo de Paiva,Pedorido,Gaido,41.0155525,-8.2972892,NC,315.0,2005-06-10T15:00,25.2,56,15.8,26.8,0.0,0.0,0.0,0.0,0,1011.5,975.8,1,0,0,4,0.54,1.4,11.8,14.7,282,281,33.1,30.0,22.8,18.3,12.7,0.126,0.225,0.317,0.348,1,3600.0,752.8,591.2,161.5,727.3,752.8,1078.7,797.0,626.0,171.0,727.3,797.0,1142.1,Eucalyptus L'Hér.; Magnoliopsida; Pinales
2005,2005-06-10,Aveiro,Santa Maria da Feira,Sanguedo,Gaeta,41.0092747,-8.515097239744568,NC,183.0,2005-06-10T21:00,18.4,78,14.4,18.7,0.0,0.0,0.0,0.0,0,1011.4,990.0,17,0,0,56,0.01,0.48,7.5,10.3,305,306,16.9,22.4,23.6,19.0,13.6,0.116,0.161,0.242,0.298,0,0.0,0.0,0.0,0.0,0.0,0.0,0.0,0.0,0.0,0.0,0.0,0.0,0.0,Tracheophyta; Eucalyptus L'Hér.; Magnoliopsida
2005,2005-06-11,Aveiro,Aveiro,Cacia,Quinta do Loureiro,40.66758415,-8.57581565003477,NC,1.0,2005-06-11T15:00,24.4,51,13.6,23.8,0.0,0.0,0.0,0.0,2,1009.6,1009.5,56,60,0,5,0.53,1.5,19.9,23.9,235,233,31.0,33.2,23.9,20.8,15.3,0.049,0.099,0.156,0.206,1,3600.0,754.9,581.1,173.8,711.8,754.9,1083.0,799.0,615.0,184.0,711.8,799.0,1146.2,Magnoliopsida
2005,2005-06-22,Aveiro,Arouca,Espiunca,Vila Viçosa,40.9882652,-8.2222888,NC,223.0,2005-06-22T13:00,34.5,30,14.4,37.7,0.0,0.0,0.0,0.0,0,1014.0,989.3,11,0,10,16,0.74,3.82,5.1,4.9,262,253,22.7,34.4,23.8,19.8,14.0,0.118,0.196,0.288,0.337,1,3600.0,947.2,822.4,124.8,866.4,947.2,1257.0,949.0,824.0,125.0,866.4,949.0,1259.4,Eucalyptus L'Hér.; Pinus pinaster Aiton; Tracheophyta; Olea europaea L.
2005,2005-06-17,Aveiro,Aveiro,Esgueira,TABOEIRA,40.6523699,-8.5901667,NC,24.0,2005-06-17T17:00,31.2,41,16.5,30.3,0.0,0.0,0.0,0.0,1,1016.8,1014.1,28,0,1,92,0.51,2.67,21.9,29.2,319,322,38.5,36.0,25.9,20.4,15.8,0.053,0.09,0.149,0.204,1,3600.0,466.1,352.9,113.3,654.0,466.1,715.0,535.0,405.0,130.0,654.0,535.0,820.6,Magnoliopsida; Tracheophyta; Pinus pinaster Aiton; Eucalyptus L'Hér.
2005,2005-06-18,Aveiro,Ovar,Maceda,MACEDA,40.9269413,-8.6167846,NC,31.0,2005-06-18T17:00,26.1,59,17.5,25.0,0.0,0.0,0.0,0.0,1,1016.8,1013.2,27,0,0,91,0.39,1.39,25.6,33.2,332,336,40.7,31.7,25.7,20.3,15.4,0.111,0.121,0.188,0.272,1,3600.0,442.2,269.5,172.7,498.0,442.2,717.0,507.0,309.0,198.0,498.0,507.0,822.0,Tracheophyta; Magnoliopsida; Eucalyptus L'Hér.
2005,2005-06-17,Aveiro,Santa Maria da Feira,Fiães,Vilar,40.9835425,-8.5177043,NC,171.0,2005-06-17T17:00,31.0,44,17.2,31.2,0.0,0.0,0.0,0.0,1,1017.0,997.7,29,0,14,69,0.45,2.53,16.3,22.4,313,315,32.8,32.6,24.4,19.1,14.4,0.13,0.147,0.227,0.297,1,3600.0,422.7,308.5,114.2,572.4,422.7,714.2,485.0,354.0,131.0,572.4,485.0,819.5,Pinus pinaster Aiton; Magnoliopsida; Tracheophyta; Eucalyptus L'Hér.
2005,2005-06-18,Aveiro,Santa Maria da Feira,Caldas de São Jorge,Azevedo de São Jorge,40.9473253,-8.504510476357709,NC,266.0,2005-06-18T19:00,23.3,71,17.9,24.2,0.0,0.0,0.0,0.0,1,1016.8,986.2,29,0,0,97,0.13,0.82,13.0,18.1,332,337,30.6,27.1,24.5,19.1,14.0,0.125,0.174,0.258,0.317,1,3600.0,105.5,39.0,66.5,210.3,105.5,245.4,157.0,58.0,99.0,210.3,157.0,365.3,Eucalyptus L'Hér.; Pinales; Tracheophyta; Pinus pinaster Aiton; Magnoliopsida
2005,2005-06-11,Aveiro,Albergaria-a-Velha,Angeja,Fontão,40.6740125,-8.5306185,NC,82.0,2005-06-11T19:00,19.5,69,13.7,18.7,0.0,0.0,0.0,0.0,0,1009.7,1000.1,9,8,0,5,0.13,0.7,13.3,16.6,257,257,27.7,25.8,23.9,20.1,14.5,0.068,0.119,0.19,0.238,1,3600.0,124.7,77.8,46.8,440.8,124.7,234.3,189.0,118.0,71.0,440.8,189.0,355.1,Eucalyptus L'Hér.; Magnoliopsida; Tracheophyta; Pinus pinaster Aiton; 
2005,2005-06-20,Aveiro,Santa Maria da Feira,Sanguedo,Gaeta,41.0092747,-8.515097239744568,NC,183.0,2005-06-20T13:00,27.3,59,18.7,30.8,0.0,0.0,0.0,0.0,0,1014.9,994.0,1,0,0,3,0.64,1.48,12.4,14.6,280,280,29.9,32.9,24.3,19.7,14.5,0.119,0.141,0.22,0.296,1,3600.0,928.3,788.5,139.7,830.6,928.3,1257.4,930.0,790.0,140.0,830.6,930.0,1259.8,Tracheophyta; Eucalyptus L'Hér.; Magnoliopsida
2005,2005-06-09,Aveiro,São João da Madeira,São João da Madeira,Palhaça - M. Poiares,40.897404,-8.490683816868543,NC,222.0,2005-06-09T15:00,26.1,47,13.9,26.2,0.0,0.0,0.0,0.0,0,1016.0,990.6,0,0,0,0,0.54,1.79,15.0,18.4,294,296,34.6,30.8,23.9,18.6,13.4,0.12,0.196,0.279,0.32,1,3600.0,707.4,590.3,117.1,725.8,707.4,1079.4,749.0,625.0,124.0,725.8,749.0,1142.9,Tracheophyta
2005,2005-06-22,Aveiro,Albergaria-a-Velha,São João de Loure,SÃO JOÃO DE LOURE,40.6305869,-8.54164006194918,NC,35.0,2005-06-22T16:00,32.9,35,15.2,32.9,0.0,0.0,0.0,0.0,0,1013.8,1009.8,10,1,2,26,0.64,3.27,18.1,22.7,276,273,30.6,38.5,26.5,21.1,15.8,0.062,0.09,0.154,0.219,1,3600.0,658.2,546.7,111.5,783.8,658.2,923.6,720.0,598.0,122.0,783.8,720.0,1010.2,Eucalyptus L'Hér.; Magnoliopsida; Tracheophyta; Pinus pinaster Aiton; Acacia Mill.; 
2005,2005-06-04,Aveiro,Vale de Cambra,Macieira de Cambra,Quinta da Vide de Cima,40.8566414,-8.3769951,NC,344.0,2005-06-04T19:00,20.7,61,12.9,19.9,0.0,0.0,0.0,0.0,0,1017.2,977.5,5,0,0,17,0.15,0.95,11.8,18.1,320,325,36.7,22.9,20.3,16.5,12.3,0.164,0.252,0.328,0.343,1,3600.0,123.8,85.8,38.1,517.7,123.8,220.2,192.0,133.0,59.0,517.7,192.0,341.4,Tracheophyta; Vitis vinifera L.; Eucalyptus L'Hér.; Pinus pinaster Aiton
2005,2005-06-20,Aveiro,Oliveira de Azeméis,Cesar,Cimo de Vila,40.9177877,-8.4452564,NC,306.0,2005-06-20T20:00,21.3,78,17.4,22.5,0.0,0.0,0.0,0.0,0,1016.5,981.2,1,0,0,2,0.05,0.55,10.2,15.1,318,322,27.0,25.5,25.0,19.6,14.1,0.116,0.192,0.284,0.336,1,2307.65,6.2,3.3,2.9,38.3,4.7,14.4,56.0,30.0,26.0,231.9,56.0,129.6,Tracheophyta; Eucalyptus L'Hér.; Magnoliopsida; Pinus pinaster Aiton
2005,2005-06-22,Aveiro,Aveiro,Esgueira,Taboeira,40.6523699,-8.5901667,NC,24.0,2005-06-22T21:00,24.4,60,16.1,25.5,0.0,0.0,0.0,0.0,0,1015.5,1012.7,2,0,0,5,0.03,1.22,6.5,9.0,183,175,9.7,26.8,27.0,21.5,16.3,0.049,0.083,0.141,0.202,0,0.0,0.0,0.0,0.0,0.0,0.0,0.0,0.0,0.0,0.0,0.0,0.0,0.0,Magnoliopsida; Tracheophyta; Pinus pinaster Aiton; Eucalyptus L'Hér.
2005,2005-06-17,Aveiro,Oliveira de Azeméis,Carregosa,Costeira,40.8874083,-8.4088421,NC,376.0,2005-06-17T20:00,26.2,61,18.0,28.0,0.0,0.0,0.0,0.0,1,1017.6,975.0,26,0,6,73,0.07,1.34,7.7,11.1,311,324,23.0,26.6,23.8,18.2,13.4,0.135,0.201,0.291,0.338,1,1510.38,3.7,1.5,2.2,17.2,2.8,10.5,45.0,18.0,27.0,140.7,45.0,125.8,Pinus pinaster Aiton; Magnoliopsida; Eucalyptus L'Hér.; Tracheophyta
2005,2005-02-09,Aveiro,Oliveira de Azeméis,Cesar,LG. Mergulhão,40.9123659,-8.4330609,NC,343.0,2005-02-09T21:00,5.8,74,1.5,2.5,0.0,0.0,0.0,0.0,0,1032.6,990.3,0,0,0,0,0.01,0.24,9.3,11.9,77,65,18.0,5.8,7.1,7.0,10.3,0.281,0.3,0.337,0.35,0,0.0,0.0,0.0,0.0,0.0,0.0,0.0,0.0,0.0,0.0,0.0,0.0,0.0,Tracheophyta; Pinus pinaster Aiton; Magnoliopsida
2005,2005-06-09,Aveiro,Santa Maria da Feira,Lourosa,Giestal,40.9832135,-8.5365083,NC,221.0,2005-06-09T17:00,25.1,49,13.6,24.4,0.0,0.0,0.0,0.0,0,1015.4,990.1,6,0,0,20,0.36,1.63,13.2,16.5,305,306,26.6,29.5,24.0,18.4,13.3,0.118,0.165,0.245,0.299,1,3600.0,413.6,230.3,183.4,434.0,413.6,704.3,476.0,265.0,211.0,434.0,476.0,810.5,Tracheophyta; Pinus pinaster Aiton; Olea europaea L.; Magnoliopsida
2005,2005-06-12,Aveiro,Santa Maria da Feira,Romariz,Duas Igrejas,40.9556613,-8.4689201,NC,294.0,2005-06-12T00:00,15.3,88,13.2,15.2,0.0,0.0,0.0,0.0,2,1009.8,975.4,60,67,0,0,0.0,0.22,7.4,9.7,231,228,17.6,18.5,21.7,18.5,13.0,0.12,0.206,0.297,0.333,0,0.0,0.0,0.0,0.0,0.0,0.0,0.0,0.0,0.0,0.0,0.0,0.0,0.0,Eucalyptus L'Hér.; Tracheophyta; Olea europaea L.; Pinales
2005,2005-06-04,Aveiro,Ovar,Esmoriz,Gondesende,40.9661298,-8.6046804,NC,100.0,2005-06-04T23:00,17.2,80,13.7,16.9,0.0,0.0,0.0,0.0,0,1018.7,1006.8,4,0,0,12,0.01,0.39,9.8,19.1,352,356,22.3,18.6,20.7,17.6,13.6,0.126,0.196,0.254,0.297,0,0.0,0.0,0.0,0.0,0.0,0.0,0.0,0.0,0.0,0.0,0.0,0.0,0.0,Eucalyptus L'Hér.; Magnoliopsida; Pinus pinaster Aiton; Tracheophyta
2005,2005-06-22,Aveiro,Oliveira de Azeméis,Cesar,Vilarinho,40.9123659,-8.4330609,NC,343.0,2005-06-22T11:00,32.6,28,11.8,34.0,0.0,0.0,0.0,0.0,1,1015.3,977.3,22,0,3,69,0.63,3.53,5.4,6.9,98,99,18.4,31.4,23.1,19.8,14.1,0.111,0.188,0.28,0.336,1,3600.0,856.0,654.1,201.9,731.3,856.0,1184.3,814.0,622.0,192.0,731.3,814.0,1126.2,Tracheophyta; Pinus pinaster Aiton; Magnoliopsida
2005,2005-06-05,Aveiro,Santa Maria da Feira,Louredo,Parada,40.9871338,-8.4667638,NC,161.0,2005-06-05T23:00,20.1,75,15.5,20.3,0.0,0.0,0.0,0.0,0,1018.1,999.2,0,0,0,0,0.03,0.59,11.7,21.3,11,11,24.8,20.5,21.6,17.5,13.3,0.14,0.192,0.26,0.3,0,0.0,0.0,0.0,0.0,0.0,0.0,0.0,0.0,0.0,0.0,0.0,0.0,0.0,Tracheophyta; Eucalyptus L'Hér.; Magnoliopsida
2005,2005-06-06,Aveiro,Santa Maria da Feira,Feira,Santo André,40.9318298,-8.5537116,NC,155.0,2005-06-06T01:00,18.6,78,14.6,18.6,0.0,0.0,0.0,0.0,0,1017.9,999.6,0,0,0,0,0.02,0.48,10.9,20.4,17,14,22.0,19.2,21.3,17.5,13.4,0.119,0.162,0.22,0.276,0,0.0,0.0,0.0,0.0,0.0,0.0,0.0,0.0,0.0,0.0,0.0,0.0,0.0,Eucalyptus L'Hér.; Tracheophyta; Magnoliopsida
2005,2005-06-21,Aveiro,Santa Maria da Feira,Sanguedo,Gaeta,41.0092747,-8.515097239744568,NC,183.0,2005-06-21T05:00,16.4,99,16.3,18.1,0.0,0.0,0.0,0.0,3,1016.8,995.1,90,100,0,0,0.0,0.01,3.9,6.9,22,9,11.5,18.9,23.2,19.9,14.6,0.118,0.14,0.219,0.296,0,0.0,0.0,0.0,0.0,0.0,0.0,0.0,0.0,0.0,0.0,0.0,0.0,0.0,Tracheophyta; Eucalyptus L'Hér.; Magnoliopsida
2005,2005-06-06,Aveiro,Santa Maria da Feira,Rio Meão,Alpossos,40.9586879,-8.5748731,NC,128.0,2005-06-06T22:00,22.8,63,15.4,23.2,0.0,0.0,0.0,0.0,0,1016.6,1001.7,0,0,0,0,0.05,1.03,10.0,18.8,15,17,22.3,23.0,23.1,17.9,13.6,0.113,0.184,0.249,0.297,0,0.0,0.0,0.0,0.0,0.0,0.0,0.0,0.0,0.0,0.0,0.0,0.0,0.0,Pinus pinaster Aiton; Eucalyptus L'Hér.; Tracheophyta; Olea europaea L.; Magnoliopsida
2005,2005-06-10,Aveiro,Santa Maria da Feira,Santa Maria de Lamas,Valada,40.97821435,-8.570031208138195,NC,120.0,2005-06-10T12:00,24.2,59,15.8,26.7,0.0,0.0,0.0,0.0,0,1012.7,998.9,3,3,0,0,0.58,1.23,10.5,11.9,274,273,22.7,30.3,22.8,19.3,14.0,0.098,0.165,0.239,0.296,1,3600.0,921.6,716.0,205.6,758.5,921.6,1252.6,901.0,700.0,201.0,758.5,901.0,1224.6,Tracheophyta; Eucalyptus L'Hér.; Magnoliopsida; Pinus pinaster Aiton
2005,2005-02-06,Aveiro,Vale de Cambra,Arões,Cabrum,40.823413,-8.288678,NC,591.0,2005-02-06T17:00,5.3,68,-0.2,2.7,0.2,0.2,0.0,0.0,51,1014.0,943.5,70,41,37,37,0.06,0.29,3.1,3.8,306,311,14.0,6.7,4.7,5.8,9.2,0.297,0.309,0.344,0.357,1,3600.0,95.9,53.9,42.1,347.2,95.9,218.3,146.0,82.0,64.0,347.2,146.0,332.2,Magnoliopsida; Eucalyptus L'Hér.; Tracheophyta
2005,2005-06-22,Aveiro,Arouca,Espiunca,Vila Viçosa,40.9882652,-8.2222888,NC,223.0,2005-06-22T16:00,33.3,34,15.5,34.8,0.4,0.4,0.0,0.0,51,1013.6,988.8,15,0,4,42,0.58,3.34,8.7,10.1,275,272,27.4,34.6,25.0,19.8,14.0,0.12,0.195,0.287,0.337,1,3600.0,640.9,528.4,112.4,760.1,640.9,920.5,701.0,578.0,123.0,760.1,701.0,1006.9,Eucalyptus L'Hér.; Pinus pinaster Aiton; Tracheophyta; Olea europaea L.
2005,2005-06-05,Aveiro,Santa Maria da Feira,Canedo,Rebordelo,40.9984265,-8.415820410994659,NC,248.0,2005-06-05T13:00,28.3,34,10.9,29.0,0.0,0.0,0.0,0.0,0,1018.0,989.9,4,0,0,12,0.72,2.54,13.0,15.8,355,359,26.3,28.0,19.8,16.9,12.6,0.16,0.242,0.319,0.336,1,3600.0,976.9,861.2,115.6,912.7,976.9,1253.8,980.0,864.0,116.0,912.7,980.0,1257.8,Magnoliopsida; Pinus pinaster Aiton; Eucalyptus L'Hér.; Tracheophyta
2005,2005-06-22,Aveiro,Arouca,Espiunca,Vila Viçosa,40.9882652,-8.2222888,NC,223.0,2005-06-22T08:00,26.6,56,17.2,28.2,0.0,0.0,0.0,0.0,1,1015.0,989.6,30,0,22,56,0.25,1.52,6.1,10.0,93,105,17.3,23.3,22.3,19.8,13.9,0.122,0.199,0.289,0.337,1,3600.0,420.5,301.2,119.3,589.3,420.5,676.7,349.0,250.0,99.0,589.3,349.0,561.7,Eucalyptus L'Hér.; Pinus pinaster Aiton; Tracheophyta; Olea europaea L.
2005,2005-06-10,Aveiro,Arouca,Fermedo,Orvida,40.960516,-8.41797340761709,NC,255.0,2005-06-10T17:00,23.8,58,15.1,23.9,0.0,0.0,0.0,0.0,0,1011.4,982.2,0,0,0,0,0.37,1.24,11.8,13.8,297,298,25.9,29.1,23.4,18.5,13.1,0.12,0.21,0.3,0.334,1,3600.0,486.0,384.3,101.7,722.5,486.0,705.7,559.0,442.0,117.0,722.5,559.0,811.8,Tracheophyta; Eucalyptus L'Hér.; Pinus pinaster Aiton
2005,2005-06-12,Aveiro,Águeda,Águeda,ÁGUEDA,40.583217000000005,-8.425849906880153,NC,79.0,2005-06-12T02:00,16.1,89,14.2,16.6,0.0,0.0,0.0,0.0,1,1009.5,1000.1,45,50,0,0,0.0,0.21,6.5,8.7,251,253,10.8,19.2,23.2,20.4,14.5,0.103,0.177,0.259,0.306,0,0.0,0.0,0.0,0.0,0.0,0.0,0.0,0.0,0.0,0.0,0.0,0.0,0.0,Tracheophyta; Magnoliopsida; Pinus pinaster Aiton; Eucalyptus L'Hér.
2005,2005-06-19,Aveiro,Oliveira do Bairro,Oiã,Águas Boas,40.5328203,-8.5660174,NC,55.0,2005-06-19T17:00,28.6,49,17.0,28.8,0.0,0.0,0.0,0.0,0,1013.2,1006.9,18,0,11,39,0.44,1.99,15.7,20.0,307,309,34.9,34.7,25.7,20.3,15.4,0.05,0.067,0.113,0.169,1,3600.0,473.2,361.6,111.5,668.9,473.2,716.1,543.0,415.0,128.0,668.9,543.0,821.8,Eucalyptus L'Hér.; Tracheophyta; Vitis vinifera L.
2005,2005-06-23,Aveiro,Aveiro,Esgueira,Taboeira,40.6523699,-8.5901667,NC,24.0,2005-06-23T03:00,20.9,84,18.1,22.7,0.0,0.0,0.0,0.0,1,1015.2,1012.4,38,0,18,92,0.0,0.4,7.8,15.3,193,171,13.3,19.9,25.8,21.6,16.3,0.049,0.083,0.141,0.202,0,0.0,0.0,0.0,0.0,0.0,0.0,0.0,0.0,0.0,0.0,0.0,0.0,0.0,Magnoliopsida; Tracheophyta; Pinus pinaster Aiton; Eucalyptus L'Hér.
2005,2005-06-23,Aveiro,Oliveira de Azeméis,Oliveira de Azeméis,Lomba,40.8616511,-8.4679698,NC,218.0,2005-06-23T06:00,19.8,79,16.1,20.7,0.0,0.0,0.0,0.0,1,1016.7,991.2,32,13,18,32,0.03,0.48,8.0,15.4,170,169,10.8,19.7,23.9,20.5,14.8,0.117,0.165,0.248,0.316,1,989.44,74.1,33.7,40.4,221.6,44.7,201.2,33.0,15.0,18.0,133.8,33.0,89.6,Tracheophyta; Eucalyptus L'Hér.; Magnoliopsida; Pinus pinaster Aiton
2005,2005-02-10,Aveiro,Arouca,Urrô,URRO,40.92760325,-8.294532576568267,NC,338.0,2005-02-10T08:00,0.1,87,-1.7,-3.3,0.0,0.0,0.0,0.0,0,1036.8,994.1,0,0,0,0,0.01,0.08,7.0,11.0,102,101,16.9,1.1,4.2,6.2,9.7,0.294,0.309,0.342,0.354,1,0.0,15.3,7.6,7.6,87.6,5.7,92.7,6.0,3.0,3.0,43.3,6.0,36.4,Pinus pinaster Aiton; Eucalyptus L'Hér.; Tracheophyta; Magnoliopsida; Vitis vinifera L.
2005,2005-06-23,Aveiro,Santa Maria da Feira,Nogueira da Regedoura,NOGUEIRA DA REGEDOURA,41.00339965,-8.577401228806508,NC,138.0,2005-06-23T13:00,26.1,58,17.1,28.2,0.0,0.0,0.0,0.0,2,1017.4,1001.5,58,36,38,8,0.57,1.43,13.5,16.3,279,278,28.8,33.0,24.8,20.6,15.1,0.096,0.138,0.213,0.292,1,3600.0,824.8,651.1,173.8,685.6,824.8,1257.2,826.0,652.0,174.0,685.6,826.0,1259.0,Tracheophyta; Eucalyptus L'Hér.; Magnoliopsida
2005,2005-06-23,Aveiro,Santa Maria da Feira,Mozelos,Mozelos,41.00868805,-8.557658156035256,NC,208.0,2005-06-23T22:00,19.7,78,15.8,20.6,0.0,0.0,0.0,0.0,1,1018.7,994.3,31,4,15,60,0.01,0.5,7.4,10.2,309,321,16.6,23.1,25.1,20.7,14.9,0.117,0.163,0.246,0.315,0,0.0,0.0,0.0,0.0,0.0,0.0,0.0,0.0,0.0,0.0,0.0,0.0,0.0,Tracheophyta; Magnoliopsida; Eucalyptus L'Hér.; Pinus pinaster Aiton
2005,2005-06-22,Aveiro,Oliveira de Azeméis,Ul,Sobral,40.8431067,-8.468516409995193,NC,223.0,2005-06-22T11:00,33.0,28,11.8,34.5,0.0,0.0,0.0,0.0,0,1014.9,990.0,20,0,8,50,0.63,3.64,5.1,5.7,225,215,24.8,32.9,23.7,20.3,14.7,0.095,0.155,0.237,0.295,1,3600.0,853.9,679.3,174.6,759.3,853.9,1184.7,812.0,646.0,166.0,759.3,812.0,1126.6,Tracheophyta; Pinus pinaster Aiton; Eucalyptus L'Hér.
2005,2005-06-05,Aveiro,Águeda,Águeda,Águeda,40.583217000000005,-8.425849906880153,NC,79.0,2005-06-05T13:00,30.6,32,11.8,31.6,0.0,0.0,0.0,0.0,0,1017.0,1008.0,0,0,0,0,0.76,3.01,13.0,16.1,341,344,29.5,31.3,21.6,18.3,13.9,0.121,0.206,0.276,0.31,1,3600.0,976.7,860.1,116.6,909.4,976.7,1256.7,980.0,863.0,117.0,909.4,980.0,1260.9,Tracheophyta; Magnoliopsida; Pinus pinaster Aiton; Eucalyptus L'Hér.
2005,2005-02-10,Aveiro,Santa Maria da Feira,Romariz,Duas Igrejas,40.9556613,-8.4689201,NC,294.0,2005-02-10T14:00,14.5,45,2.7,12.1,0.0,0.0,0.0,0.0,0,1036.7,1001.2,3,3,0,0,0.3,0.91,5.9,7.1,346,345,14.4,13.0,6.4,6.7,10.0,0.278,0.298,0.335,0.343,1,3600.0,557.6,476.9,80.8,890.2,557.6,752.5,580.0,496.0,84.0,890.2,580.0,782.7,Eucalyptus L'Hér.; Tracheophyta; Olea europaea L.; Pinales
2005,2005-06-20,Aveiro,Sever do Vouga,Cedrim,Cedrim,40.71422325,-8.338948657468944,NC,167.0,2005-06-20T11:00,27.6,58,18.6,31.2,0.0,0.0,0.0,0.0,0,1015.3,996.3,0,0,0,0,0.58,1.54,8.3,9.4,288,288,28.1,31.5,24.6,20.5,14.8,0.102,0.161,0.243,0.303,1,3600.0,863.2,737.0,126.2,823.0,863.2,1186.2,821.0,701.0,120.0,823.0,821.0,1128.2,Tracheophyta; Eucalyptus L'Hér.; Acacia Mill.; Pinus pinaster Aiton; Magnoliopsida; Quercus L.
2005,2005-06-05,Aveiro,Santa Maria da Feira,Mozelos,Rua de Vilas - Mozelos,40.99774985,-8.560747557187135,NC,141.0,2005-06-05T21:00,21.0,71,15.5,20.8,0.0,0.0,0.0,0.0,0,1018.0,1001.5,0,0,0,0,0.05,0.73,14.6,24.9,350,356,26.3,22.3,21.8,17.5,13.4,0.119,0.19,0.252,0.297,0,0.0,0.0,0.0,0.0,0.0,0.0,0.0,0.0,0.0,0.0,0.0,0.0,0.0,Tracheophyta; Eucalyptus L'Hér.; Magnoliopsida; Pinus pinaster Aiton
2005,2005-06-21,Aveiro,Estarreja,Fermelã,Roxico,40.6909514,-8.5405111,NC,52.0,2005-06-21T03:00,16.3,100,16.2,16.5,0.0,0.0,0.0,0.0,1,1016.6,1010.4,32,35,0,2,0.0,0.01,13.0,18.8,354,356,18.0,18.5,24.7,20.9,15.6,0.068,0.105,0.174,0.234,0,0.0,0.0,0.0,0.0,0.0,0.0,0.0,0.0,0.0,0.0,0.0,0.0,0.0,Pinus pinaster Aiton; Tracheophyta; Eucalyptus L'Hér.; Magnoliopsida
2005,2005-06-26,Aveiro,Ovar,Maceda,R. C. Ferro,40.9192182,-8.6387864,NC,16.0,2005-06-26T13:00,26.6,47,14.4,27.6,0.0,0.0,0.0,0.0,2,1017.0,1015.1,64,62,4,21,0.62,1.85,15.2,17.4,265,264,28.4,32.7,23.6,21.5,16.3,0.107,0.113,0.173,0.27,1,3600.0,877.0,692.2,184.8,728.8,877.0,1257.0,878.0,693.0,185.0,728.8,878.0,1258.5,Pinus pinaster Aiton; Magnoliopsida; Tracheophyta; Eucalyptus L'Hér.
2005,2005-06-22,Aveiro,Oliveira de Azeméis,Ul,Sobral,40.8431067,-8.468516409995193,NC,223.0,2005-06-22T16:00,31.8,35,14.2,32.3,0.4,0.4,0.0,0.0,51,1013.9,988.9,17,0,7,43,0.58,3.07,11.6,14.5,265,264,33.5,35.7,25.6,20.3,14.7,0.097,0.154,0.236,0.294,1,3600.0,640.0,516.5,123.4,741.8,640.0,922.0,700.0,565.0,135.0,741.8,700.0,1008.6,Tracheophyta; Pinus pinaster Aiton; Eucalyptus L'Hér.
2005,2005-06-21,Aveiro,São João da Madeira,São João da Madeira,Rua António José,40.9030801,-8.4954572,NC,219.0,2005-06-21T13:00,28.8,46,15.9,31.7,0.0,0.0,0.0,0.0,0,1016.9,992.1,0,0,0,0,0.71,2.14,10.3,11.8,306,310,24.5,32.8,23.8,20.1,14.6,0.117,0.169,0.252,0.316,1,3600.0,971.2,850.4,120.8,895.1,971.2,1258.2,973.0,852.0,121.0,895.1,973.0,1260.6,Tracheophyta; Magnoliopsida; Eucalyptus L'Hér.
2005,2005-06-10,Aveiro,Santa Maria da Feira,Sanguedo,Gaeta,41.0092747,-8.515097239744568,NC,183.0,2005-06-10T18:00,22.7,60,14.5,22.4,0.0,0.0,0.0,0.0,0,1011.4,990.3,0,0,0,0,0.26,1.11,12.2,15.0,304,305,22.3,28.1,23.7,18.9,13.6,0.116,0.161,0.242,0.298,1,3600.0,299.2,223.0,76.2,623.3,299.2,474.7,373.0,278.0,95.0,623.3,373.0,591.8,Tracheophyta; Eucalyptus L'Hér.; Magnoliopsida
2005,2005-06-10,Aveiro,Oliveira de Azeméis,Cesar,Cimo de Vila,40.9177877,-8.4452564,NC,306.0,2005-06-10T21:00,18.9,76,14.7,19.4,0.0,0.0,0.0,0.0,0,1011.4,976.0,17,0,0,56,0.01,0.52,7.5,10.3,305,306,16.9,22.5,23.4,18.6,13.1,0.119,0.216,0.307,0.34,0,0.0,0.0,0.0,0.0,0.0,0.0,0.0,0.0,0.0,0.0,0.0,0.0,0.0,Tracheophyta; Eucalyptus L'Hér.; Magnoliopsida; Pinus pinaster Aiton
2005,2005-06-21,Aveiro,São João da Madeira,São João da Madeira,Avenida Casal,40.897404,-8.490683816868543,NC,222.0,2005-06-21T13:00,28.7,46,15.9,31.7,0.0,0.0,0.0,0.0,0,1016.9,991.7,0,0,0,0,0.71,2.14,10.3,11.8,306,310,24.5,32.8,23.8,20.0,14.6,0.117,0.169,0.252,0.316,1,3600.0,971.2,850.4,120.8,895.1,971.2,1258.2,973.0,852.0,121.0,895.1,973.0,1260.6,Tracheophyta
2005,2005-06-22,Aveiro,Oliveira de Azeméis,Oliveira de Azeméis,Crute - Escariz,40.8431067,-8.468516409995193,NC,223.0,2005-06-22T16:00,31.8,35,14.2,32.3,0.4,0.4,0.0,0.0,51,1013.9,988.9,17,0,7,43,0.58,3.07,11.6,14.5,265,264,33.5,35.7,25.6,20.3,14.7,0.097,0.154,0.236,0.294,1,3600.0,640.0,516.5,123.4,741.8,640.0,922.0,700.0,565.0,135.0,741.8,700.0,1008.6,Tracheophyta; Pinus pinaster Aiton; Eucalyptus L'Hér.
2005,2005-06-12,Aveiro,Santa Maria da Feira,Vila Maior,Largo da Junta,41.0205913,-8.4733829,NC,170.0,2005-06-12T18:00,19.6,64,12.6,18.6,0.0,0.0,0.0,0.0,2,1010.2,990.4,74,70,14,7,0.2,0.82,12.1,15.7,260,261,30.2,24.3,21.9,19.2,13.9,0.12,0.156,0.237,0.298,1,3600.0,245.1,155.9,89.2,432.6,245.1,477.9,305.0,194.0,111.0,432.6,305.0,594.8,Tracheophyta; Eucalyptus L'Hér.; Pinus pinaster Aiton; Magnoliopsida
2005,2005-02-09,Aveiro,Ovar,Cortegaça,CORTEGAÇA,40.940648,-8.6302462,NC,11.0,2005-02-09T23:00,7.5,68,2.0,4.0,0.0,0.0,0.0,0.0,0,1033.4,1032.0,0,0,0,0,0.02,0.33,11.3,18.3,68,70,18.7,7.5,9.5,9.2,12.1,0.221,0.237,0.277,0.287,0,0.0,0.0,0.0,0.0,0.0,0.0,0.0,0.0,0.0,0.0,0.0,0.0,0.0,Eucalyptus L'Hér.; Tracheophyta; Magnoliopsida; Pinus pinaster Aiton
2005,2005-06-13,Aveiro,Aveiro,Esgueira,Mataducos,40.6603103,-8.6291191,NC,15.0,2005-06-13T16:00,21.1,70,15.4,20.7,0.2,0.2,0.0,0.0,51,1011.5,1009.7,36,15,37,0,0.35,0.75,17.3,21.0,258,258,34.9,27.1,22.1,20.5,15.4,0.069,0.097,0.154,0.206,1,3600.0,544.3,393.6,150.7,568.1,544.3,918.8,596.0,431.0,165.0,568.1,596.0,1006.1,Tracheophyta; Pinus pinaster Aiton; Magnoliopsida
2005,2005-06-11,Aveiro,Santa Maria da Feira,Nogueira da Regedoura,NOGUEIRA DA REGEDOURA,41.00339965,-8.577401228806508,NC,138.0,2005-06-11T20:00,17.9,75,13.5,17.7,0.0,0.0,0.0,0.0,1,1009.7,993.5,27,29,0,3,0.04,0.5,9.3,12.3,254,255,25.6,23.2,23.2,19.3,14.0,0.097,0.161,0.236,0.295,1,1924.45,1.9,0.9,1.0,10.2,1.3,5.1,44.0,21.0,23.0,166.8,44.0,120.4,Tracheophyta; Eucalyptus L'Hér.; Magnoliopsida
