year,date,district,municipality,parish,local,latitude,longitude,cause,elevation,hourly.time,hourly.temperature_2m,hourly.relative_humidity_2m,hourly.dew_point_2m,hourly.apparent_temperature,hourly.precipitation,hourly.rain,hourly.snowfall,hourly.snow_depth,hourly.weather_code,hourly.pressure_msl,hourly.surface_pressure,hourly.cloud_cover,hourly.cloud_cover_low,hourly.cloud_cover_mid,hourly.cloud_cover_high,hourly.et0_fao_evapotranspiration,hourly.vapour_pressure_deficit,hourly.wind_speed_10m,hourly.wind_speed_100m,hourly.wind_direction_10m,hourly.wind_direction_100m,hourly.wind_gusts_10m,hourly.soil_temperature_0_to_7cm,hourly.soil_temperature_7_to_28cm,hourly.soil_temperature_28_to_100cm,hourly.soil_temperature_100_to_255cm,hourly.soil_moisture_0_to_7cm,hourly.soil_moisture_7_to_28cm,hourly.soil_moisture_28_to_100cm,hourly.soil_moisture_100_to_255cm,hourly.is_day,hourly.sunshine_duration,hourly.shortwave_radiation_instant,hourly.direct_radiation_instant,hourly.diffuse_radiation_instant,hourly.direct_normal_irradiance_instant,hourly.global_tilted_irradiance_instant,hourly.terrestrial_radiation_instant,hourly.shortwave_radiation,hourly.direct_radiation,hourly.diffuse_radiation,hourly.direct_normal_irradiance,hourly.global_tilted_irradiance,hourly.terrestrial_radiation,scientificNames
2005,2005-06-20,Viseu,Nelas,Senhorim,Quinta do Cagunça,40.5398434,-7.8207072,NC,374.0,2005-06-20T15:00,30.6,34,13.1,30.5,0.0,0.0,0.0,0.0,0,1014.0,972.4,0,0,0,0,0.63,2.88,15.2,19.2,275,275,37.4,37.9,27.3,21.2,14.0,0.084,0.178,0.261,0.309,1,3600.0,717.7,550.6,167.2,674.3,717.7,1081.5,760.0,583.0,177.0,674.3,760.0,1145.2,Tracheophyta; Olea europaea L.; Magnoliopsida; Castanea sativa Mill.; Pinus pinaster Aiton; Vitis vinifera L.
2005,2005-07-10,Viseu,Sátão,Romãs,Silvã de Baixo,40.7243966,-7.6680102,NC,500.0,2005-07-10T23:00,26.0,18,-0.2,21.2,0.0,0.0,0.0,0.0,0,1017.7,961.5,0,0,0,0,0.23,2.77,18.4,33.9,64,68,32.0,27.1,28.2,22.6,16.2,0.078,0.154,0.227,0.295,0,0.0,0.0,0.0,0.0,0.0,0.0,0.0,0.0,0.0,0.0,0.0,0.0,0.0,Olea europaea L.; Vitis vinifera L.; Castanea sativa Mill.; Magnoliopsida
2005,2005-07-26,Viseu,Nelas,Senhorim,Vila Ruiva,40.5398434,-7.8207072,NC,374.0,2005-07-26T08:00,20.1,74,15.3,20.9,0.0,0.0,0.0,0.0,1,1012.2,969.2,45,16,1,99,0.16,0.61,6.5,8.3,183,182,15.8,22.3,23.5,23.8,18.3,0.082,0.145,0.216,0.297,1,3600.0,324.5,190.8,133.8,407.4,324.5,620.8,262.0,154.0,108.0,407.4,262.0,501.2,Tracheophyta; Olea europaea L.; Magnoliopsida; Castanea sativa Mill.; Pinus pinaster Aiton; Vitis vinifera L.
2005,2005-07-12,Viseu,Nelas,Vilar Seco,VILAR SECO,40.5530097,-7.8705196,NC,360.0,2005-07-12T03:00,20.7,66,14.1,20.8,0.0,0.0,0.0,0.0,0,1018.7,977.1,1,0,2,0,0.03,0.83,8.5,18.9,62,59,13.3,21.9,27.1,22.6,16.4,0.092,0.158,0.233,0.304,0,0.0,0.0,0.0,0.0,0.0,0.0,0.0,0.0,0.0,0.0,0.0,0.0,0.0,Magnoliopsida; Pinus pinaster Aiton; Vitis vinifera L.; Tracheophyta; Olea europaea L.
2005,2005-07-02,Viseu,Resende,Paus,LOBOS \ VG,41.0714486,-7.8998059,NC,565.0,2005-07-02T20:00,24.5,62,16.8,26.0,0.0,0.0,0.0,0.0,0,1016.9,953.4,0,0,0,0,0.05,1.16,6.3,11.6,283,292,22.0,25.8,22.9,18.1,13.2,0.144,0.168,0.25,0.316,1,2185.31,2.9,1.7,1.3,19.0,2.1,6.5,55.0,31.0,24.0,245.1,55.0,121.7,Magnoliopsida; Pinales; Tracheophyta; Eucalyptus L'Hér.; Pinus pinaster Aiton; Olea europaea L.; 
2005,2005-07-10,Viseu,São Pedro do Sul,São Martinho das Moitas,Covas do Monte,40.8861429,-8.0998962,NC,439.0,2005-07-10T02:00,21.7,34,5.2,18.4,0.0,0.0,0.0,0.0,0,1014.3,964.2,0,0,0,0,0.13,1.71,14.2,31.3,99,98,38.5,21.9,25.5,20.9,15.4,0.1,0.153,0.237,0.317,0,0.0,0.0,0.0,0.0,0.0,0.0,0.0,0.0,0.0,0.0,0.0,0.0,0.0,Magnoliopsida; Vitis vinifera L.; Pinus pinaster Aiton; Eucalyptus L'Hér.; Tracheophyta; Pinales; 
2005,2005-07-09,Viseu,Oliveira de Frades,Ribeiradio,Campanário,40.732458,-8.3015913,NC,247.0,2005-07-09T10:00,27.9,36,11.4,27.8,0.0,0.0,0.0,0.0,0,1013.7,985.8,0,0,0,0,0.52,2.4,9.0,11.9,95,95,32.4,29.3,25.2,21.2,16.3,0.096,0.144,0.218,0.301,1,3600.0,758.1,647.0,111.1,822.2,758.1,1041.2,696.0,594.0,102.0,822.2,696.0,955.9,Eucalyptus L'Hér.; Pinus pinaster Aiton; Magnoliopsida; Tracheophyta; Quercus L.; Olea europaea L.
2005,2005-07-11,Viseu,Moimenta da Beira,Rua,VIDE,40.9492463,-7.5670362,NC,617.0,2005-07-11T14:00,32.2,25,9.4,33.0,0.0,0.0,0.0,0.0,0,1019.0,951.5,1,0,2,0,0.73,3.63,8.7,10.7,48,48,24.5,36.6,26.0,21.3,15.1,0.101,0.142,0.205,0.276,1,3600.0,897.5,779.9,117.7,867.7,897.5,1189.3,923.0,802.0,121.0,867.7,923.0,1223.1,Tracheophyta; Magnoliopsida; Vitis vinifera L.; Olea europaea L.; Castanea sativa Mill.
2005,2005-07-09,Viseu,Lamego,Penude,QUINTELA,41.090431,-7.821420418351966,NC,601.0,2005-07-09T14:00,29.8,28,9.6,31.1,0.0,0.0,0.0,0.0,0,1014.0,948.0,0,0,0,0,0.69,3.01,6.2,7.6,54,59,24.1,34.2,24.4,20.0,14.3,0.127,0.145,0.202,0.298,1,3600.0,899.2,789.2,110.0,875.9,899.2,1192.3,924.0,811.0,113.0,875.9,924.0,1225.2,Vitis vinifera L.; Magnoliopsida; Tracheophyta; Pinales; ; Pinus pinaster Aiton; Castanea sativa Mill.
2005,2005-07-12,Viseu,Mangualde,Alcafache,Quinta da Regadinha,40.5958198,-7.8596783,NC,405.0,2005-07-12T15:00,33.9,21,8.8,33.6,0.0,0.0,0.0,0.0,0,1016.3,971.7,10,0,16,0,0.61,4.15,7.6,9.0,270,270,31.7,38.6,27.4,22.3,16.1,0.092,0.157,0.232,0.304,1,3600.0,696.8,535.1,161.7,656.7,696.8,1078.4,737.0,566.0,171.0,656.7,737.0,1140.6,Pinus pinaster Aiton; Magnoliopsida; Tracheophyta; Vitis vinifera L.; Eucalyptus L'Hér.; Olea europaea L.
2005,2005-07-17,Viseu,Sátão,Rio de Moinhos,RIO DE MOINHOS,40.7144192,-7.6975145,NC,525.0,2005-07-17T00:00,17.2,84,14.5,17.8,0.0,0.0,0.0,0.0,0,1019.0,958.3,4,4,0,0,0.0,0.32,6.2,12.6,260,265,11.5,21.4,26.5,23.4,16.7,0.078,0.149,0.22,0.293,0,0.0,0.0,0.0,0.0,0.0,0.0,0.0,0.0,0.0,0.0,0.0,0.0,0.0,Tracheophyta; Pinus pinaster Aiton; Castanea sativa Mill.; Vitis vinifera L.; Magnoliopsida
2005,2005-07-12,Viseu,São Pedro do Sul,Valadares,BOAVISTA,40.7567749,-8.2009287,NC,312.0,2005-07-12T15:00,31.6,34,13.8,32.0,0.0,0.0,0.0,0.0,0,1017.0,982.2,4,0,6,0,0.65,3.06,14.0,17.4,282,283,38.5,37.4,27.5,22.4,16.7,0.096,0.144,0.223,0.315,1,3600.0,743.4,603.4,140.0,740.1,743.4,1079.1,786.0,638.0,148.0,740.1,786.0,1140.9,Pinus pinaster Aiton; Eucalyptus L'Hér.; Magnoliopsida; Tracheophyta; Quercus L.; Olea europaea L.; 
2005,2005-07-19,Viseu,Moimenta da Beira,Pêra Velha,CARAPITO,40.9223688,-7.6409018,NC,818.0,2005-07-19T13:00,28.8,26,7.6,29.9,0.0,0.0,0.0,0.0,0,1020.3,930.9,0,0,0,0,0.72,2.92,6.6,7.9,103,106,25.6,32.4,22.7,21.0,14.9,0.122,0.133,0.164,0.271,1,3600.0,970.7,856.9,113.9,916.4,970.7,1238.4,972.0,858.0,114.0,916.4,972.0,1240.0,Pinus pinaster Aiton; Magnoliopsida; Tracheophyta
2005,2005-07-09,Viseu,Viseu,Vila Chã de Sá,Soutulho,40.6117889,-7.9502938,NC,417.0,2005-07-09T14:00,31.3,28,10.7,32.9,0.0,0.0,0.0,0.0,0,1012.9,966.8,2,0,4,0,0.61,3.27,2.7,2.6,337,344,16.9,37.0,26.4,21.6,15.8,0.093,0.142,0.209,0.286,1,3600.0,796.0,669.5,126.5,740.9,796.0,1195.7,818.0,688.0,130.0,740.9,818.0,1228.8,Pinus pinaster Aiton; Tracheophyta; Olea europaea L.; Vitis vinifera L.
2005,2005-07-10,Viseu,Resende,Barrô,Cetos,41.1369549,-7.8744989,NC,318.0,2005-07-10T23:00,24.1,25,2.6,21.0,0.0,0.0,0.0,0.0,0,1017.6,981.2,0,0,0,0,0.11,2.26,9.5,26.1,81,84,33.5,24.8,26.2,21.1,15.5,0.097,0.159,0.245,0.317,0,0.0,0.0,0.0,0.0,0.0,0.0,0.0,0.0,0.0,0.0,0.0,0.0,0.0,Magnoliopsida; Pinus pinaster Aiton; Pinales; Vitis vinifera L.; Tracheophyta; Eucalyptus L'Hér.; Olea europaea L.; ; Quercus L.
2005,2005-07-13,Viseu,Lamego,Bigorne,Reconcos,41.00695425,-7.874142328049125,NC,951.0,2005-07-13T21:00,19.6,69,13.8,19.4,0.0,0.0,0.0,0.0,0,1016.2,910.5,1,0,1,0,0.03,0.7,9.4,14.4,270,273,25.6,24.2,24.7,19.2,13.2,0.11,0.147,0.223,0.312,0,0.0,0.0,0.0,0.0,0.0,0.0,0.0,0.0,0.0,0.0,0.0,0.0,0.0,Tracheophyta; Magnoliopsida; Pinus pinaster Aiton; Pinales; Castanea sativa Mill.; 
2005,2005-06-21,Viseu,Lamego,Penajóia,Fiéis de Deus,41.1456323,-7.8517173,NC,322.0,2005-06-21T18:00,28.2,48,16.0,28.6,0.0,0.0,0.0,0.0,0,1015.6,979.3,0,0,0,0,0.32,2.0,10.8,14.6,300,303,29.2,31.2,25.5,19.8,13.5,0.119,0.191,0.283,0.325,1,3600.0,324.7,258.8,65.9,718.9,324.7,476.8,404.0,322.0,82.0,718.9,404.0,593.2,Tracheophyta; Magnoliopsida; Vitis vinifera L.; Pinales
2005,2005-06-22,Viseu,Cinfães,Cinfães,ARRANHADOURO,41.0721651,-8.0894728,NC,400.0,2005-06-22T08:00,25.8,56,16.4,27.0,0.0,0.0,0.0,0.0,1,1015.4,970.2,21,0,12,47,0.25,1.46,7.2,11.0,93,101,20.2,23.2,22.1,19.4,13.4,0.14,0.177,0.27,0.335,1,3600.0,421.0,299.5,121.5,582.8,421.0,680.5,350.0,249.0,101.0,582.8,350.0,565.8,Eucalyptus L'Hér.; Tracheophyta; Pinus pinaster Aiton; Quercus L.; Magnoliopsida
2005,2005-07-26,Viseu,Nelas,Nelas,NELAS,40.51924,-7.859607564669652,NC,422.0,2005-07-26T15:00,24.3,51,13.6,23.0,0.0,0.0,0.0,0.0,3,1010.2,962.6,100,88,17,91,0.35,1.47,16.6,22.6,198,197,42.1,28.0,23.2,22.3,17.5,0.101,0.149,0.218,0.299,1,3308.12,400.1,135.9,264.2,170.3,400.1,1058.1,424.0,144.0,280.0,170.3,424.0,1121.4,Pinus pinaster Aiton; Magnoliopsida; Vitis vinifera L.; Tracheophyta
2005,2005-06-25,Viseu,Santa Comba Dão,Treixedo,TREIXEDO,40.43897785,-8.10220135326528,NC,279.0,2005-06-25T12:00,22.7,47,10.8,21.8,0.0,0.0,0.0,0.0,1,1015.8,983.7,47,52,0,0,0.44,1.46,10.3,12.7,241,241,29.2,27.5,22.7,20.8,14.2,0.103,0.147,0.219,0.277,1,3600.0,637.6,326.5,311.1,344.5,637.6,1254.5,623.0,319.0,304.0,344.5,623.0,1225.8,Tracheophyta; Eucalyptus L'Hér.; Pinus pinaster Aiton; Magnoliopsida
2005,2005-07-11,Viseu,Cinfães,Travanca,Campinhos,41.0319865,-8.228615,NC,101.0,2005-07-11T04:00,23.5,36,7.4,19.5,0.0,0.0,0.0,0.0,0,1016.9,1005.2,0,0,0,0,0.2,1.86,22.7,38.2,88,91,45.4,24.1,26.5,21.8,16.6,0.101,0.163,0.251,0.328,0,0.0,0.0,0.0,0.0,0.0,0.0,0.0,0.0,0.0,0.0,0.0,0.0,0.0,Pinus pinaster Aiton; Magnoliopsida; Tracheophyta; Eucalyptus L'Hér.; Vitis vinifera L.; Quercus L.; 
2005,2005-07-19,Viseu,Nelas,Senhorim,VILA RUIVA,40.5415278,-7.7683341,NC,465.0,2005-07-19T14:00,32.1,21,6.9,33.6,0.0,0.0,0.0,0.0,0,1019.0,967.6,0,0,0,0,0.69,3.78,2.3,3.6,129,127,17.3,39.7,25.6,23.3,17.1,0.078,0.145,0.211,0.288,1,3600.0,919.2,811.2,108.0,906.2,919.2,1185.6,945.0,834.0,111.0,906.2,945.0,1218.9,Magnoliopsida; Pinus pinaster Aiton; Olea europaea L.; Tracheophyta
2005,2005-07-14,Viseu,Viseu,Vila Chã de Sá,VILA CHÃ DE SÁ,40.60466855,-7.956303764477298,NC,389.0,2005-07-14T04:00,19.2,81,15.8,20.7,0.0,0.0,0.0,0.0,0,1015.7,970.8,19,21,0,0,0.0,0.43,3.6,5.2,264,282,6.5,20.5,26.5,22.8,16.5,0.093,0.14,0.201,0.283,0,0.0,0.0,0.0,0.0,0.0,0.0,0.0,0.0,0.0,0.0,0.0,0.0,0.0,Tracheophyta; Olea europaea L.; Pinus pinaster Aiton; Magnoliopsida; Vitis vinifera L.
2005,2005-07-29,Viseu,Oliveira de Frades,Ribeiradio,Campanário,40.732458,-8.3015913,NC,247.0,2005-07-29T16:00,21.8,55,12.3,20.4,0.0,0.0,0.0,0.0,1,1020.8,992.1,29,24,13,0,0.39,1.19,16.4,21.0,303,305,37.1,26.1,22.2,21.8,18.1,0.197,0.139,0.192,0.29,1,3600.0,540.5,422.2,118.3,630.0,540.5,889.2,594.0,464.0,130.0,630.0,594.0,977.2,Eucalyptus L'Hér.; Pinus pinaster Aiton; Magnoliopsida; Tracheophyta; Quercus L.; Olea europaea L.
2005,2005-07-11,Viseu,Resende,São João de Fontoura,SANTIAGO,41.1069315,-7.9181849,NC,232.0,2005-07-11T08:00,22.6,46,10.5,20.0,0.0,0.0,0.0,0.0,0,1019.5,992.6,1,0,1,0,0.29,1.48,19.5,28.5,93,92,45.7,23.9,25.0,21.7,16.1,0.097,0.159,0.245,0.317,1,3600.0,424.9,331.2,93.8,673.1,424.9,651.1,349.0,272.0,77.0,673.1,349.0,534.7,Magnoliopsida; Olea europaea L.; Pinales; Vitis vinifera L.; ; Pinus pinaster Aiton
2005,2005-07-30,Viseu,Carregal do Sal,Oliveira do Conde,Travanca de São Tomé,40.4605808,-7.9907626,NC,287.0,2005-07-30T00:00,14.3,90,12.7,14.3,0.0,0.0,0.0,0.0,0,1021.5,987.4,2,2,0,0,0.0,0.17,6.1,10.6,315,332,13.3,16.8,21.9,22.0,17.8,0.151,0.135,0.177,0.265,0,0.0,0.0,0.0,0.0,0.0,0.0,0.0,0.0,0.0,0.0,0.0,0.0,0.0,Tracheophyta; Magnoliopsida; Pinus pinaster Aiton; Vitis vinifera L.
2005,2005-07-30,Viseu,Lamego,Figueira,FIGUEIRA,41.1024727,-7.7607833,NC,485.0,2005-07-30T08:00,15.3,85,12.7,15.8,0.0,0.0,0.0,0.0,2,1021.2,964.5,77,86,0,0,0.13,0.26,1.9,4.8,68,27,13.7,18.1,19.2,20.7,16.5,0.193,0.146,0.188,0.297,1,3600.0,319.3,146.6,172.7,318.3,319.3,611.2,257.0,118.0,139.0,318.3,257.0,491.9,Vitis vinifera L.; Magnoliopsida; Tracheophyta; Olea europaea L.; Pinales; 
2005,2005-07-05,Viseu,Cinfães,Ferreiros de Tendais,Covelas,41.0391511,-8.0512865,NC,298.0,2005-07-05T21:00,20.1,70,14.5,20.7,0.0,0.0,0.0,0.0,0,1018.3,983.7,0,0,0,0,0.01,0.7,6.4,16.4,317,331,22.7,23.1,23.1,19.6,14.9,0.113,0.174,0.264,0.336,0,0.0,0.0,0.0,0.0,0.0,0.0,0.0,0.0,0.0,0.0,0.0,0.0,0.0,Tracheophyta; Magnoliopsida; Quercus L.; Pinus pinaster Aiton; 
2005,2005-07-02,Viseu,Resende,São João de Fontoura,Quinta do Bairro,41.1069315,-7.9181849,NC,232.0,2005-07-02T16:00,31.4,40,16.1,32.6,0.0,0.0,0.0,0.0,0,1016.4,990.4,0,0,0,0,0.6,2.76,12.9,16.4,297,299,30.6,33.6,24.1,20.2,15.3,0.126,0.175,0.264,0.321,1,3600.0,675.7,578.8,96.9,833.4,675.7,918.8,739.0,633.0,106.0,833.4,739.0,1004.9,Magnoliopsida; Olea europaea L.; Pinales; Vitis vinifera L.; ; Pinus pinaster Aiton
2005,2005-07-02,Viseu,Cinfães,Ferreiros de Tendais,Pelisqueira,41.0493359,-8.0566131,NC,316.0,2005-07-02T23:00,18.9,95,18.1,21.0,0.0,0.0,0.0,0.0,0,1018.0,981.2,0,0,0,0,0.0,0.11,5.6,6.1,243,267,9.7,21.4,23.2,19.2,14.5,0.133,0.18,0.27,0.338,0,0.0,0.0,0.0,0.0,0.0,0.0,0.0,0.0,0.0,0.0,0.0,0.0,0.0,Tracheophyta; Magnoliopsida; Quercus L.; Pinus pinaster Aiton; 
2005,2005-07-11,Viseu,Sátão,Romãs,Silvã de Baixo,40.7243966,-7.6680102,NC,500.0,2005-07-11T10:00,26.9,33,9.4,25.5,0.0,0.0,0.0,0.0,0,1020.7,964.5,0,0,0,0,0.55,2.37,15.0,19.7,73,75,38.2,30.0,26.3,22.7,16.2,0.078,0.154,0.227,0.295,1,3600.0,775.5,666.8,108.8,843.3,775.5,1046.3,713.0,613.0,100.0,843.3,713.0,961.9,Olea europaea L.; Vitis vinifera L.; Castanea sativa Mill.; Magnoliopsida
2005,2005-07-10,Viseu,Armamar,Folgosa,FOLGOSA \ VG,41.1516885,-7.6797037,NC,86.0,2005-07-10T14:00,33.1,21,8.0,32.8,0.0,0.0,0.0,0.0,0,1015.5,1005.8,0,0,0,0,0.79,3.99,13.3,18.1,93,95,35.6,38.1,28.4,24.0,17.5,0.128,0.142,0.175,0.281,1,3600.0,925.1,816.1,108.9,907.8,925.1,1189.7,951.0,839.0,112.0,907.8,951.0,1223.0,Tracheophyta; Olea europaea L.; Vitis vinifera L.
2005,2005-07-11,Viseu,Viseu,Mundão,BRITAMONTES,40.6870727,-7.8758901,NC,502.0,2005-07-11T15:00,33.2,23,9.1,33.8,0.0,0.0,0.0,0.0,0,1018.3,963.1,7,0,12,0,0.61,3.92,4.6,6.0,18,17,19.4,39.6,27.3,21.9,15.7,0.083,0.155,0.234,0.306,1,3600.0,745.1,626.0,119.1,767.7,745.1,1079.0,788.0,662.0,126.0,767.7,788.0,1141.1,Tracheophyta; Magnoliopsida; Pinus pinaster Aiton
2005,2005-07-03,Viseu,São João da Pesqueira,Ervedosa do Douro,SENHORA VENCIMENTO,41.1655541,-7.4734152,NC,561.0,2005-07-03T13:00,31.5,26,9.9,32.0,0.0,0.0,0.0,0.0,0,1013.9,952.4,0,0,0,0,0.75,3.39,11.2,14.0,249,247,32.8,38.0,26.2,21.0,14.6,0.121,0.151,0.17,0.269,1,3600.0,940.7,817.0,123.7,864.3,940.7,1250.7,943.0,819.0,124.0,864.3,943.0,1253.8,Olea europaea L.; Vitis vinifera L.; Magnoliopsida; Tracheophyta
2005,2005-07-30,Viseu,São João da Pesqueira,São João da Pesqueira,SÃO JOÃO DA PESQUEIRA,41.14216785,-7.413788551003492,NC,649.0,2005-07-30T15:00,25.0,26,4.3,24.0,0.0,0.0,0.0,0.0,0,1017.4,945.0,0,0,0,0,0.6,2.34,9.5,11.9,335,335,27.0,32.6,22.6,22.0,17.2,0.119,0.149,0.167,0.265,1,3600.0,806.5,706.6,99.9,900.0,806.5,1042.0,856.0,750.0,106.0,900.0,856.0,1105.9,Magnoliopsida; Vitis vinifera L.; Olea europaea L.; Tracheophyta
2005,2005-07-20,Viseu,Lamego,Samodães,SAMODÃES,41.1385294,-7.8363635,NC,321.0,2005-07-20T05:00,18.5,61,10.8,17.4,0.0,0.0,0.0,0.0,0,1021.2,983.6,0,0,0,0,0.04,0.83,9.4,23.1,83,86,33.1,20.1,25.5,22.9,16.9,0.133,0.147,0.174,0.286,0,0.0,0.0,0.0,0.0,0.0,0.0,0.0,0.0,0.0,0.0,0.0,0.0,0.0,Magnoliopsida; Vitis vinifera L.; Pinales; ; Tracheophyta
2005,2005-07-30,Viseu,Cinfães,Espadanedo,Trigais,41.0838811,-8.2020234,NC,257.0,2005-07-30T16:00,24.6,42,11.0,22.1,0.0,0.0,0.0,0.0,0,1018.1,988.6,0,0,0,0,0.53,1.78,24.3,32.5,333,335,49.7,27.8,21.7,21.1,17.5,0.194,0.152,0.224,0.323,1,3600.0,663.0,568.4,94.6,854.3,663.0,882.9,729.0,625.0,104.0,854.3,729.0,970.9,Quercus L.; Tracheophyta; Magnoliopsida; Pinus pinaster Aiton; Eucalyptus L'Hér.; Vitis vinifera L.; 
2005,2005-07-08,Viseu,Cinfães,Espadanedo,ESPADANEDO,41.08241005,-8.199574846678104,NC,316.0,2005-07-08T03:00,20.3,42,7.1,16.5,0.0,0.0,0.0,0.0,0,1012.9,976.4,0,0,0,0,0.15,1.37,20.9,37.8,91,91,49.0,20.9,23.4,19.8,15.0,0.106,0.169,0.259,0.335,0,0.0,0.0,0.0,0.0,0.0,0.0,0.0,0.0,0.0,0.0,0.0,0.0,0.0,Quercus L.; Tracheophyta; Magnoliopsida; Pinus pinaster Aiton; Eucalyptus L'Hér.; Vitis vinifera L.; 
2005,2005-07-11,Viseu,Resende,Barrô,CETOS,41.1369549,-7.8744989,NC,318.0,2005-07-11T15:00,33.5,23,9.3,34.6,0.0,0.0,0.0,0.0,0,1018.5,983.2,0,0,0,0,0.65,3.99,4.3,5.8,355,356,19.1,37.5,26.1,21.2,15.6,0.096,0.157,0.244,0.317,1,3600.0,809.3,704.4,105.0,867.2,809.3,1074.9,856.0,745.0,111.0,867.2,856.0,1136.9,Magnoliopsida; Pinus pinaster Aiton; Pinales; Vitis vinifera L.; Tracheophyta; Eucalyptus L'Hér.; Olea europaea L.; ; Quercus L.
2005,2005-06-25,Viseu,Resende,São João de Fontoura,Forjães,41.0918046,-7.917924,NC,650.0,2005-06-25T22:00,16.2,86,13.9,16.5,0.0,0.0,0.0,0.0,0,1017.6,943.0,10,3,0,24,0.0,0.26,6.4,9.8,297,306,13.3,19.4,21.7,19.0,12.6,0.135,0.171,0.257,0.314,0,0.0,0.0,0.0,0.0,0.0,0.0,0.0,0.0,0.0,0.0,0.0,0.0,0.0,Magnoliopsida; Olea europaea L.; Pinales; Vitis vinifera L.; ; Eucalyptus L'Hér.; Pinus pinaster Aiton
2005,2005-07-10,Viseu,Mangualde,Chãs de Tavares,Matados \ POV,40.6235603,-7.6098364,NC,630.0,2005-07-10T14:00,31.4,22,6.9,31.2,0.0,0.0,0.0,0.0,0,1015.1,946.3,0,0,0,0,0.76,3.61,11.2,13.7,69,72,26.3,39.7,27.0,22.4,15.7,0.075,0.144,0.206,0.28,1,3600.0,922.8,812.0,110.9,900.8,922.8,1192.8,949.0,835.0,114.0,900.8,949.0,1226.6,Tracheophyta; Magnoliopsida; Eucalyptus L'Hér.; Pinus pinaster Aiton; Vitis vinifera L.
2005,2005-07-04,Viseu,Mangualde,Chãs de Tavares,CHÃS DE TAVARES,40.621985,-7.611025,NC,618.0,2005-07-04T13:00,27.8,34,10.4,27.5,0.0,0.0,0.0,0.0,1,1015.3,947.0,42,21,20,37,0.66,2.47,14.2,18.2,9,9,37.8,35.2,25.5,21.5,15.1,0.075,0.147,0.212,0.282,1,3600.0,860.0,693.4,166.6,731.5,860.0,1254.2,862.0,695.0,167.0,731.5,862.0,1257.2,Magnoliopsida; Tracheophyta; Eucalyptus L'Hér.; Pinus pinaster Aiton; Vitis vinifera L.
2005,2005-07-08,Viseu,Resende,São Martinho de Mouros,Cantim,41.1025369,-7.8977383,NC,375.0,2005-07-08T06:00,17.3,54,8.0,13.8,0.0,0.0,0.0,0.0,0,1012.9,969.4,0,0,0,0,0.11,0.9,20.4,35.7,76,75,51.1,19.2,23.2,20.1,14.9,0.1,0.165,0.252,0.319,1,715.68,58.7,29.4,29.4,206.3,34.5,188.3,26.0,13.0,13.0,121.1,26.0,83.4,Olea europaea L.; Tracheophyta; Magnoliopsida; Eucalyptus L'Hér.; Pinus pinaster Aiton; Pinales
2005,2005-07-14,Viseu,Lamego,Britiande,BRITIANDE,41.06324085,-7.792033587441802,NC,580.0,2005-07-14T13:00,29.3,36,12.7,30.7,0.0,0.0,0.0,0.0,0,1015.6,951.6,0,0,0,0,0.74,2.61,12.3,15.8,238,235,36.0,34.7,25.5,21.3,14.9,0.124,0.142,0.192,0.296,1,3600.0,974.6,863.8,110.8,919.7,974.6,1243.1,976.0,865.0,111.0,919.7,976.0,1244.9,Vitis vinifera L.; Magnoliopsida; Tracheophyta
2005,2005-07-11,Viseu,Resende,Resende,BOAVISTA,41.105831,-7.9644114,NC,240.0,2005-07-11T15:00,33.7,24,10.4,33.7,0.0,0.0,0.0,0.0,0,1018.2,991.4,2,0,4,0,0.73,3.97,12.6,15.5,297,301,26.3,37.5,26.3,21.2,15.7,0.097,0.161,0.249,0.324,1,3600.0,812.8,706.8,106.0,867.0,812.8,1078.8,859.0,747.0,112.0,867.0,859.0,1140.1,Tracheophyta; Magnoliopsida; Pinales; Eucalyptus L'Hér.; Vitis vinifera L.
2005,2005-04-30,Viseu,Carregal do Sal,Oliveira do Conde,OLIVEIRINHA,40.4436102,-7.979785,NC,306.0,2005-04-30T12:00,22.8,45,10.3,23.1,0.0,0.0,0.0,0.0,0,1011.8,976.8,1,0,0,2,0.59,1.52,12.6,16.1,211,209,35.3,22.2,15.5,12.5,10.3,0.233,0.282,0.284,0.283,1,3600.0,942.8,835.3,107.5,932.4,942.8,1208.1,921.0,816.0,105.0,932.4,921.0,1180.2,Tracheophyta; Vitis vinifera L.; Pinus pinaster Aiton; Magnoliopsida
2005,2005-07-12,Viseu,Cinfães,Ferreiros de Tendais,Covelos,41.0473603,-8.0470246,NC,579.0,2005-07-12T14:00,32.1,26,10.4,34.8,0.0,0.0,0.0,0.0,0,1017.3,953.8,1,0,1,0,0.69,3.52,0.8,1.3,153,146,21.2,36.6,25.4,20.8,15.1,0.103,0.151,0.235,0.332,1,3600.0,913.2,802.2,111.0,890.8,913.2,1191.8,938.0,824.0,114.0,890.8,938.0,1224.1,Tracheophyta; Magnoliopsida; Quercus L.; Pinus pinaster Aiton; 
2005,2005-07-14,Viseu,Tarouca,Vila Chã da Beira,Vila Chã da Beira,41.0258316,-7.6875348474997,NC,811.0,2005-07-14T17:00,28.0,35,11.1,26.2,0.0,0.0,0.0,0.0,0,1014.8,926.3,0,0,0,0,0.48,2.46,15.7,20.2,259,259,35.3,34.0,26.4,20.8,14.2,0.121,0.134,0.18,0.288,1,3600.0,508.1,429.0,79.0,811.5,508.1,699.8,585.0,494.0,91.0,811.5,585.0,805.7,Magnoliopsida; Castanea sativa Mill.; Pinus pinaster Aiton; Tracheophyta; Pinales
2005,2005-07-05,Viseu,Resende,Resende,RESENDE,41.105831,-7.9644114,NC,240.0,2005-07-05T05:00,14.2,74,9.7,13.3,0.0,0.0,0.0,0.0,0,1019.8,991.2,2,0,0,6,0.0,0.42,5.9,9.4,349,358,15.8,15.6,21.7,20.1,15.1,0.115,0.177,0.264,0.328,0,0.0,0.0,0.0,0.0,0.0,0.0,0.0,0.0,0.0,0.0,0.0,0.0,0.0,Tracheophyta; Magnoliopsida; Pinales; Eucalyptus L'Hér.; Vitis vinifera L.
2005,2005-02-02,Viseu,Penalva do Castelo,Castelo de Penalva,PONTE DE SANTA CLARA,40.6622301,-7.6488717,NC,464.0,2005-02-02T01:00,4.3,81,1.4,-0.1,0.0,0.0,0.0,0.0,0,1030.9,974.0,0,0,0,0,0.01,0.15,17.4,33.7,63,67,39.6,3.1,4.4,5.5,10.2,0.243,0.273,0.293,0.303,0,0.0,0.0,0.0,0.0,0.0,0.0,0.0,0.0,0.0,0.0,0.0,0.0,0.0,Tracheophyta; Magnoliopsida; Pinus pinaster Aiton; Vitis vinifera L.
2005,2005-07-11,Viseu,Lamego,Britiande,BRITIANDE,41.06324085,-7.792033587441802,NC,580.0,2005-07-11T16:00,32.8,19,6.1,31.9,0.0,0.0,0.0,0.0,0,1018.2,954.7,4,0,7,0,0.57,4.03,6.5,8.2,19,23,21.2,36.4,26.1,20.6,14.6,0.124,0.143,0.197,0.298,1,3600.0,655.5,555.0,100.4,807.8,655.5,909.3,718.0,608.0,110.0,807.8,718.0,996.0,Vitis vinifera L.; Magnoliopsida; Tracheophyta
2005,2005-07-20,Viseu,Nelas,Senhorim,Póvoa de Luzianes,40.5398434,-7.8207072,NC,374.0,2005-07-20T12:00,34.3,17,5.5,35.0,0.0,0.0,0.0,0.0,0,1020.5,979.1,0,0,0,0,0.72,4.52,4.8,6.2,193,187,19.4,39.6,26.9,23.7,17.6,0.074,0.148,0.221,0.299,1,3600.0,958.7,845.9,112.8,909.0,958.7,1232.7,935.0,825.0,110.0,909.0,935.0,1202.2,Tracheophyta; Olea europaea L.; Magnoliopsida; Castanea sativa Mill.; Pinus pinaster Aiton; Vitis vinifera L.
2005,2005-07-08,Viseu,Lamego,Penude,PENUDE,41.090431,-7.821420418351966,NC,601.0,2005-07-08T09:00,19.8,48,8.4,16.6,0.0,0.0,0.0,0.0,0,1015.5,947.2,0,0,0,0,0.36,1.21,19.0,26.4,71,73,49.7,23.0,22.7,19.8,14.1,0.129,0.146,0.205,0.299,1,3600.0,621.7,516.2,105.5,783.0,621.7,872.2,548.0,455.0,93.0,783.0,548.0,768.9,Vitis vinifera L.; Magnoliopsida; Tracheophyta; Pinales; ; Pinus pinaster Aiton; Castanea sativa Mill.
2005,2005-07-11,Viseu,Santa Comba Dão,Santa Comba Dão,SANTA COMBA DÃO,40.399988750000006,-8.131110454043977,NC,193.0,2005-07-11T12:00,32.6,31,13.1,34.4,0.0,0.0,0.0,0.0,0,1018.3,996.6,3,0,5,0,0.7,3.42,8.2,10.3,113,115,29.9,36.1,27.4,22.4,16.3,0.098,0.137,0.193,0.27,1,3600.0,899.1,775.0,124.0,824.8,899.1,1243.4,877.0,756.0,121.0,824.8,877.0,1212.9,Tracheophyta; Magnoliopsida; Quercus suber L.; Pinus pinaster Aiton
2005,2005-07-08,Viseu,Moimenta da Beira,Castelo,Ronho,41.0372792,-7.6217651,NC,696.0,2005-07-08T10:00,21.7,42,8.1,19.6,0.0,0.0,0.0,0.0,0,1015.2,937.1,0,0,0,0,0.48,1.52,17.3,22.9,67,68,43.6,25.7,23.8,20.7,14.5,0.124,0.135,0.177,0.28,1,3600.0,778.9,664.9,114.1,837.8,778.9,1050.1,717.0,612.0,105.0,837.8,717.0,966.6,Tracheophyta; Olea europaea L.; Magnoliopsida; Pinus pinaster Aiton; Castanea sativa Mill.
2005,2005-07-13,Viseu,Viseu,Bodiosa,TRAVANCA,40.7131621,-7.9599125,NC,474.0,2005-07-13T09:00,25.8,38,10.5,25.3,0.0,0.0,0.0,0.0,0,1017.2,963.8,0,0,0,0,0.37,2.06,5.0,7.2,90,93,22.3,27.4,25.2,21.8,15.7,0.098,0.141,0.21,0.292,1,3600.0,606.5,505.2,101.3,774.3,606.5,863.5,533.0,444.0,89.0,774.3,533.0,758.9,Tracheophyta; Magnoliopsida; Pinus pinaster Aiton
2005,2005-07-11,Viseu,Cinfães,Santiago de Piães,SEIXEDO,41.0701644,-8.1554173,NC,342.0,2005-07-11T17:00,28.8,39,13.5,27.6,0.0,0.0,0.0,0.0,0,1019.3,980.8,8,0,13,0,0.47,2.41,16.0,21.3,293,296,43.2,34.1,26.3,20.5,15.1,0.1,0.16,0.248,0.332,1,3600.0,475.7,395.6,80.2,736.1,475.7,711.2,546.0,454.0,92.0,736.1,546.0,816.2,Magnoliopsida; Pinus pinaster Aiton; Quercus L.; Tracheophyta; Eucalyptus L'Hér.; Castanea sativa Mill.; 
2005,2005-06-26,Viseu,Cinfães,São Cristovão De Nogueira,CADIS,41.0475884,-8.1470812,NC,618.0,2005-06-26T14:00,25.8,40,11.1,26.5,0.0,0.0,0.0,0.0,1,1016.2,947.4,26,9,27,6,0.63,2.0,11.0,14.4,238,238,34.9,29.8,21.3,19.1,13.2,0.118,0.186,0.278,0.338,1,3600.0,869.7,750.1,119.7,828.0,869.7,1199.0,894.0,771.0,123.0,828.0,894.0,1232.4,Quercus L.; Tracheophyta; Magnoliopsida
2005,2005-07-11,Viseu,São João da Pesqueira,Paredes da Beira,VALE,41.0647773,-7.4754716,NC,780.0,2005-07-11T18:00,31.7,15,1.5,28.9,0.0,0.0,0.0,0.0,0,1017.4,932.9,15,0,25,0,0.3,3.99,6.5,8.0,360,5,18.4,34.9,27.3,21.2,14.5,0.129,0.143,0.166,0.27,1,3600.0,271.9,202.3,69.6,571.9,271.9,468.2,340.0,253.0,87.0,571.9,340.0,585.5,Magnoliopsida; Olea europaea L.; Tracheophyta; Castanea sativa Mill.; Pinus pinaster Aiton
2005,2005-07-08,Viseu,Cinfães,Ferreiros de Tendais,Prelada,41.0473603,-8.0470246,NC,579.0,2005-07-08T16:00,30.3,30,11.0,30.9,0.0,0.0,0.0,0.0,0,1011.6,948.1,7,0,11,0,0.56,3.0,6.0,7.8,73,77,22.0,34.1,24.4,19.8,14.7,0.106,0.157,0.245,0.335,1,3600.0,675.5,580.4,95.1,838.0,675.5,916.4,739.0,635.0,104.0,838.0,739.0,1002.6,Tracheophyta; Magnoliopsida; Quercus L.; Pinus pinaster Aiton; 
2005,2005-07-08,Viseu,Castro Daire,Castro Daire,LAMELAS,40.9228804,-7.9403164,NC,713.0,2005-07-08T20:00,26.8,34,9.7,25.4,0.0,0.0,0.0,0.0,0,1011.5,933.2,4,0,7,0,0.11,2.32,9.1,16.8,34,43,20.2,27.8,24.5,19.3,13.9,0.106,0.156,0.241,0.321,1,2169.76,1.9,1.1,0.8,12.7,1.4,4.6,51.0,29.0,22.0,229.1,51.0,120.9,Magnoliopsida; Pinus pinaster Aiton; Tracheophyta; Quercus L.; Olea europaea L.
2005,2005-07-09,Viseu,Moimenta da Beira,Aldeia de Nacomba,ALDEIA DE NACOMBA,40.9574126,-7.613651,NC,822.0,2005-07-09T00:00,21.7,30,3.6,17.7,0.0,0.0,0.0,0.0,0,1014.1,922.8,0,0,0,1,0.16,1.81,17.2,31.1,61,65,41.0,23.5,25.1,20.0,13.8,0.123,0.135,0.176,0.28,0,0.0,0.0,0.0,0.0,0.0,0.0,0.0,0.0,0.0,0.0,0.0,0.0,0.0,Tracheophyta; Magnoliopsida; Castanea sativa Mill.; Pinus pinaster Aiton
2005,2005-07-31,Viseu,Viseu,Couto de Baixo,MOSTEIRINHO,40.6574327,-8.007147,NC,385.0,2005-07-31T14:00,27.4,35,10.7,28.8,0.0,0.0,0.0,0.0,0,1013.8,970.6,0,0,0,0,0.67,2.37,7.9,9.4,313,317,24.5,31.3,22.1,21.5,17.9,0.148,0.138,0.19,0.284,1,3600.0,901.4,793.4,107.9,903.0,901.4,1166.4,927.0,816.0,111.0,903.0,927.0,1199.5,Pinus pinaster Aiton; Magnoliopsida; Tracheophyta; Eucalyptus L'Hér.
2005,2005-07-05,Viseu,Tondela,Canas de Santa Maria,Póvoa do Arcediago,40.5528608,-8.0355727,NC,335.0,2005-07-05T14:00,28.9,35,11.8,30.2,0.0,0.0,0.0,0.0,0,1016.1,978.5,0,0,0,0,0.7,2.6,10.4,13.0,360,3,29.2,34.2,23.7,20.8,15.5,0.098,0.14,0.206,0.278,1,3600.0,918.7,805.8,112.9,889.1,918.7,1199.1,944.0,828.0,116.0,889.1,944.0,1232.2,Tracheophyta; Vitis vinifera L.; Magnoliopsida; Pinus pinea L.
2005,2005-08-03,Viseu,Tondela,Lajeosa do Dão,LAGEOSA,40.5042963,-7.9872116,NC,281.0,2005-08-03T21:00,26.5,24,4.5,23.5,0.0,0.0,0.0,0.0,0,1018.5,986.5,0,0,0,0,0.14,2.62,11.3,16.9,9,20,19.8,27.5,26.2,21.9,18.2,0.1,0.134,0.173,0.263,0,0.0,0.0,0.0,0.0,0.0,0.0,0.0,0.0,0.0,0.0,0.0,0.0,0.0,Magnoliopsida; Tracheophyta; Pinus pinaster Aiton; Pinales; Eucalyptus L'Hér.
2005,2005-07-13,Viseu,Sernancelhe,Quintela,LAPA,40.8787313,-7.5750534,NC,941.0,2005-07-13T11:00,28.0,28,7.7,28.4,0.0,0.0,0.0,0.0,0,1016.8,914.8,0,0,0,0,0.62,2.74,6.3,7.9,114,114,24.5,30.9,24.4,20.0,13.5,0.122,0.134,0.169,0.272,1,3600.0,902.3,790.7,111.6,894.1,902.3,1170.5,857.0,751.0,106.0,894.1,857.0,1111.7,Tracheophyta; Magnoliopsida; Pinus pinaster Aiton; Castanea sativa Mill.; Pinales; 
2005,2005-07-15,Viseu,Viseu,Bodiosa,Travanca,40.7196451,-7.9643634,NC,454.0,2005-07-15T09:00,21.1,60,13.0,21.5,0.0,0.0,0.0,0.0,0,1018.8,966.7,0,0,0,0,0.29,1.01,3.7,4.2,241,239,15.8,24.3,24.0,22.2,16.0,0.098,0.14,0.207,0.291,1,3600.0,518.2,314.4,203.9,483.9,518.2,859.9,455.0,276.0,179.0,483.9,455.0,754.9,Tracheophyta; Pinus pinaster Aiton; Magnoliopsida
2005,2005-07-13,Viseu,Cinfães,Fornelos,SARABAGOS,41.029825,-8.1811825,NC,702.0,2005-07-13T12:00,28.8,36,12.4,31.7,0.0,0.0,0.0,0.0,0,1016.8,939.7,0,0,0,0,0.67,2.53,2.6,2.9,196,187,22.7,33.1,23.9,20.0,14.3,0.098,0.155,0.243,0.329,1,3600.0,954.4,838.6,115.8,897.4,954.4,1236.8,931.0,818.0,113.0,897.4,931.0,1206.4,Quercus L.; Eucalyptus L'Hér.; Magnoliopsida; Vitis vinifera L.; Tracheophyta; Pinales; 
2005,2005-07-20,Viseu,Sernancelhe,Carregal,FORCA,40.9022213,-7.5622314,NC,675.0,2005-07-20T13:00,33.2,18,5.6,34.1,0.0,0.0,0.0,0.0,0,1020.9,947.4,0,0,0,0,0.74,4.17,4.8,5.9,167,169,20.2,36.6,24.9,21.5,15.7,0.101,0.138,0.194,0.273,1,3600.0,968.8,857.9,110.9,918.2,968.8,1237.6,970.0,859.0,111.0,918.2,970.0,1239.2,Pinus pinaster Aiton; Vitis vinifera L.; Magnoliopsida; Tracheophyta; Quercus L.; Castanea sativa Mill.; Acacia Mill.; Pinales; 
2005,2005-07-09,Viseu,Viseu,Rio de Loba,Travassós de Cima,40.6726705,-7.8763994,NC,490.0,2005-07-09T02:00,22.1,35,5.8,18.4,0.0,0.0,0.0,0.0,0,1013.4,957.8,3,0,3,3,0.16,1.74,18.2,32.8,65,69,42.1,23.4,26.1,21.4,15.5,0.084,0.158,0.239,0.307,0,0.0,0.0,0.0,0.0,0.0,0.0,0.0,0.0,0.0,0.0,0.0,0.0,0.0,Tracheophyta; Pinus pinaster Aiton; Magnoliopsida; Vitis vinifera L.
2005,2005-07-10,Viseu,Cinfães,Cinfães,CAMPIM,41.0721651,-8.0894728,NC,400.0,2005-07-10T23:00,24.7,22,1.6,20.8,0.0,0.0,0.0,0.0,0,1016.1,970.7,1,0,1,0,0.16,2.42,14.0,30.9,78,78,36.7,24.7,25.9,20.6,15.2,0.121,0.144,0.223,0.328,0,0.0,0.0,0.0,0.0,0.0,0.0,0.0,0.0,0.0,0.0,0.0,0.0,0.0,Eucalyptus L'Hér.; Tracheophyta; Pinus pinaster Aiton; Quercus L.; Magnoliopsida
2005,2005-02-01,Viseu,Cinfães,Moimenta,MOIMENTA,41.05379435,-8.195334808553673,NC,412.0,2005-02-01T15:00,10.6,57,2.4,7.3,0.0,0.0,0.0,0.0,0,1029.4,979.8,3,2,2,0,0.2,0.55,10.6,14.4,66,68,28.8,7.2,3.1,5.3,9.6,0.316,0.325,0.346,0.339,1,3600.0,393.2,329.1,64.0,800.4,393.2,579.3,436.0,365.0,71.0,800.4,436.0,642.5,Magnoliopsida; Eucalyptus L'Hér.; Tracheophyta; Pinus pinaster Aiton; Castanea sativa Mill.; Quercus L.; 
2005,2005-07-20,Viseu,Cinfães,São Cristovão De Nogueira,Capelões,41.0736335,-8.1294062,NC,269.0,2005-07-20T13:00,33.7,27,12.2,36.4,0.0,0.0,0.0,0.0,0,1020.2,990.2,0,0,0,0,0.74,3.82,4.5,5.5,194,191,18.0,35.0,24.1,21.0,16.2,0.107,0.153,0.236,0.324,1,3600.0,961.7,850.7,111.0,911.1,961.7,1236.7,962.0,851.0,111.0,911.1,962.0,1237.2,Magnoliopsida; Pinus pinaster Aiton; Tracheophyta; Quercus L.; Vitis vinifera L.
2005,2005-07-11,Viseu,Viseu,Fail,FAÍL,40.60494105,-7.984804209755274,NC,328.0,2005-07-11T19:00,26.0,47,13.8,24.9,0.0,0.0,0.0,0.0,0,1019.0,981.7,10,0,17,0,0.21,1.79,15.9,22.3,288,291,38.2,32.2,28.7,22.2,16.1,0.096,0.136,0.194,0.274,1,3600.0,99.4,62.1,37.3,357.6,99.4,229.9,152.0,95.0,57.0,357.6,152.0,351.6,Pinus pinaster Aiton; Magnoliopsida; Tracheophyta; Eucalyptus L'Hér.
2005,2005-05-02,Viseu,Tondela,Canas de Santa Maria,PONTE PEDRINHA,40.5528608,-8.0355727,NC,335.0,2005-05-02T00:00,10.2,92,9.0,8.6,0.0,0.0,0.0,0.0,1,1014.3,974.3,22,25,0,0,0.0,0.1,9.1,22.1,198,210,16.6,12.0,14.7,12.6,10.1,0.272,0.293,0.311,0.298,0,0.0,0.0,0.0,0.0,0.0,0.0,0.0,0.0,0.0,0.0,0.0,0.0,0.0,Tracheophyta; Vitis vinifera L.; Magnoliopsida; Pinus pinea L.
2005,2005-07-11,Viseu,Resende,Resende,QUINTA  DA PONTE ALTA,41.105831,-7.9644114,NC,240.0,2005-07-11T19:00,27.5,44,14.2,27.4,0.0,0.0,0.0,0.0,0,1019.2,991.9,7,0,12,0,0.2,2.05,9.7,14.2,272,277,30.2,31.5,27.2,21.3,15.8,0.096,0.161,0.248,0.324,1,3600.0,141.1,102.0,39.1,569.4,141.1,237.1,213.0,154.0,59.0,569.4,213.0,357.9,Tracheophyta; Magnoliopsida; Pinales; Eucalyptus L'Hér.; Vitis vinifera L.
2005,2005-07-09,Viseu,Tondela,Lajeosa do Dão,PENEDO (CORUJEIRO),40.5143687,-7.9843029,NC,189.0,2005-07-09T05:00,21.4,43,8.1,18.9,0.0,0.0,0.0,0.0,0,1012.1,990.2,0,0,0,0,0.11,1.46,13.6,27.8,73,73,29.5,23.2,26.6,22.1,16.5,0.095,0.139,0.2,0.275,0,0.0,0.0,0.0,0.0,0.0,0.0,0.0,0.0,0.0,0.0,0.0,0.0,0.0,Magnoliopsida; Pinus pinaster Aiton; Tracheophyta; Eucalyptus L'Hér.; Vitis vinifera L.
2005,2005-07-20,Viseu,Lamego,Magueija,MAGUEIJA,41.0455686,-7.8762887,NC,831.0,2005-07-20T15:00,32.4,21,7.1,32.6,0.0,0.0,0.0,0.0,0,1019.7,930.0,0,0,0,0,0.67,3.85,6.6,8.4,248,245,20.2,36.1,24.1,20.0,14.7,0.109,0.142,0.212,0.309,1,3600.0,819.2,719.0,100.2,893.3,819.2,1066.2,867.0,761.0,106.0,893.3,867.0,1128.4,Tracheophyta; Magnoliopsida; Pinus pinaster Aiton; Pinales; Castanea sativa Mill.; 
2005,2005-08-04,Viseu,Sátão,São Miguel de Vila Boa,Travancela,40.688147,-7.763158,NC,493.0,2005-08-04T00:00,23.3,19,-1.7,18.9,0.0,0.0,0.0,0.0,0,1020.8,964.7,1,0,0,2,0.17,2.32,14.4,31.6,68,73,30.2,23.3,25.8,22.1,18.4,0.085,0.142,0.202,0.287,0,0.0,0.0,0.0,0.0,0.0,0.0,0.0,0.0,0.0,0.0,0.0,0.0,0.0,Vitis vinifera L.; Magnoliopsida; Pinus pinaster Aiton; Pinales; Tracheophyta; Acacia Mill.
2005,2005-02-04,Viseu,Nelas,Nelas,Póvoa da Roçada,40.51924,-7.859607564669652,NC,422.0,2005-02-04T15:00,10.7,53,1.6,8.1,0.0,0.0,0.0,0.0,0,1023.4,973.0,0,0,0,0,0.22,0.6,5.1,6.4,51,52,17.6,10.8,6.2,6.5,10.1,0.266,0.295,0.326,0.324,1,3600.0,440.6,372.0,68.6,871.0,440.6,601.2,488.0,412.0,76.0,871.0,488.0,665.8,Pinus pinaster Aiton; Magnoliopsida; Vitis vinifera L.; Tracheophyta
2005,2005-07-11,Viseu,Armamar,Armamar,ARMAMAR,41.1047,-7.686652166382226,NC,605.0,2005-07-11T20:00,27.6,29,8.0,26.0,0.0,0.0,0.0,0.0,0,1018.9,951.7,5,0,8,0,0.1,2.62,7.3,15.8,290,297,20.9,30.0,27.5,21.1,14.6,0.132,0.151,0.18,0.287,1,2037.11,0.0,0.0,0.0,0.0,0.0,0.0,47.0,28.0,19.0,227.0,47.0,112.2,Magnoliopsida; Tracheophyta; Vitis vinifera L.; Pinus pinaster Aiton
2005,2005-01-31,Viseu,Vila Nova de Paiva,Fráguas,SANTINHO,40.8384326,-7.7700275,NC,695.0,2005-01-31T13:00,6.1,57,-1.8,1.3,0.0,0.0,0.0,0.0,0,1031.2,947.8,3,3,0,0,0.2,0.41,16.6,22.1,60,62,43.2,4.9,2.2,4.4,8.9,0.287,0.304,0.325,0.311,1,3600.0,548.0,446.6,101.4,847.0,548.0,743.1,546.0,445.0,101.0,847.0,546.0,740.4,Magnoliopsida; Pinus pinaster Aiton; Tracheophyta; Quercus L.
2005,2005-07-05,Viseu,Cinfães,Santiago de Piães,MOGOS,41.0705575,-8.1688151,NC,516.0,2005-07-05T19:00,22.4,59,14.1,21.6,0.0,0.0,0.0,0.0,0,1017.4,958.8,0,0,0,0,0.17,1.1,14.1,21.6,322,327,42.5,26.4,22.6,19.0,14.3,0.111,0.173,0.264,0.341,1,3600.0,140.7,99.8,40.9,541.6,140.7,243.8,210.0,149.0,61.0,541.6,210.0,364.0,Magnoliopsida; Pinus pinaster Aiton; Quercus L.; Tracheophyta; Eucalyptus L'Hér.; Castanea sativa Mill.; 
2005,2005-08-04,Viseu,Nelas,Nelas,NELAS,40.51924,-7.859607564669652,NC,422.0,2005-08-04T11:00,28.5,23,5.4,26.8,0.0,0.0,0.0,0.0,0,1019.6,972.2,0,0,0,0,0.65,3.0,14.2,18.8,81,83,37.8,29.4,24.2,21.6,18.1,0.096,0.146,0.212,0.297,1,3600.0,874.5,766.6,107.9,897.9,874.5,1134.6,827.0,725.0,102.0,897.9,827.0,1072.9,Pinus pinaster Aiton; Magnoliopsida; Vitis vinifera L.; Tracheophyta
2005,2005-07-13,Viseu,Tondela,Lajeosa do Dão,LAGEOSA,40.5042963,-7.9872116,NC,281.0,2005-07-13T14:00,31.1,40,15.8,33.3,0.0,0.0,0.0,0.0,0,1016.0,984.5,0,0,0,0,0.73,2.71,12.8,15.5,280,282,33.1,38.0,27.6,22.7,16.3,0.095,0.136,0.191,0.272,1,3600.0,910.0,794.2,115.8,880.6,910.0,1193.7,935.0,816.0,119.0,880.6,935.0,1226.4,Magnoliopsida; Tracheophyta; Pinus pinaster Aiton; Pinales; Eucalyptus L'Hér.
2005,2005-06-27,Viseu,Viseu,Bodiosa,Oliveira de Cima,40.7250638,-7.9729336,NC,516.0,2005-06-27T09:00,18.8,64,11.8,18.0,0.0,0.0,0.0,0.0,1,1017.1,957.8,28,24,0,20,0.29,0.79,9.5,12.2,209,208,28.4,21.6,21.2,20.1,13.8,0.101,0.156,0.24,0.301,1,3600.0,562.1,402.6,159.5,600.4,562.1,887.5,497.0,356.0,141.0,600.4,497.0,784.7,Tracheophyta; Pinus pinaster Aiton; Olea europaea L.; Magnoliopsida
2005,2005-07-11,Viseu,Penedono,Póvoa de Penela,BEBEZES,41.0518162,-7.3901911,NC,709.0,2005-07-11T03:00,18.9,43,6.0,15.6,0.0,0.0,0.0,0.0,0,1020.3,939.7,0,0,0,0,0.11,1.25,16.3,29.8,62,65,34.2,21.9,26.4,21.9,15.1,0.12,0.145,0.162,0.262,0,0.0,0.0,0.0,0.0,0.0,0.0,0.0,0.0,0.0,0.0,0.0,0.0,0.0,Magnoliopsida; Castanea sativa Mill.; Olea europaea L.
2005,2005-07-15,Viseu,Viseu,Vila Chã de Sá,VILA CHÃ DE SÁ,40.60466855,-7.956303764477298,NC,389.0,2005-07-15T11:00,25.7,44,12.5,27.4,0.0,0.0,0.0,0.0,0,1018.5,974.4,0,0,0,0,0.58,1.85,6.1,7.4,230,223,22.3,30.8,24.9,22.9,16.6,0.093,0.139,0.199,0.282,1,3600.0,883.6,738.1,145.5,837.5,883.6,1166.5,838.0,700.0,138.0,837.5,838.0,1106.3,Tracheophyta; Olea europaea L.; Pinus pinaster Aiton; Magnoliopsida; Vitis vinifera L.
2005,2005-02-01,Viseu,Tondela,Canas de Santa Maria,SANTA OVAIA DE CIMA,40.5515027,-8.0591086,NC,353.0,2005-02-01T14:00,11.6,51,1.7,7.5,0.0,0.0,0.0,0.0,0,1029.4,986.9,0,0,0,0,0.26,0.67,15.3,20.6,56,57,31.0,10.3,5.2,6.3,10.7,0.265,0.292,0.319,0.302,1,3600.0,518.8,441.3,77.5,883.6,518.8,703.6,542.0,461.0,81.0,883.6,542.0,735.0,Vitis vinifera L.; Eucalyptus L'Hér.; Pinus pinaster Aiton; Tracheophyta
2005,2005-07-21,Viseu,Resende,Panchorra,PANCHORRA,41.0154274,-7.9671803,NC,1105.0,2005-07-21T13:00,27.7,32,9.5,28.5,0.0,0.0,0.0,0.0,0,1017.7,899.0,0,0,0,0,0.71,2.52,10.2,12.8,280,280,27.4,32.8,22.6,18.4,13.0,0.109,0.142,0.211,0.309,1,3600.0,963.2,856.3,106.9,918.2,963.2,1235.5,964.0,857.0,107.0,918.2,964.0,1236.5,Pinales; Magnoliopsida; Tracheophyta; Quercus L.; 
2005,2005-07-09,Viseu,Santa Comba Dão,São Joaninho,SÃO JOANINHO,40.45075455,-8.130012150133478,NC,321.0,2005-07-09T10:00,26.7,36,10.4,25.6,0.0,0.0,0.0,0.0,0,1013.7,977.4,0,0,0,0,0.53,2.24,14.3,18.2,80,81,40.0,29.0,25.5,21.5,15.9,0.096,0.138,0.199,0.276,1,3600.0,761.0,650.0,111.0,822.6,761.0,1045.4,699.0,597.0,102.0,822.6,699.0,960.3,Vitis vinifera L.; Tracheophyta; Eucalyptus L'Hér.; Pinus pinaster Aiton; Magnoliopsida
2005,2005-07-13,Viseu,Viseu,Santos Evos,Santos Evos,40.6895552,-7.8289633,NC,450.0,2005-07-13T15:00,31.9,32,13.3,32.2,0.0,0.0,0.0,0.0,0,1015.4,965.7,7,0,12,0,0.68,3.19,14.4,18.1,274,275,33.8,39.9,28.6,23.3,16.6,0.082,0.149,0.221,0.294,1,3600.0,764.7,636.1,128.5,782.5,764.7,1076.0,809.0,673.0,136.0,782.5,809.0,1138.4,Vitis vinifera L.; Magnoliopsida; Pinus pinaster Aiton
2005,2005-07-11,Viseu,Sátão,Sátão,SANTOS IDOS,40.74564085,-7.749994771738869,NC,613.0,2005-07-11T18:00,31.1,23,7.7,29.0,0.0,0.0,0.0,0.0,0,1017.8,950.5,9,0,15,0,0.34,3.48,10.7,14.3,310,313,30.2,36.8,28.1,22.0,15.5,0.078,0.153,0.225,0.295,1,3600.0,271.3,199.3,72.0,558.8,271.3,471.9,339.0,249.0,90.0,558.8,339.0,589.7,Pinus pinaster Aiton; Magnoliopsida; Pinales; Tracheophyta
2005,2005-07-11,Viseu,Lamego,Várzea de Abrunhais,VÁRZEA DE ABRUNHAIS,41.0806431,-7.7676783,NC,473.0,2005-07-11T18:00,30.5,27,9.5,28.7,0.0,0.0,0.0,0.0,0,1018.4,965.9,5,0,9,0,0.35,3.17,10.8,14.5,285,289,32.0,33.4,26.4,20.6,14.8,0.131,0.15,0.208,0.303,1,3600.0,305.3,236.4,68.9,662.3,305.3,472.3,381.0,295.0,86.0,662.3,381.0,589.4,Magnoliopsida; Acacia Mill.; Pinales; Olea europaea L.; Vitis vinifera L.; ; Pinus pinaster Aiton
2005,2005-07-12,Viseu,Sátão,Romãs,Silvã de Baixo,40.7243966,-7.6680102,NC,500.0,2005-07-12T09:00,25.6,38,10.3,23.2,0.0,0.0,0.0,0.0,0,1019.8,963.4,0,0,0,0,0.43,2.03,16.8,22.4,62,62,40.3,27.3,26.4,22.9,16.3,0.078,0.153,0.225,0.295,1,3600.0,605.7,498.9,106.8,760.0,605.7,868.6,533.0,439.0,94.0,760.0,533.0,764.4,Olea europaea L.; Vitis vinifera L.; Castanea sativa Mill.; Magnoliopsida
2005,2005-01-29,Viseu,Sátão,Avelal,Quinta Soralva,40.7529225,-7.682695,NC,619.0,2005-01-29T13:00,7.8,61,0.7,4.5,0.0,0.0,0.0,0.0,0,1020.0,946.6,0,0,0,0,0.22,0.42,9.2,12.0,39,39,25.9,1.1,1.6,5.4,9.8,0.28,0.294,0.308,0.299,1,3600.0,544.6,470.4,74.2,904.5,544.6,733.3,543.0,469.0,74.0,904.5,543.0,731.1,Magnoliopsida; Pinales; Tracheophyta; Pinus pinaster Aiton; Vitis vinifera L.
2005,2005-07-11,Viseu,Resende,Cárquere,PONTE DE FORNELOS,41.0861903,-7.9636451,NC,523.0,2005-07-11T20:00,25.6,44,12.4,25.2,0.0,0.0,0.0,0.0,0,1019.7,960.8,6,0,10,0,0.09,1.83,8.0,14.6,288,290,26.3,28.3,25.7,20.0,14.4,0.117,0.151,0.23,0.312,1,2129.68,0.8,0.4,0.3,5.1,0.5,1.9,48.0,28.0,20.0,222.8,48.0,118.3,Pinus pinaster Aiton; Tracheophyta; Magnoliopsida; Pinales; Eucalyptus L'Hér.; 
2005,2005-07-15,Viseu,Viseu,Bodiosa,Travanca \ CF,40.7174518,-7.9909968,NC,454.0,2005-07-15T13:00,28.2,31,9.3,28.7,0.0,0.0,0.0,0.0,0,1018.2,967.4,0,0,0,0,0.73,2.64,11.8,14.8,250,247,31.7,33.9,24.8,22.2,16.1,0.098,0.139,0.206,0.291,1,3600.0,981.2,866.3,114.9,920.9,981.2,1245.3,982.0,867.0,115.0,920.9,982.0,1246.3,Pinus pinaster Aiton; Magnoliopsida; Tracheophyta
2005,2005-07-21,Viseu,Viseu,São João de Lourosa,LOUROSA DE CIMA,40.620661,-7.9013986,NC,464.0,2005-07-21T14:00,31.2,30,11.7,31.5,0.0,0.0,0.0,0.0,0,1017.8,966.4,0,0,0,1,0.76,3.16,15.5,19.2,275,276,36.0,37.1,26.6,22.3,16.8,0.092,0.151,0.222,0.301,1,3600.0,920.4,815.3,105.1,912.8,920.4,1183.3,946.0,838.0,108.0,912.8,946.0,1216.2,Tracheophyta; Pinus pinaster Aiton; Magnoliopsida; Vitis vinifera L.
2005,2005-07-21,Viseu,Sátão,Mioma,Quinta do Vale do Gonçalo,40.7498415,-7.7226843,NC,614.0,2005-07-21T17:00,29.4,33,11.2,27.3,0.0,0.0,0.0,0.0,0,1017.0,949.3,4,0,0,15,0.5,2.76,17.5,22.7,279,281,39.2,37.5,28.4,22.8,16.6,0.078,0.146,0.215,0.292,1,3600.0,493.9,412.6,81.3,795.4,493.9,687.2,571.0,477.0,94.0,795.4,571.0,794.5,Pinus pinaster Aiton; Tracheophyta; Magnoliopsida; Pinales
2005,2005-07-09,Viseu,Sátão,Romãs,Douro Calvo,40.7579776,-7.6465026,Desconhecida,640.0,2005-07-09T11:00,25.9,36,9.6,25.4,0.0,0.0,0.0,0.0,0,1015.2,944.1,0,0,0,0,0.61,2.15,13.7,17.6,67,67,38.2,29.3,24.6,21.1,14.9,0.108,0.139,0.183,0.27,1,3600.0,885.2,767.3,117.9,863.8,885.2,1175.4,841.0,729.0,112.0,863.8,841.0,1116.7,Tracheophyta; Pinus pinaster Aiton; Magnoliopsida
2005,2005-07-09,Viseu,Tarouca,Gouviães,EIRA QUEIMADA,41.0581872,-7.7497549,NC,521.0,2005-07-09T14:00,30.5,27,9.4,31.7,0.0,0.0,0.0,0.0,0,1014.0,956.6,0,0,0,0,0.69,3.17,6.2,7.6,54,59,24.1,36.0,25.6,21.0,14.9,0.133,0.151,0.183,0.288,1,3600.0,899.0,789.0,109.9,876.2,899.0,1191.5,924.0,811.0,113.0,876.2,924.0,1224.7,Tracheophyta; Magnoliopsida; Castanea sativa Mill.; Olea europaea L.; Quercus L.; Pinus pinaster Aiton; Vitis vinifera L.; Pinales
2005,2005-07-13,Viseu,Tabuaço,Adorigo,Quinta de São Luís,40.65381755,-7.906441017272661,NC,489.0,2005-07-13T19:00,25.6,55,15.9,25.8,0.0,0.0,0.0,0.0,0,1015.9,960.9,0,0,0,0,0.18,1.47,12.2,16.4,294,296,31.7,32.0,28.3,22.5,16.0,0.084,0.153,0.23,0.305,1,3600.0,127.6,89.2,38.4,519.2,127.6,227.4,196.0,137.0,59.0,519.2,196.0,349.2,Tracheophyta; Vitis vinifera L.; Magnoliopsida; Pinus pinea L.
2005,2005-07-22,Viseu,Moimenta da Beira,Caria,CARIA,40.9323684,-7.598895,NC,797.0,2005-07-22T15:00,30.8,29,10.5,30.8,0.0,0.0,0.0,0.0,0,1013.7,927.5,0,0,0,0,0.69,3.18,13.2,16.3,315,317,32.4,36.2,26.2,21.6,15.4,0.121,0.133,0.161,0.27,1,3600.0,812.8,712.7,100.1,890.1,812.8,1060.9,861.0,755.0,106.0,890.1,861.0,1123.8,Tracheophyta; Pinus pinaster Aiton; Magnoliopsida; Castanea sativa Mill.
2005,2005-07-15,Viseu,Cinfães,Fornelos,FORNELOS,41.030305,-8.1805981,NC,710.0,2005-07-15T13:00,26.1,38,10.6,27.1,0.0,0.0,0.0,0.0,0,1018.3,939.6,0,0,0,0,0.69,2.1,10.9,13.8,253,250,32.0,31.7,22.9,20.2,14.5,0.099,0.153,0.239,0.327,1,3600.0,978.3,863.4,114.9,919.3,978.3,1243.2,979.0,864.0,115.0,919.3,979.0,1244.1,Quercus L.; Eucalyptus L'Hér.; Magnoliopsida; Vitis vinifera L.; Tracheophyta; Pinales; 
2005,2005-07-13,Viseu,Tondela,Parada de Gonta,PARADA DE GONTA,40.5850464,-7.997527947395453,NC,379.0,2005-07-13T20:00,23.7,61,15.7,24.6,0.0,0.0,0.0,0.0,0,1016.1,972.9,0,0,0,0,0.06,1.15,7.6,11.8,275,282,27.7,29.4,28.5,22.9,16.5,0.093,0.14,0.201,0.283,1,1981.3,0.0,0.0,0.0,0.0,0.0,0.0,45.0,25.0,20.0,204.1,45.0,108.7,Pinus pinaster Aiton; Olea europaea L.; Tracheophyta; Magnoliopsida; Eucalyptus L'Hér.
2005,2005-07-22,Viseu,Penedono,Penela da Beira,PENELA DA BEIRA,41.0372786,-7.4327058,NC,970.0,2005-07-22T21:00,20.1,63,12.9,19.6,0.0,0.0,0.0,0.0,1,1014.3,907.0,29,0,0,97,0.04,0.86,9.9,15.5,280,283,27.7,25.5,26.5,21.1,14.6,0.121,0.133,0.151,0.26,0,0.0,0.0,0.0,0.0,0.0,0.0,0.0,0.0,0.0,0.0,0.0,0.0,0.0,Magnoliopsida; Olea europaea L.
2005,2005-07-12,Viseu,Tondela,Campo de Besteiros,Ribeira,40.5574553,-8.1113649,NC,279.0,2005-07-12T14:00,33.7,25,10.8,34.6,0.0,0.0,0.0,0.0,0,1016.7,985.7,5,0,8,0,0.75,3.94,10.1,12.0,276,279,32.8,39.3,27.6,22.5,16.2,0.095,0.137,0.193,0.272,1,3600.0,884.7,762.1,122.6,844.3,884.7,1194.5,909.0,783.0,126.0,844.3,909.0,1227.3,Magnoliopsida; Pinus pinaster Aiton; Eucalyptus L'Hér.; Vitis vinifera L.; Tracheophyta
2005,2005-07-12,Viseu,São João da Pesqueira,Ervedosa do Douro,FONTE MEIA LARANJA,41.1655541,-7.4734152,NC,561.0,2005-07-12T15:00,33.8,16,4.2,33.4,0.0,0.0,0.0,0.0,0,1016.3,955.1,0,0,0,0,0.66,4.42,5.8,7.2,90,93,20.2,40.5,28.1,22.6,15.6,0.118,0.15,0.164,0.266,1,3600.0,799.4,697.4,102.1,861.2,799.4,1071.6,846.0,738.0,108.0,861.2,846.0,1134.0,Olea europaea L.; Vitis vinifera L.; Magnoliopsida; Tracheophyta
2005,2005-07-23,Viseu,Sátão,Sátão,Vila Cova,40.7513059,-7.7598041,NC,610.0,2005-07-23T14:00,26.6,37,10.7,26.3,0.0,0.0,0.0,0.0,0,1012.7,945.1,0,0,0,0,0.68,2.19,17.2,21.6,280,281,38.9,33.2,25.1,22.1,16.3,0.099,0.139,0.201,0.284,1,3600.0,910.4,802.4,108.0,902.1,910.4,1178.7,936.0,825.0,111.0,902.1,936.0,1211.9,Pinus pinaster Aiton; Olea europaea L.; Pinales; Eucalyptus L'Hér.; Magnoliopsida; Tracheophyta
2005,2005-07-12,Viseu,Tondela,Barreiro de Besteiros,POVOA DO ARCEDIAGO,40.5106289,-8.1801117,NC,229.0,2005-07-12T01:00,21.7,61,13.9,22.1,0.0,0.0,0.0,0.0,0,1018.8,992.2,4,0,7,0,0.02,1.01,5.4,9.0,37,16,7.9,23.6,28.1,22.5,16.4,0.097,0.135,0.187,0.264,0,0.0,0.0,0.0,0.0,0.0,0.0,0.0,0.0,0.0,0.0,0.0,0.0,0.0,Pinus pinaster Aiton; Eucalyptus L'Hér.; Magnoliopsida
2005,2005-07-12,Viseu,Sernancelhe,Freixinho,FREIXINHO,40.93840805,-7.522686053474748,NC,629.0,2005-07-12T14:00,33.3,18,6.1,33.7,0.0,0.0,0.0,0.0,0,1017.1,948.7,1,0,2,0,0.73,4.17,6.5,8.0,96,98,23.0,39.1,27.5,22.5,15.6,0.115,0.134,0.157,0.257,1,3600.0,908.2,795.4,112.8,885.7,908.2,1188.5,934.0,818.0,116.0,885.7,934.0,1222.2,Pinus pinaster Aiton; Tracheophyta; Magnoliopsida; Castanea sativa Mill.; Vitis vinifera L.; Quercus L.; Olea europaea L.; 
2005,2005-07-09,Viseu,Cinfães,Fornelos,SEQUEIROS,40.9094367,-8.0574794,NC,462.0,2005-07-09T15:00,31.3,29,11.1,32.6,0.0,0.0,0.0,0.0,0,1013.6,962.6,0,0,0,0,0.62,3.25,4.6,5.9,45,47,17.3,35.6,25.4,20.6,15.2,0.1,0.153,0.238,0.317,1,3600.0,771.1,642.4,128.7,786.3,771.1,1081.0,815.0,679.0,136.0,786.3,815.0,1142.6,Quercus L.; Eucalyptus L'Hér.; Magnoliopsida; Vitis vinifera L.; Tracheophyta; Pinales; 
2005,2005-07-07,Viseu,Santa Comba Dão,Santa Comba Dão,SANTA COMBA DÃO,40.399988750000006,-8.131110454043977,NC,193.0,2005-07-07T14:00,32.1,27,10.6,33.8,0.0,0.0,0.0,0.0,0,1011.4,989.8,0,0,0,0,0.73,3.51,6.5,7.9,357,360,21.6,36.7,24.9,21.3,16.0,0.099,0.139,0.201,0.272,1,3600.0,921.8,807.9,113.9,891.1,921.8,1199.6,947.0,830.0,117.0,891.1,947.0,1232.4,Tracheophyta; Magnoliopsida; Quercus suber L.; Pinus pinaster Aiton
2005,2005-07-12,Viseu,Sernancelhe,Granjal,GRANJAL,40.8880426,-7.5303027,NC,686.0,2005-07-12T20:00,28.6,33,10.9,27.2,0.0,0.0,0.0,0.0,1,1016.1,940.7,24,0,40,0,0.14,2.61,11.3,18.9,279,283,24.5,31.7,28.6,22.2,15.3,0.115,0.134,0.156,0.257,1,1970.48,0.0,0.0,0.0,0.0,0.0,0.0,41.0,23.0,18.0,188.7,41.0,108.0,Magnoliopsida; Quercus L.; Castanea sativa Mill.; Pinus pinaster Aiton; Tracheophyta; 
2005,2005-07-15,Viseu,Armamar,Goujoim,Lugar das Lages,41.0904274,-7.630129755834931,NC,470.0,2005-07-15T16:00,30.3,26,8.6,29.4,0.0,0.0,0.0,0.0,0,1017.8,965.6,0,0,0,0,0.6,3.2,11.6,14.9,277,278,35.3,37.4,28.4,23.3,16.2,0.134,0.151,0.166,0.274,1,3600.0,684.0,589.1,94.8,863.4,684.0,903.3,750.0,646.0,104.0,863.4,750.0,990.5,Magnoliopsida; Vitis vinifera L.
2005,2005-02-02,Viseu,Vila Nova de Paiva,Vila Cova à Coelheira,TEIXELO,40.8567846,-7.8115401,NC,755.0,2005-02-02T14:00,10.5,60,3.0,6.1,0.0,0.0,0.0,0.0,0,1028.4,939.8,1,1,0,0,0.23,0.52,19.3,26.7,63,64,48.6,8.5,3.7,4.3,8.4,0.3,0.313,0.332,0.323,1,3600.0,503.3,394.2,109.1,791.7,503.3,701.2,526.0,412.0,114.0,791.7,526.0,732.9,Magnoliopsida; Pinus pinaster Aiton; Tracheophyta
2005,2005-07-14,Viseu,Penedono,Penedono,A do Bispo,40.9757777,-7.3533318,NC,773.0,2005-07-14T00:00,20.4,69,14.6,21.3,0.0,0.0,0.0,0.0,0,1016.8,930.0,0,0,0,0,0.0,0.74,4.4,8.3,261,265,10.4,24.3,28.1,22.1,15.0,0.12,0.145,0.16,0.261,0,0.0,0.0,0.0,0.0,0.0,0.0,0.0,0.0,0.0,0.0,0.0,0.0,0.0,Magnoliopsida; Tracheophyta
2005,2005-01-31,Viseu,Vila Nova de Paiva,Alhais,CASTANHEIRA,40.8631424,-7.7084328,NC,776.0,2005-01-31T15:00,7.3,56,-1.0,2.8,0.0,0.0,0.0,0.0,0,1029.5,937.4,2,2,0,0,0.19,0.45,15.4,20.4,57,58,39.2,5.9,2.6,4.4,8.8,0.287,0.296,0.307,0.305,1,3600.0,426.0,356.8,69.2,880.7,426.0,570.9,474.0,397.0,77.0,880.7,474.0,635.3,Magnoliopsida; Eucalyptus L'Hér.; Pinus pinaster Aiton; Tracheophyta; Quercus L.; Acacia Mill.; Olea europaea L.; Quercus suber L.; 
2005,2005-07-08,Viseu,Cinfães,Tarouquela,CASAIS,41.0796059,-8.1717796,NC,335.0,2005-07-08T02:00,21.3,39,6.6,17.7,0.0,0.0,0.0,0.0,0,1012.4,973.9,0,0,0,0,0.15,1.55,18.8,35.4,86,85,51.5,21.2,23.4,19.7,14.9,0.106,0.169,0.259,0.335,0,0.0,0.0,0.0,0.0,0.0,0.0,0.0,0.0,0.0,0.0,0.0,0.0,0.0,Magnoliopsida; Pinus pinaster Aiton; Quercus L.; Vitis vinifera L.; Tracheophyta; Eucalyptus L'Hér.; 
2005,2005-07-23,Viseu,São João da Pesqueira,Ervedosa do Douro,Sangra,41.1655541,-7.4734152,NC,561.0,2005-07-23T08:00,19.0,79,15.4,19.9,0.0,0.0,0.0,0.0,1,1013.2,949.3,32,17,0,54,0.16,0.45,6.5,8.3,273,275,19.8,23.6,26.2,23.7,16.9,0.118,0.149,0.16,0.263,1,3600.0,334.1,205.1,129.0,429.2,334.1,633.4,272.0,167.0,105.0,429.2,272.0,515.6,Olea europaea L.; Vitis vinifera L.; Magnoliopsida; Tracheophyta
2005,2005-07-23,Viseu,Castro Daire,Pinheiro,Portas do Montemuro,40.9204667,-7.9780049,NC,314.0,2005-07-23T15:00,26.4,41,12.2,26.4,0.0,0.0,0.0,0.0,0,1013.8,978.3,0,0,0,0,0.61,2.01,15.4,19.9,291,292,38.5,33.4,25.9,23.0,17.6,0.1,0.141,0.213,0.309,1,3600.0,805.1,699.2,105.8,870.8,805.1,1064.2,852.0,740.0,112.0,870.8,852.0,1126.2,Eucalyptus L'Hér.; Tracheophyta; Quercus L.; Magnoliopsida; Pinus pinaster Aiton; Pinales
2005,2005-07-12,Viseu,Cinfães,Santiago de Piães,Guanal,41.0701644,-8.1554173,NC,342.0,2005-07-12T21:00,23.3,57,14.3,24.2,0.0,0.0,0.0,0.0,0,1017.9,978.7,15,0,25,0,0.01,1.23,3.6,5.4,264,262,13.3,26.4,26.2,20.8,15.3,0.1,0.158,0.246,0.331,0,0.0,0.0,0.0,0.0,0.0,0.0,0.0,0.0,0.0,0.0,0.0,0.0,0.0,Magnoliopsida; Pinus pinaster Aiton; Quercus L.; Tracheophyta; Eucalyptus L'Hér.; Castanea sativa Mill.; 
2005,2005-07-24,Viseu,Tabuaço,Sendim,Cabriz,41.0569305,-7.5112472,NC,519.0,2005-07-24T05:00,16.2,82,13.1,16.3,0.0,0.0,0.0,0.0,1,1013.0,953.1,44,49,0,0,0.0,0.33,6.0,9.3,253,254,16.2,20.2,26.0,24.0,17.3,0.118,0.149,0.159,0.263,0,0.0,0.0,0.0,0.0,0.0,0.0,0.0,0.0,0.0,0.0,0.0,0.0,0.0,Pinus pinaster Aiton; Magnoliopsida; Olea europaea L.; Tracheophyta
2005,2005-06-28,Viseu,Sátão,São Miguel de Vila Boa,Torneiros,40.688147,-7.763158,NC,493.0,2005-06-28T06:00,13.9,93,12.8,13.4,0.0,0.0,0.0,0.0,2,1016.4,958.8,65,55,11,30,0.01,0.11,9.5,14.5,191,194,16.6,17.2,22.7,21.4,14.6,0.085,0.163,0.243,0.3,1,629.52,65.0,26.9,38.1,175.1,39.4,203.3,29.0,12.0,17.0,106.2,29.0,90.7,Vitis vinifera L.; Magnoliopsida; Pinus pinaster Aiton; Pinales; Tracheophyta; Acacia Mill.
2005,2005-07-18,Viseu,Carregal do Sal,Papízios,Sobral,40.4148264,-8.0461289,NC,291.0,2005-07-18T08:00,17.1,80,13.6,17.1,0.0,0.0,0.0,0.0,1,1021.5,987.2,42,47,0,0,0.14,0.39,8.0,10.0,333,334,19.8,20.8,23.0,23.1,17.0,0.092,0.138,0.191,0.271,1,3600.0,295.9,144.9,151.0,300.4,295.9,638.7,241.0,118.0,123.0,300.4,241.0,520.2,Eucalyptus L'Hér.; Pinus pinaster Aiton; Tracheophyta; Magnoliopsida
2005,2005-07-14,Viseu,Viseu,Mundão,Britamontes,40.6870727,-7.8758901,NC,502.0,2005-07-14T11:00,26.3,46,13.6,27.7,0.0,0.0,0.0,0.0,0,1016.5,960.2,0,0,0,0,0.57,1.86,8.7,10.4,232,226,27.0,32.0,25.6,22.6,16.1,0.084,0.153,0.23,0.305,1,3600.0,853.7,703.0,150.7,796.5,853.7,1168.2,810.0,667.0,143.0,796.5,810.0,1108.4,Tracheophyta; Magnoliopsida; Pinus pinaster Aiton
2005,2005-07-13,Viseu,Tarouca,Vila Chã da Beira,Vila Chã da Beira,41.0258316,-7.6875348474997,NC,811.0,2005-07-13T06:00,18.8,46,6.8,16.3,0.0,0.0,0.0,0.0,0,1017.9,926.5,1,0,2,0,0.09,1.18,11.9,22.4,55,60,22.7,20.3,24.7,20.5,14.1,0.12,0.135,0.183,0.288,1,571.9,56.9,27.3,29.6,205.5,32.3,175.8,25.0,12.0,13.0,116.9,25.0,77.3,Magnoliopsida; Castanea sativa Mill.; Pinus pinaster Aiton; Tracheophyta; Pinales
2005,2005-07-09,Viseu,Cinfães,Tarouquela,RIBEIRA,41.070446,-8.1883932,NC,378.0,2005-07-09T11:00,27.1,36,10.8,27.1,0.0,0.0,0.0,0.0,0,1014.7,972.1,0,0,0,0,0.61,2.29,12.6,16.6,90,90,40.0,28.7,23.2,19.7,14.7,0.103,0.166,0.255,0.334,1,3600.0,881.6,766.8,114.8,866.9,881.6,1170.3,837.0,728.0,109.0,866.9,837.0,1111.1,Magnoliopsida; Pinus pinaster Aiton; Quercus L.; Vitis vinifera L.; Tracheophyta; Eucalyptus L'Hér.; 
2005,2005-07-14,Viseu,Viseu,São Pedro de France,Souto do Chão,40.7112706,-7.7900159,NC,483.0,2005-07-14T21:00,21.8,64,14.8,22.7,0.0,0.0,0.0,0.0,0,1017.1,962.1,0,0,0,0,0.02,0.93,5.4,10.3,274,282,15.5,27.1,28.4,23.3,16.5,0.082,0.148,0.219,0.293,0,0.0,0.0,0.0,0.0,0.0,0.0,0.0,0.0,0.0,0.0,0.0,0.0,0.0,Magnoliopsida; Pinus pinaster Aiton; Tracheophyta; Vitis vinifera L.
2005,2005-07-15,Viseu,Cinfães,Fornelos,Lapa,41.0299252,-8.1962429,NC,580.0,2005-07-15T05:00,14.1,99,14.0,15.2,0.0,0.0,0.0,0.0,3,1017.7,950.3,90,100,0,0,0.0,0.01,1.4,3.1,180,249,11.2,16.9,23.3,21.0,15.3,0.115,0.143,0.218,0.336,0,0.0,0.0,0.0,0.0,0.0,0.0,0.0,0.0,0.0,0.0,0.0,0.0,0.0,Quercus L.; Eucalyptus L'Hér.; Magnoliopsida; Vitis vinifera L.; Tracheophyta; Pinales; 
2005,2005-07-09,Viseu,Oliveira de Frades,Souto de Lafões,SOUTO DE LAFÕES,40.73814115,-8.158918785466273,NC,227.0,2005-07-09T18:00,30.7,32,12.2,29.1,0.0,0.0,0.0,0.0,0,1012.4,987.0,3,0,5,0,0.39,3.0,16.1,22.5,331,333,31.7,34.7,28.1,22.1,16.8,0.097,0.141,0.214,0.301,1,3600.0,285.8,205.5,80.3,568.7,285.8,478.3,356.0,256.0,100.0,568.7,356.0,595.7,Eucalyptus L'Hér.; Pinus pinaster Aiton; Magnoliopsida; Tracheophyta; Quercus L.; Olea europaea L.
2005,2005-07-02,Viseu,Penalva do Castelo,Esmolfe,VALAMOSO,40.6795232,-7.6836313,NC,555.0,2005-07-02T09:00,24.6,42,10.7,23.0,0.0,0.0,0.0,0.0,0,1018.9,956.4,0,0,0,0,0.4,1.8,12.1,15.8,67,69,32.4,25.5,22.6,20.7,14.8,0.084,0.163,0.238,0.298,1,3600.0,620.3,516.1,104.1,772.1,620.3,884.5,548.0,456.0,92.0,772.1,548.0,781.5,Magnoliopsida; Tracheophyta; Pinus pinaster Aiton; Olea europaea L.; Quercus L.; Acacia Mill.
2005,2005-02-01,Viseu,Carregal do Sal,Cabanas de Viriato,CABANAS,40.4743748,-7.9798921,NC,315.0,2005-02-01T15:00,11.3,51,1.6,7.3,0.0,0.0,0.0,0.0,0,1028.9,990.8,2,1,1,0,0.22,0.65,14.4,19.4,53,55,30.6,10.3,5.4,6.2,10.6,0.262,0.289,0.316,0.3,1,3600.0,405.1,333.8,71.3,798.8,405.1,588.7,449.0,370.0,79.0,798.8,449.0,652.5,Olea europaea L.; Tracheophyta; Magnoliopsida; Pinus pinaster Aiton
2005,2005-07-16,Viseu,Nelas,Senhorim,Carvalha,40.5398434,-7.8207072,NC,374.0,2005-07-16T12:00,25.5,38,10.2,25.8,0.0,0.0,0.0,0.0,0,1019.3,976.8,0,0,0,0,0.6,2.01,10.2,12.4,278,280,28.4,34.0,25.9,24.0,17.2,0.074,0.15,0.226,0.3,1,3600.0,869.2,683.7,185.5,731.2,869.2,1237.9,848.0,667.0,181.0,731.2,848.0,1207.7,Tracheophyta; Olea europaea L.; Magnoliopsida; Castanea sativa Mill.; Pinus pinaster Aiton; Vitis vinifera L.
2005,2005-07-24,Viseu,Vouzela,Queirã,Carregal,40.6549464,-8.074003291969433,NC,472.0,2005-07-24T12:00,20.9,78,17.0,21.7,0.2,0.2,0.0,0.0,51,1013.9,960.1,93,94,1,25,0.22,0.54,11.2,14.2,249,249,27.7,24.4,23.2,22.1,16.9,0.099,0.137,0.2,0.299,1,2264.01,337.6,125.2,212.4,135.5,337.6,1224.9,329.0,122.0,207.0,135.5,329.0,1193.7,Magnoliopsida; Pinus pinaster Aiton; Pinales; Tracheophyta; Quercus L.; Eucalyptus L'Hér.; Olea europaea L.; 
2005,2005-07-02,Viseu,Nelas,Senhorim,Póvoa de Luzianes,40.5398434,-7.8207072,NC,374.0,2005-07-02T14:00,33.4,24,10.1,34.1,0.0,0.0,0.0,0.0,0,1015.7,974.4,0,0,0,0,0.77,3.9,10.5,12.8,262,260,27.7,40.4,25.2,21.4,15.6,0.076,0.164,0.245,0.305,1,3600.0,919.1,807.2,111.8,890.9,919.1,1198.8,945.0,830.0,115.0,890.9,945.0,1232.6,Tracheophyta; Olea europaea L.; Magnoliopsida; Castanea sativa Mill.; Pinus pinaster Aiton; Vitis vinifera L.
2005,2005-07-24,Viseu,Cinfães,Nespereira,Santa Marinha,41.0130354,-8.1476767,NC,457.0,2005-07-24T13:00,21.0,78,17.1,21.8,0.8,0.8,0.0,0.0,53,1013.8,961.7,100,100,17,59,0.22,0.54,12.1,16.2,260,258,32.4,23.8,22.8,21.4,16.2,0.125,0.137,0.197,0.321,1,2945.1,324.9,147.0,177.9,158.2,324.9,1231.5,325.0,147.0,178.0,158.2,325.0,1231.8,Magnoliopsida; Quercus L.; Eucalyptus L'Hér.; Tracheophyta
2005,2005-07-02,Viseu,Cinfães,Fornelos,SEQUEIROS,40.9094367,-8.0574794,NC,462.0,2005-07-02T15:00,31.7,33,13.7,33.1,0.0,0.0,0.0,0.0,0,1016.3,965.3,0,0,0,0,0.69,3.12,10.9,13.8,279,279,26.6,34.1,23.2,19.4,14.5,0.116,0.165,0.253,0.321,1,3600.0,814.5,709.5,105.0,866.0,814.5,1084.0,861.0,750.0,111.0,866.0,861.0,1145.9,Quercus L.; Eucalyptus L'Hér.; Magnoliopsida; Vitis vinifera L.; Tracheophyta; Pinales; 
2005,2005-07-09,Viseu,Viseu,Mundão,BRITAMONTES,40.6870727,-7.8758901,NC,502.0,2005-07-09T13:00,29.7,30,10.4,31.1,0.0,0.0,0.0,0.0,0,1013.8,958.3,0,0,0,0,0.65,2.9,4.9,5.9,73,76,24.8,35.4,25.6,21.4,15.5,0.084,0.158,0.238,0.307,1,3600.0,869.8,722.0,147.8,763.7,869.8,1251.1,871.0,723.0,148.0,763.7,871.0,1252.7,Tracheophyta; Magnoliopsida; Pinus pinaster Aiton
2005,2005-07-12,Viseu,Nelas,Nelas,ZONA INDUSTRIAL,40.51924,-7.859607564669652,NC,422.0,2005-07-12T17:00,31.0,31,11.9,29.7,0.0,0.0,0.0,0.0,0,1016.5,969.6,19,0,25,14,0.44,3.09,12.8,16.2,286,287,38.2,35.6,27.9,22.3,16.1,0.092,0.157,0.232,0.304,1,3600.0,399.5,319.6,79.9,601.9,399.5,702.7,460.0,368.0,92.0,601.9,460.0,809.2,Pinus pinaster Aiton; Magnoliopsida; Vitis vinifera L.; Tracheophyta
2005,2005-07-14,Viseu,Nelas,Senhorim,Vila Ruiva,40.5398434,-7.8207072,NC,374.0,2005-07-14T02:00,20.2,75,15.6,21.8,0.0,0.0,0.0,0.0,0,1015.9,972.8,1,1,0,0,0.0,0.6,2.1,3.3,301,319,7.6,22.3,28.5,23.8,16.9,0.074,0.152,0.228,0.301,0,0.0,0.0,0.0,0.0,0.0,0.0,0.0,0.0,0.0,0.0,0.0,0.0,0.0,Tracheophyta; Olea europaea L.; Magnoliopsida; Castanea sativa Mill.; Pinus pinaster Aiton; Vitis vinifera L.
2005,2005-07-10,Viseu,Resende,Resende,BULHO,41.105831,-7.9644114,NC,240.0,2005-07-10T02:00,21.7,36,5.8,18.3,0.0,0.0,0.0,0.0,0,1014.2,986.5,0,0,0,0,0.14,1.67,16.3,33.0,96,96,38.9,21.3,25.3,20.9,15.6,0.098,0.165,0.253,0.325,0,0.0,0.0,0.0,0.0,0.0,0.0,0.0,0.0,0.0,0.0,0.0,0.0,0.0,Tracheophyta; Magnoliopsida; Pinales; Eucalyptus L'Hér.; Vitis vinifera L.
2005,2005-07-09,Viseu,Lamego,Avões,AVÕES,41.108631,-7.826622,NC,811.0,2005-07-09T19:00,28.4,26,6.9,26.2,0.0,0.0,0.0,0.0,0,1013.0,924.8,11,0,19,0,0.2,2.87,9.2,13.9,21,21,21.2,29.8,24.9,19.3,13.7,0.125,0.142,0.21,0.306,1,3600.0,92.2,54.4,37.8,302.8,92.2,237.8,139.0,82.0,57.0,302.8,139.0,358.4,Magnoliopsida; Vitis vinifera L.; Tracheophyta; Eucalyptus L'Hér.; Pinales; 
2005,2005-07-19,Viseu,Vouzela,Queirã,CARREGAL,40.6549464,-8.074003291969433,NC,472.0,2005-07-19T11:00,28.2,35,11.4,28.8,0.0,0.0,0.0,0.0,0,1020.7,967.8,0,0,0,0,0.62,2.48,10.1,13.0,90,92,33.1,29.5,22.5,21.6,16.4,0.098,0.139,0.208,0.302,1,3600.0,885.2,772.3,112.9,881.6,885.2,1160.2,839.0,732.0,107.0,881.6,839.0,1099.6,Magnoliopsida; Pinus pinaster Aiton; Pinales; Tracheophyta; Quercus L.; Eucalyptus L'Hér.; Olea europaea L.; 
2005,2005-07-12,Viseu,Mangualde,Mangualde,PINHEIRO DE CIMA,40.5866363,-7.7602024,NC,457.0,2005-07-12T18:00,29.9,32,11.5,28.2,0.0,0.0,0.0,0.0,0,1016.8,966.0,16,0,23,6,0.33,2.85,14.7,19.5,292,293,35.3,34.7,28.4,22.5,16.0,0.085,0.153,0.227,0.298,1,3600.0,220.5,155.0,65.5,436.8,220.5,469.7,276.0,194.0,82.0,436.8,276.0,587.8,Magnoliopsida; Tracheophyta; Vitis vinifera L.; Pinus pinaster Aiton
2005,2005-07-10,Viseu,Resende,São João de Fontoura,LUPINHA,41.1069315,-7.9181849,NC,232.0,2005-07-10T21:00,27.7,23,4.5,24.6,0.0,0.0,0.0,0.0,0,1015.3,989.0,0,0,0,0,0.15,2.87,12.0,19.0,57,65,22.3,28.4,27.0,21.6,16.1,0.097,0.159,0.245,0.317,0,0.0,0.0,0.0,0.0,0.0,0.0,0.0,0.0,0.0,0.0,0.0,0.0,0.0,Magnoliopsida; Olea europaea L.; Pinales; Vitis vinifera L.; ; Pinus pinaster Aiton
2005,2005-07-10,Viseu,Moimenta da Beira,Leomil,Quinta do Furenho,40.9845171,-7.6560753,NC,704.0,2005-07-10T13:00,29.1,25,7.2,28.3,0.0,0.0,0.0,0.0,0,1016.5,939.3,0,0,0,0,0.76,3.0,15.7,20.4,81,82,38.5,33.0,24.7,20.5,14.5,0.122,0.136,0.187,0.289,1,3600.0,968.4,854.6,113.8,906.6,968.4,1247.4,970.0,856.0,114.0,906.6,970.0,1249.4,Pinus pinaster Aiton; Tracheophyta; Magnoliopsida
2005,2005-07-02,Viseu,Viseu,São João de Lourosa,TEIVAS,40.6154155,-7.924366,NC,402.0,2005-07-02T16:00,32.7,27,11.2,31.8,0.0,0.0,0.0,0.0,0,1015.5,971.1,0,0,0,0,0.65,3.6,15.2,19.2,292,293,33.5,35.9,24.9,20.4,15.2,0.098,0.169,0.246,0.308,1,3600.0,676.8,581.8,95.0,839.3,676.8,917.2,741.0,637.0,104.0,839.3,741.0,1004.2,Tracheophyta; Vitis vinifera L.; Magnoliopsida; Pinus pinaster Aiton; Olea europaea L.
2005,2005-07-10,Viseu,Cinfães,Santiago de Piães,Ventoselas,41.0701644,-8.1554173,NC,342.0,2005-07-10T13:00,31.0,27,9.7,31.2,0.0,0.0,0.0,0.0,0,1015.4,977.3,0,0,0,0,0.77,3.3,13.7,18.0,93,93,38.2,32.8,24.2,20.2,15.0,0.101,0.163,0.252,0.333,1,3600.0,965.3,852.4,112.9,904.0,965.3,1247.7,966.0,853.0,113.0,904.0,966.0,1248.6,Magnoliopsida; Pinus pinaster Aiton; Quercus L.; Tracheophyta; Eucalyptus L'Hér.; Castanea sativa Mill.; 
2005,2005-02-01,Viseu,Nelas,Senhorim,São João do Monte,40.5240524,-7.7935397,NC,403.0,2005-02-01T13:00,9.0,56,0.7,4.9,0.0,0.0,0.0,0.0,0,1030.1,981.3,0,0,0,0,0.23,0.51,14.5,19.7,60,62,32.0,7.7,3.0,5.1,10.0,0.276,0.301,0.327,0.32,1,3600.0,556.0,472.7,83.3,882.7,556.0,754.5,554.0,471.0,83.0,882.7,554.0,751.8,Magnoliopsida; Vitis vinifera L.; Tracheophyta; Pinus pinaster Aiton; Eucalyptus L'Hér.; Olea europaea L.
2005,2005-05-03,Viseu,Armamar,Armamar,TRAVANCA,41.1047,-7.686652166382226,NC,605.0,2005-05-03T21:00,11.5,91,10.1,10.5,0.0,0.0,0.0,0.0,2,1024.0,952.8,68,47,7,70,0.0,0.12,6.8,12.0,295,303,17.3,12.8,13.5,11.2,7.9,0.298,0.28,0.295,0.302,0,0.0,0.0,0.0,0.0,0.0,0.0,0.0,0.0,0.0,0.0,0.0,0.0,0.0,Magnoliopsida; Tracheophyta; Vitis vinifera L.; Pinus pinaster Aiton
2005,2005-02-03,Viseu,Vila Nova de Paiva,Vila Cova à Coelheira,VILA COVA à COELHEIRA,40.876181200000005,-7.798446661944673,NC,722.0,2005-02-03T15:00,8.8,50,-1.0,4.8,0.0,0.0,0.0,0.0,0,1026.8,941.5,0,0,0,0,0.22,0.57,12.5,16.0,44,46,32.8,8.5,4.5,4.7,8.6,0.296,0.31,0.331,0.323,1,3600.0,434.7,367.1,67.6,876.7,434.7,589.5,482.0,407.0,75.0,876.7,482.0,653.7,Magnoliopsida; Pinus pinaster Aiton; Tracheophyta
2005,2005-07-10,Viseu,Viseu,Ribafeita,Lustosa,40.744619,-7.9524181,NC,518.0,2005-07-10T12:00,29.3,29,9.5,28.8,0.0,0.0,0.0,0.0,0,1015.8,958.4,0,0,0,0,0.73,2.88,15.6,20.7,82,83,40.0,32.1,24.8,20.8,15.1,0.098,0.143,0.216,0.294,1,3600.0,955.0,839.2,115.8,893.8,955.0,1242.4,932.0,819.0,113.0,893.8,932.0,1212.5,Pinus pinaster Aiton; Magnoliopsida; Eucalyptus L'Hér.; Tracheophyta
2005,2005-01-01,Viseu,Vila Nova de Paiva,Vila Nova de Paiva,VILA NOVA DE PAIVA,40.8522085,-7.7289147,NC,794.0,2005-01-01T16:00,8.2,76,4.3,5.9,0.0,0.0,0.0,0.0,0,1032.9,938.8,12,2,0,34,0.08,0.26,6.3,8.1,31,32,18.7,7.6,4.8,6.1,11.2,0.309,0.312,0.315,0.305,1,3600.0,162.4,121.4,41.0,676.9,162.4,253.7,222.0,166.0,56.0,676.9,222.0,346.9,Tracheophyta; Magnoliopsida; Pinus pinaster Aiton; Quercus L.
2005,2005-05-04,Viseu,Cinfães,Tendais,MOURELOS,41.0282304,-8.0542137,NC,669.0,2005-05-04T15:00,18.5,46,6.8,17.4,0.0,0.0,0.0,0.0,1,1018.9,942.7,25,24,4,2,0.47,1.14,11.8,15.1,333,335,34.9,19.4,13.9,11.2,8.4,0.335,0.349,0.363,0.349,1,3600.0,744.6,623.7,120.8,825.5,744.6,1016.7,795.0,666.0,129.0,825.5,795.0,1085.6,Tracheophyta; Quercus L.; Magnoliopsida; Pinus pinaster Aiton; 
2005,2005-07-25,Viseu,Nelas,Santar,Fontanheiras,40.5835581,-7.8995214,NC,216.0,2005-07-25T01:00,16.7,96,16.0,18.2,0.0,0.0,0.0,0.0,1,1014.0,988.6,22,25,0,0,0.0,0.08,3.7,5.2,259,286,8.3,19.7,24.7,24.0,18.4,0.092,0.145,0.213,0.294,0,0.0,0.0,0.0,0.0,0.0,0.0,0.0,0.0,0.0,0.0,0.0,0.0,0.0,Magnoliopsida; Pinus pinaster Aiton; Vitis vinifera L.
2005,2005-05-05,Viseu,Vouzela,Ventosa,VENTOSA,40.7106865,-8.103466027371768,NC,471.0,2005-05-05T15:00,22.1,32,4.5,19.9,0.0,0.0,0.0,0.0,0,1018.8,965.0,0,0,0,0,0.57,1.81,16.3,22.3,68,69,40.7,21.1,15.1,12.5,9.8,0.273,0.309,0.341,0.33,1,3600.0,797.9,700.5,97.4,923.3,797.9,1020.5,852.0,748.0,104.0,923.3,852.0,1089.7,Magnoliopsida; Tracheophyta; Quercus L.; Pinus pinaster Aiton; Eucalyptus L'Hér.; 
2005,2005-07-27,Viseu,Castro Daire,Almofala,ALMOFALA,40.95422045,-7.795488588674065,NC,860.0,2005-07-27T15:00,21.8,56,12.6,19.1,0.1,0.1,0.0,0.0,51,1009.2,914.4,67,39,52,1,0.43,1.15,26.9,37.0,208,208,59.0,24.9,21.1,20.1,15.2,0.18,0.135,0.185,0.3,1,3600.0,604.9,431.3,173.6,542.5,604.9,1054.3,641.0,457.0,184.0,542.5,641.0,1117.2,Tracheophyta; Castanea sativa Mill.; Magnoliopsida; Pinus pinaster Aiton
2005,2005-07-10,Viseu,Viseu,Mundão,Britamontes,40.6870727,-7.8758901,NC,502.0,2005-07-10T18:00,31.9,19,5.7,29.3,0.0,0.0,0.0,0.0,0,1014.4,959.2,7,0,11,0,0.36,3.82,10.8,14.9,53,58,18.4,35.8,27.5,21.7,15.6,0.083,0.156,0.235,0.307,1,3600.0,277.2,213.1,64.1,594.2,277.2,474.7,346.0,266.0,80.0,594.2,346.0,592.4,Tracheophyta; Magnoliopsida; Pinus pinaster Aiton
2005,2005-07-14,Viseu,Castro Daire,Alva,SENHORA DA PENHA,40.8544273,-7.9558231,NC,595.0,2005-07-14T22:00,19.1,78,15.2,20.0,0.0,0.0,0.0,0.0,0,1018.0,950.0,0,0,0,0,0.0,0.48,5.9,7.0,284,291,11.5,23.3,25.8,21.4,15.3,0.098,0.151,0.235,0.322,0,0.0,0.0,0.0,0.0,0.0,0.0,0.0,0.0,0.0,0.0,0.0,0.0,0.0,Eucalyptus L'Hér.; Magnoliopsida; Tracheophyta; Pinus pinaster Aiton; Vitis vinifera L.; 
2005,2005-05-07,Viseu,Cinfães,São Cristovão De Nogueira,PASSOS,41.0736335,-8.1294062,NC,269.0,2005-05-07T12:00,23.0,38,7.9,23.1,0.0,0.0,0.0,0.0,0,1015.4,984.5,16,0,26,0,0.55,1.74,7.4,9.5,129,127,27.0,20.3,14.5,12.7,9.6,0.291,0.326,0.357,0.344,1,3600.0,856.0,718.0,138.1,792.1,856.0,1218.1,837.0,702.0,135.0,792.1,837.0,1191.0,Magnoliopsida; Pinus pinaster Aiton; Tracheophyta; Quercus L.; Vitis vinifera L.
2005,2005-05-08,Viseu,Cinfães,Souselo,CAVOUCO,41.0697904,-8.231169,NC,187.0,2005-05-08T09:00,15.2,84,12.4,14.8,0.0,0.0,0.0,0.0,3,1014.5,992.3,86,89,0,19,0.18,0.28,7.9,9.3,196,196,19.4,16.5,15.2,13.7,10.5,0.279,0.315,0.353,0.344,1,3600.0,401.1,198.8,202.3,313.7,401.1,851.5,351.0,174.0,177.0,313.7,351.0,745.1,Tracheophyta; Vitis vinifera L.; Magnoliopsida; Eucalyptus L'Hér.; Pinus pinaster Aiton
2005,2005-07-04,Viseu,Santa Comba Dão,São Joaninho,REAL,40.4514242,-8.1262217,NC,326.0,2005-07-04T22:00,17.2,62,10.0,16.1,0.0,0.0,0.0,0.0,0,1018.8,980.6,0,0,0,0,0.03,0.74,7.9,16.5,313,328,29.5,22.0,25.0,20.8,15.4,0.098,0.14,0.207,0.279,0,0.0,0.0,0.0,0.0,0.0,0.0,0.0,0.0,0.0,0.0,0.0,0.0,0.0,Vitis vinifera L.; Tracheophyta; Eucalyptus L'Hér.; Pinus pinaster Aiton; Magnoliopsida
2005,2005-05-09,Viseu,Armamar,Goujoim,GOUJOIM,41.0904274,-7.630129755834931,NC,470.0,2005-05-09T12:00,20.0,47,8.2,18.7,0.0,0.0,0.0,0.0,3,1010.4,956.8,91,72,44,0,0.44,1.25,10.9,14.3,226,227,35.6,22.6,16.6,13.3,9.3,0.187,0.22,0.255,0.29,1,3600.0,705.7,452.4,253.3,496.5,705.7,1223.5,691.0,443.0,248.0,496.5,691.0,1197.9,Magnoliopsida; Vitis vinifera L.
2005,2005-07-16,Viseu,Moimenta da Beira,Alvite,ALVITE,40.9569715,-7.7266092,NC,914.0,2005-07-16T15:00,24.7,40,10.3,24.5,0.0,0.0,0.0,0.0,0,1017.3,917.0,0,0,0,0,0.6,1.86,14.0,17.3,269,268,36.7,31.1,23.0,19.9,13.7,0.122,0.137,0.197,0.303,1,3600.0,818.3,706.8,111.5,874.1,818.3,1070.6,866.0,748.0,118.0,874.1,866.0,1132.9,Magnoliopsida; Tracheophyta; Pinus pinaster Aiton
2005,2005-07-12,Viseu,Tarouca,Gouviães,GOUVIÃES,41.0581872,-7.7497549,NC,521.0,2005-07-12T15:00,33.6,18,5.7,34.2,0.0,0.0,0.0,0.0,0,1016.5,959.5,2,0,4,0,0.57,4.29,0.5,1.0,135,135,20.2,38.7,27.1,21.8,15.2,0.132,0.151,0.179,0.287,1,3600.0,754.4,638.1,116.3,786.1,754.4,1074.3,798.0,675.0,123.0,786.1,798.0,1136.3,Tracheophyta; Magnoliopsida; Castanea sativa Mill.; Olea europaea L.; Quercus L.; Pinus pinaster Aiton; Vitis vinifera L.; Pinales
2005,2005-07-17,Viseu,Viseu,Mundão,Britamontes,40.6870727,-7.8758901,NC,502.0,2005-07-17T03:00,15.2,94,14.3,15.5,0.0,0.0,0.0,0.0,3,1018.8,960.3,90,100,0,0,0.0,0.1,6.9,11.2,261,268,11.5,18.9,24.6,22.7,16.4,0.084,0.151,0.226,0.304,0,0.0,0.0,0.0,0.0,0.0,0.0,0.0,0.0,0.0,0.0,0.0,0.0,0.0,Tracheophyta; Magnoliopsida; Pinus pinaster Aiton
2005,2005-07-14,Viseu,Penalva do Castelo,Esmolfe,Santa Clara,40.6795232,-7.6836313,NC,555.0,2005-07-14T22:00,21.0,67,14.6,21.6,0.0,0.0,0.0,0.0,0,1017.7,954.5,0,0,0,0,0.02,0.82,5.8,9.1,277,279,11.9,25.4,28.3,23.1,16.3,0.079,0.15,0.222,0.294,0,0.0,0.0,0.0,0.0,0.0,0.0,0.0,0.0,0.0,0.0,0.0,0.0,0.0,Magnoliopsida; Tracheophyta; Pinus pinaster Aiton; Olea europaea L.; Quercus L.; Acacia Mill.
2005,2005-07-17,Viseu,Lamego,Vila Nova De Souto D' El-rei,Póvoa,41.0653599,-7.8337,NC,800.0,2005-07-17T10:00,18.3,68,12.2,17.1,0.0,0.0,0.0,0.0,1,1019.3,928.8,25,28,0,0,0.31,0.68,13.0,16.4,289,289,33.1,22.0,21.9,20.6,14.6,0.123,0.137,0.196,0.303,1,3600.0,575.5,386.9,188.6,496.3,575.5,1032.2,528.0,355.0,173.0,496.3,528.0,947.0,Tracheophyta; Magnoliopsida
2005,2005-07-05,Viseu,Vouzela,Cambra,Confulcos (IP 5),40.6866933,-8.155303,NC,484.0,2005-07-05T13:00,26.9,41,12.4,28.4,0.0,0.0,0.0,0.0,0,1017.4,963.1,0,0,0,0,0.69,2.11,11.2,14.5,4,6,33.5,31.3,22.3,20.0,15.0,0.1,0.153,0.239,0.318,1,3600.0,960.9,843.0,117.9,889.3,960.9,1254.3,962.0,844.0,118.0,889.3,962.0,1255.7,Eucalyptus L'Hér.; Magnoliopsida; Tracheophyta; Pinus pinaster Aiton; Quercus L.; Olea europaea L.; 
2005,2005-01-07,Viseu,Nelas,Vilar Seco,VILAR SECO,40.5530097,-7.8705196,NC,360.0,2005-01-07T17:00,12.0,62,4.8,10.4,0.0,0.0,0.0,0.0,0,1032.3,988.9,0,0,0,0,0.03,0.54,2.6,4.6,124,141,7.9,9.3,6.6,8.0,12.7,0.305,0.319,0.339,0.323,1,3037.86,36.2,24.0,12.2,275.4,33.0,66.2,98.0,65.0,33.0,467.5,98.0,179.1,Magnoliopsida; Pinus pinaster Aiton; Vitis vinifera L.; Tracheophyta; Olea europaea L.
2005,2005-07-19,Viseu,Mangualde,Póvoa de Cervães,PÓVOA DE CERVÃES,40.5604418,-7.6869295,NC,389.0,2005-07-19T23:00,26.5,37,10.6,26.6,0.0,0.0,0.0,0.0,0,1020.3,976.2,0,0,0,0,0.0,2.19,1.0,2.1,135,301,8.3,26.2,28.0,23.8,17.7,0.078,0.144,0.211,0.288,0,0.0,0.0,0.0,0.0,0.0,0.0,0.0,0.0,0.0,0.0,0.0,0.0,0.0,Magnoliopsida; Tracheophyta; Olea europaea L.
2005,2005-07-13,Viseu,Cinfães,Travanca,ORTIGOSA,41.0335646,-8.2223709,NC,122.0,2005-07-13T18:00,25.7,56,16.2,26.1,0.0,0.0,0.0,0.0,0,1016.3,1002.2,1,0,1,0,0.29,1.46,11.8,14.8,297,299,25.9,31.9,27.3,22.3,16.7,0.1,0.157,0.244,0.326,1,3600.0,312.6,240.3,72.3,663.5,312.6,479.3,389.0,299.0,90.0,663.5,389.0,596.5,Pinus pinaster Aiton; Magnoliopsida; Tracheophyta; Eucalyptus L'Hér.; Vitis vinifera L.; Quercus L.; 
2005,2005-07-14,Viseu,Sátão,Romãs,Silvã de Baixo,40.7243966,-7.6680102,NC,500.0,2005-07-14T11:00,28.3,37,12.3,29.3,0.0,0.0,0.0,0.0,0,1016.0,960.3,0,0,0,0,0.62,2.42,9.7,11.9,219,215,29.2,34.2,26.9,23.4,16.6,0.08,0.151,0.223,0.294,1,3600.0,876.4,744.7,131.7,843.0,876.4,1169.4,832.0,707.0,125.0,843.0,832.0,1110.1,Olea europaea L.; Vitis vinifera L.; Castanea sativa Mill.; Magnoliopsida
2005,2005-07-05,Viseu,Cinfães,São Cristovão De Nogueira,Valbom,41.0629352,-8.1384748,NC,313.0,2005-07-05T14:00,26.6,44,13.4,28.3,0.0,0.0,0.0,0.0,0,1017.4,981.9,0,0,0,0,0.66,1.94,10.9,13.6,343,348,31.0,30.6,21.8,19.5,14.8,0.115,0.175,0.265,0.336,1,3600.0,917.2,808.2,109.1,893.4,917.2,1196.9,942.0,830.0,112.0,893.4,942.0,1229.2,Tracheophyta; Magnoliopsida; Pinus pinaster Aiton; Quercus L.
2005,2005-07-31,Viseu,Nelas,Vilar Seco,VILAR SECO,40.5530097,-7.8705196,NC,360.0,2005-07-31T16:00,28.2,31,9.6,27.3,0.0,0.0,0.0,0.0,0,1012.9,972.5,0,0,0,0,0.55,2.63,11.8,14.8,310,313,26.6,32.4,23.2,21.7,18.3,0.123,0.148,0.215,0.298,1,3600.0,653.7,562.0,91.7,848.2,653.7,879.6,720.0,619.0,101.0,848.2,720.0,968.8,Magnoliopsida; Pinus pinaster Aiton; Vitis vinifera L.; Tracheophyta; Olea europaea L.
2005,2005-07-19,Viseu,Tondela,Dardavaz,Alto do Pendão,40.4769231,-8.1134275,NC,226.0,2005-07-19T02:00,14.8,92,13.6,15.1,0.0,0.0,0.0,0.0,0,1020.6,993.7,0,0,0,0,0.0,0.13,6.4,12.8,52,40,12.6,18.5,24.0,22.7,17.1,0.098,0.134,0.179,0.261,0,0.0,0.0,0.0,0.0,0.0,0.0,0.0,0.0,0.0,0.0,0.0,0.0,0.0,Pinus pinaster Aiton; Eucalyptus L'Hér.; Tracheophyta; Magnoliopsida
2005,2005-07-14,Viseu,Penedono,Antas,ANTAS,40.9410267,-7.3797328,NC,831.0,2005-07-14T15:00,31.7,18,4.2,29.7,0.0,0.0,0.0,0.0,0,1014.4,925.0,0,0,0,0,0.75,3.85,16.1,20.4,228,225,37.8,37.6,27.5,21.8,14.7,0.118,0.133,0.152,0.259,1,3600.0,832.2,730.2,102.0,903.0,832.2,1070.4,881.0,773.0,108.0,903.0,881.0,1133.1,Vitis vinifera L.; Magnoliopsida
2005,2005-07-31,Viseu,Cinfães,Cinfães,FLORESTA,41.0721651,-8.0894728,NC,400.0,2005-07-31T17:00,26.1,40,11.6,24.3,0.0,0.0,0.0,0.0,0,1013.5,968.5,18,0,0,59,0.43,2.02,16.1,21.8,318,321,38.2,29.2,22.5,20.8,17.1,0.176,0.142,0.192,0.318,1,3600.0,469.2,384.9,84.4,764.3,469.2,668.5,545.0,447.0,98.0,764.3,545.0,776.4,Eucalyptus L'Hér.; Tracheophyta; Pinus pinaster Aiton; Quercus L.; Magnoliopsida
2005,2005-07-19,Viseu,Mangualde,Moimenta De Maceira Dão,MOIMENTA DE MACEIRA DÃO,40.57553835,-7.825011332357498,NC,437.0,2005-07-19T17:00,33.2,19,6.3,31.7,0.0,0.0,0.0,0.0,0,1018.0,969.8,0,0,0,0,0.44,4.13,4.8,5.6,312,315,17.6,38.4,26.2,22.7,16.9,0.085,0.149,0.219,0.296,1,3600.0,498.0,420.0,77.9,803.2,498.0,692.6,575.0,485.0,90.0,803.2,575.0,799.7,Magnoliopsida; Olea europaea L.; Tracheophyta; Pinus pinaster Aiton
2005,2005-05-09,Viseu,Mangualde,Santiago de Cassurrães,Contenças de Baixo,40.5670751,-7.715468846166242,NC,445.0,2005-05-09T14:00,19.0,51,8.5,16.1,0.0,0.0,0.0,0.0,2,1010.5,959.5,52,32,38,0,0.32,1.09,17.5,23.5,251,249,41.0,22.4,17.0,13.8,9.9,0.143,0.244,0.295,0.305,1,3600.0,425.5,215.6,209.8,250.3,425.5,1156.6,440.0,223.0,217.0,250.3,440.0,1196.1,Tracheophyta; Olea europaea L.; Magnoliopsida; Pinus pinaster Aiton
2005,2005-07-07,Viseu,Lamego,Penude,PENUDE,41.090431,-7.821420418351966,NC,601.0,2005-07-07T10:00,22.5,42,9.1,20.9,0.0,0.0,0.0,0.0,0,1015.3,947.6,0,0,0,0,0.48,1.57,15.6,20.8,71,72,45.7,25.3,22.3,19.6,14.1,0.13,0.147,0.207,0.299,1,3600.0,782.5,669.4,113.0,844.9,782.5,1048.4,720.0,616.0,104.0,844.9,720.0,964.7,Vitis vinifera L.; Magnoliopsida; Tracheophyta; Pinales; ; Pinus pinaster Aiton; Castanea sativa Mill.
2005,2005-07-12,Viseu,Lamego,Vila Nova De Souto D' El-rei,JUVANDES,41.0630216,-7.8352759,NC,810.0,2005-07-12T16:00,31.5,21,6.8,30.6,0.0,0.0,0.0,0.0,0,1016.2,928.7,15,0,25,0,0.47,3.63,3.7,4.5,151,151,20.2,35.0,25.3,19.9,14.0,0.123,0.139,0.204,0.305,1,3600.0,561.7,438.4,123.3,636.5,561.7,911.5,615.0,480.0,135.0,636.5,615.0,998.0,Tracheophyta; Magnoliopsida
2005,2005-07-16,Viseu,Viseu,Ribafeita,Outeiro do Meio,40.7442343,-7.9927486,NC,480.0,2005-07-16T09:00,19.9,60,12.0,19.6,0.0,0.0,0.0,0.0,0,1019.2,964.0,4,5,0,0,0.25,0.93,6.5,7.9,270,270,19.1,23.0,23.2,22.1,16.0,0.098,0.139,0.205,0.291,1,3600.0,457.2,294.1,163.0,454.8,457.2,856.3,401.0,258.0,143.0,454.8,401.0,751.0,Pinus pinaster Aiton; Magnoliopsida
2005,2005-07-11,Viseu,Tabuaço,Longra,LONGA,41.0598097,-7.5930811,NC,600.0,2005-07-11T00:00,22.5,25,1.4,18.2,0.0,0.0,0.0,0.0,0,1019.3,951.5,0,0,0,0,0.17,2.05,16.4,31.0,71,72,31.7,24.0,26.9,21.5,14.8,0.134,0.151,0.171,0.276,0,0.0,0.0,0.0,0.0,0.0,0.0,0.0,0.0,0.0,0.0,0.0,0.0,0.0,Tracheophyta; Magnoliopsida; Olea europaea L.; Pinus pinaster Aiton
2005,2005-07-14,Viseu,Resende,São João de Fontoura,Mancorra,41.1069315,-7.9181849,NC,232.0,2005-07-14T16:00,28.5,49,16.6,30.2,0.0,0.0,0.0,0.0,0,1016.4,990.1,0,0,0,0,0.56,2.0,12.2,15.5,284,283,30.2,35.5,27.0,22.4,16.5,0.096,0.153,0.237,0.315,1,3600.0,687.8,592.8,95.0,861.4,687.8,911.0,753.0,649.0,104.0,861.4,753.0,997.3,Magnoliopsida; Olea europaea L.; Pinales; Vitis vinifera L.; ; Pinus pinaster Aiton
2005,2005-07-11,Viseu,Viseu,Bodiosa,Travanca,40.7196451,-7.9643634,NC,454.0,2005-07-11T18:00,28.9,39,13.4,27.7,0.0,0.0,0.0,0.0,0,1018.5,967.8,8,0,13,0,0.34,2.44,15.8,21.7,294,297,37.4,34.2,27.8,21.6,15.7,0.098,0.141,0.212,0.293,1,3600.0,270.8,197.1,73.7,550.2,270.8,474.0,338.0,246.0,92.0,550.2,338.0,591.7,Tracheophyta; Pinus pinaster Aiton; Magnoliopsida
2005,2005-07-15,Viseu,Tabuaço,Adorigo,Quinta de Santo António \ CAS,41.1509985,-7.5957038,NC,240.0,2005-07-15T15:00,32.1,23,8.6,31.7,0.0,0.0,0.0,0.0,0,1015.6,988.8,0,0,0,0,0.73,3.67,12.6,16.6,246,246,37.4,38.7,28.8,24.0,17.1,0.127,0.141,0.169,0.279,1,3600.0,835.4,732.4,103.0,906.2,835.4,1069.8,884.0,775.0,109.0,906.2,884.0,1132.1,Vitis vinifera L.; Magnoliopsida; Olea europaea L.
2005,2005-07-16,Viseu,Viseu,Vila Chã de Sá,VILA CHÃ DE SÁ,40.60466855,-7.956303764477298,NC,389.0,2005-07-16T13:00,25.9,43,12.3,26.9,0.0,0.0,0.0,0.0,0,1019.0,974.9,0,0,0,0,0.63,1.92,11.7,14.3,281,282,31.3,32.4,24.8,22.9,16.7,0.093,0.139,0.198,0.282,1,3600.0,894.3,730.4,163.9,776.5,894.3,1245.2,895.0,731.0,164.0,776.5,895.0,1246.2,Tracheophyta; Olea europaea L.; Pinus pinaster Aiton; Magnoliopsida; Vitis vinifera L.
2005,2005-07-11,Viseu,Carregal do Sal,Oliveira do Conde,Travanca de São Tomé,40.4605808,-7.9907626,NC,287.0,2005-07-11T04:00,22.3,32,5.0,18.7,0.0,0.0,0.0,0.0,0,1017.0,983.9,0,0,0,0,0.15,1.82,15.8,32.0,73,73,40.3,24.0,27.2,22.1,16.0,0.095,0.137,0.196,0.273,0,0.0,0.0,0.0,0.0,0.0,0.0,0.0,0.0,0.0,0.0,0.0,0.0,0.0,Tracheophyta; Magnoliopsida; Pinus pinaster Aiton; Vitis vinifera L.
2005,2005-02-01,Viseu,Castro Daire,Castro Daire,Farejinhas (Lagoa),40.9486883,-7.947141,NC,964.0,2005-02-01T18:00,5.6,70,0.7,2.6,0.0,0.0,0.0,0.0,0,1029.7,916.2,0,0,0,0,0.02,0.27,7.3,14.5,57,55,25.6,3.4,1.7,3.1,7.3,0.307,0.318,0.337,0.328,0,1053.65,0.0,0.0,0.0,0.0,0.0,0.0,29.0,17.0,12.0,168.7,29.0,81.6,Magnoliopsida; Quercus L.; Tracheophyta; Castanea sativa Mill.
2005,2005-08-01,Viseu,Cinfães,Espadanedo,TRIGAIS,41.0838811,-8.2020234,NC,257.0,2005-08-01T14:00,27.4,35,10.5,26.0,0.0,0.0,0.0,0.0,0,1015.7,986.5,0,0,0,0,0.65,2.37,20.5,25.9,332,335,43.2,29.8,21.9,20.8,17.6,0.155,0.151,0.222,0.322,1,3600.0,823.9,691.6,132.3,790.3,823.9,1162.0,847.0,711.0,136.0,790.3,847.0,1194.6,Quercus L.; Tracheophyta; Magnoliopsida; Pinus pinaster Aiton; Eucalyptus L'Hér.; Vitis vinifera L.; 
2005,2005-02-03,Viseu,Castro Daire,Mões,GRANJA,40.8642533,-7.8849214,NC,649.0,2005-02-03T20:00,3.1,80,0.0,-0.3,0.0,0.0,0.0,0.0,0,1026.6,948.0,0,0,0,0,0.0,0.15,8.7,14.8,60,64,19.1,3.9,5.2,5.0,8.7,0.297,0.314,0.339,0.336,0,0.0,0.0,0.0,0.0,0.0,0.0,0.0,0.0,0.0,0.0,0.0,0.0,0.0,Pinus pinaster Aiton; Tracheophyta; Magnoliopsida; Castanea sativa Mill.
2005,2005-07-20,Viseu,Sátão,São Miguel de Vila Boa,SERRAQUIM,40.688147,-7.763158,Desconhecida,493.0,2005-07-20T11:00,31.5,24,8.5,31.8,0.0,0.0,0.0,0.0,0,1021.6,966.9,0,0,0,0,0.65,3.51,7.1,8.9,105,104,24.8,34.3,25.7,23.0,17.1,0.081,0.145,0.214,0.291,1,3600.0,892.3,781.6,110.7,892.1,892.3,1160.4,846.0,741.0,105.0,892.1,846.0,1100.2,Vitis vinifera L.; Magnoliopsida; Pinus pinaster Aiton; Pinales; Tracheophyta; Acacia Mill.
2005,2005-01-31,Viseu,Carregal do Sal,Beijós,PARDIEIROS,40.5321503,-7.9502523,NC,356.0,2005-01-31T14:00,9.1,50,-0.7,4.7,0.0,0.0,0.0,0.0,0,1029.7,986.4,2,2,1,0,0.24,0.58,14.8,19.9,67,68,36.4,8.7,4.4,5.9,10.4,0.267,0.292,0.317,0.3,1,3600.0,524.4,447.8,76.5,904.2,524.4,697.9,548.0,468.0,80.0,904.2,548.0,729.4,Tracheophyta; Pinus pinaster Aiton; Olea europaea L.; Vitis vinifera L.
2005,2005-07-07,Viseu,São Pedro do Sul,Serrazes,Covelas de Baixo,40.7447776,-8.1217801,NC,340.0,2005-07-07T17:00,31.8,25,9.2,30.4,0.0,0.0,0.0,0.0,0,1009.8,972.2,0,0,0,0,0.43,3.53,7.6,9.4,352,358,23.0,35.3,26.0,21.3,16.0,0.098,0.145,0.221,0.296,1,3600.0,449.4,357.9,91.4,665.6,449.4,711.5,516.0,411.0,105.0,665.6,516.0,817.1,Tracheophyta; Eucalyptus L'Hér.; Quercus L.; Pinus pinaster Aiton; Magnoliopsida; Castanea sativa Mill.; Quercus suber L.; 
2005,2005-07-16,Viseu,Castro Daire,Mões,Granja,40.8642533,-7.8849214,NC,649.0,2005-07-16T10:00,22.0,47,10.2,21.9,0.0,0.0,0.0,0.0,0,1019.2,945.9,2,2,0,0,0.44,1.39,6.8,8.3,270,270,24.1,25.4,22.7,21.2,15.2,0.105,0.147,0.226,0.317,1,3600.0,745.4,616.8,128.6,788.8,745.4,1035.2,684.0,566.0,118.0,788.8,684.0,949.9,Pinus pinaster Aiton; Tracheophyta; Magnoliopsida; Castanea sativa Mill.
2005,2005-07-20,Viseu,Cinfães,Moimenta,GUIMBRA,41.0529498,-8.1993626,NC,364.0,2005-07-20T16:00,33.2,29,12.8,33.0,0.0,0.0,0.0,0.0,0,1020.1,979.7,0,0,0,0,0.64,3.6,13.7,17.8,284,284,33.5,36.4,25.3,20.9,15.9,0.101,0.15,0.232,0.327,1,3600.0,674.3,583.0,91.2,854.2,674.3,904.1,739.0,639.0,100.0,854.2,739.0,990.9,Magnoliopsida; Eucalyptus L'Hér.; Tracheophyta; Pinus pinaster Aiton; Castanea sativa Mill.; Quercus L.; 
2005,2005-07-16,Viseu,Tondela,Lajeosa do Dão,Sangemil,40.5326807,-7.9920377,NC,341.0,2005-07-16T14:00,26.3,41,11.9,27.1,0.0,0.0,0.0,0.0,0,1018.5,979.8,0,0,0,0,0.66,2.02,13.3,16.3,283,284,33.1,33.3,24.6,22.5,16.2,0.095,0.136,0.188,0.27,1,3600.0,918.8,803.9,114.8,893.9,918.8,1190.7,944.0,826.0,118.0,893.9,944.0,1223.4,Tracheophyta; Vitis vinifera L.; Eucalyptus L'Hér.; Pinus pinaster Aiton
2005,2005-02-02,Viseu,Penalva do Castelo,Germil,GERMIL,40.6394809,-7.7285714,NC,435.0,2005-02-02T19:00,7.9,63,1.4,4.2,0.0,0.0,0.0,0.0,0,1028.9,976.2,0,0,0,0,0.03,0.39,12.3,27.6,58,61,27.7,6.7,6.1,5.6,10.1,0.252,0.285,0.311,0.31,0,0.0,0.0,0.0,0.0,0.0,0.0,0.0,0.0,0.0,0.0,0.0,0.0,0.0,Magnoliopsida; Pinus pinaster Aiton; Acacia Mill.; Vitis vinifera L.; Tracheophyta; Quercus L.
