year,date,district,municipality,parish,local,latitude,longitude,cause,elevation,hourly.time,hourly.temperature_2m,hourly.relative_humidity_2m,hourly.dew_point_2m,hourly.apparent_temperature,hourly.precipitation,hourly.rain,hourly.snowfall,hourly.snow_depth,hourly.weather_code,hourly.pressure_msl,hourly.surface_pressure,hourly.cloud_cover,hourly.cloud_cover_low,hourly.cloud_cover_mid,hourly.cloud_cover_high,hourly.et0_fao_evapotranspiration,hourly.vapour_pressure_deficit,hourly.wind_speed_10m,hourly.wind_speed_100m,hourly.wind_direction_10m,hourly.wind_direction_100m,hourly.wind_gusts_10m,hourly.soil_temperature_0_to_7cm,hourly.soil_temperature_7_to_28cm,hourly.soil_temperature_28_to_100cm,hourly.soil_temperature_100_to_255cm,hourly.soil_moisture_0_to_7cm,hourly.soil_moisture_7_to_28cm,hourly.soil_moisture_28_to_100cm,hourly.soil_moisture_100_to_255cm,hourly.is_day,hourly.sunshine_duration,hourly.shortwave_radiation_instant,hourly.direct_radiation_instant,hourly.diffuse_radiation_instant,hourly.direct_normal_irradiance_instant,hourly.global_tilted_irradiance_instant,hourly.terrestrial_radiation_instant,hourly.shortwave_radiation,hourly.direct_radiation,hourly.diffuse_radiation,hourly.direct_normal_irradiance,hourly.global_tilted_irradiance,hourly.terrestrial_radiation,scientificNames
2006,2006-08-06,Braga,Vizela,Tagilde,MONTE DA GARRAFINHA(S.JOAO) (Monte),41.3765149,-8.3060472,NC,148.0,2006-08-06T05:00,22.5,42,8.9,18.9,0.0,0.0,0.0,0.0,0,1014.8,997.6,0,0,0,0,0.17,1.58,22.1,37.8,84,88,42.8,22.4,26.0,22.9,18.7,0.098,0.14,0.212,0.335,0,0.0,0.0,0.0,0.0,0.0,0.0,0.0,0.0,0.0,0.0,0.0,0.0,0.0,Tracheophyta; Eucalyptus L'Hér.; Magnoliopsida
2006,2006-08-02,Braga,Braga,Padim da Graça,Assento,41.5671801,-8.4840675,NC,33.0,2006-08-02T19:00,24.1,67,17.6,22.6,0.0,0.0,0.0,0.0,0,1014.5,1010.7,0,0,0,0,0.19,0.99,29.2,44.5,336,340,53.3,28.0,25.5,22.7,19.1,0.102,0.142,0.217,0.338,1,3600.0,105.3,72.2,33.1,513.3,105.3,186.8,175.0,120.0,55.0,513.3,175.0,310.5,Tracheophyta; Pinus pinaster Aiton; Magnoliopsida; Eucalyptus L'Hér.
2006,2006-07-14,Braga,Fafe,Quinchães,L. DOSSIM (QINCHÃES),41.4416885,-8.1385946,NC,464.0,2006-07-14T21:00,26.8,56,17.4,28.6,0.0,0.0,0.0,0.0,1,1016.2,964.1,27,0,0,90,0.03,1.54,5.5,6.8,79,72,10.4,26.8,26.4,20.5,15.1,0.109,0.163,0.242,0.352,0,0.0,0.0,0.0,0.0,0.0,0.0,0.0,0.0,0.0,0.0,0.0,0.0,0.0,Tracheophyta; Magnoliopsida; Pinales
2006,2006-07-14,Braga,Fafe,Antime,L. TEIVEM (ANTIME),41.43560935,-8.16306298118548,NC,329.0,2006-07-14T23:00,25.3,63,17.7,27.0,0.0,0.0,0.0,0.0,1,1016.6,979.2,28,0,11,70,0.04,1.21,7.4,16.2,67,77,14.0,25.3,26.9,21.2,15.9,0.115,0.158,0.24,0.352,0,0.0,0.0,0.0,0.0,0.0,0.0,0.0,0.0,0.0,0.0,0.0,0.0,0.0,Magnoliopsida; Tracheophyta; Pinales; Eucalyptus L'Hér.
2006,2006-08-05,Braga,Guimarães,Silvares,L. BRITO (Ponte de Brito),41.4443329,-8.3363725,NC,137.0,2006-08-05T16:00,33.8,20,7.4,33.1,0.0,0.0,0.0,0.0,0,1012.8,997.5,0,0,0,0,0.57,4.23,7.0,8.8,12,19,17.3,36.8,26.8,22.8,18.7,0.098,0.14,0.212,0.336,1,3600.0,651.7,564.6,87.1,865.4,651.7,867.1,718.0,622.0,96.0,865.4,718.0,955.3,Tracheophyta; Eucalyptus L'Hér.; Magnoliopsida; Quercus L.; Pinus pinaster Aiton; Pinales
2006,2006-08-02,Braga,Guimarães,Silvares,BORRALHA(STA.LEOCADIA BRITEIROS) (Borralha),41.4443329,-8.3363725,NC,137.0,2006-08-02T23:00,21.1,77,16.9,21.3,0.0,0.0,0.0,0.0,0,1015.0,999.0,0,0,0,0,0.04,0.58,15.8,26.3,330,338,29.9,23.5,25.5,22.4,18.5,0.1,0.142,0.217,0.338,0,0.0,0.0,0.0,0.0,0.0,0.0,0.0,0.0,0.0,0.0,0.0,0.0,0.0,Tracheophyta; Eucalyptus L'Hér.; Magnoliopsida; Quercus L.; Pinus pinaster Aiton; Pinales
2006,2006-02-12,Braga,VIZELA,Caldas De Vizela (são João),RUA PARADELA (São João),41.3660355,-8.314106448896961,NC,186.0,2006-02-12T14:00,15.7,52,5.9,13.4,0.0,0.0,0.0,0.0,1,1022.9,1000.7,21,0,0,70,0.32,0.86,10.5,13.8,96,97,28.4,13.1,7.6,7.5,10.1,0.323,0.339,0.37,0.39,1,3600.0,569.2,487.5,81.7,906.0,569.2,755.4,592.0,507.0,85.0,906.0,592.0,785.6,Tracheophyta; Magnoliopsida; Eucalyptus L'Hér.
2006,2006-08-06,Braga,Vila Verde,Rio Mau,Aveleira,41.6924299,-8.5099921,Desconhecida,226.0,2006-08-06T00:00,22.0,60,14.0,22.0,0.0,0.0,0.0,0.0,0,1014.8,988.7,0,0,0,0,0.04,1.05,8.5,17.8,62,69,21.6,23.4,26.5,22.2,18.1,0.097,0.138,0.208,0.334,0,0.0,0.0,0.0,0.0,0.0,0.0,0.0,0.0,0.0,0.0,0.0,0.0,0.0,Tracheophyta; Magnoliopsida; Pinus pinaster Aiton; Eucalyptus L'Hér.
2006,2006-08-06,Braga,Guimarães,Tabuadelo,LACENTO (Lacete),41.4005084,-8.2906626,NC,343.0,2006-08-06T06:00,20.7,43,7.8,18.0,0.0,0.0,0.0,0.0,0,1016.5,976.9,0,0,0,0,0.13,1.38,14.5,29.5,84,89,37.4,21.0,24.7,22.0,17.7,0.097,0.141,0.214,0.336,1,0.0,15.3,5.1,10.2,58.7,5.8,91.1,6.0,2.0,4.0,28.3,6.0,35.6,Tracheophyta; Magnoliopsida; Eucalyptus L'Hér.; Pinus pinaster Aiton
2006,2006-08-04,Braga,Guimarães,Gominhães,L. GOMINHÃES (GOMINHÃES),41.4827506,-8.283272461002646,NC,244.0,2006-08-04T18:00,32.0,22,7.7,31.3,0.0,0.0,0.0,0.0,0,1012.8,985.6,0,0,0,0,0.22,3.69,0.4,1.4,90,90,13.3,34.0,26.9,22.5,18.3,0.095,0.14,0.212,0.336,1,3600.0,283.3,227.2,56.0,716.5,283.3,421.4,364.0,292.0,72.0,716.5,364.0,541.5,Magnoliopsida; Eucalyptus L'Hér.; Tracheophyta
2006,2006-08-06,Braga,Braga,Esporões,STª MARTA (ESPOROES) (SANTA MARTA),41.6738336,-8.375856,NC,111.0,2006-08-06T04:00,22.6,44,9.7,21.1,0.0,0.0,0.0,0.0,0,1014.4,1001.5,0,0,0,0,0.08,1.54,9.7,21.1,90,107,24.5,22.4,26.3,22.9,18.8,0.095,0.139,0.21,0.335,0,0.0,0.0,0.0,0.0,0.0,0.0,0.0,0.0,0.0,0.0,0.0,0.0,0.0,Pinus pinaster Aiton; Eucalyptus L'Hér.; Tracheophyta
2006,2006-02-12,Braga,Braga,Pedralva,Alvar,41.5555613,-8.2981324,NC,400.0,2006-02-12T18:00,13.3,52,3.7,11.6,0.0,0.0,0.0,0.0,1,1022.7,975.3,29,0,1,96,0.01,0.73,1.0,1.5,225,166,8.3,10.0,7.7,6.3,9.0,0.319,0.338,0.37,0.388,1,2026.76,0.0,0.0,0.0,0.0,0.0,0.0,58.0,35.0,23.0,285.4,58.0,117.0,Magnoliopsida; Eucalyptus L'Hér.; Pinus pinaster Aiton; Tracheophyta
2006,2006-08-06,Braga,Barcelos,Courel,CASA SAUDE S. JOÃO DEUS (Azenha do Casa),41.4539679,-8.6485316,NC,128.0,2006-08-06T09:00,27.0,36,10.9,24.5,0.0,0.0,0.0,0.0,0,1015.9,1001.2,0,0,0,0,0.42,2.27,19.0,27.2,80,84,37.1,26.8,25.6,22.6,18.7,0.099,0.14,0.213,0.335,1,3600.0,554.1,459.2,94.9,764.8,554.1,798.3,479.0,397.0,82.0,764.8,479.0,690.1,Eucalyptus L'Hér.; Pinus pinaster Aiton
2006,2006-08-04,Braga,Póvoa de Lanhoso,Monsul,L.MORTEIRA (Lavandeira),41.616209,-8.3065166,NC,103.0,2006-08-04T20:00,28.5,38,12.8,27.7,0.0,0.0,0.0,0.0,0,1012.7,1001.0,0,0,0,0,0.13,2.41,11.4,19.8,342,350,22.0,29.8,27.2,22.8,18.8,0.097,0.14,0.213,0.336,0,739.66,0.0,0.0,0.0,0.0,0.0,0.0,26.0,14.0,12.0,136.7,26.0,77.6,Tracheophyta; Pinus pinaster Aiton; Magnoliopsida; Quercus L.
2006,2006-08-06,Braga,Cabeceiras de Basto,Rio Douro,IGREJA (PEDRAÇA) (Chão das Igrejas),41.5489869,-7.960807,NC,537.0,2006-08-06T14:00,30.8,29,10.6,31.6,0.0,0.0,0.0,0.0,0,1016.2,957.0,0,0,0,0,0.71,3.15,9.7,12.6,88,87,34.6,34.4,24.5,21.4,17.0,0.095,0.144,0.219,0.337,1,3600.0,885.1,783.1,102.0,909.7,885.1,1144.4,911.0,806.0,105.0,909.7,911.0,1177.9,Pinus pinaster Aiton; Magnoliopsida; Tracheophyta
2006,2006-07-16,Braga,Póvoa de Lanhoso,Monsul,L. (Lacaó),41.616209,-8.3065166,NC,103.0,2006-07-16T10:00,32.5,42,17.8,35.4,0.0,0.0,0.0,0.0,0,1016.3,1004.7,0,0,0,0,0.53,2.86,5.6,7.0,75,78,14.8,31.8,26.2,22.5,17.0,0.113,0.153,0.238,0.352,1,3600.0,748.0,640.1,107.9,825.1,748.0,1026.9,686.0,587.0,99.0,825.1,686.0,941.8,Tracheophyta; Pinus pinaster Aiton; Magnoliopsida; Quercus L.
2006,2006-02-12,Braga,Braga,Vilaça,L.QUEBRADA (Quebradas),41.5178539,-8.4794886,NC,168.0,2006-02-12T20:00,8.3,84,5.7,6.3,0.0,0.0,0.0,0.0,1,1023.7,1003.1,29,0,0,96,0.0,0.18,6.4,9.4,16,358,10.8,7.9,8.6,7.7,10.2,0.322,0.339,0.369,0.383,0,0.0,0.0,0.0,0.0,0.0,0.0,0.0,0.0,0.0,0.0,0.0,0.0,0.0,Magnoliopsida; Tracheophyta; Pinus pinaster Aiton; Eucalyptus L'Hér.
2006,2006-08-06,Braga,Braga,Crespos,QUINTA DE JÓS (NAVARRA) (Quinta),41.6046345,-8.3619718,NC,96.0,2006-08-06T14:00,34.3,27,12.8,35.7,0.0,0.0,0.0,0.0,0,1014.6,1003.8,0,0,0,0,0.75,3.93,10.2,13.2,51,55,24.8,37.4,26.9,23.2,18.9,0.097,0.139,0.21,0.335,1,3600.0,882.1,779.0,103.1,902.6,882.1,1147.4,907.0,801.0,106.0,902.6,907.0,1179.8,Magnoliopsida; Vitis vinifera L.; Eucalyptus L'Hér.; Pinus pinaster Aiton
2006,2006-08-05,Braga,Guimarães,São Torcato,L. SÃO TORCATO (SÃO TORCATO),41.48619595,-8.256837325287776,NC,283.0,2006-08-05T18:00,32.8,19,6.1,31.5,0.0,0.0,0.0,0.0,0,1012.8,981.4,0,0,0,0,0.24,4.04,2.4,2.6,297,326,9.0,34.5,26.9,22.4,18.2,0.094,0.139,0.211,0.335,1,3600.0,280.2,224.3,55.9,714.4,280.2,417.4,361.0,289.0,72.0,714.4,361.0,537.7,Magnoliopsida; Pinus pinaster Aiton; Tracheophyta; Vitis vinifera L.
2006,2006-07-26,Braga,VIZELA,Infias,QUINTA DA CRUZ (Quinta da Carreira),41.3962002,-8.3135066,NC,200.0,2006-07-26T23:00,18.9,82,15.7,19.7,0.0,0.0,0.0,0.0,0,1016.9,993.4,1,1,0,1,0.01,0.4,8.4,17.0,310,328,19.8,22.1,25.2,22.6,17.9,0.108,0.146,0.225,0.343,0,0.0,0.0,0.0,0.0,0.0,0.0,0.0,0.0,0.0,0.0,0.0,0.0,0.0,Eucalyptus L'Hér.; Magnoliopsida; Vitis vinifera L.; Tracheophyta
2006,2006-08-05,Braga,Guimarães,Azurém,R. MOURA MACHADO - AZUREM (AZUREM),41.452695250000005,-8.288851573602233,NC,223.0,2006-08-05T13:00,31.9,22,7.5,31.4,0.0,0.0,0.0,0.0,0,1014.6,989.6,0,0,0,0,0.78,3.68,13.7,18.0,92,92,39.6,34.3,25.7,22.8,18.5,0.094,0.14,0.211,0.335,1,3600.0,949.6,842.7,107.0,929.3,949.6,1205.3,950.0,843.0,107.0,929.3,950.0,1205.7,Magnoliopsida; Tracheophyta; Pinales
2006,2006-08-06,Braga,Vila Nova de Famalicão,Arnoso (Santa Maria),ARNOSO SANTA EULALIA (ARNOSO),41.4703906,-8.519674283264415,NC,112.0,2006-08-06T11:00,30.5,32,11.8,30.1,0.0,0.0,0.0,0.0,0,1016.0,1003.3,0,0,0,0,0.65,2.99,15.7,21.1,81,82,38.5,31.4,26.0,22.9,18.8,0.099,0.139,0.211,0.335,1,3600.0,846.2,738.2,108.0,878.2,846.2,1117.6,799.0,697.0,102.0,878.2,799.0,1055.2,Eucalyptus L'Hér.; Magnoliopsida; Pinus pinaster Aiton; Tracheophyta
2006,2006-08-05,Braga,Vila Verde,Pico de Regalados,L. MOURIZ - PICO REGALADOS (PICO DE REGALADOS),41.6806222,-8.421167199905785,NC,77.0,2006-08-05T14:00,33.3,22,8.9,33.9,0.0,0.0,0.0,0.0,0,1014.2,1005.5,0,0,0,0,0.73,3.97,8.3,9.9,358,10,23.8,36.7,26.4,23.0,19.0,0.095,0.139,0.211,0.335,1,3600.0,888.1,783.0,105.1,905.4,888.1,1149.4,913.0,805.0,108.0,905.4,913.0,1181.7,Pinus pinaster Aiton; Magnoliopsida; Eucalyptus L'Hér.; Tracheophyta; Quercus L.; Vitis vinifera L.
2006,2006-07-15,Braga,Fafe,Fareja,R. S. MARTINHO (FAREJA),41.4147533,-8.227588130310604,NC,206.0,2006-07-15T00:00,24.9,67,18.3,26.7,0.0,0.0,0.0,0.0,1,1015.5,991.9,21,0,0,70,0.03,1.04,8.0,16.5,72,80,12.6,25.1,27.6,22.0,16.7,0.119,0.154,0.238,0.352,0,0.0,0.0,0.0,0.0,0.0,0.0,0.0,0.0,0.0,0.0,0.0,0.0,0.0,Vitis vinifera L.; Tracheophyta; Magnoliopsida; Eucalyptus L'Hér.; Pinales
2006,2006-02-10,Braga,Cabeceiras de Basto,Refojos de Basto,L.AGUA REDONDA (REFOJOS DE BASTO),41.5107376,-7.9986954,NC,352.0,2006-02-10T20:00,11.9,64,5.2,10.5,0.0,0.0,0.0,0.0,0,1016.4,974.6,9,0,12,6,0.0,0.51,1.8,2.5,53,315,6.5,6.4,6.7,5.6,9.1,0.331,0.344,0.372,0.377,0,0.0,0.0,0.0,0.0,0.0,0.0,0.0,0.0,0.0,0.0,0.0,0.0,0.0,Tracheophyta; Vitis vinifera L.; Magnoliopsida; Eucalyptus L'Hér.; Pinus pinaster Aiton
2006,2006-08-03,Braga,Vieira do Minho,Anissó,ANISSO (ANISSÓ),41.6005321,-8.16370238973398,NC,510.0,2006-08-03T00:00,18.8,82,15.7,19.7,0.0,0.0,0.0,0.0,0,1015.0,956.5,0,0,0,0,0.0,0.39,6.9,9.2,279,296,17.3,21.5,24.4,21.1,16.9,0.101,0.145,0.221,0.34,0,0.0,0.0,0.0,0.0,0.0,0.0,0.0,0.0,0.0,0.0,0.0,0.0,0.0,Magnoliopsida; Tracheophyta; Eucalyptus L'Hér.
2006,2006-08-05,Braga,Fafe,Quinchães,L. QUINCHÃES (QINCHÃES),41.4416885,-8.1385946,NC,464.0,2006-08-05T18:00,31.4,18,4.2,29.2,0.0,0.0,0.0,0.0,0,1013.2,962.1,0,0,0,0,0.28,3.76,5.5,9.2,58,64,20.9,33.0,25.7,21.6,17.1,0.095,0.141,0.214,0.335,1,3600.0,277.4,222.4,55.0,712.5,277.4,414.9,358.0,287.0,71.0,712.5,358.0,535.4,Tracheophyta; Magnoliopsida; Pinales
2006,2006-08-03,Braga,Fafe,Fafe,R. DA CUMIEIRA (FAFE),41.4468733,-8.180584376446348,NC,343.0,2006-08-03T15:00,31.5,33,13.1,32.8,0.0,0.0,0.0,0.0,0,1011.1,973.1,3,0,5,0,0.6,3.1,6.8,9.0,357,5,21.2,35.2,25.1,21.8,17.6,0.099,0.142,0.215,0.337,1,3600.0,726.2,567.8,158.4,726.1,726.2,1038.7,770.0,602.0,168.0,726.1,770.0,1101.4,Magnoliopsida; Pinus pinaster Aiton; Tracheophyta; Eucalyptus L'Hér.
2006,2006-07-15,Braga,Braga,Lomar,L. (Laboriz),41.5300071,-8.4275552,NC,163.0,2006-07-15T12:00,32.6,38,16.3,35.7,0.0,0.0,0.0,0.0,0,1016.2,997.9,1,0,1,0,0.6,3.07,3.8,4.8,139,132,16.9,34.0,26.5,22.0,16.7,0.112,0.153,0.238,0.352,1,3600.0,799.1,644.2,154.9,693.3,799.1,1230.0,779.0,628.0,151.0,693.3,779.0,1199.0,Tracheophyta; Eucalyptus L'Hér.
2006,2006-07-16,Braga,Vila Nova de Famalicão,Joane,L. SENRA (Mato de Senra),41.4394382,-8.4069063,NC,137.0,2006-07-16T19:00,32.0,40,16.9,33.3,0.0,0.0,0.0,0.0,0,1015.3,999.9,9,0,15,0,0.2,2.83,7.5,13.2,325,331,20.9,33.6,28.8,22.5,17.0,0.107,0.156,0.241,0.353,1,3600.0,133.0,94.0,39.0,526.4,133.0,236.3,201.0,142.0,59.0,526.4,201.0,357.1,Eucalyptus L'Hér.; Vitis vinifera L.; Tracheophyta; Castanea sativa Mill.
2006,2006-08-05,Braga,Braga,Braga (são José De São Lázaro),RUA 25 ABRIL (Rua 25 de Abril),41.5477916,-8.4196937,NC,180.0,2006-08-05T23:00,23.1,52,12.8,22.6,0.0,0.0,0.0,0.0,0,1013.9,993.1,0,0,0,0,0.06,1.34,9.4,15.8,50,47,15.8,24.5,26.9,22.6,18.4,0.098,0.14,0.212,0.335,0,0.0,0.0,0.0,0.0,0.0,0.0,0.0,0.0,0.0,0.0,0.0,0.0,0.0,Tracheophyta
2006,2006-08-06,Braga,Esposende,Apúlia,Pedrinhas,41.4824433,-8.7651879,NC,9.0,2006-08-06T03:00,25.4,39,10.3,23.1,0.0,0.0,0.0,0.0,0,1014.1,1013.1,0,0,0,0,0.15,1.99,16.2,31.3,89,98,28.1,24.3,26.8,23.1,19.5,0.095,0.139,0.211,0.333,0,0.0,0.0,0.0,0.0,0.0,0.0,0.0,0.0,0.0,0.0,0.0,0.0,0.0,Tracheophyta; Pinus pinaster Aiton
2006,2006-02-08,Braga,Cabeceiras de Basto,Rio Douro,RIO DOURO,41.551208,-7.9678771,NC,403.0,2006-02-08T19:00,10.1,60,2.6,8.1,0.0,0.0,0.0,0.0,1,1018.1,970.0,28,0,0,94,0.0,0.5,1.8,4.0,259,280,6.8,5.4,5.1,5.4,9.1,0.335,0.349,0.377,0.386,0,0.0,0.0,0.0,0.0,0.0,0.0,0.0,0.0,0.0,0.0,0.0,0.0,0.0,Pinus pinaster Aiton; Magnoliopsida; Tracheophyta; Eucalyptus L'Hér.
2006,2006-08-05,Braga,Póvoa de Lanhoso,Rendufinho,Marco,41.6107859,-8.2701812,NC,346.0,2006-08-05T20:00,28.5,39,13.3,28.7,0.0,0.0,0.0,0.0,0,1013.3,974.5,0,0,0,0,0.07,2.36,5.6,6.9,297,309,13.3,29.4,26.5,21.9,17.7,0.097,0.14,0.212,0.335,0,618.05,0.0,0.0,0.0,0.0,0.0,0.0,24.0,13.0,11.0,130.1,24.0,74.3,Magnoliopsida; Eucalyptus L'Hér.; Tracheophyta; Pinus pinaster Aiton
2006,2006-08-05,Braga,Braga,Parada de Tibães,L. MOSTEIRO (PARADA DE TIBÃES),41.56124045,-8.46470165826884,NC,83.0,2006-08-05T20:00,28.8,42,14.8,29.3,0.0,0.0,0.0,0.0,0,1012.9,1003.4,0,0,0,0,0.09,2.29,7.4,14.5,321,337,17.6,30.4,27.7,23.0,18.9,0.095,0.139,0.21,0.335,0,626.81,0.0,0.0,0.0,0.0,0.0,0.0,25.0,13.0,12.0,129.1,25.0,75.4,Tracheophyta; Magnoliopsida; Eucalyptus L'Hér.; Pinus pinaster Aiton
2006,2006-07-15,Braga,VIZELA,Caldas De Vizela (são Miguel),L.S.BENTO (CALDAS DE VIZELA),41.3790869,-8.3123667,NC,150.0,2006-07-15T13:00,33.4,35,16.0,37.1,0.0,0.0,0.0,0.0,0,1015.7,998.9,4,0,7,0,0.68,3.34,3.7,4.2,209,200,15.8,35.7,26.9,22.0,16.8,0.111,0.153,0.238,0.352,1,3600.0,877.8,744.9,133.0,794.4,877.8,1241.1,878.0,745.0,133.0,794.4,878.0,1241.4,Tracheophyta; Eucalyptus L'Hér.; Magnoliopsida
2006,2006-08-06,Braga,Vieira do Minho,Pinheiro,L. TABUADELO (PINHEIRO),41.62561795,-8.106171540796982,NC,543.0,2006-08-06T17:00,32.0,27,10.7,31.1,0.0,0.0,0.0,0.0,0,1014.8,955.3,0,0,0,0,0.44,3.46,7.6,9.7,355,2,19.4,35.0,25.9,21.7,17.3,0.099,0.144,0.22,0.338,1,3600.0,461.2,387.5,73.7,793.3,461.2,649.5,538.0,452.0,86.0,793.3,538.0,757.6,Magnoliopsida; Tracheophyta; Quercus L.; Pinus pinaster Aiton
2006,2006-08-03,Braga,Vila Nova de Famalicão,Gavião,AGRAS (Agra),41.4155375,-8.5188293,NC,105.0,2006-08-03T21:00,25.1,50,13.9,24.2,0.0,0.0,0.0,0.0,0,1011.8,999.7,0,0,0,0,0.11,1.6,14.5,28.3,19,26,34.2,26.8,26.1,22.4,18.7,0.118,0.139,0.204,0.341,0,0.0,0.0,0.0,0.0,0.0,0.0,0.0,0.0,0.0,0.0,0.0,0.0,0.0,Tracheophyta
2006,2006-08-07,Braga,Guimarães,São Torcato,CEGADE (Cima de Segade),41.4815156,-8.2590698,NC,253.0,2006-08-07T05:00,21.6,40,7.5,18.6,0.0,0.0,0.0,0.0,0,1014.9,985.7,0,0,0,0,0.13,1.54,15.8,31.3,89,89,40.0,22.6,26.4,22.9,18.5,0.094,0.139,0.209,0.333,0,0.0,0.0,0.0,0.0,0.0,0.0,0.0,0.0,0.0,0.0,0.0,0.0,0.0,Magnoliopsida; Tracheophyta; Vitis vinifera L.; Pinus pinaster Aiton
2006,2006-08-06,Braga,Cabeceiras de Basto,Cabeceiras de Basto,Lapela,41.5461405,-8.0610111,NC,837.0,2006-08-06T06:00,15.8,60,8.2,14.3,0.0,0.0,0.0,0.0,0,1018.7,923.6,0,0,0,0,0.05,0.71,7.2,17.9,93,99,27.4,17.1,22.0,19.8,15.4,0.098,0.151,0.23,0.342,1,0.0,17.6,7.5,10.0,86.4,7.0,98.1,7.0,3.0,4.0,40.9,7.0,39.1,Magnoliopsida; Tracheophyta
2006,2006-08-06,Braga,Celorico de Basto,Corgo,Vila Nova,41.4421698,-7.98844115,NC,212.0,2006-08-06T07:00,21.5,51,11.0,19.1,0.0,0.0,0.0,0.0,0,1016.4,991.8,0,0,0,0,0.16,1.26,18.7,32.4,89,89,43.6,21.8,25.2,23.1,18.7,0.093,0.147,0.224,0.34,1,3553.05,176.2,114.8,61.3,445.8,174.9,342.4,112.0,73.0,39.0,442.5,112.0,217.7,Magnoliopsida; Eucalyptus L'Hér.; Tracheophyta; Vitis vinifera L.; Pinus pinaster Aiton
2006,2006-08-05,Braga,Vila Nova de Famalicão,Fradelos,L. VALE D´OSSOS - FRADELOS (FRADELOS),41.3867182,-8.5872799,NC,111.0,2006-08-05T08:00,24.0,42,10.2,21.4,0.0,0.0,0.0,0.0,0,1015.2,1002.3,0,0,0,0,0.28,1.73,18.4,27.4,89,89,37.8,24.1,25.0,22.5,18.8,0.101,0.14,0.212,0.336,1,3600.0,375.7,291.2,84.5,664.7,375.7,582.3,298.0,231.0,67.0,664.7,298.0,461.9,Eucalyptus L'Hér.; Magnoliopsida; Pinus pinaster Aiton; Tracheophyta
2006,2006-07-29,Braga,Braga,Lamaçães,ROTUNDA DA CONFEITEIRA (Rua do Outeiral),41.5449665,-8.3960523,NC,214.0,2006-07-29T16:00,25.7,56,16.4,26.4,0.0,0.0,0.0,0.0,0,1013.6,989.2,0,0,0,0,0.48,1.44,15.8,20.0,291,293,33.5,32.0,24.2,21.9,17.7,0.101,0.143,0.22,0.341,1,3600.0,638.5,531.0,107.5,794.1,638.5,887.2,701.0,583.0,118.0,794.1,701.0,974.1,Tracheophyta; Eucalyptus L'Hér.; Magnoliopsida
2006,2006-07-17,Braga,Póvoa de Lanhoso,Brunhais,Leiradela,41.5822123,-8.1849457,NC,324.0,2006-07-17T11:00,33.9,34,15.7,36.2,0.0,0.0,0.0,0.0,0,1015.8,980.0,4,0,0,13,0.64,3.51,7.4,9.2,137,135,27.0,32.5,25.6,21.8,16.1,0.118,0.157,0.24,0.352,1,3600.0,831.2,706.7,124.5,809.8,831.2,1155.4,788.0,670.0,118.0,809.8,788.0,1095.4,Vitis vinifera L.; Tracheophyta; Eucalyptus L'Hér.; Magnoliopsida
2006,2006-08-05,Braga,Amares,Lago,RECTA DE LAGO (LAGO),41.6206095,-8.41211680582419,NC,73.0,2006-08-05T22:00,25.6,52,15.1,26.2,0.0,0.0,0.0,0.0,0,1013.9,1005.5,0,0,0,0,0.05,1.57,7.6,13.4,31,24,13.3,26.8,27.6,23.0,19.0,0.099,0.14,0.212,0.335,0,0.0,0.0,0.0,0.0,0.0,0.0,0.0,0.0,0.0,0.0,0.0,0.0,0.0,Tracheophyta; Vitis vinifera L.; Eucalyptus L'Hér.; Magnoliopsida; Pinus pinaster Aiton; 
2006,2006-08-06,Braga,Braga,Panoias,L. MONTE NOVO (Lugar Novo),41.5725918,-8.4641669,NC,43.0,2006-08-06T11:00,31.3,32,12.7,31.6,0.0,0.0,0.0,0.0,0,1015.8,1010.9,0,0,0,0,0.64,3.11,13.3,18.5,57,66,30.2,32.4,26.3,23.3,19.2,0.095,0.139,0.21,0.335,1,3600.0,838.8,731.8,107.0,871.7,838.8,1116.2,792.0,691.0,101.0,871.7,792.0,1053.9,Magnoliopsida; Tracheophyta; Pinus pinaster Aiton
2006,2006-08-06,Braga,Guimarães,Conde,L. STª LUZIA - (CONDE) (CONDE),41.39311605,-8.332526528493043,NC,170.0,2006-08-06T11:00,30.1,32,11.5,29.5,0.0,0.0,0.0,0.0,0,1016.0,996.8,0,0,0,0,0.65,2.9,15.7,21.1,81,82,38.5,31.1,25.7,22.8,18.6,0.098,0.14,0.212,0.335,1,3600.0,846.0,738.0,108.0,876.7,846.0,1119.1,799.0,697.0,102.0,876.7,799.0,1057.0,Eucalyptus L'Hér.; Tracheophyta; Magnoliopsida; Vitis vinifera L.
2006,2006-02-12,Braga,Vieira do Minho,Anissó,L. CASTRO (ANISSÓ),41.6005321,-8.16370238973398,NC,510.0,2006-02-12T20:00,9.0,67,3.2,6.7,0.0,0.0,0.0,0.0,1,1023.9,962.9,29,0,0,97,0.01,0.38,5.2,5.4,102,98,11.9,6.4,7.1,5.7,8.4,0.324,0.341,0.371,0.396,0,0.0,0.0,0.0,0.0,0.0,0.0,0.0,0.0,0.0,0.0,0.0,0.0,0.0,Magnoliopsida; Tracheophyta; Eucalyptus L'Hér.
2006,2006-08-05,Braga,Braga,Crespos,QUINTA DE JOZ - NAVARRA (Quinta),41.5982207,-8.3652936,Desconhecida,101.0,2006-08-05T15:00,34.0,20,8.2,34.3,0.0,0.0,0.0,0.0,0,1013.2,1001.9,0,0,0,0,0.67,4.22,6.6,8.8,49,55,18.7,37.2,26.7,23.0,18.9,0.097,0.14,0.212,0.336,1,3600.0,797.0,700.8,96.2,900.1,797.0,1034.9,845.0,743.0,102.0,900.1,845.0,1097.2,Magnoliopsida; Vitis vinifera L.
2006,2006-07-30,Braga,Vila Nova de Famalicão,Lemenhe,MONTE ALVAR (Alemonte),41.4462988,-8.5306128,NC,111.0,2006-07-30T03:00,18.7,91,17.2,21.2,0.0,0.0,0.0,0.0,2,1014.9,1001.8,54,0,54,71,0.0,0.2,0.4,1.4,360,360,7.9,19.9,23.8,22.4,18.4,0.119,0.14,0.209,0.345,0,0.0,0.0,0.0,0.0,0.0,0.0,0.0,0.0,0.0,0.0,0.0,0.0,0.0,Tracheophyta; Vitis vinifera L.; Quercus L.; Eucalyptus L'Hér.; Magnoliopsida
2006,2006-08-05,Braga,Braga,Pedralva,L.PEDRALVA (PEDRALVA),41.57719105,-8.322675272587194,NC,478.0,2006-08-05T18:00,31.7,19,5.3,29.7,0.0,0.0,0.0,0.0,0,1013.2,960.6,0,0,0,0,0.28,3.77,5.5,9.2,58,64,20.9,33.4,25.9,21.7,17.3,0.098,0.142,0.216,0.337,1,3600.0,277.7,222.6,55.1,711.9,277.7,415.6,358.0,287.0,71.0,711.9,358.0,535.9,Magnoliopsida; Eucalyptus L'Hér.; Pinus pinaster Aiton; Tracheophyta; Pinales
2006,2006-08-06,Braga,Vila Verde,Coucieiro,Quintela,41.6777821,-8.3978757,NC,121.0,2006-08-06T23:00,25.1,56,15.6,24.3,0.0,0.0,0.0,0.0,0,1015.1,1001.1,0,0,0,0,0.12,1.41,18.5,31.3,13,24,34.6,26.8,28.1,23.2,18.9,0.096,0.138,0.208,0.334,0,0.0,0.0,0.0,0.0,0.0,0.0,0.0,0.0,0.0,0.0,0.0,0.0,0.0,Vitis vinifera L.; Eucalyptus L'Hér.; Pinus pinaster Aiton; Tracheophyta
2006,2006-08-06,Braga,Vieira do Minho,Campos,L. CAMBEDO (Monte de Cambedo),41.67059545,-8.030415872301203,Desconhecida,695.0,2006-08-06T10:00,24.3,41,10.1,23.9,0.0,0.0,0.0,0.0,0,1019.1,941.5,0,0,0,0,0.46,1.81,8.4,10.6,97,100,24.5,26.0,22.7,20.7,16.4,0.098,0.151,0.229,0.342,1,3600.0,729.4,626.3,103.1,843.2,729.4,987.5,665.0,571.0,94.0,843.2,665.0,900.3,Tracheophyta; Magnoliopsida; Quercus L.
2006,2006-08-07,Braga,Fafe,Gontim,VARZEA ( SILVARES S. MARTINHO) (Varzea),41.5278534,-8.1031956,Desconhecida,724.0,2006-08-07T07:00,18.3,52,8.3,16.8,0.0,0.0,0.0,0.0,0,1018.5,936.3,0,0,0,0,0.09,1.01,7.4,13.6,104,107,24.5,19.4,23.2,20.7,16.2,0.097,0.15,0.228,0.342,1,3563.59,185.4,121.0,64.4,468.5,184.3,343.3,118.0,77.0,41.0,465.8,118.0,218.6,Eucalyptus L'Hér.; Magnoliopsida; Tracheophyta
2006,2006-07-16,Braga,Braga,Este (são Pedro),JUNTO CAMPO FUTETEBOL (São Pedro),41.5672086,-8.371143403297701,NC,219.0,2006-07-16T14:00,34.8,28,13.5,37.3,0.0,0.0,0.0,0.0,0,1015.8,991.5,0,0,0,0,0.73,4.03,6.2,6.8,291,295,19.4,37.2,26.8,21.8,16.3,0.109,0.152,0.237,0.351,1,3600.0,890.3,772.4,117.9,862.7,890.3,1185.3,914.0,793.0,121.0,862.7,914.0,1216.9,Tracheophyta; Magnoliopsida; Eucalyptus L'Hér.; Pinus pinaster Aiton
2006,2006-08-05,Braga,Guimarães,Atães,L.LUMBRIZIDA (ATÃES) (ATÃES),41.448882,-8.2585955,NC,336.0,2006-08-05T01:00,19.9,47,8.1,18.1,0.0,0.0,0.0,0.0,0,1014.7,975.9,0,0,0,0,0.07,1.25,9.6,24.9,77,88,24.8,21.2,25.5,21.9,17.7,0.098,0.141,0.216,0.337,0,0.0,0.0,0.0,0.0,0.0,0.0,0.0,0.0,0.0,0.0,0.0,0.0,0.0,Magnoliopsida; Pinus pinaster Aiton; Eucalyptus L'Hér.; Tracheophyta; Vitis vinifera L.
2006,2006-02-08,Braga,Vila Verde,Dossãos,ROSSABAL (Rossavale),41.6801487,-8.4684156,NC,296.0,2006-02-08T17:00,12.6,57,4.4,10.5,0.0,0.0,0.0,0.0,0,1018.0,982.7,3,0,0,9,0.1,0.62,5.0,5.9,300,308,11.5,10.6,6.6,6.3,9.6,0.334,0.349,0.376,0.403,1,3600.0,140.6,105.6,35.0,678.5,140.6,218.8,213.0,160.0,53.0,678.5,213.0,331.5,Magnoliopsida; Eucalyptus L'Hér.; Tracheophyta; Pinus pinaster Aiton
2006,2006-08-06,Braga,Guimarães,Serzedelo,PORTELINHA (SERZEDELO) (Portelinha),41.4023385,-8.369240901280321,NC,146.0,2006-08-06T16:00,34.3,25,11.8,34.3,0.0,0.0,0.0,0.0,0,1013.7,997.4,0,0,0,0,0.6,4.03,10.2,13.0,350,354,19.8,37.0,27.2,22.9,18.7,0.103,0.143,0.218,0.338,1,3600.0,639.5,552.4,87.1,850.1,639.5,864.0,705.0,609.0,96.0,850.1,705.0,952.5,Magnoliopsida; Tracheophyta; Vitis vinifera L.; Eucalyptus L'Hér.
2006,2006-02-12,Braga,Terras de Bouro,Vilar da Veiga,PADROZ (PADROLA),41.70154,-8.1684698,NC,196.0,2006-02-12T19:00,13.4,57,5.0,11.4,0.0,0.0,0.0,0.0,1,1023.2,999.6,30,0,0,100,0.02,0.66,5.2,8.1,344,339,10.1,9.4,8.9,7.6,10.0,0.321,0.338,0.37,0.398,0,0.0,0.0,0.0,0.0,0.0,0.0,0.0,0.0,0.0,0.0,0.0,0.0,0.0,Magnoliopsida; Tracheophyta; Pinus pinaster Aiton; Acacia Mill.; Quercus L.
2006,2006-02-12,Braga,Vila Verde,Atães,L. PORTELA VADE (ATÃES),41.72058395,-8.416887349949057,NC,293.0,2006-02-12T20:00,9.2,75,5.0,7.0,0.0,0.0,0.0,0.0,1,1023.9,988.4,30,0,0,100,0.0,0.29,6.5,8.0,19,355,11.9,7.1,7.9,6.6,9.0,0.322,0.339,0.369,0.402,0,0.0,0.0,0.0,0.0,0.0,0.0,0.0,0.0,0.0,0.0,0.0,0.0,0.0,Quercus L.; Magnoliopsida; Tracheophyta; Eucalyptus L'Hér.
2006,2006-08-05,Braga,Guimarães,São Torcato,L. CEGADE-(S.TORCATO) (SÃO TORCATO),41.48619595,-8.256837325287776,NC,283.0,2006-08-05T13:00,31.5,22,7.1,31.0,0.0,0.0,0.0,0.0,0,1014.9,983.3,0,0,0,0,0.76,3.6,13.1,17.1,99,97,37.4,33.9,25.3,22.4,18.1,0.094,0.14,0.211,0.335,1,3600.0,945.6,838.7,107.0,925.4,945.6,1204.6,946.0,839.0,107.0,925.4,946.0,1205.1,Magnoliopsida; Pinus pinaster Aiton; Tracheophyta; Vitis vinifera L.
2006,2006-08-05,Braga,Vieira do Minho,Vieira do Minho,Vila Seca,41.6320418,-8.128083,NC,391.0,2006-08-05T22:00,24.1,44,11.1,23.1,0.0,0.0,0.0,0.0,0,1015.5,971.1,0,0,0,0,0.07,1.68,9.3,20.2,54,59,26.3,24.8,26.3,22.1,17.7,0.096,0.14,0.211,0.334,0,0.0,0.0,0.0,0.0,0.0,0.0,0.0,0.0,0.0,0.0,0.0,0.0,0.0,Pinus pinaster Aiton; Magnoliopsida; Quercus L.; Eucalyptus L'Hér.
2006,2006-07-17,Braga,Fafe,Vila Cova,CORGO (VILA COVA),41.5131488,-8.190315232422906,NC,283.0,2006-07-17T17:00,31.6,43,17.3,32.9,0.0,0.0,0.0,0.0,0,1014.7,983.1,14,0,3,39,0.37,2.66,9.0,11.5,270,270,25.2,35.4,28.2,22.4,16.7,0.103,0.152,0.234,0.349,1,3600.0,356.9,267.2,89.7,502.1,356.9,704.7,410.0,307.0,103.0,502.1,410.0,809.5,Eucalyptus L'Hér.; Pinales; Magnoliopsida; Tracheophyta
2006,2006-08-07,Braga,Vila Nova de Famalicão,Carreira,CEGADE (CARREIRA) (CARREIRA),41.37546885,-8.442418577887826,NC,124.0,2006-08-07T15:00,34.1,22,9.6,35.3,0.0,0.0,0.0,0.0,0,1012.2,998.4,1,0,0,2,0.63,4.14,3.4,5.0,18,30,22.0,37.1,27.6,23.2,19.0,0.102,0.142,0.217,0.337,1,3600.0,784.4,686.3,98.0,884.9,784.4,1031.4,832.0,728.0,104.0,884.9,832.0,1094.1,Eucalyptus L'Hér.; Tracheophyta
2006,2006-07-16,Braga,Braga,Palmeira,R. DOS BELOS ARES (PALMEIRA),41.587031,-8.4420428,NC,72.0,2006-07-16T18:00,33.6,37,16.9,34.5,0.0,0.0,0.0,0.0,0,1015.3,1007.2,3,0,5,0,0.37,3.26,9.9,14.3,314,317,24.5,35.8,29.0,22.8,17.4,0.102,0.149,0.234,0.35,1,3600.0,320.9,256.6,64.3,709.8,320.9,478.5,399.0,319.0,80.0,709.8,399.0,595.0,Tracheophyta; Magnoliopsida; Pinales
2006,2006-08-06,Braga,Braga,Crespos,QUINTA DE JOS (Quinta),41.5982207,-8.3652936,NC,101.0,2006-08-06T07:00,23.0,51,12.2,20.2,0.0,0.0,0.0,0.0,0,1015.4,1003.7,0,0,0,0,0.19,1.39,23.9,39.3,83,87,45.0,22.6,25.8,23.1,18.9,0.097,0.139,0.211,0.335,1,3500.31,170.9,110.7,60.1,435.3,168.2,338.2,108.0,70.0,38.0,428.5,108.0,213.8,Magnoliopsida; Vitis vinifera L.
2006,2006-08-06,Braga,Guimarães,Serzedelo,Portelinha,41.4021177,-8.3683343,NC,147.0,2006-08-06T21:00,29.0,38,13.3,28.0,0.0,0.0,0.0,0.0,0,1013.9,997.2,0,0,0,0,0.15,2.48,14.1,24.9,357,4,22.0,29.5,27.9,22.9,18.8,0.102,0.143,0.218,0.338,0,0.0,0.0,0.0,0.0,0.0,0.0,0.0,0.0,0.0,0.0,0.0,0.0,0.0,Magnoliopsida; Tracheophyta; Vitis vinifera L.; Eucalyptus L'Hér.; Pinales
2006,2006-08-05,Braga,Vila Verde,Duas Igrejas,BARROCO (Barroca),41.6943268,-8.4908715,NC,211.0,2006-08-05T18:00,31.4,31,12.1,30.1,0.0,0.0,0.0,0.0,0,1013.1,989.5,0,0,0,0,0.36,3.18,13.2,18.9,334,342,27.7,34.3,26.9,22.3,18.2,0.097,0.138,0.208,0.334,1,3600.0,278.6,221.8,56.8,700.9,278.6,420.6,358.0,285.0,73.0,700.9,358.0,540.5,Magnoliopsida; Eucalyptus L'Hér.; Tracheophyta; Pinus pinaster Aiton
2006,2006-07-30,Braga,Cabeceiras de Basto,Cabeceiras de Basto,Igreja,41.5943675,-7.8410867,NC,558.0,2006-07-30T05:00,16.6,96,16.0,17.8,0.0,0.0,0.0,0.0,3,1015.1,950.8,98,60,50,47,0.0,0.07,5.4,9.4,266,272,13.3,19.1,23.3,21.6,17.0,0.115,0.158,0.236,0.346,0,0.0,0.0,0.0,0.0,0.0,0.0,0.0,0.0,0.0,0.0,0.0,0.0,0.0,Magnoliopsida; Tracheophyta; Pinus pinaster Aiton
2006,2006-02-08,Braga,Vila Nova de Famalicão,Arnoso (Santa Maria),VALE  DE OSSOS (Vale),41.46782815,-8.497358308603104,NC,151.0,2006-02-08T20:00,6.4,84,3.9,4.0,0.0,0.0,0.0,0.0,1,1018.5,999.9,29,0,0,98,0.0,0.15,6.7,7.7,16,349,10.4,6.2,7.4,7.3,10.6,0.332,0.347,0.374,0.384,0,0.0,0.0,0.0,0.0,0.0,0.0,0.0,0.0,0.0,0.0,0.0,0.0,0.0,Eucalyptus L'Hér.; Tracheophyta; Vitis vinifera L.
2006,2006-07-17,Braga,Braga,Priscos,Azevido,41.4981123,-8.4779317,NC,133.0,2006-07-17T22:00,24.3,69,18.2,26.6,0.0,0.0,0.0,0.0,0,1015.8,1000.4,0,0,0,0,0.01,0.94,4.2,8.2,160,151,11.2,26.9,28.3,22.7,17.1,0.1,0.148,0.232,0.349,0,0.0,0.0,0.0,0.0,0.0,0.0,0.0,0.0,0.0,0.0,0.0,0.0,0.0,Magnoliopsida; Eucalyptus L'Hér.; Tracheophyta; Vitis vinifera L.
2006,2006-08-05,Braga,Guimarães,Sande (são Clemente),MONTE DO SOUTO (Bouça do Monte),41.495736,-8.3626424,NC,156.0,2006-08-05T18:00,32.5,24,9.3,30.9,0.0,0.0,0.0,0.0,0,1012.6,995.1,0,0,0,0,0.33,3.71,8.9,13.7,317,325,22.0,34.6,27.3,22.7,18.6,0.098,0.14,0.212,0.336,1,3600.0,280.6,223.8,56.7,709.2,280.6,419.5,361.0,288.0,73.0,709.2,361.0,539.7,Magnoliopsida; Tracheophyta; Eucalyptus L'Hér.
2006,2006-08-06,Braga,Amares,Figueiredo,TRANFONTÃO (Transfontão),41.6277592,-8.3251303,NC,79.0,2006-08-06T23:00,25.7,52,15.2,25.8,0.0,0.0,0.0,0.0,0,1014.2,1005.1,0,0,0,0,0.08,1.57,11.4,22.4,18,28,23.0,27.1,28.2,23.4,19.1,0.096,0.139,0.21,0.334,0,0.0,0.0,0.0,0.0,0.0,0.0,0.0,0.0,0.0,0.0,0.0,0.0,0.0,Tracheophyta; Magnoliopsida; Pinus pinaster Aiton; Vitis vinifera L.; Eucalyptus L'Hér.
2006,2006-08-07,Braga,Vila Nova de Famalicão,Ribeirão,PORTELADA (ESMERIZ) (Portela),41.3643666,-8.5598459,NC,45.0,2006-08-07T17:00,33.9,26,11.8,32.7,0.0,0.0,0.0,0.0,0,1011.1,1006.1,0,0,0,0,0.49,3.9,11.4,14.6,336,340,20.5,36.8,28.6,23.5,19.4,0.1,0.138,0.207,0.333,1,3600.0,462.9,389.2,73.7,794.9,462.9,651.1,540.0,454.0,86.0,794.9,540.0,759.6,Eucalyptus L'Hér.; Tracheophyta; Magnoliopsida
2006,2006-02-09,Braga,Cabeceiras de Basto,Rio Douro,L.RIO DOURO (Ribeira do Rio Douro),41.551208,-7.9678771,NC,403.0,2006-02-09T15:00,14.3,45,2.4,12.3,0.0,0.0,0.0,0.0,1,1015.2,967.9,27,0,11,69,0.25,0.9,1.9,2.4,112,117,16.2,10.5,4.4,5.3,9.0,0.333,0.347,0.376,0.386,1,3600.0,437.0,346.4,90.7,792.0,437.0,614.6,482.0,382.0,100.0,792.0,482.0,677.8,Pinus pinaster Aiton; Magnoliopsida; Tracheophyta; Eucalyptus L'Hér.
2006,2006-08-06,Braga,Vila Nova de Famalicão,Calendário,ALTO DO SEIXO (LOUSADO) (Alto),41.4143764,-8.522835161985839,NC,111.0,2006-08-06T11:00,30.4,31,11.4,29.8,0.0,0.0,0.0,0.0,0,1016.0,1003.4,0,0,0,0,0.65,2.99,15.7,21.1,81,82,38.5,31.1,26.1,22.9,18.9,0.116,0.138,0.201,0.34,1,3600.0,846.2,738.2,108.0,878.2,846.2,1117.6,799.0,697.0,102.0,878.2,799.0,1055.2,Tracheophyta; Eucalyptus L'Hér.
2006,2006-08-05,Braga,Vila Verde,Valões,PORTELA-GEME (Portela),41.7403277,-8.4350368,NC,349.0,2006-08-05T19:00,30.4,32,11.8,30.0,0.0,0.0,0.0,0.0,0,1013.2,974.3,0,0,0,0,0.16,2.96,6.4,11.5,308,321,19.8,31.8,26.5,21.8,17.7,0.097,0.141,0.215,0.337,1,3600.0,98.4,69.5,29.0,541.3,98.4,170.6,170.0,120.0,50.0,541.3,170.0,294.7,Eucalyptus L'Hér.; Magnoliopsida; Tracheophyta; Quercus L.; Pinus pinaster Aiton
2006,2006-07-20,Braga,Cabeceiras de Basto,Outeiro,RIBEIRA ARCO (Cerda da Ribeira),41.5132771,-8.0195517,NC,429.0,2006-07-20T15:00,26.6,49,14.9,28.1,0.0,0.0,0.0,0.0,0,1018.5,970.1,0,0,0,0,0.59,1.78,11.5,14.4,268,267,33.5,32.3,24.2,21.7,16.1,0.115,0.161,0.241,0.35,1,3600.0,786.7,656.2,130.5,815.5,786.7,1065.9,832.0,694.0,138.0,815.5,832.0,1127.2,Magnoliopsida; Pinus pinaster Aiton; Tracheophyta; Vitis vinifera L.; Eucalyptus L'Hér.
2006,2006-08-07,Braga,Vila Verde,Barbudo,L. REAL (BARBUDO),41.648453,-8.451759835957457,NC,138.0,2006-08-07T22:00,26.5,41,12.3,24.6,0.0,0.0,0.0,0.0,0,1012.7,996.9,0,0,0,0,0.16,2.03,17.9,30.4,19,31,36.7,27.9,28.3,23.1,18.7,0.095,0.138,0.207,0.333,0,0.0,0.0,0.0,0.0,0.0,0.0,0.0,0.0,0.0,0.0,0.0,0.0,0.0,Vitis vinifera L.; Eucalyptus L'Hér.; Pinus pinaster Aiton; Magnoliopsida; Castanea sativa Mill.
2006,2006-07-17,Braga,Vieira do Minho,Rossas,BAIRRO (Bairral),41.5848975,-8.097119,NC,484.0,2006-07-17T18:00,30.3,44,16.7,31.7,0.0,0.0,0.0,0.0,0,1015.7,962.1,13,0,0,42,0.29,2.42,6.8,9.0,270,272,20.5,33.0,27.2,21.3,15.5,0.109,0.164,0.243,0.352,1,3600.0,282.3,209.3,73.0,586.4,282.3,472.6,352.0,261.0,91.0,586.4,352.0,589.3,Tracheophyta; Eucalyptus L'Hér.; Magnoliopsida; Quercus L.; Pinus pinaster Aiton
2006,2006-08-06,Braga,Braga,Celeirós,L. GARAPOA (CELEIROS) (CELEIROZ),41.51235605,-8.44835231893892,NC,144.0,2006-08-06T13:00,32.9,28,12.1,34.6,0.0,0.0,0.0,0.0,0,1015.4,999.2,0,0,0,0,0.73,3.6,8.6,11.2,68,69,29.2,35.2,26.4,22.9,18.7,0.098,0.14,0.211,0.335,1,3600.0,927.8,819.8,108.0,906.5,927.8,1202.4,928.0,820.0,108.0,906.5,928.0,1202.7,Tracheophyta; Magnoliopsida; Pinus pinaster Aiton
2006,2006-08-06,Braga,Braga,Crespos,QUINTA DO MONTE (Quinta),41.5982207,-8.3652936,NC,101.0,2006-08-06T00:00,22.6,57,13.7,22.4,0.0,0.0,0.0,0.0,0,1013.7,1002.0,0,0,0,0,0.05,1.17,9.5,19.0,65,57,18.4,24.0,27.2,23.1,18.9,0.097,0.139,0.211,0.335,0,0.0,0.0,0.0,0.0,0.0,0.0,0.0,0.0,0.0,0.0,0.0,0.0,0.0,Magnoliopsida; Vitis vinifera L.
2006,2006-08-08,Braga,Amares,Lago,L. RIBEIRA - LAGO (LAGO),41.6206095,-8.41211680582419,NC,73.0,2006-08-08T03:00,24.3,41,10.1,22.0,0.0,0.0,0.0,0.0,0,1011.8,1003.4,0,0,0,0,0.14,1.8,16.2,31.0,87,91,37.1,24.9,27.9,23.6,19.2,0.098,0.139,0.208,0.333,0,0.0,0.0,0.0,0.0,0.0,0.0,0.0,0.0,0.0,0.0,0.0,0.0,0.0,Tracheophyta; Vitis vinifera L.; Eucalyptus L'Hér.; Magnoliopsida; Pinus pinaster Aiton; 
2006,2006-07-20,Braga,Póvoa de Lanhoso,Taíde,L. QUINTELA (TAIDE),41.5584689,-8.220773256425403,NC,214.0,2006-07-20T21:00,21.2,72,16.0,22.4,0.0,0.0,0.0,0.0,0,1019.7,994.7,0,0,0,0,0.01,0.7,5.7,8.9,305,320,13.0,24.8,26.0,22.9,17.3,0.102,0.147,0.229,0.347,0,0.0,0.0,0.0,0.0,0.0,0.0,0.0,0.0,0.0,0.0,0.0,0.0,0.0,Vitis vinifera L.; Tracheophyta; Pinales; Magnoliopsida
2006,2006-07-22,Braga,Fafe,Fafe,PARDELHAS-IGREJA (Pardelhas),41.4555087,-8.1589289,NC,357.0,2006-07-22T00:00,15.1,90,13.4,15.6,0.0,0.0,0.0,0.0,0,1022.0,979.8,0,0,0,0,0.0,0.18,4.0,4.1,260,285,9.4,18.8,24.0,22.0,16.6,0.103,0.149,0.229,0.346,0,0.0,0.0,0.0,0.0,0.0,0.0,0.0,0.0,0.0,0.0,0.0,0.0,0.0,Magnoliopsida; Tracheophyta; Pinales; Vitis vinifera L.
2006,2006-08-07,Braga,Guimarães,Sande (são Clemente),MONTE DA ARCELA- INTERMACHE(AZUREM)DESPACHADO (Bouça do Monte),41.495736,-8.3626424,NC,156.0,2006-08-07T00:00,24.5,53,14.3,24.4,0.0,0.0,0.0,0.0,0,1014.3,996.3,0,0,0,0,0.07,1.44,10.2,22.7,23,36,23.4,25.8,27.7,23.0,18.7,0.098,0.139,0.211,0.335,0,0.0,0.0,0.0,0.0,0.0,0.0,0.0,0.0,0.0,0.0,0.0,0.0,0.0,Magnoliopsida; Tracheophyta; Eucalyptus L'Hér.
2006,2006-08-06,Braga,Guimarães,São Torcato,CEGADE ( S. TORCATO ) (SÃO TORCATO),41.48619595,-8.256837325287776,NC,283.0,2006-08-06T10:00,27.7,35,10.7,25.7,0.0,0.0,0.0,0.0,0,1017.1,985.0,0,0,0,0,0.54,2.42,19.1,26.0,87,86,43.6,28.4,25.1,22.6,18.2,0.094,0.139,0.21,0.334,1,3600.0,731.1,627.9,103.2,846.7,731.1,985.9,666.0,572.0,94.0,846.7,666.0,898.2,Magnoliopsida; Pinus pinaster Aiton; Tracheophyta; Vitis vinifera L.
2006,2006-08-06,Braga,Terras de Bouro,Brufe,OUTEIRAL( CHORENSE) (Outeiro),41.766099,-8.2385286,NC,746.0,2006-08-06T01:00,19.2,55,10.0,17.9,0.0,0.0,0.0,0.0,0,1017.6,933.3,0,0,0,0,0.04,0.99,8.7,17.4,97,97,21.2,20.3,23.9,20.5,16.2,0.109,0.156,0.235,0.346,0,0.0,0.0,0.0,0.0,0.0,0.0,0.0,0.0,0.0,0.0,0.0,0.0,0.0,Tracheophyta; Magnoliopsida; Quercus L.; Pinus pinaster Aiton; Pinales
2006,2006-02-14,Braga,Vila Nova de Famalicão,Nine,L. ROMAO (NINE),41.4541559,-8.5440932,NC,78.0,2006-02-14T02:00,7.3,95,6.6,5.7,0.0,0.0,0.0,0.0,3,1023.1,1013.4,100,93,7,81,0.0,0.05,5.1,9.7,94,88,10.4,7.9,8.8,8.5,10.8,0.322,0.336,0.367,0.383,0,0.0,0.0,0.0,0.0,0.0,0.0,0.0,0.0,0.0,0.0,0.0,0.0,0.0,Tracheophyta
2006,2006-08-05,Braga,Póvoa de Lanhoso,Lanhoso,L. VALE GRANDE (Lage Grande),41.5774163,-8.2873121,NC,248.0,2006-08-05T22:00,24.7,49,13.2,24.7,0.0,0.0,0.0,0.0,0,1014.5,986.1,0,0,0,0,0.05,1.6,7.4,8.1,47,32,11.5,25.7,27.0,22.6,18.3,0.097,0.14,0.212,0.335,0,0.0,0.0,0.0,0.0,0.0,0.0,0.0,0.0,0.0,0.0,0.0,0.0,0.0,Eucalyptus L'Hér.; Pinus pinaster Aiton; Magnoliopsida; Tracheophyta; Quercus L.
2006,2006-08-06,Braga,Póvoa de Lanhoso,Póvoa De Lanhoso (nossa Senhora Do Amparo),PICONHA (Picoto),41.5765697,-8.267315293588226,NC,210.0,2006-08-06T01:00,21.5,55,12.1,20.8,0.0,0.0,0.0,0.0,0,1014.2,989.9,0,0,0,0,0.05,1.15,9.4,21.2,67,80,20.2,22.7,26.7,22.9,18.6,0.097,0.14,0.212,0.335,0,0.0,0.0,0.0,0.0,0.0,0.0,0.0,0.0,0.0,0.0,0.0,0.0,0.0,Eucalyptus L'Hér.; Tracheophyta; Vitis vinifera L.; Magnoliopsida
2006,2006-08-07,Braga,Amares,Seramil,URJAL-(SERAMIL) (Urjal),41.678075,-8.31548836655124,NC,504.0,2006-08-07T08:00,22.2,40,8.1,19.6,0.0,0.0,0.0,0.0,0,1016.4,959.1,0,0,0,0,0.25,1.59,14.4,21.0,77,77,40.0,22.8,24.6,21.7,17.3,0.098,0.142,0.215,0.336,1,3600.0,374.3,289.8,84.4,662.8,374.3,581.6,297.0,230.0,67.0,662.8,297.0,461.5,Magnoliopsida; Eucalyptus L'Hér.; Tracheophyta; Vitis vinifera L.; Pinus pinaster Aiton; Quercus L.; 
2006,2006-07-17,Braga,Vila Verde,Geme,L. TOJA (Ribeiro do Tojal),41.664645,-8.4296458,NC,73.0,2006-07-17T19:00,28.9,50,17.4,30.6,0.0,0.0,0.0,0.0,0,1014.6,1006.3,0,0,0,0,0.17,2.0,6.6,9.2,209,219,16.6,32.8,29.0,23.0,17.4,0.098,0.147,0.232,0.349,1,3600.0,139.1,100.7,38.4,563.8,139.1,236.4,210.0,152.0,58.0,563.8,210.0,356.9,Pinus pinaster Aiton; Magnoliopsida; Olea europaea L.; Tracheophyta; Eucalyptus L'Hér.
2006,2006-08-08,Braga,Guimarães,Ronfe,RUA 24 DE JUNHO (RONFE) (RONFE),41.440075,-8.381907764208886,NC,143.0,2006-08-08T03:00,24.0,39,9.2,21.5,0.0,0.0,0.0,0.0,0,1011.8,995.3,0,0,0,0,0.14,1.82,16.2,31.0,87,91,37.1,24.8,27.5,23.3,18.9,0.102,0.142,0.216,0.337,0,0.0,0.0,0.0,0.0,0.0,0.0,0.0,0.0,0.0,0.0,0.0,0.0,0.0,Vitis vinifera L.; Tracheophyta; Magnoliopsida; Eucalyptus L'Hér.; Quercus L.; Pinus pinaster Aiton
2006,2006-02-11,Braga,Vila Verde,Barros,CISAO (BARROS),41.72541615,-8.401011174964207,NC,484.0,2006-02-11T18:00,11.3,69,5.8,9.7,0.0,0.0,0.0,0.0,0,1018.6,961.4,0,0,0,0,0.02,0.41,3.4,3.5,198,204,11.5,9.5,7.3,5.5,8.5,0.331,0.345,0.372,0.4,1,1964.02,0.0,0.0,0.0,0.0,0.0,0.0,55.0,35.0,20.0,289.7,55.0,112.5,Magnoliopsida; Quercus L.; Eucalyptus L'Hér.; Pinus pinaster Aiton; Tracheophyta
2006,2006-07-30,Braga,Barcelos,Paradela,L. MONTE (Alto do Monte),41.4627197,-8.6804574,NC,38.0,2006-07-30T22:00,19.3,79,15.6,19.9,0.0,0.0,0.0,0.0,0,1018.6,1014.1,2,2,0,0,0.01,0.47,9.3,16.3,324,332,18.7,22.4,24.4,22.5,18.9,0.104,0.145,0.224,0.342,0,0.0,0.0,0.0,0.0,0.0,0.0,0.0,0.0,0.0,0.0,0.0,0.0,0.0,Eucalyptus L'Hér.; Pinus pinaster Aiton; Tracheophyta; Vitis vinifera L.
2006,2006-08-06,Braga,Póvoa de Lanhoso,Garfe,CONDES (GARFE) (Condes),41.5228966,-8.2527016,NC,242.0,2006-08-06T12:00,31.3,30,11.6,31.4,0.0,0.0,0.0,0.0,0,1016.3,989.1,0,0,0,0,0.73,3.21,15.1,19.8,90,88,40.7,33.2,25.8,22.8,18.5,0.094,0.139,0.21,0.334,1,3600.0,920.5,812.6,107.9,906.0,920.5,1192.5,896.0,791.0,105.0,906.0,896.0,1160.7,Eucalyptus L'Hér.; Pinales; Tracheophyta; Magnoliopsida; Acacia Mill.
2006,2006-08-06,Braga,Vila Nova de Famalicão,Fradelos,PICOTO (GAVIAO) (Picoto),41.3682305,-8.5986094,NC,54.0,2006-08-06T11:00,30.7,32,12.0,29.4,0.0,0.0,0.0,0.0,0,1015.6,1009.5,0,0,0,0,0.68,3.0,20.9,27.8,79,80,42.8,31.6,26.4,23.1,19.3,0.1,0.139,0.21,0.335,1,3600.0,845.2,738.2,107.0,877.7,845.2,1118.2,798.0,697.0,101.0,877.7,798.0,1055.8,Magnoliopsida; Tracheophyta
2006,2006-07-31,Braga,Fafe,Várzea Cova,CONFURCO (Cruz do Confurco),41.5085893,-8.0696939,NC,476.0,2006-07-31T14:00,25.1,42,11.4,25.5,0.0,0.0,0.0,0.0,0,1019.6,965.8,1,0,0,3,0.63,1.84,13.8,17.9,290,292,37.8,31.4,23.1,21.2,16.8,0.099,0.145,0.221,0.34,1,3600.0,890.9,782.0,108.9,894.7,890.9,1160.1,916.0,804.0,112.0,894.7,916.0,1192.8,Magnoliopsida; Tracheophyta
2006,2006-08-07,Braga,Guimarães,Fermentões,QUINTA DO POMBAL (Casa do Quintal),41.4491855,-8.3070576,NC,182.0,2006-08-07T07:00,22.3,43,9.0,19.9,0.0,0.0,0.0,0.0,0,1014.8,993.7,0,0,0,0,0.16,1.54,14.8,25.8,77,83,32.0,22.9,26.2,22.9,18.5,0.098,0.139,0.211,0.334,1,3434.54,173.9,111.7,62.2,443.8,169.3,334.7,109.0,70.0,39.0,432.0,109.0,209.7,Tracheophyta; Magnoliopsida; Vitis vinifera L.
2006,2006-08-06,Braga,Guimarães,Briteiros (santa Leocádia),L. SERGAL - BRITEIROS STª LEOCÁDIA (Santa Leocádia),41.5212139,-8.3402236,NC,187.0,2006-08-06T13:00,32.9,28,12.0,34.6,0.0,0.0,0.0,0.0,0,1015.4,994.5,0,0,0,0,0.74,3.61,8.6,11.2,68,69,29.2,35.5,26.4,23.2,18.8,0.094,0.139,0.21,0.334,1,3600.0,927.6,819.6,108.0,906.4,927.6,1202.2,928.0,820.0,108.0,906.4,928.0,1202.7,Eucalyptus L'Hér.; Magnoliopsida; Tracheophyta; Pinus pinaster Aiton
2006,2006-08-04,Braga,Celorico de Basto,Arnóia,Pombal,41.39054365,-8.006846020187858,NC,220.0,2006-08-04T00:00,23.5,51,12.7,22.6,0.0,0.0,0.0,0.0,0,1012.5,987.2,0,0,0,0,0.08,1.43,11.9,28.2,76,80,30.6,24.6,26.6,22.7,18.5,0.094,0.148,0.227,0.342,0,0.0,0.0,0.0,0.0,0.0,0.0,0.0,0.0,0.0,0.0,0.0,0.0,0.0,Tracheophyta; Pinus pinaster Aiton; Magnoliopsida
2006,2006-08-06,Braga,Guimarães,Candoso (santiago),LUGAR DO MATOS (Lugar),41.4268098,-8.3224137,NC,209.0,2006-08-06T13:00,32.6,28,11.6,34.0,0.0,0.0,0.0,0.0,0,1015.4,992.0,0,0,0,0,0.73,3.55,8.6,11.2,68,69,29.2,34.7,26.1,22.9,18.6,0.097,0.141,0.213,0.335,1,3600.0,927.6,819.6,108.0,905.9,927.6,1202.9,928.0,820.0,108.0,905.9,928.0,1203.4,Pinales; Eucalyptus L'Hér.; Magnoliopsida; Tracheophyta
2006,2006-08-06,Braga,Esposende,Apúlia,L. AREIA - (APULIA) - PARQUE NATURAL LITORAL NORTE (APÚLIA),41.4744442,-8.7714193579483,NC,9.0,2006-08-06T12:00,31.7,32,12.8,33.0,0.0,0.0,0.0,0.0,0,1015.7,1014.7,0,0,0,0,0.7,3.19,10.5,13.9,38,53,27.7,33.8,26.7,23.2,19.5,0.094,0.139,0.211,0.332,1,3600.0,908.8,799.9,109.0,892.1,908.8,1192.1,884.0,778.0,106.0,892.1,884.0,1159.5,Tracheophyta; Pinus pinaster Aiton
2006,2006-08-07,Braga,Braga,Cunha,ESPINHO (Espinheiral),41.4906432,-8.5123969,NC,137.0,2006-08-07T10:00,27.9,30,8.9,26.0,0.0,0.0,0.0,0.0,0,1014.7,999.1,0,0,0,0,0.53,2.61,14.8,19.6,76,76,37.1,29.0,26.2,23.0,18.7,0.098,0.139,0.21,0.334,1,3600.0,726.4,622.0,104.4,843.4,726.4,980.7,661.0,566.0,95.0,843.4,661.0,892.4,Tracheophyta; Pinus pinaster Aiton; Eucalyptus L'Hér.
2006,2006-08-06,Braga,Fafe,Ribeiros,PORTELA(ARÕES S. ROMÃO) (Portela),41.4745456,-8.1302731,NC,401.0,2006-08-06T06:00,19.3,52,9.2,17.0,0.0,0.0,0.0,0.0,0,1016.5,970.2,0,0,0,0,0.1,1.08,14.5,29.5,84,89,37.4,19.9,24.5,22.1,17.7,0.096,0.141,0.214,0.335,1,0.0,15.2,5.1,10.2,58.3,5.9,93.5,6.0,2.0,4.0,28.0,6.0,36.8,Tracheophyta; Eucalyptus L'Hér.; Magnoliopsida; Pinus pinaster Aiton
2006,2006-08-07,Braga,Barcelos,Vila Boa,Sendim,41.5552003,-8.6210428,NC,71.0,2006-08-07T12:00,31.5,28,10.9,32.3,0.0,0.0,0.0,0.0,0,1013.9,1005.9,0,0,0,0,0.7,3.31,9.6,12.8,77,79,32.8,34.5,27.0,23.4,19.3,0.095,0.138,0.208,0.333,1,3600.0,916.9,806.9,110.0,902.7,916.9,1188.7,892.0,785.0,107.0,902.7,892.0,1156.4,Eucalyptus L'Hér.; Vitis vinifera L.; Pinus pinaster Aiton
2006,2006-08-06,Braga,Vila Nova de Famalicão,Calendário,ALTO DO SEIXO (Alto),41.3829395,-8.5296977,NC,125.0,2006-08-06T13:00,32.9,27,11.7,34.4,0.0,0.0,0.0,0.0,0,1015.4,1001.3,0,0,0,0,0.73,3.63,8.6,11.2,68,69,29.2,34.7,26.5,22.8,18.8,0.116,0.138,0.2,0.339,1,3600.0,928.0,820.0,108.0,905.5,928.0,1203.9,928.0,820.0,108.0,905.5,928.0,1203.9,Tracheophyta; Eucalyptus L'Hér.; Magnoliopsida
2006,2006-08-06,Braga,Barcelos,Cristelo,L. BOUCELÃO (CRISTELO),41.4791611,-8.698735358506642,NC,42.0,2006-08-06T15:00,33.0,31,13.6,33.5,0.0,0.0,0.0,0.0,0,1014.5,1009.8,0,0,0,0,0.7,3.47,14.4,18.5,338,347,23.8,37.0,27.3,22.9,19.2,0.101,0.141,0.216,0.337,1,3600.0,781.2,683.0,98.1,877.5,781.2,1034.9,828.0,724.0,104.0,877.5,828.0,1096.9,Tracheophyta; Pinus pinaster Aiton
2006,2006-08-06,Braga,Póvoa de Lanhoso,Taíde,CORREDOURA (S. JOÃO DE REI) (Corredoura),41.5578325,-8.2297605,NC,171.0,2006-08-06T10:00,28.4,35,11.4,26.8,0.0,0.0,0.0,0.0,0,1016.4,996.9,0,0,0,0,0.54,2.51,17.8,24.7,82,82,40.7,29.1,25.8,23.3,18.9,0.094,0.139,0.21,0.334,1,3600.0,724.5,621.3,103.2,838.3,724.5,985.3,660.0,566.0,94.0,838.3,660.0,897.7,Vitis vinifera L.; Tracheophyta; Pinales; Eucalyptus L'Hér.; Magnoliopsida
2006,2006-08-08,Braga,Vila Nova de Famalicão,Esmeriz,MEÃES-(LOUSADO) (Meães),41.3730576,-8.527485385273462,NC,153.0,2006-08-08T13:00,31.3,24,8.4,30.8,0.0,0.0,0.0,0.0,0,1012.2,995.0,0,0,0,0,0.76,3.48,14.6,18.5,74,77,32.8,34.1,27.1,23.1,18.7,0.115,0.137,0.197,0.338,1,3600.0,934.9,828.9,106.0,919.7,934.9,1199.0,935.0,829.0,106.0,919.7,935.0,1199.2,Eucalyptus L'Hér.; Tracheophyta; Magnoliopsida
2006,2006-08-06,Braga,Celorico de Basto,Vale de Bouro,Nespereira,41.4417039,-8.00629,NC,235.0,2006-08-06T16:00,33.5,26,11.2,33.9,0.0,0.0,0.0,0.0,0,1014.0,987.9,0,0,0,0,0.56,3.84,5.9,7.4,38,43,23.8,37.0,26.8,23.0,18.6,0.093,0.146,0.223,0.339,1,3600.0,640.8,553.8,87.0,855.7,640.8,860.5,707.0,611.0,96.0,855.7,707.0,949.3,Tracheophyta; Magnoliopsida; Pinus pinaster Aiton
2006,2006-08-08,Braga,Guimarães,Briteiros (santa Leocádia),L. BORRALHA - BRITEIROS STª LEOCADIA (Santa Leocádia),41.5212139,-8.3402236,NC,187.0,2006-08-08T15:00,33.4,21,8.2,33.7,0.0,0.0,0.0,0.0,0,1011.3,990.5,0,0,0,0,0.66,4.05,6.7,9.2,74,79,25.9,37.0,27.8,23.6,19.0,0.094,0.138,0.206,0.332,1,3600.0,792.2,695.2,97.0,902.2,792.2,1025.1,841.0,738.0,103.0,902.2,841.0,1088.2,Eucalyptus L'Hér.; Magnoliopsida; Tracheophyta; Pinus pinaster Aiton
2006,2006-08-06,Braga,Póvoa de Lanhoso,Garfe,L. TEIRE - GARFE (GARFE),41.5228966,-8.2527016,Desconhecida,242.0,2006-08-06T13:00,32.6,28,11.7,33.6,0.0,0.0,0.0,0.0,0,1015.8,988.8,0,0,0,0,0.75,3.54,11.5,15.1,90,87,35.6,35.1,26.1,22.8,18.5,0.094,0.139,0.21,0.334,1,3600.0,931.6,824.6,107.0,911.9,931.6,1202.2,932.0,825.0,107.0,911.9,932.0,1202.7,Eucalyptus L'Hér.; Pinales; Tracheophyta; Magnoliopsida; Acacia Mill.
2006,2006-08-06,Braga,Vila Nova de Famalicão,Ribeirão,SAM - RIBEIRAO (RIBEIRÃO),41.3591813,-8.556065501101488,NC,51.0,2006-08-06T15:00,34.2,27,12.7,35.4,0.0,0.0,0.0,0.0,0,1014.2,1008.5,0,0,0,0,0.68,3.9,8.6,10.9,22,27,20.9,37.6,27.5,23.2,19.3,0.1,0.139,0.209,0.334,1,3600.0,783.7,687.5,96.2,883.6,783.7,1034.4,831.0,729.0,102.0,883.6,831.0,1096.9,Tracheophyta; Eucalyptus L'Hér.; Vitis vinifera L.
2006,2006-08-08,Braga,Braga,Navarra,PRAIA FLUVIAL (NAVARRA) (NAVARRA),41.6066675,-8.382455461125076,NC,81.0,2006-08-08T19:00,31.2,35,13.9,32.0,0.0,0.0,0.0,0.0,0,1010.2,1001.1,0,0,0,0,0.12,2.95,3.4,8.4,302,335,16.2,33.2,28.8,23.7,19.2,0.098,0.138,0.207,0.332,1,3600.0,90.3,63.0,27.3,532.5,90.3,157.3,162.0,113.0,49.0,532.5,162.0,282.3,Pinus pinaster Aiton; Tracheophyta; Magnoliopsida
2006,2006-08-08,Braga,Celorico de Basto,Gagos,L. MEIXÕES - GAGOS (GAGOS),41.42995265,-8.002909992064296,NC,276.0,2006-08-08T21:00,28.2,26,7.1,26.8,0.0,0.0,0.0,0.0,0,1011.3,980.2,0,0,0,0,0.05,2.82,4.7,7.2,81,84,15.8,27.1,27.4,23.1,18.5,0.092,0.144,0.22,0.338,0,0.0,0.0,0.0,0.0,0.0,0.0,0.0,0.0,0.0,0.0,0.0,0.0,0.0,Pinus pinaster Aiton; Tracheophyta; Magnoliopsida; Vitis vinifera L.
2006,2006-08-06,Braga,Vila Verde,Godinhaços,L. CUMIEIRAS (Laceiras),41.7121675,-8.4589219,NC,365.0,2006-08-06T16:00,33.4,28,12.2,33.6,0.0,0.0,0.0,0.0,0,1014.4,974.1,0,0,0,0,0.58,3.73,9.4,12.1,342,348,23.8,37.0,26.4,21.9,17.7,0.097,0.14,0.213,0.336,1,3600.0,638.6,550.6,88.0,849.8,638.6,861.5,704.0,607.0,97.0,849.8,704.0,949.7,Eucalyptus L'Hér.; Magnoliopsida; Pinus pinaster Aiton; Quercus L.; Tracheophyta
2006,2006-08-06,Braga,Vieira do Minho,Vieira do Minho,L. SANGUINHEDO - VIEIRA DO MINHO (VIEIRA DO MINHO),41.6208472,-8.153528881202966,NC,426.0,2006-08-06T15:00,32.9,27,11.2,34.4,0.0,0.0,0.0,0.0,0,1014.8,967.9,0,0,0,0,0.64,3.67,4.7,6.3,81,77,24.1,36.5,25.9,22.1,17.7,0.098,0.142,0.215,0.336,1,3600.0,785.1,688.0,97.1,888.8,785.1,1029.2,833.0,730.0,103.0,888.8,833.0,1092.0,Quercus L.; Magnoliopsida; Eucalyptus L'Hér.; Tracheophyta; Pinus pinaster Aiton
2006,2006-08-07,Braga,Guimarães,Silvares,A11  - KM 42-200 E-W (SILVARES) (SILVARES),41.44506855,-8.339384880388817,NC,132.0,2006-08-07T11:00,29.7,28,9.3,28.4,0.0,0.0,0.0,0.0,0,1014.3,999.3,0,0,0,0,0.65,3.0,16.6,21.7,72,75,39.2,31.4,26.6,23.2,18.9,0.098,0.139,0.21,0.334,1,3600.0,848.3,741.3,107.0,883.3,848.3,1116.1,801.0,700.0,101.0,883.3,801.0,1053.9,Tracheophyta; Magnoliopsida; Eucalyptus L'Hér.; Quercus L.; Pinus pinaster Aiton
2006,2006-08-04,Braga,Guimarães,Silvares,Borralha,41.4443329,-8.3363725,NC,137.0,2006-08-04T05:00,20.3,47,8.6,16.9,0.0,0.0,0.0,0.0,0,1012.9,996.9,0,0,0,0,0.13,1.27,20.7,36.0,83,88,42.5,21.7,25.3,22.6,18.6,0.099,0.141,0.215,0.337,0,0.0,0.0,0.0,0.0,0.0,0.0,0.0,0.0,0.0,0.0,0.0,0.0,0.0,Tracheophyta; Eucalyptus L'Hér.; Magnoliopsida; Quercus L.; Pinus pinaster Aiton; Pinales
2006,2006-08-07,Braga,Braga,Cunha,Vista Alegre,41.4906432,-8.5123969,NC,137.0,2006-08-07T13:00,32.4,25,9.6,33.6,0.0,0.0,0.0,0.0,0,1013.5,998.1,0,0,0,0,0.72,3.67,7.0,9.5,78,79,28.8,35.3,26.9,23.0,18.8,0.098,0.139,0.209,0.334,1,3600.0,929.0,820.0,109.0,908.6,929.0,1200.2,929.0,820.0,109.0,908.6,929.0,1200.2,Tracheophyta; Pinus pinaster Aiton; Eucalyptus L'Hér.
2006,2006-08-06,Braga,Barcelos,Fragoso,AREIAS S. VICENTE (Ribeira de São Vicente),41.6104682,-8.6958178,NC,101.0,2006-08-06T13:00,31.4,34,13.4,33.2,0.0,0.0,0.0,0.0,0,1015.4,1004.0,0,0,0,0,0.72,3.05,9.9,12.2,10,24,25.2,35.7,26.4,22.7,19.0,0.098,0.14,0.213,0.336,1,3600.0,922.3,814.2,108.0,900.5,922.3,1202.1,922.0,814.0,108.0,900.5,922.0,1201.8,Eucalyptus L'Hér.; Tracheophyta; Pinus pinaster Aiton; Vitis vinifera L.
2006,2006-08-07,Braga,Amares,Bouro (Santa Marta),CHÃ GRANDE (BOURO) (Chã Grande),41.65712925,-8.290835050498398,NC,139.0,2006-08-07T02:00,22.9,59,14.5,23.0,0.0,0.0,0.0,0.0,0,1013.6,997.5,0,0,0,0,0.05,1.15,9.7,23.2,51,66,25.6,24.1,27.4,23.1,18.7,0.096,0.139,0.21,0.334,0,0.0,0.0,0.0,0.0,0.0,0.0,0.0,0.0,0.0,0.0,0.0,0.0,0.0,Tracheophyta; Quercus L.; Eucalyptus L'Hér.; Pinus pinaster Aiton; Magnoliopsida
2006,2006-08-07,Braga,Vieira do Minho,Pinheiro,TABUADELO (PINHEIRO) (Tabuadelo),41.62561795,-8.106171540796982,NC,543.0,2006-08-07T04:00,19.7,48,8.5,17.8,0.0,0.0,0.0,0.0,0,1015.5,953.5,0,0,0,0,0.07,1.19,10.7,23.9,78,85,34.6,21.2,25.1,21.8,17.3,0.099,0.144,0.22,0.338,0,0.0,0.0,0.0,0.0,0.0,0.0,0.0,0.0,0.0,0.0,0.0,0.0,0.0,Magnoliopsida; Tracheophyta; Quercus L.; Pinus pinaster Aiton
2006,2006-08-06,Braga,Póvoa de Lanhoso,Frades,L. S. MAMEDE - (FRADES) (FRADES),41.61399405,-8.242035471520008,NC,440.0,2006-08-06T18:00,32.4,27,11.1,32.1,0.0,0.0,0.0,0.0,0,1014.0,965.5,0,0,0,0,0.26,3.55,3.9,5.6,34,40,20.2,34.5,26.7,22.1,17.7,0.098,0.142,0.214,0.336,1,3600.0,269.2,214.3,54.9,692.4,269.2,411.4,348.0,277.0,71.0,692.4,348.0,531.9,Eucalyptus L'Hér.; Tracheophyta; Pinus pinaster Aiton; Quercus L.; Magnoliopsida; Vitis vinifera L.
2006,2006-08-08,Braga,Vila Verde,Duas Igrejas,L. BEM POSTA - DUAS IGREJAS (DUAS IGREJAS),41.6843893,-8.506189156383854,NC,186.0,2006-08-08T21:00,26.7,41,12.4,24.6,0.0,0.0,0.0,0.0,0,1012.3,991.1,0,0,0,0,0.18,2.07,19.7,33.0,31,39,40.7,28.5,28.3,23.1,18.6,0.096,0.137,0.203,0.331,0,0.0,0.0,0.0,0.0,0.0,0.0,0.0,0.0,0.0,0.0,0.0,0.0,0.0,Eucalyptus L'Hér.; Tracheophyta; Pinus pinaster Aiton
2006,2006-08-09,Braga,Terras de Bouro,Gondoriz,L. - GONDORIZ (GONDORIZ),41.7510343,-8.307355,NC,522.0,2006-08-09T01:00,20.3,52,10.0,18.9,0.0,0.0,0.0,0.0,0,1014.4,954.9,0,0,0,0,0.06,1.15,9.4,24.6,94,101,35.3,21.8,25.8,21.7,17.2,0.108,0.139,0.207,0.339,0,0.0,0.0,0.0,0.0,0.0,0.0,0.0,0.0,0.0,0.0,0.0,0.0,0.0,Tracheophyta; Magnoliopsida; Pinus pinaster Aiton; Quercus L.; Eucalyptus L'Hér.
2006,2006-07-22,Braga,Vila Nova de Famalicão,Cruz,Senra,41.4534163,-8.4886301,NC,274.0,2006-07-22T14:00,25.6,48,13.8,27.5,0.0,0.0,0.0,0.0,0,1021.0,989.6,0,0,0,0,0.63,1.71,10.6,13.3,288,289,28.4,31.1,23.0,21.8,16.7,0.11,0.152,0.234,0.349,1,3600.0,908.8,803.6,105.2,903.0,908.8,1179.0,933.0,825.0,108.0,903.0,933.0,1210.5,Eucalyptus L'Hér.; Magnoliopsida; Tracheophyta
2006,2006-08-07,Braga,Vila Nova de Famalicão,Calendário,RUA COSTA- POUSADA SARAMAGOS (Rua Costa Cabral),41.4143764,-8.522835161985839,NC,111.0,2006-08-07T14:00,33.5,23,9.3,35.0,0.0,0.0,0.0,0.0,0,1012.6,1000.2,0,0,0,0,0.69,4.01,4.2,6.0,59,65,24.8,36.3,27.5,23.2,19.0,0.115,0.137,0.198,0.339,1,3600.0,884.0,779.0,105.0,903.5,884.0,1146.6,909.0,801.0,108.0,903.5,909.0,1179.0,Tracheophyta; Eucalyptus L'Hér.
2006,2006-08-06,Braga,Esposende,Apúlia,Areia,41.4824433,-8.7651879,NC,9.0,2006-08-06T23:00,26.3,51,15.2,25.3,0.0,0.0,0.0,0.0,0,1014.2,1013.2,0,0,0,0,0.14,1.69,19.1,32.0,3,15,31.3,27.4,28.2,23.4,19.5,0.094,0.139,0.21,0.332,0,0.0,0.0,0.0,0.0,0.0,0.0,0.0,0.0,0.0,0.0,0.0,0.0,0.0,Tracheophyta; Pinus pinaster Aiton
2006,2006-08-06,Braga,Amares,Caires,L. (CAIRES) (CAIRES),41.64249205,-8.357425570477972,NC,179.0,2006-08-06T21:00,28.2,41,13.7,27.5,0.0,0.0,0.0,0.0,0,1014.3,994.0,0,0,0,0,0.13,2.27,13.3,23.8,2,10,25.2,29.2,27.8,22.7,18.4,0.096,0.139,0.21,0.334,0,0.0,0.0,0.0,0.0,0.0,0.0,0.0,0.0,0.0,0.0,0.0,0.0,0.0,Magnoliopsida; Pinus pinaster Aiton; Eucalyptus L'Hér.; Tracheophyta; 
2006,2006-08-04,Braga,Barcelos,Várzea,ZONA INDUSTRIAL(VARZEA) (VÁRZEA),41.5150147,-8.581877812222526,NC,32.0,2006-08-04T10:00,26.2,38,10.8,25.1,0.0,0.0,0.0,0.0,0,1015.5,1011.8,0,0,0,0,0.49,2.11,13.7,19.4,60,68,31.0,27.5,24.7,22.8,19.2,0.101,0.141,0.216,0.337,1,3600.0,728.9,623.5,105.4,838.5,728.9,987.9,664.0,568.0,96.0,838.5,664.0,900.0,Pinus pinaster Aiton; Magnoliopsida; Tracheophyta; Eucalyptus L'Hér.
2006,2006-07-22,Braga,Barcelos,Airó,RUA DA PRAIA - TELHEIRAS (Ribeiro de Carvalheiras),41.5156174,-8.5587895,NC,100.0,2006-07-22T15:00,25.4,54,15.4,27.0,0.0,0.0,0.0,0.0,0,1020.8,1009.2,0,0,0,0,0.58,1.5,13.4,16.3,276,278,31.7,32.1,24.2,22.8,17.8,0.102,0.146,0.227,0.346,1,3600.0,825.2,731.5,93.7,907.8,825.2,1067.7,872.0,773.0,99.0,907.8,872.0,1128.2,Tracheophyta; Eucalyptus L'Hér.
2006,2006-08-07,Braga,Celorico de Basto,Rego,VISO (CAÇARILHE) (Lameiro do Viso),41.4230912,-8.086542,NC,654.0,2006-08-07T06:00,16.9,46,5.2,13.8,0.0,0.0,0.0,0.0,0,1016.9,942.0,0,0,0,0,0.1,1.04,13.0,25.2,85,88,36.7,18.6,23.1,20.6,16.1,0.102,0.148,0.225,0.341,1,0.0,15.2,5.1,10.1,58.2,5.9,94.0,6.0,2.0,4.0,27.9,6.0,37.0,Magnoliopsida; Pinus pinaster Aiton; Tracheophyta; Pinales
2006,2006-08-09,Braga,Barcelos,Alvelos,L. LAGOA NEGRA - BARQUEIROS (Lameiros),41.5038752,-8.6180035,NC,88.0,2006-08-09T03:00,24.1,41,10.0,21.7,0.0,0.0,0.0,0.0,0,1013.1,1002.9,0,0,0,0,0.14,1.78,16.9,32.5,92,94,38.5,24.5,27.5,23.6,19.2,0.099,0.138,0.208,0.333,0,0.0,0.0,0.0,0.0,0.0,0.0,0.0,0.0,0.0,0.0,0.0,0.0,0.0,Tracheophyta; Pinus pinaster Aiton; Eucalyptus L'Hér.; Magnoliopsida
2006,2006-08-07,Braga,Vizela,Tagilde,VILAR (Vila Corneira),41.374695,-8.2742318,NC,151.0,2006-08-07T13:00,32.5,24,9.6,33.7,0.0,0.0,0.0,0.0,0,1013.5,996.6,0,0,0,0,0.72,3.71,7.0,9.5,78,79,28.8,35.3,26.9,23.1,18.8,0.098,0.139,0.21,0.334,1,3600.0,928.7,819.8,109.0,907.5,928.7,1201.3,929.0,820.0,109.0,907.5,929.0,1201.7,Tracheophyta; Magnoliopsida; Vitis vinifera L.; Pinus pinaster Aiton; Quercus L.; Eucalyptus L'Hér.
2006,2006-08-07,Braga,Póvoa de Lanhoso,Brunhais,LEIRA D´ELA (BRUNHAIS) (Leira de Ela),41.5838923,-8.183236922801518,NC,307.0,2006-08-07T15:00,33.3,24,9.9,34.3,0.0,0.0,0.0,0.0,0,1012.6,978.6,1,0,0,4,0.64,3.89,5.2,6.5,115,109,24.1,37.1,26.8,22.5,18.1,0.097,0.139,0.209,0.334,1,3600.0,785.9,688.9,97.1,891.4,785.9,1027.8,834.0,731.0,103.0,891.4,834.0,1090.6,Vitis vinifera L.; Eucalyptus L'Hér.; Magnoliopsida; Tracheophyta
2006,2006-07-22,Braga,Vila Nova de Famalicão,Lousado,Poiares,41.3561604,-8.5370879,NC,69.0,2006-07-22T16:00,26.0,53,15.7,26.7,0.0,0.0,0.0,0.0,0,1021.1,1013.1,0,0,0,0,0.51,1.57,15.4,18.9,291,291,29.9,31.8,24.8,23.0,18.0,0.122,0.143,0.216,0.349,1,3600.0,668.4,578.0,90.4,847.1,668.4,904.1,732.0,633.0,99.0,847.1,732.0,990.1,Eucalyptus L'Hér.; Tracheophyta; Pinus pinaster Aiton
2006,2006-08-06,Braga,Vila Verde,Escariz (são Martinho),LUGAR DO MONTE- OLEIROS (Lugar do Monte),41.6426408,-8.5305965,NC,133.0,2006-08-06T17:00,34.1,28,13.1,32.3,0.0,0.0,0.0,0.0,0,1013.9,999.0,0,0,0,0,0.56,3.85,19.2,26.5,347,353,30.6,37.1,27.7,22.8,18.7,0.095,0.138,0.209,0.334,1,3600.0,463.8,388.2,75.6,787.6,463.8,655.3,540.0,452.0,88.0,787.6,540.0,763.0,Tracheophyta; Pinus pinaster Aiton; Pinales; Magnoliopsida
2006,2006-08-07,Braga,VIZELA,Caldas De Vizela (são João),VILAR (VIZELA S. JOÃO) (Entrevilar),41.3660355,-8.314106448896961,NC,186.0,2006-08-07T17:00,33.8,24,10.3,33.2,0.0,0.0,0.0,0.0,0,1011.4,990.7,0,0,0,0,0.41,4.0,4.2,5.3,20,28,19.8,36.8,27.9,22.9,18.6,0.097,0.139,0.209,0.334,1,3600.0,462.6,389.0,73.7,796.8,462.6,649.2,540.0,454.0,86.0,796.8,540.0,757.8,Tracheophyta; Magnoliopsida; Eucalyptus L'Hér.
2006,2006-08-07,Braga,Braga,Tadim,L. (TADIM) (TADIM),41.5091823,-8.4829854,NC,140.0,2006-08-07T15:00,33.8,24,10.2,35.2,0.0,0.0,0.0,0.0,0,1012.2,996.6,1,0,0,2,0.63,4.02,3.4,5.0,18,30,22.0,37.5,27.5,23.0,18.8,0.098,0.139,0.209,0.334,1,3600.0,784.2,686.2,98.0,886.5,784.2,1029.4,832.0,728.0,104.0,886.5,832.0,1092.1,Tracheophyta; Magnoliopsida; Eucalyptus L'Hér.
2006,2006-08-09,Braga,Fafe,Freitas,L. - FREITAS (FREITAS),41.517727,-8.220231994344001,NC,405.0,2006-08-09T11:00,27.1,33,9.5,25.9,0.0,0.0,0.0,0.0,0,1014.3,968.8,0,0,0,0,0.61,2.4,16.6,22.0,92,91,43.9,29.5,25.0,22.6,17.9,0.096,0.138,0.206,0.331,1,3600.0,857.6,749.6,108.0,896.7,857.6,1112.5,810.0,708.0,102.0,896.7,810.0,1050.7,Magnoliopsida; Vitis vinifera L.; Eucalyptus L'Hér.; Tracheophyta; Pinales; Pinus pinaster Aiton
2006,2006-08-07,Braga,Braga,Dume,Carcavelos,41.5675399,-8.4358625,NC,90.0,2006-08-07T17:00,34.3,25,11.7,33.6,0.0,0.0,0.0,0.0,0,1011.3,1001.2,0,0,0,0,0.46,4.03,8.2,10.8,331,339,22.0,37.5,28.5,23.5,19.1,0.096,0.138,0.208,0.333,1,3600.0,462.0,387.5,74.6,793.5,462.0,649.5,539.0,452.0,87.0,793.5,539.0,757.6,Tracheophyta; Magnoliopsida
2006,2006-08-07,Braga,Fafe,Quinchães,Casadela,41.4271081,-8.141348767982018,NC,554.0,2006-08-07T06:00,17.6,46,5.9,14.9,0.0,0.0,0.0,0.0,0,1016.0,952.3,0,0,0,0,0.09,1.08,11.2,24.3,75,83,34.6,19.3,23.8,21.2,16.8,0.102,0.148,0.225,0.341,1,0.0,15.3,5.1,10.2,58.5,5.8,91.8,6.0,2.0,4.0,28.2,6.0,36.0,Magnoliopsida; Tracheophyta; Eucalyptus L'Hér.; Pinales
2006,2006-07-17,Braga,Braga,Padim da Graça,BAIRRO DAS ANDORINHAS (Bairro),41.5651616,-8.4861434,NC,41.0,2006-07-17T21:00,25.6,63,18.1,27.4,0.0,0.0,0.0,0.0,0,1015.3,1010.6,0,0,0,0,0.04,1.2,7.6,13.0,180,180,12.2,28.5,28.8,23.2,17.8,0.1,0.148,0.232,0.349,0,0.0,0.0,0.0,0.0,0.0,0.0,0.0,0.0,0.0,0.0,0.0,0.0,0.0,Tracheophyta; Magnoliopsida; Vitis vinifera L.; Pinus pinaster Aiton; Eucalyptus L'Hér.
2006,2006-02-11,Braga,Cabeceiras de Basto,Rio Douro,PINHO (Pinhal do Vaquinhas),41.5489869,-7.960807,NC,537.0,2006-02-11T19:00,10.7,70,5.4,8.8,0.0,0.0,0.0,0.0,0,1019.0,955.6,0,0,0,0,0.0,0.39,5.4,7.2,266,252,13.3,7.2,6.7,4.6,7.9,0.33,0.345,0.373,0.383,0,0.0,0.0,0.0,0.0,0.0,0.0,0.0,0.0,0.0,0.0,0.0,0.0,0.0,Pinus pinaster Aiton; Magnoliopsida; Tracheophyta
2006,2006-08-07,Braga,Fafe,Cepães,REGEDOURA (ARNOZELA) (Regedoura),41.4365576,-8.2032249,NC,263.0,2006-08-07T18:00,33.2,22,8.6,32.4,0.0,0.0,0.0,0.0,0,1011.3,982.1,0,0,0,0,0.24,3.96,2.4,3.3,297,319,11.9,35.1,27.7,23.0,18.5,0.097,0.139,0.208,0.333,1,3600.0,268.5,213.0,55.6,693.3,268.5,408.5,348.0,276.0,72.0,693.3,348.0,529.5,Tracheophyta; Pinales; Magnoliopsida
2006,2006-08-06,Braga,Vila Verde,Godinhaços,L. SÃO MAMEDE - GODINHAÇOS (GODINHAÇOS),41.712002850000005,-8.458830522096864,Desconhecida,365.0,2006-08-06T18:00,32.3,30,12.6,31.2,0.0,0.0,0.0,0.0,0,1013.9,973.5,0,0,0,0,0.36,3.37,12.5,18.8,348,353,28.1,34.5,26.9,21.9,17.7,0.097,0.14,0.213,0.336,1,3600.0,272.9,216.3,56.6,694.1,272.9,414.3,352.0,279.0,73.0,694.1,352.0,534.4,Eucalyptus L'Hér.; Magnoliopsida; Pinus pinaster Aiton; Quercus L.; Tracheophyta
2006,2006-08-07,Braga,Barcelos,Manhente,TELHEIRAS (BARQUEIROS) (Telheiras),41.5488425,-8.5741406,NC,52.0,2006-08-07T15:00,33.9,25,11.1,33.6,0.0,0.0,0.0,0.0,0,1012.3,1006.5,0,0,0,1,0.72,3.96,14.5,19.2,346,355,26.3,37.7,27.9,23.4,19.3,0.099,0.139,0.21,0.334,1,3600.0,780.7,683.6,97.1,882.4,780.7,1030.3,828.0,725.0,103.0,882.4,828.0,1092.6,Tracheophyta; Pinus pinaster Aiton; Eucalyptus L'Hér.
2006,2006-08-07,Braga,Guimarães,Infantas,BOAVISTA (GOMINHAES) (Boavista),41.4232917,-8.2420977,NC,284.0,2006-08-07T01:00,22.4,55,13.0,21.9,0.0,0.0,0.0,0.0,0,1014.4,981.7,0,0,0,0,0.06,1.22,10.2,23.9,67,72,27.7,23.4,26.7,22.7,18.3,0.097,0.139,0.21,0.333,0,0.0,0.0,0.0,0.0,0.0,0.0,0.0,0.0,0.0,0.0,0.0,0.0,0.0,Magnoliopsida; Tracheophyta; Vitis vinifera L.; Eucalyptus L'Hér.
2006,2006-08-07,Braga,Vila Verde,Goães,LAMEIRO(PONTE) (Lameiro),41.6844662,-8.5062898,NC,186.0,2006-08-07T17:00,33.4,27,11.9,30.5,0.0,0.0,0.0,0.0,0,1012.6,991.9,0,0,0,0,0.59,3.74,23.5,32.6,4,10,45.7,36.7,27.9,22.8,18.5,0.096,0.137,0.205,0.332,1,3600.0,462.1,388.4,73.7,795.3,462.1,649.6,539.0,453.0,86.0,795.3,539.0,757.6,Magnoliopsida; Eucalyptus L'Hér.; Pinus pinaster Aiton; Tracheophyta; Vitis vinifera L.; Quercus L.; 
2006,2006-08-07,Braga,Braga,Palmeira,PONTE DO BICO (Ponte),41.60613995,-8.427141884445701,NC,21.0,2006-08-07T08:00,25.0,38,9.7,22.9,0.0,0.0,0.0,0.0,0,1014.8,1012.4,0,0,0,0,0.27,1.96,14.0,19.6,46,58,26.6,25.4,27.0,23.7,19.5,0.099,0.139,0.21,0.334,1,3600.0,364.2,279.5,84.7,645.6,364.2,575.7,288.0,221.0,67.0,645.6,288.0,455.2,Magnoliopsida; Vitis vinifera L.; Tracheophyta
2006,2006-08-07,Braga,Vieira do Minho,Guilhofrei,S. SILVESTRE (São Silvestre),41.5769268,-8.1355007,NC,362.0,2006-08-07T17:00,33.0,23,9.0,32.6,0.0,0.0,0.0,0.0,0,1011.6,971.7,0,0,0,0,0.36,3.87,0.5,0.0,225,180,15.1,36.2,27.2,22.6,18.0,0.096,0.138,0.207,0.332,1,3600.0,460.9,387.2,73.7,795.4,460.9,647.5,538.0,452.0,86.0,795.4,538.0,755.8,Magnoliopsida; Eucalyptus L'Hér.; Pinus pinaster Aiton; Tracheophyta; Quercus L.
2006,2006-02-09,Braga,Terras de Bouro,Vilar da Veiga,Ermida,41.7012328,-8.1276239,NC,506.0,2006-02-09T21:00,3.8,86,1.7,1.0,0.0,0.0,0.0,0.0,1,1014.7,953.6,39,0,15,99,0.0,0.11,6.2,12.3,69,75,16.6,3.9,5.0,5.2,8.6,0.334,0.347,0.375,0.397,0,0.0,0.0,0.0,0.0,0.0,0.0,0.0,0.0,0.0,0.0,0.0,0.0,0.0,Pinus pinaster Aiton; Magnoliopsida; Tracheophyta; Quercus L.
2006,2006-08-01,Braga,Braga,Aveleda,L. NOVAL (AVELEDA),41.52266255,-8.461768751261598,NC,152.0,2006-08-01T05:00,19.2,82,16.0,20.9,0.0,0.0,0.0,0.0,3,1020.2,1002.3,90,100,0,0,0.0,0.41,2.8,3.3,230,229,7.6,20.7,23.2,22.1,18.2,0.101,0.142,0.218,0.339,0,0.0,0.0,0.0,0.0,0.0,0.0,0.0,0.0,0.0,0.0,0.0,0.0,0.0,Vitis vinifera L.; Tracheophyta; Magnoliopsida; Eucalyptus L'Hér.
2006,2006-02-09,Braga,Braga,Semelhe,SEMELHE,41.54936835,-8.464424530712312,NC,146.0,2006-02-09T23:00,5.6,85,3.2,3.0,0.0,0.0,0.0,0.0,1,1014.9,996.9,31,0,7,89,0.0,0.14,7.1,13.1,66,81,16.9,5.9,7.4,7.4,10.6,0.33,0.344,0.373,0.384,0,0.0,0.0,0.0,0.0,0.0,0.0,0.0,0.0,0.0,0.0,0.0,0.0,0.0,Vitis vinifera L.; Tracheophyta; Eucalyptus L'Hér.; Magnoliopsida; Pinus pinaster Aiton
2006,2006-08-06,Braga,Braga,Gualtar,PINHEIRO (ESPINHO) (Pinheiro),41.5660491,-8.3881311,Desconhecida,215.0,2006-08-06T20:00,29.7,36,13.0,28.8,0.0,0.0,0.0,0.0,0,1013.6,989.4,0,0,0,0,0.16,2.68,12.7,23.5,345,356,24.8,30.8,27.6,22.5,18.2,0.096,0.139,0.21,0.334,0,520.18,0.0,0.0,0.0,0.0,0.0,0.0,23.0,12.0,11.0,121.3,23.0,73.1,Tracheophyta; Magnoliopsida; Vitis vinifera L.; Pinales
2006,2006-08-06,Braga,Fafe,Silvares (são Martinho),BUGIO,41.4052481,-8.154470981712308,NC,441.0,2006-08-06T21:00,26.2,44,13.1,26.6,0.0,0.0,0.0,0.0,0,1014.8,965.2,0,0,0,0,0.02,1.9,3.7,5.8,11,7,8.6,27.4,26.3,21.7,17.3,0.097,0.139,0.21,0.333,0,0.0,0.0,0.0,0.0,0.0,0.0,0.0,0.0,0.0,0.0,0.0,0.0,0.0,Tracheophyta; Pinales; Magnoliopsida
2006,2006-08-07,Braga,Vila Verde,Pico de Regalados,L. MOURIZ - PICO REGALADOS (PICO DE REGALADOS),41.6806222,-8.421167199905785,NC,77.0,2006-08-07T23:00,25.7,45,13.0,24.1,0.0,0.0,0.0,0.0,0,1011.8,1002.9,0,0,0,0,0.14,1.8,17.6,29.7,15,31,31.3,27.1,28.6,23.5,19.1,0.095,0.138,0.207,0.333,0,0.0,0.0,0.0,0.0,0.0,0.0,0.0,0.0,0.0,0.0,0.0,0.0,0.0,Pinus pinaster Aiton; Magnoliopsida; Eucalyptus L'Hér.; Tracheophyta; Quercus L.; Vitis vinifera L.
2006,2006-08-07,Braga,Vila Nova de Famalicão,Calendário,ALTO DO SEIXO(LOUSADO) (Alto),41.4143764,-8.522835161985839,NC,111.0,2006-08-07T12:00,31.3,25,8.9,31.5,0.0,0.0,0.0,0.0,0,1013.9,1001.4,0,0,0,0,0.7,3.42,9.6,12.8,77,79,32.8,33.1,26.9,23.2,19.0,0.115,0.138,0.199,0.339,1,3600.0,916.9,806.9,110.0,901.6,916.9,1190.1,892.0,785.0,107.0,901.6,892.0,1157.8,Tracheophyta; Eucalyptus L'Hér.
2006,2006-08-07,Braga,Vieira do Minho,Rossas,Calvos,41.5718742,-8.0688071,NC,575.0,2006-08-07T10:00,25.1,34,8.1,22.8,0.0,0.0,0.0,0.0,0,1016.4,952.0,0,0,0,0,0.5,2.1,16.6,22.8,85,85,47.9,26.9,24.2,21.6,17.1,0.099,0.144,0.219,0.338,1,3600.0,734.1,630.9,103.1,851.3,734.1,985.6,669.0,575.0,94.0,851.3,669.0,898.3,Magnoliopsida; Pinus pinaster Aiton; Quercus L.; Tracheophyta
2006,2006-08-07,Braga,Vieira do Minho,Rossas,CALVOS (ROSSAS) (Calvos),41.585309,-8.098200028766968,NC,482.0,2006-08-07T18:00,31.4,24,8.4,30.6,0.0,0.0,0.0,0.0,0,1012.1,959.1,0,0,0,0,0.24,3.5,2.5,4.0,98,90,16.6,33.7,26.5,22.0,17.4,0.095,0.143,0.217,0.336,1,3600.0,265.3,211.3,54.0,690.4,265.3,407.1,344.0,274.0,70.0,690.4,344.0,527.9,Tracheophyta; Eucalyptus L'Hér.; Magnoliopsida; Quercus L.; Pinus pinaster Aiton
2006,2006-08-07,Braga,Vila Verde,Gomide,Couto,41.6212775,-8.4318755,NC,67.0,2006-08-07T12:00,31.6,26,9.8,32.1,0.0,0.0,0.0,0.0,0,1013.9,1006.3,0,0,0,0,0.7,3.43,9.6,12.8,77,79,32.8,33.8,27.0,23.4,19.2,0.098,0.139,0.209,0.334,1,3600.0,916.7,806.7,110.0,902.8,916.7,1188.4,892.0,785.0,107.0,902.8,892.0,1156.4,Magnoliopsida; Tracheophyta; Vitis vinifera L.; Castanea sativa Mill.
2006,2006-08-08,Braga,Guimarães,Creixomil,L. SRª DA LUZ - CREIXOMIL (CREIXOMIL),41.4352017,-8.2942776,NC,207.0,2006-08-08T00:00,24.5,44,11.3,23.3,0.0,0.0,0.0,0.0,0,1012.0,988.3,0,0,0,0,0.09,1.74,11.0,25.1,49,61,24.8,25.4,27.8,23.3,18.8,0.097,0.14,0.211,0.334,0,0.0,0.0,0.0,0.0,0.0,0.0,0.0,0.0,0.0,0.0,0.0,0.0,0.0,Tracheophyta; Magnoliopsida; Pinales
2006,2006-08-08,Braga,Póvoa de Lanhoso,Galegos,SEIDE-GALEGOS (Seides),41.5668555,-8.2817738,NC,305.0,2006-08-08T01:00,23.3,48,11.8,21.8,0.0,0.0,0.0,0.0,0,1012.6,977.7,0,0,0,0,0.1,1.47,13.8,30.4,83,85,32.8,24.4,27.2,22.7,18.1,0.097,0.139,0.208,0.333,0,0.0,0.0,0.0,0.0,0.0,0.0,0.0,0.0,0.0,0.0,0.0,0.0,0.0,Eucalyptus L'Hér.; Tracheophyta; Magnoliopsida; Quercus L.
2006,2006-08-07,Braga,Guimarães,Conde,L. (CONDE S. MARTINHO) (CONDE),41.3904468,-8.3332145,NC,159.0,2006-08-07T18:00,33.2,25,10.8,32.0,0.0,0.0,0.0,0.0,0,1011.0,993.3,0,0,0,0,0.34,3.8,9.8,14.7,332,338,22.0,35.5,28.3,23.1,18.7,0.097,0.139,0.209,0.334,1,3600.0,271.1,214.7,56.4,695.9,271.1,410.3,351.0,278.0,73.0,695.9,351.0,531.3,Eucalyptus L'Hér.; Tracheophyta; Magnoliopsida; Vitis vinifera L.
2006,2006-08-07,Braga,Barcelos,Cristelo,Boucelão,41.4785773,-8.6965942,NC,47.0,2006-08-07T13:00,31.6,29,11.2,32.5,0.0,0.0,0.0,0.0,0,1013.6,1008.3,0,0,0,0,0.73,3.31,10.5,13.9,4,17,26.6,35.2,27.0,23.2,19.3,0.101,0.141,0.215,0.336,1,3600.0,924.2,815.2,109.0,903.2,924.2,1200.4,924.0,815.0,109.0,903.2,924.0,1200.1,Eucalyptus L'Hér.; Tracheophyta; Pinus pinaster Aiton
2006,2006-08-07,Braga,Vieira do Minho,Guilhofrei,S.SILVESTE (GUILHOFREI),41.573853150000005,-8.127474692030694,NC,357.0,2006-08-07T04:00,21.3,41,7.6,18.5,0.0,0.0,0.0,0.0,0,1014.5,973.5,0,0,0,0,0.12,1.49,15.5,30.6,89,91,40.0,22.2,26.0,22.5,18.0,0.096,0.139,0.209,0.333,0,0.0,0.0,0.0,0.0,0.0,0.0,0.0,0.0,0.0,0.0,0.0,0.0,0.0,Magnoliopsida; Quercus L.; Tracheophyta; Pinus pinaster Aiton
2006,2006-08-08,Braga,Fafe,Regadas,L.LOUREIRO (REGADAS) (REGADAS),41.3906143,-8.1536889,Desconhecida,423.0,2006-08-08T08:00,20.9,45,8.6,17.3,0.0,0.0,0.0,0.0,0,1013.9,965.5,0,0,0,0,0.26,1.36,22.7,33.1,88,88,50.0,22.6,24.8,22.1,17.5,0.097,0.139,0.208,0.332,1,3600.0,373.9,289.3,84.6,664.3,373.9,579.3,296.0,229.0,67.0,664.3,296.0,458.6,Eucalyptus L'Hér.; Magnoliopsida; Tracheophyta; Pinales
2006,2006-08-07,Braga,Celorico de Basto,Basto (São Clemente),VACARIA (S. CLEMENTE DE BASTO) (Vacaria),41.479005,-8.061231,NC,613.0,2006-08-07T09:00,23.0,38,7.8,20.0,0.0,0.0,0.0,0.0,0,1017.2,948.2,0,0,0,0,0.38,1.75,16.6,23.4,86,86,43.9,24.3,23.9,21.3,16.9,0.099,0.144,0.219,0.338,1,3600.0,569.9,474.2,95.8,782.6,569.9,805.7,494.0,411.0,83.0,782.6,494.0,698.4,Magnoliopsida; Pinus pinaster Aiton; Tracheophyta; Pinales
2006,2006-08-07,Braga,Guimarães,Donim,LAMAS (VERMIL) (Eira do Lamas),41.5163115,-8.3208911,NC,152.0,2006-08-07T03:00,22.6,53,12.5,21.7,0.0,0.0,0.0,0.0,0,1013.7,996.1,0,0,0,0,0.07,1.29,11.0,25.3,67,79,28.8,23.4,27.1,23.0,18.6,0.096,0.139,0.21,0.334,0,0.0,0.0,0.0,0.0,0.0,0.0,0.0,0.0,0.0,0.0,0.0,0.0,0.0,Tracheophyta; Magnoliopsida
2006,2006-08-08,Braga,Vieira do Minho,Pinheiro,L. TABUADELO - PINHEIRO (PINHEIRO),41.62561795,-8.106171540796982,NC,543.0,2006-08-08T01:00,21.9,48,10.4,20.5,0.0,0.0,0.0,0.0,0,1013.7,952.3,0,0,0,0,0.07,1.37,10.5,24.4,74,82,35.6,23.1,26.1,21.9,17.4,0.099,0.144,0.218,0.337,0,0.0,0.0,0.0,0.0,0.0,0.0,0.0,0.0,0.0,0.0,0.0,0.0,0.0,Magnoliopsida; Tracheophyta; Quercus L.; Pinus pinaster Aiton
2006,2006-07-18,Braga,Vila Nova de Famalicão,Gavião,VALDOSSOS (Valdoe),41.4217252,-8.5166353,NC,131.0,2006-07-18T13:00,27.1,55,17.3,28.3,0.0,0.0,0.0,0.0,3,1016.4,1001.4,87,2,92,100,0.28,1.62,9.4,13.3,184,178,25.9,29.0,26.2,22.8,17.2,0.118,0.145,0.221,0.352,1,0.0,314.1,28.0,286.0,30.0,314.1,1237.2,314.0,28.0,286.0,30.0,314.0,1237.0,Tracheophyta; Pinus pinea L.; Eucalyptus L'Hér.
2006,2006-08-08,Braga,Celorico de Basto,Britelo,VILA NOVA - CORGO (Venda Nova),41.3878479,-7.98631663297138,NC,241.0,2006-08-08T09:00,23.1,44,10.1,19.8,0.0,0.0,0.0,0.0,0,1013.7,986.0,0,0,0,0,0.38,1.59,23.4,33.5,89,89,54.4,25.2,25.6,23.2,18.7,0.093,0.145,0.221,0.338,1,3600.0,567.6,470.5,97.1,782.0,567.6,800.4,491.0,407.0,84.0,782.0,491.0,692.3,Eucalyptus L'Hér.; Pinus pinaster Aiton; Tracheophyta; Magnoliopsida; Pinales; Vitis vinifera L.
2006,2006-08-07,Braga,Vieira do Minho,Guilhofrei,Ermal,41.5934688,-8.128552507498691,NC,331.0,2006-08-07T19:00,31.5,28,10.9,30.8,0.0,0.0,0.0,0.0,0,1011.5,974.8,0,0,0,0,0.16,3.32,6.4,8.4,313,329,12.6,33.0,27.7,22.8,18.2,0.096,0.138,0.207,0.332,1,3600.0,88.8,61.2,27.5,509.1,88.8,160.0,158.0,109.0,49.0,509.1,158.0,284.7,Magnoliopsida; Pinus pinaster Aiton; Quercus L.
2006,2006-08-08,Braga,Vila Verde,Dossãos,L. - DOSSÃOS (DOSSÃOS),41.6801487,-8.4684156,NC,296.0,2006-08-08T02:00,21.2,58,12.6,20.9,0.0,0.0,0.0,0.0,0,1012.5,978.4,0,0,0,0,0.04,1.06,8.0,20.7,72,82,29.5,23.0,26.7,22.4,18.0,0.097,0.138,0.208,0.334,0,0.0,0.0,0.0,0.0,0.0,0.0,0.0,0.0,0.0,0.0,0.0,0.0,0.0,Magnoliopsida; Eucalyptus L'Hér.; Tracheophyta; Pinus pinaster Aiton
2006,2006-08-08,Braga,Vila Verde,Escariz (são Martinho),COSTA - ESCARIZ S. MARTINHO (São Martinho),41.64811525,-8.528693431049106,NC,160.0,2006-08-08T00:00,24.1,49,12.8,23.4,0.0,0.0,0.0,0.0,0,1012.0,993.6,0,0,0,0,0.08,1.53,11.0,25.1,49,61,24.8,25.6,27.9,23.0,18.6,0.095,0.138,0.207,0.333,0,0.0,0.0,0.0,0.0,0.0,0.0,0.0,0.0,0.0,0.0,0.0,0.0,0.0,Tracheophyta; Pinus pinaster Aiton; Eucalyptus L'Hér.; Pinales; Magnoliopsida
2006,2006-08-08,Braga,Vila Verde,Lanhas,L.LAGES (LANHAS) (LANHAS),41.6664679,-8.4075958,NC,92.0,2006-08-08T12:00,30.7,27,9.6,30.8,0.0,0.0,0.0,0.0,0,1013.0,1002.6,0,0,0,0,0.7,3.21,11.5,15.8,44,55,30.2,33.7,27.1,23.5,19.1,0.095,0.138,0.206,0.332,1,3600.0,913.6,803.7,110.0,901.5,913.6,1186.0,889.0,782.0,107.0,901.5,889.0,1154.0,Eucalyptus L'Hér.; Pinus pinaster Aiton; Tracheophyta; Vitis vinifera L.
2006,2006-08-07,Braga,Guimarães,Serzedelo,CALVOS (SERZEDELO) (Calvos),41.40283515,-8.36486433641491,NC,146.0,2006-08-07T13:00,32.4,24,9.1,32.8,0.0,0.0,0.0,0.0,0,1013.3,996.9,0,0,0,0,0.75,3.7,10.3,13.1,65,69,29.2,34.6,26.8,23.1,18.8,0.102,0.143,0.217,0.338,1,3600.0,930.7,823.8,107.0,911.9,930.7,1201.3,931.0,824.0,107.0,911.9,931.0,1201.7,Vitis vinifera L.; Magnoliopsida; Tracheophyta; Eucalyptus L'Hér.; Pinales
2006,2006-08-08,Braga,Celorico de Basto,Vale de Bouro,ALÉM DO RIO - GEMEOS (Além),41.4417039,-8.00629,NC,235.0,2006-08-08T01:00,23.1,41,9.0,20.8,0.0,0.0,0.0,0.0,0,1012.1,985.1,0,0,0,0,0.12,1.68,14.1,31.8,84,85,30.6,23.4,27.1,23.2,18.7,0.092,0.145,0.221,0.338,0,0.0,0.0,0.0,0.0,0.0,0.0,0.0,0.0,0.0,0.0,0.0,0.0,0.0,Tracheophyta; Magnoliopsida; Pinus pinaster Aiton
2006,2006-08-07,Braga,Vila Verde,Oleiros,RUA DOS AMORES (OLEIROS) (OLEIROS),41.60496565,-8.49662413687254,NC,55.0,2006-08-07T16:00,34.5,25,11.8,33.4,0.0,0.0,0.0,0.0,0,1011.7,1005.5,0,0,0,0,0.66,4.09,17.1,23.0,342,350,29.2,38.4,28.4,23.6,19.3,0.095,0.138,0.207,0.333,1,3600.0,637.5,549.5,88.0,849.7,637.5,860.1,703.0,606.0,97.0,849.7,703.0,948.5,Magnoliopsida; Pinus pinaster Aiton; Tracheophyta; Eucalyptus L'Hér.
2006,2006-08-07,Braga,Barcelos,Paradela,MONTE (FONTE COBERTA) (Alto do Monte),41.4627197,-8.6804574,NC,38.0,2006-08-07T16:00,33.0,28,12.0,31.9,0.0,0.0,0.0,0.0,0,1011.7,1007.4,0,0,0,0,0.64,3.63,17.1,23.0,342,350,29.2,36.7,27.9,23.2,19.4,0.101,0.141,0.214,0.336,1,3600.0,637.8,549.8,88.0,846.6,637.8,863.8,703.0,606.0,97.0,846.6,703.0,952.0,Eucalyptus L'Hér.; Pinus pinaster Aiton; Tracheophyta; Vitis vinifera L.
2006,2006-08-07,Braga,VIZELA,Caldas De Vizela (são Miguel),MOUSELOS (CALDAS VIZELA S. MIGUEL) (CALDAS DE VIZELA),41.381217,-8.304166266030755,NC,173.0,2006-08-07T18:00,33.1,25,10.7,31.9,0.0,0.0,0.0,0.0,0,1011.0,991.7,0,0,0,0,0.34,3.78,9.8,14.7,332,338,22.0,35.4,28.2,23.0,18.6,0.097,0.139,0.209,0.334,1,3600.0,271.1,214.7,56.4,695.9,271.1,410.3,351.0,278.0,73.0,695.9,351.0,531.3,Magnoliopsida; Tracheophyta; Eucalyptus L'Hér.
2006,2006-07-25,Braga,Amares,Lago,RUA DAS PEDREIRAS (LAGO),41.6206095,-8.41211680582419,NC,73.0,2006-07-25T09:00,21.5,68,15.5,22.3,0.0,0.0,0.0,0.0,0,1018.1,1009.5,6,7,0,0,0.3,0.81,7.4,9.2,313,318,20.5,24.4,23.3,22.8,18.2,0.102,0.145,0.225,0.344,1,3600.0,562.6,449.2,113.4,717.2,562.6,830.1,491.0,392.0,99.0,717.2,491.0,724.5,Tracheophyta; Vitis vinifera L.; Eucalyptus L'Hér.; Magnoliopsida; Pinus pinaster Aiton; 
2006,2006-08-07,Braga,Braga,Dume,CARCAVELOS (RUILHE) (Carcavelos),41.5675399,-8.4358625,NC,90.0,2006-08-07T10:00,28.6,32,10.1,27.1,0.0,0.0,0.0,0.0,0,1014.7,1004.4,0,0,0,0,0.54,2.68,14.8,19.6,76,76,37.1,29.6,26.6,23.4,19.1,0.096,0.139,0.209,0.334,1,3600.0,726.1,621.7,104.4,842.4,726.1,981.5,661.0,566.0,95.0,842.4,661.0,893.5,Tracheophyta; Magnoliopsida
2006,2006-08-07,Braga,Esposende,Apúlia,CEDUVEM (APULIA) (APÚLIA),41.4744442,-8.7714193579483,NC,9.0,2006-08-07T12:00,30.9,28,10.4,31.5,0.0,0.0,0.0,0.0,0,1013.9,1012.9,0,0,0,0,0.69,3.21,10.6,14.3,18,28,28.1,33.8,27.1,23.5,19.6,0.094,0.139,0.209,0.331,1,3600.0,910.9,800.9,110.0,895.3,910.9,1189.8,886.0,779.0,107.0,895.3,886.0,1157.2,Tracheophyta; Pinus pinaster Aiton
2006,2006-08-07,Braga,Póvoa de Lanhoso,Lanhoso,TINOCOS (LANHOSO) (Tinocos),41.5774163,-8.2873121,NC,248.0,2006-08-07T13:00,32.3,25,9.9,32.9,0.0,0.0,0.0,0.0,0,1013.9,986.2,0,0,0,0,0.75,3.62,11.0,13.8,101,99,35.6,35.3,26.6,22.9,18.4,0.097,0.139,0.209,0.334,1,3600.0,932.6,825.6,106.9,915.7,932.6,1199.1,933.0,826.0,107.0,915.7,933.0,1199.7,Eucalyptus L'Hér.; Pinus pinaster Aiton; Magnoliopsida; Tracheophyta; Quercus L.
2006,2006-08-07,Braga,Vila Nova de Famalicão,Lousado,LTO.MABOR-(LOUSADO) (LOUSADO),41.3509462,-8.5264871,NC,42.0,2006-08-07T17:00,33.9,26,11.8,32.8,0.0,0.0,0.0,0.0,0,1011.1,1006.4,0,0,0,0,0.49,3.9,11.4,14.6,336,340,20.5,36.8,28.6,23.5,19.4,0.1,0.138,0.207,0.333,1,3600.0,462.9,389.2,73.7,794.9,462.9,651.1,540.0,454.0,86.0,794.9,540.0,759.6,Tracheophyta; Pinus pinaster Aiton; Eucalyptus L'Hér.
2006,2006-08-08,Braga,Vila Verde,Freiriz,L. (FREIRIZ) (FREIRIZ),41.64094665,-8.508353493902348,NC,97.0,2006-08-08T13:00,31.8,25,9.2,32.4,0.0,0.0,0.0,0.0,0,1012.6,1001.7,0,0,0,0,0.73,3.55,9.7,13.0,31,42,28.4,35.4,27.3,23.5,19.0,0.095,0.138,0.206,0.332,1,3600.0,928.8,820.8,108.0,912.9,928.8,1196.1,929.0,821.0,108.0,912.9,929.0,1196.4,Pinus pinaster Aiton; Eucalyptus L'Hér.; Tracheophyta
2006,2006-08-07,Braga,Vila Verde,Escariz (são Martinho),LUGAR DO COTO - ATAES (Lugar do Monte),41.6426408,-8.5305965,NC,133.0,2006-08-07T19:00,31.0,32,12.4,28.5,0.0,0.0,0.0,0.0,0,1011.9,996.9,0,0,0,0,0.32,3.04,21.6,34.3,357,4,39.6,33.2,28.5,23.1,18.8,0.095,0.138,0.207,0.333,1,3600.0,92.3,64.4,27.9,519.0,92.3,164.9,162.0,113.0,49.0,519.0,162.0,289.6,Tracheophyta; Pinus pinaster Aiton; Pinales; Magnoliopsida
2006,2006-08-08,Braga,Vila Verde,Sande,VALE (FREIRIZ) (Monte do Vale),41.70080475,-8.393546970544552,NC,181.0,2006-08-08T11:00,29.0,30,9.9,28.2,0.0,0.0,0.0,0.0,0,1014.0,993.5,0,0,0,0,0.62,2.78,14.1,18.6,38,47,31.3,31.4,26.4,23.1,18.6,0.095,0.138,0.206,0.332,1,3600.0,841.8,737.0,104.8,881.7,841.8,1111.9,795.0,696.0,99.0,881.7,795.0,1050.1,Tracheophyta; Pinus pinaster Aiton; Magnoliopsida; Eucalyptus L'Hér.
2006,2006-08-07,Braga,Braga,Pedralva,MONTE BARRAL (MONTE ALTO),41.5599098,-8.3208927,NC,387.0,2006-08-07T13:00,31.4,25,9.0,31.7,0.0,0.0,0.0,0.0,0,1013.9,971.0,0,0,0,0,0.74,3.45,11.0,13.8,101,99,35.6,34.4,25.7,22.0,17.5,0.097,0.139,0.209,0.334,1,3600.0,932.3,825.4,106.9,915.6,932.3,1198.9,933.0,826.0,107.0,915.6,933.0,1199.8,Pinus pinaster Aiton; Eucalyptus L'Hér.
2006,2006-08-09,Braga,Fafe,Serafão,L. LORDELO (Lordelo),41.5285637,-8.2110358,NC,210.0,2006-08-09T16:00,33.3,21,7.9,32.7,0.0,0.0,0.0,0.0,0,1011.7,988.3,0,0,0,0,0.56,4.05,6.9,8.5,317,324,22.0,37.2,27.7,23.6,18.9,0.094,0.137,0.204,0.331,1,3600.0,638.2,550.4,87.8,860.1,638.2,851.6,705.0,608.0,97.0,860.1,705.0,940.7,Eucalyptus L'Hér.; Tracheophyta; Magnoliopsida; Pinales; Pinus pinaster Aiton
2006,2006-08-10,Braga,Vila Nova de Famalicão,Lousado,LOTEAMENTO DA MABOR(LOUSADO) (LOUSADO),41.3509462,-8.5264871,NC,42.0,2006-08-10T10:00,29.2,25,7.1,25.8,0.0,0.0,0.0,0.0,0,1013.0,1008.2,4,0,0,15,0.6,3.05,22.0,29.5,88,89,42.5,29.5,26.9,24.1,19.7,0.1,0.137,0.203,0.331,1,3600.0,725.0,622.7,102.3,850.8,725.0,974.3,659.0,566.0,93.0,850.8,659.0,885.6,Tracheophyta; Pinus pinaster Aiton; Eucalyptus L'Hér.
2006,2006-07-25,Braga,Barcelos,Courel,OUTEIRO (Outeirais),41.4539679,-8.6485316,NC,128.0,2006-07-25T15:00,25.2,53,15.0,25.2,0.0,0.0,0.0,0.0,0,1017.0,1002.2,4,0,0,13,0.56,1.5,21.0,26.0,321,323,37.8,31.2,24.0,22.3,17.9,0.101,0.144,0.224,0.344,1,3600.0,800.4,691.6,108.8,861.7,800.4,1064.0,846.0,731.0,115.0,861.7,846.0,1124.6,Eucalyptus L'Hér.; Pinus pinaster Aiton
2006,2006-08-07,Braga,Vila Verde,Pico de Regalados,L. MOURIZ (PICO DE REGALADOS),41.6806222,-8.421167199905785,NC,77.0,2006-08-07T19:00,31.3,32,12.8,29.0,0.0,0.0,0.0,0.0,0,1011.3,1002.6,0,0,0,0,0.32,3.1,22.0,35.5,349,354,35.6,33.6,28.8,23.5,19.1,0.095,0.138,0.207,0.333,1,3600.0,91.8,63.4,28.3,518.3,91.8,162.8,162.0,112.0,50.0,518.3,162.0,287.4,Pinus pinaster Aiton; Magnoliopsida; Eucalyptus L'Hér.; Tracheophyta; Quercus L.; Vitis vinifera L.
2006,2006-08-07,Braga,Braga,Celeirós,L. GARAPOA (CELEIROZ),41.5093007,-8.4532081,NC,130.0,2006-08-07T21:00,28.2,36,11.9,26.9,0.0,0.0,0.0,0.0,0,1011.8,997.0,0,0,0,0,0.14,2.43,13.1,23.2,8,16,24.8,29.4,28.4,23.1,18.8,0.098,0.138,0.208,0.333,0,0.0,0.0,0.0,0.0,0.0,0.0,0.0,0.0,0.0,0.0,0.0,0.0,0.0,Tracheophyta; Magnoliopsida; Eucalyptus L'Hér.
2006,2006-07-25,Braga,Braga,Escudeiros,Ançariz,41.4780585,-8.427704,NC,216.0,2006-07-25T21:00,19.5,73,14.5,19.7,0.0,0.0,0.0,0.0,0,1017.1,991.8,2,0,0,8,0.02,0.62,8.9,16.4,313,327,22.0,23.5,24.8,22.1,17.4,0.1,0.145,0.224,0.344,0,0.0,0.0,0.0,0.0,0.0,0.0,0.0,0.0,0.0,0.0,0.0,0.0,0.0,Eucalyptus L'Hér.; Pinales; Tracheophyta; Magnoliopsida; Pinus pinaster Aiton; Vitis vinifera L.
2006,2006-08-08,Braga,VIZELA,Caldas De Vizela (são Miguel),VILAR - S. JOÃO (SÃO JOÃO),41.3790869,-8.3123667,NC,150.0,2006-08-08T00:00,24.9,46,12.3,24.0,0.0,0.0,0.0,0.0,0,1012.0,994.8,0,0,0,0,0.09,1.71,11.0,25.1,49,61,24.8,26.0,28.1,23.2,18.8,0.097,0.139,0.209,0.334,0,0.0,0.0,0.0,0.0,0.0,0.0,0.0,0.0,0.0,0.0,0.0,0.0,0.0,Tracheophyta; Eucalyptus L'Hér.; Magnoliopsida
2006,2006-08-08,Braga,Vila Nova de Famalicão,Esmeriz,L.  PORTELADA - ESMERIZ (Esmeriz),41.3794578,-8.5215633,NC,68.0,2006-08-08T00:00,25.7,45,12.9,25.0,0.0,0.0,0.0,0.0,0,1012.0,1004.2,0,0,0,0,0.09,1.82,11.0,25.1,49,61,24.8,26.8,28.5,23.6,19.3,0.115,0.137,0.198,0.338,0,0.0,0.0,0.0,0.0,0.0,0.0,0.0,0.0,0.0,0.0,0.0,0.0,0.0,Eucalyptus L'Hér.; Tracheophyta; Magnoliopsida
2006,2006-08-08,Braga,Terras de Bouro,Gondoriz,L. CABANINHAS - (GONDORIZ) (GONDORIZ),41.7510343,-8.307355,NC,522.0,2006-08-08T05:00,18.7,59,10.5,17.4,0.0,0.0,0.0,0.0,0,1013.7,954.0,0,0,0,0,0.05,0.89,10.3,23.2,78,84,34.2,20.4,25.0,21.6,17.1,0.108,0.139,0.209,0.339,0,0.0,0.0,0.0,0.0,0.0,0.0,0.0,0.0,0.0,0.0,0.0,0.0,0.0,Tracheophyta; Magnoliopsida; Pinus pinaster Aiton; Quercus L.; Eucalyptus L'Hér.
