year,date,district,municipality,parish,local,latitude,longitude,cause,elevation,hourly.time,hourly.temperature_2m,hourly.relative_humidity_2m,hourly.dew_point_2m,hourly.apparent_temperature,hourly.precipitation,hourly.rain,hourly.snowfall,hourly.snow_depth,hourly.weather_code,hourly.pressure_msl,hourly.surface_pressure,hourly.cloud_cover,hourly.cloud_cover_low,hourly.cloud_cover_mid,hourly.cloud_cover_high,hourly.et0_fao_evapotranspiration,hourly.vapour_pressure_deficit,hourly.wind_speed_10m,hourly.wind_speed_100m,hourly.wind_direction_10m,hourly.wind_direction_100m,hourly.wind_gusts_10m,hourly.soil_temperature_0_to_7cm,hourly.soil_temperature_7_to_28cm,hourly.soil_temperature_28_to_100cm,hourly.soil_temperature_100_to_255cm,hourly.soil_moisture_0_to_7cm,hourly.soil_moisture_7_to_28cm,hourly.soil_moisture_28_to_100cm,hourly.soil_moisture_100_to_255cm,hourly.is_day,hourly.sunshine_duration,hourly.shortwave_radiation_instant,hourly.direct_radiation_instant,hourly.diffuse_radiation_instant,hourly.direct_normal_irradiance_instant,hourly.global_tilted_irradiance_instant,hourly.terrestrial_radiation_instant,hourly.shortwave_radiation,hourly.direct_radiation,hourly.diffuse_radiation,hourly.direct_normal_irradiance,hourly.global_tilted_irradiance,hourly.terrestrial_radiation,scientificNames
2007,2007-11-08,Aveiro,Aveiro,Esgueira,Quinta da Bela Vista (Carrajão das Quintas),40.6433731,-8.6405427,NC,17.0,2007-11-08T22:00,14.3,68,8.5,12.7,0.0,0.0,0.0,0.0,2,1024.1,1022.0,65,0,60,98,0.02,0.52,8.3,15.5,5,3,14.8,14.5,17.6,18.4,20.4,0.047,0.088,0.095,0.193,0,0.0,0.0,0.0,0.0,0.0,0.0,0.0,0.0,0.0,0.0,0.0,0.0,0.0,Tracheophyta; Magnoliopsida
2007,2007-11-12,Aveiro,Santa Maria da Feira,Sanguedo,Rua do Cisto (Rua do Lameirão),41.0083552,-8.5188259,NC,158.0,2007-11-12T16:00,19.3,30,1.4,16.0,0.0,0.0,0.0,0.0,0,1019.5,1000.9,6,0,3,14,0.19,1.56,9.6,13.6,340,343,20.9,20.2,14.9,16.5,19.0,0.115,0.136,0.163,0.289,1,3600.0,176.4,131.2,45.2,632.5,176.4,289.6,238.0,177.0,61.0,632.5,238.0,390.8,Tracheophyta; Magnoliopsida; Eucalyptus L'Hér.
2007,2007-11-09,Aveiro,Arouca,Urrô,Póvoa Reguenga,40.916294,-8.2904033,NC,275.0,2007-11-09T21:00,12.7,53,3.2,8.9,0.0,0.0,0.0,0.0,0,1025.3,992.3,15,0,0,51,0.07,0.7,15.5,32.1,91,92,40.3,12.9,14.5,15.6,18.2,0.121,0.175,0.211,0.315,0,0.0,0.0,0.0,0.0,0.0,0.0,0.0,0.0,0.0,0.0,0.0,0.0,0.0,Eucalyptus L'Hér.; Magnoliopsida; Vitis vinifera L.; Pinus pinaster Aiton
2007,2007-11-06,Aveiro,Santa Maria da Feira,Lourosa,R. do Comercio (LOUROSA),40.98068575,-8.53454305322426,NC,229.0,2007-11-06T11:00,18.8,35,3.1,14.9,0.0,0.0,0.0,0.0,0,1027.4,1000.3,0,0,0,0,0.32,1.41,16.3,22.4,84,85,33.8,17.5,14.6,16.4,18.8,0.119,0.142,0.164,0.29,1,3600.0,509.5,427.1,82.4,845.3,509.5,703.4,470.0,394.0,76.0,845.3,470.0,648.9,Pinus pinaster Aiton; Tracheophyta
2007,2007-11-06,Aveiro,Arouca,Canelas,Prelonga (Prolonga),40.9662166,-8.1727407,NC,338.0,2007-11-06T13:00,19.7,31,2.0,15.8,0.0,0.0,0.0,0.0,0,1026.5,987.0,0,0,0,0,0.38,1.58,15.2,21.3,85,85,41.0,18.8,13.6,15.1,18.0,0.134,0.193,0.224,0.319,1,3600.0,560.0,480.4,79.6,900.9,560.0,742.5,570.0,489.0,81.0,900.9,570.0,755.7,Tracheophyta; Magnoliopsida; Quercus L.; Eucalyptus L'Hér.; Castanea sativa Mill.; Pinus pinaster Aiton
2007,2007-11-07,Aveiro,Aveiro,Nariz,Ramalheiro (Ramalheira),40.5476769,-8.5874705,NC,35.0,2007-11-07T21:00,14.7,50,4.3,12.2,0.0,0.0,0.0,0.0,0,1026.0,1021.7,0,0,0,0,0.04,0.85,7.9,11.5,90,90,13.7,15.6,18.2,18.3,20.0,0.05,0.076,0.079,0.18,0,0.0,0.0,0.0,0.0,0.0,0.0,0.0,0.0,0.0,0.0,0.0,0.0,0.0,Eucalyptus L'Hér.; Magnoliopsida; Pinus pinaster Aiton; Tracheophyta
2007,2007-11-07,Aveiro,Arouca,Escariz,Nabais,40.9111294,-8.3911311,NC,538.0,2007-11-07T22:00,8.8,64,2.5,6.2,0.0,0.0,0.0,0.0,0,1026.9,962.5,0,0,0,0,0.01,0.4,6.7,12.0,106,111,16.2,10.8,13.9,14.7,17.5,0.132,0.194,0.223,0.316,0,0.0,0.0,0.0,0.0,0.0,0.0,0.0,0.0,0.0,0.0,0.0,0.0,0.0,Vitis vinifera L.; Pinus pinaster Aiton; Eucalyptus L'Hér.; Magnoliopsida
2007,2007-11-06,Aveiro,Ovar,Maceda,Rua dos Barreiros (MACEDA),40.9269211,-8.6166867,NC,31.0,2007-11-06T16:00,23.0,23,0.8,19.4,0.0,0.0,0.0,0.0,0,1024.4,1020.7,0,0,0,0,0.25,2.16,10.9,15.9,44,57,21.2,23.6,17.9,18.2,20.1,0.106,0.123,0.143,0.272,1,3600.0,215.6,168.5,47.1,730.4,215.6,321.3,284.0,222.0,62.0,730.4,284.0,423.2,Tracheophyta; Magnoliopsida; Eucalyptus L'Hér.
2007,2007-11-10,Aveiro,Arouca,Rossas,Faril (ROSSAS),40.9131386,-8.3088478,NC,219.0,2007-11-10T14:00,18.9,31,1.6,15.6,0.0,0.0,0.0,0.0,0,1024.2,998.4,0,0,0,0,0.32,1.5,10.1,15.5,92,94,28.1,19.3,14.4,15.9,18.5,0.12,0.174,0.211,0.315,1,3600.0,469.1,397.3,71.8,865.8,469.1,640.1,503.0,426.0,77.0,865.8,503.0,686.3,Eucalyptus L'Hér.; Olea europaea L.; Tracheophyta; Pinus pinaster Aiton
2007,2007-05-08,Aveiro,Anadia,Arcos,Zona Industrial (ARCOS),40.449042,-8.4451441,NC,27.0,2007-05-08T00:00,14.2,97,13.7,14.4,0.0,0.0,0.0,0.0,0,1027.7,1024.4,0,0,0,0,0.0,0.05,6.8,16.3,3,8,14.4,15.7,18.0,15.3,13.3,0.221,0.258,0.25,0.317,0,0.0,0.0,0.0,0.0,0.0,0.0,0.0,0.0,0.0,0.0,0.0,0.0,0.0,Tracheophyta; Magnoliopsida
2007,2007-11-09,Aveiro,Espinho,Silvalde,Travª do Figueiredo (SILVALDE),40.9903511,-8.6407154,NC,8.0,2007-11-09T15:00,20.2,32,2.9,16.5,0.0,0.0,0.0,0.0,1,1022.2,1021.2,47,0,31,96,0.28,1.62,14.7,20.3,79,84,27.4,21.1,16.6,17.9,20.1,0.095,0.134,0.172,0.291,1,3600.0,301.1,182.2,118.9,507.5,301.1,500.7,347.0,210.0,137.0,507.5,347.0,577.0,Tracheophyta
2007,2007-11-09,Aveiro,Arouca,Canelas,Perlonga (Prolonga),40.9662166,-8.1727407,NC,338.0,2007-11-09T23:00,11.5,57,3.3,7.8,0.0,0.0,0.0,0.0,0,1026.0,985.4,3,0,0,10,0.05,0.58,14.4,30.7,94,94,42.5,11.6,13.8,15.0,17.9,0.128,0.188,0.223,0.319,0,0.0,0.0,0.0,0.0,0.0,0.0,0.0,0.0,0.0,0.0,0.0,0.0,0.0,Tracheophyta; Magnoliopsida; Quercus L.; Eucalyptus L'Hér.; Castanea sativa Mill.; Pinus pinaster Aiton
2007,2007-11-06,Aveiro,Santa Maria da Feira,Lourosa,Alto da Azenha (Alto da Ferreira),40.983541,-8.5499188,NC,164.0,2007-11-06T18:00,17.6,36,2.5,14.6,0.0,0.0,0.0,0.0,0,1025.5,1006.0,0,0,0,0,0.09,1.28,9.0,18.7,67,74,18.4,18.1,16.6,16.9,19.2,0.118,0.141,0.164,0.29,0,0.0,0.0,0.0,0.0,0.0,0.0,0.0,5.0,2.0,3.0,29.8,5.0,33.0,Tracheophyta; Magnoliopsida; Pinus pinaster Aiton; Eucalyptus L'Hér.
2007,2007-11-10,Aveiro,Santa Maria da Feira,Canedo,Lugar de Varzea (Lugar Novo),41.017568,-8.4518566,NC,188.0,2007-11-10T20:00,12.5,50,2.5,9.4,0.0,0.0,0.0,0.0,0,1024.6,1001.9,0,0,0,0,0.05,0.72,10.1,18.7,84,92,19.1,13.8,15.5,16.5,18.8,0.115,0.138,0.163,0.289,0,0.0,0.0,0.0,0.0,0.0,0.0,0.0,0.0,0.0,0.0,0.0,0.0,0.0,Pinus pinaster Aiton; Tracheophyta; Eucalyptus L'Hér.; Magnoliopsida
2007,2007-11-06,Aveiro,Santa Maria da Feira,Sanguedo,Rua  João Paulo 2º (SANGUEDO),41.00973155,-8.526635195329606,NC,164.0,2007-11-06T13:00,21.6,27,1.8,17.6,0.0,0.0,0.0,0.0,0,1026.1,1006.8,0,0,0,0,0.41,1.89,15.2,20.5,76,79,32.8,21.5,15.5,16.9,19.2,0.118,0.142,0.164,0.29,1,3600.0,556.3,475.7,80.6,893.2,556.3,741.5,566.0,484.0,82.0,893.2,566.0,754.4,Magnoliopsida; Tracheophyta; Eucalyptus L'Hér.; Pinus pinaster Aiton
2007,2007-11-06,Aveiro,Estarreja,Beduído,Santiais,40.77887295,-8.542015290694803,NC,67.0,2007-11-06T13:00,23.1,23,0.6,19.5,0.0,0.0,0.0,0.0,0,1025.3,1017.4,0,0,0,0,0.41,2.18,11.3,15.5,68,77,25.6,23.2,16.9,17.9,19.9,0.107,0.124,0.143,0.273,1,3600.0,562.4,481.8,80.6,899.0,562.4,746.0,572.0,490.0,82.0,899.0,572.0,758.8,Pinus pinaster Aiton; Tracheophyta; Magnoliopsida; Eucalyptus L'Hér.
2007,2007-05-05,Aveiro,Santa Maria da Feira,Canedo,Lugar Campelo (Lugar Novo),41.017568,-8.4518566,NC,188.0,2007-05-05T17:00,18.9,56,10.0,15.5,0.0,0.0,0.0,0.0,0,1019.7,997.6,0,0,0,0,0.32,0.96,23.7,34.0,340,342,47.9,20.2,16.7,14.1,12.5,0.303,0.319,0.293,0.358,1,3600.0,451.3,379.3,72.0,819.5,451.3,622.7,533.0,448.0,85.0,819.5,533.0,735.5,Pinus pinaster Aiton; Tracheophyta; Eucalyptus L'Hér.; Magnoliopsida
2007,2007-11-07,Aveiro,Oliveira de Azeméis,Travanca,Lugar Susana (Cimo do Lugar),40.8094309,-8.4578913,NC,264.0,2007-11-07T04:00,10.6,52,1.1,6.2,0.0,0.0,0.0,0.0,0,1025.8,993.8,0,0,0,0,0.07,0.61,16.6,32.8,95,93,34.2,11.2,15.3,16.5,18.7,0.103,0.159,0.188,0.292,0,0.0,0.0,0.0,0.0,0.0,0.0,0.0,0.0,0.0,0.0,0.0,0.0,0.0,Eucalyptus L'Hér.; Magnoliopsida; Pinus pinaster Aiton
2007,2007-10-11,Aveiro,Santa Maria da Feira,Rio Meão,Casais Baixo (Casais),40.9581668,-8.5826133,NC,116.0,2007-10-11T13:00,22.2,40,8.0,19.8,0.0,0.0,0.0,0.0,0,1019.4,1005.8,0,0,0,0,0.46,1.61,17.7,23.8,78,80,38.9,23.2,18.7,19.5,20.1,0.164,0.177,0.176,0.298,1,3600.0,676.8,585.9,90.9,888.7,676.8,905.0,685.0,593.0,92.0,888.7,685.0,916.0,Eucalyptus L'Hér.; Tracheophyta; Olea europaea L.; Magnoliopsida
2007,2007-11-08,Aveiro,Oliveira do Bairro,Troviscal,Feiteira,40.5021014,-8.5676298,NC,57.0,2007-11-08T16:00,20.9,35,4.9,18.5,0.0,0.0,0.0,0.0,1,1022.6,1015.9,30,0,0,100,0.18,1.61,8.4,12.0,310,311,18.7,23.3,17.4,18.2,19.9,0.05,0.075,0.079,0.179,1,3600.0,160.1,59.7,100.4,263.2,160.1,315.9,212.0,79.0,133.0,263.2,212.0,418.3,Tracheophyta; Eucalyptus L'Hér.; Pinus pinaster Aiton
2007,2007-11-08,Aveiro,Vale de Cambra,São Pedro de Castelões,Cavião (Cavião de Baixo),40.8390621,-8.402303678879736,NC,216.0,2007-11-08T10:00,17.2,41,3.8,14.9,0.0,0.0,0.0,0.0,0,1025.2,999.5,7,0,0,24,0.19,1.16,5.8,7.7,97,101,17.6,14.6,14.2,16.6,19.2,0.111,0.173,0.197,0.302,1,3600.0,395.6,318.4,77.2,770.6,395.6,575.7,338.0,272.0,66.0,770.6,338.0,491.9,Tracheophyta; Eucalyptus L'Hér.
2007,2007-11-08,Aveiro,Ovar,Cortegaça,Rua. do Buçaquinho (CORTEGAÇA),40.940648,-8.6302462,NC,11.0,2007-11-08T15:00,21.6,31,3.9,19.0,0.0,0.0,0.0,0.0,1,1022.9,1021.6,30,0,0,100,0.26,1.78,8.2,8.4,311,317,17.3,23.4,17.2,18.2,20.1,0.105,0.122,0.143,0.272,1,3600.0,300.6,159.9,140.8,439.5,300.6,506.9,346.0,184.0,162.0,439.5,346.0,583.4,Eucalyptus L'Hér.; Tracheophyta; Magnoliopsida; Pinus pinaster Aiton
2007,2007-11-09,Aveiro,Espinho,Guetim,Rua Gruta da Lomba (GUETIM),41.01698745,-8.604875022597696,NC,93.0,2007-11-09T06:00,11.2,78,7.5,9.8,0.0,0.0,0.0,0.0,3,1022.7,1011.4,83,0,92,94,0.0,0.3,5.0,8.0,90,82,13.3,12.0,15.6,17.4,19.5,0.095,0.134,0.172,0.291,0,0.0,0.0,0.0,0.0,0.0,0.0,0.0,0.0,0.0,0.0,0.0,0.0,0.0,Eucalyptus L'Hér.; Tracheophyta; Magnoliopsida
2007,2007-11-08,Aveiro,Oliveira de Azeméis,Travanca,Susana (TRAVANCA),40.8098462,-8.481467302268936,NC,153.0,2007-11-08T21:00,13.6,66,7.3,12.3,0.0,0.0,0.0,0.0,2,1023.7,1005.2,71,0,69,99,0.01,0.54,4.7,10.8,23,360,10.1,14.7,16.5,17.2,19.3,0.1,0.157,0.187,0.291,0,0.0,0.0,0.0,0.0,0.0,0.0,0.0,0.0,0.0,0.0,0.0,0.0,0.0,Magnoliopsida; Tracheophyta; Eucalyptus L'Hér.; Pinus pinaster Aiton
2007,2007-11-08,Aveiro,Vagos,Sosa,Lavandeira,40.5541676,-8.6549767,NC,46.0,2007-11-08T22:00,14.6,69,8.9,13.0,0.0,0.0,0.0,0.0,2,1024.0,1018.4,59,0,50,98,0.02,0.52,9.0,15.8,360,360,15.1,14.6,17.8,18.6,20.6,0.044,0.091,0.105,0.201,0,0.0,0.0,0.0,0.0,0.0,0.0,0.0,0.0,0.0,0.0,0.0,0.0,0.0,Magnoliopsida; Tracheophyta; Pinus pinaster Aiton; Eucalyptus L'Hér.
2007,2007-11-14,Aveiro,Santa Maria da Feira,Rio Meão,Bº Social de Santo Antonio (RIO MEÃO),40.9609029,-8.571201035045501,NC,129.0,2007-11-14T14:00,18.8,35,3.0,15.7,0.0,0.0,0.0,0.0,0,1017.7,1002.5,0,0,0,0,0.3,1.42,10.2,12.9,18,23,20.2,20.6,14.0,16.6,19.1,0.094,0.131,0.171,0.29,1,3600.0,441.6,371.7,69.9,838.2,441.6,619.7,474.0,399.0,75.0,838.2,474.0,665.2,Pinus pinaster Aiton; Eucalyptus L'Hér.; Tracheophyta; Magnoliopsida
2007,2007-11-10,Aveiro,Santa Maria da Feira,Lourosa,Cadinha,40.97159865,-8.543167099986047,NC,246.0,2007-11-10T22:00,10.3,56,1.8,6.9,0.0,0.0,0.0,0.0,0,1025.1,995.2,1,0,0,2,0.04,0.56,11.3,23.2,97,102,23.0,11.7,15.0,16.2,18.5,0.115,0.138,0.163,0.289,0,0.0,0.0,0.0,0.0,0.0,0.0,0.0,0.0,0.0,0.0,0.0,0.0,0.0,Pinus pinaster Aiton; Tracheophyta; Magnoliopsida
2007,2007-11-07,Aveiro,Vale de Cambra,Junqueira,Folhense,40.8037514,-8.3375148,NC,748.0,2007-11-07T05:00,6.5,64,0.2,2.7,0.0,0.0,0.0,0.0,0,1028.6,939.5,0,0,0,0,0.03,0.35,11.2,25.7,84,84,35.3,7.5,11.1,13.1,16.2,0.161,0.197,0.217,0.322,0,0.0,0.0,0.0,0.0,0.0,0.0,0.0,0.0,0.0,0.0,0.0,0.0,0.0,Pinus pinaster Aiton; Tracheophyta; Magnoliopsida; Eucalyptus L'Hér.
2007,2007-11-07,Aveiro,Santa Maria da Feira,Rio Meão,Lugar de Cardielos (Lugar Novo),40.9581668,-8.5826133,NC,116.0,2007-11-07T10:00,16.0,40,2.3,11.9,0.0,0.0,0.0,0.0,0,1027.1,1013.1,0,0,0,0,0.23,1.1,16.2,22.3,90,93,33.8,14.8,15.2,17.3,19.4,0.096,0.136,0.172,0.291,1,3600.0,394.4,317.1,77.2,765.0,394.4,577.3,337.0,271.0,66.0,765.0,337.0,493.4,Eucalyptus L'Hér.; Tracheophyta; Olea europaea L.; Magnoliopsida
2007,2007-11-07,Aveiro,Oliveira de Azeméis,Santiago De Riba-ul,Giesteira (SANTIAGO DE RIBA UL),40.85168295,-8.494810948710231,NC,116.0,2007-11-07T05:00,10.9,54,1.8,6.8,0.0,0.0,0.0,0.0,0,1025.6,1011.4,0,0,0,0,0.06,0.61,15.1,31.0,93,89,26.6,11.9,15.9,17.4,19.6,0.121,0.168,0.199,0.312,0,0.0,0.0,0.0,0.0,0.0,0.0,0.0,0.0,0.0,0.0,0.0,0.0,0.0,Tracheophyta; Eucalyptus L'Hér.; Magnoliopsida; Pinus pinaster Aiton
2007,2007-11-07,Aveiro,Oliveira de Azeméis,Travanca,Lugar de Susana (Cimo do Lugar),40.8094309,-8.4578913,NC,264.0,2007-11-07T12:00,20.0,30,1.8,16.6,0.0,0.0,0.0,0.0,0,1026.3,995.3,0,0,0,0,0.36,1.65,10.6,13.9,100,100,31.0,19.1,14.9,16.5,18.7,0.102,0.159,0.188,0.292,1,3600.0,560.0,476.6,83.4,879.7,560.0,754.6,544.0,463.0,81.0,879.7,544.0,733.1,Eucalyptus L'Hér.; Magnoliopsida; Pinus pinaster Aiton
2007,2007-11-11,Aveiro,Castelo de Paiva,Pedorido,Povoa (PEDORIDO),41.0477196,-8.379940842441858,NC,12.0,2007-11-11T03:00,9.3,69,3.8,5.9,0.0,0.0,0.0,0.0,0,1024.5,1023.0,15,0,0,51,0.03,0.37,13.5,20.6,99,106,20.9,10.9,15.3,17.3,19.8,0.127,0.157,0.195,0.318,0,0.0,0.0,0.0,0.0,0.0,0.0,0.0,0.0,0.0,0.0,0.0,0.0,0.0,Tracheophyta; Magnoliopsida; Eucalyptus L'Hér.
2007,2007-11-09,Aveiro,Oliveira do Bairro,Oliveira do Bairro,Lavandeira,40.51344025,-8.502342333907052,NC,27.0,2007-11-09T11:00,18.3,40,4.4,15.3,0.0,0.0,0.0,0.0,1,1024.1,1020.9,28,0,19,56,0.26,1.27,11.4,15.6,66,67,24.5,18.1,16.0,17.9,19.9,0.085,0.125,0.139,0.242,1,3600.0,423.5,266.0,157.5,534.3,423.5,694.2,390.0,245.0,145.0,534.3,390.0,639.3,Tracheophyta; Magnoliopsida; Eucalyptus L'Hér.; Pinus pinaster Aiton
2007,2007-05-08,Aveiro,Anadia,Avelãs de Cima,Boialvo,40.5009112,-8.3752196,NC,126.0,2007-05-08T20:00,20.3,71,14.9,20.3,0.0,0.0,0.0,0.0,0,1025.7,1010.8,6,0,10,0,0.05,0.68,10.7,20.5,346,1,20.2,20.4,19.5,15.1,12.8,0.263,0.311,0.322,0.382,0,0.0,0.0,0.0,0.0,0.0,0.0,0.0,12.0,5.0,7.0,59.0,12.0,55.0,Eucalyptus L'Hér.
2007,2007-11-11,Aveiro,Santa Maria da Feira,Fiães,R. Dr. Mario de Castro (FIÃES),40.9984369,-8.5305727,NC,222.0,2007-11-11T10:00,14.0,43,1.6,10.5,0.0,0.0,0.0,0.0,1,1025.6,998.9,31,0,2,99,0.17,0.91,10.8,17.8,94,97,24.5,12.6,13.4,16.3,18.6,0.115,0.137,0.164,0.289,1,3600.0,290.7,118.9,171.9,299.0,290.7,554.8,247.0,101.0,146.0,299.0,247.0,471.3,Tracheophyta; Eucalyptus L'Hér.; Magnoliopsida
2007,2007-11-19,Aveiro,Santa Maria da Feira,Canedo,Espinheira,41.017568,-8.4518566,NC,188.0,2007-11-19T00:00,9.5,77,5.6,6.2,0.0,0.0,0.0,0.0,1,1010.4,987.7,42,22,15,43,0.02,0.28,15.5,28.5,180,190,31.0,9.7,11.8,15.3,18.5,0.112,0.132,0.163,0.287,0,0.0,0.0,0.0,0.0,0.0,0.0,0.0,0.0,0.0,0.0,0.0,0.0,0.0,Pinus pinaster Aiton; Tracheophyta; Eucalyptus L'Hér.; Magnoliopsida
2007,2007-11-12,Aveiro,Vale de Cambra,Macieira de Cambra,Outeiro,40.864024,-8.378498,NC,294.0,2007-11-12T09:00,10.4,59,2.7,7.7,0.0,0.0,0.0,0.0,1,1022.1,986.6,23,0,4,68,0.07,0.52,6.7,8.2,74,38,15.8,9.9,12.5,15.7,18.3,0.119,0.18,0.218,0.315,1,3600.0,199.7,115.9,83.8,429.7,199.7,376.6,143.0,83.0,60.0,429.7,143.0,269.7,Tracheophyta; Eucalyptus L'Hér.; Magnoliopsida; Pinus pinaster Aiton
2007,2007-11-12,Aveiro,Santa Maria da Feira,Vila Maior,Zona Industrial (VILA MAIOR),41.010273,-8.487896654288974,NC,174.0,2007-11-12T12:00,18.7,26,-1.1,16.2,0.0,0.0,0.0,0.0,0,1021.3,1000.8,18,2,8,38,0.27,1.6,1.8,1.8,349,11,12.2,18.6,13.6,16.4,18.9,0.115,0.136,0.163,0.289,1,3600.0,499.0,401.0,97.9,775.2,499.0,722.3,484.0,389.0,95.0,775.2,484.0,700.6,Pinus pinaster Aiton; Eucalyptus L'Hér.; Magnoliopsida
2007,2007-11-15,Aveiro,Águeda,Lamas do Vouga,Rua Lapeira (LAMAS),40.5941892,-8.4596416,NC,84.0,2007-11-15T06:00,9.0,73,4.4,6.1,0.0,0.0,0.0,0.0,0,1017.8,1007.5,0,0,0,0,0.02,0.31,11.0,26.6,79,77,21.2,8.6,13.8,17.0,19.4,0.064,0.099,0.108,0.209,0,0.0,0.0,0.0,0.0,0.0,0.0,0.0,0.0,0.0,0.0,0.0,0.0,0.0,Eucalyptus L'Hér.; Tracheophyta; Pinus pinaster Aiton
2007,2007-11-19,Aveiro,Oliveira de Azeméis,Ossela,Mosteiro,40.81820625,-8.42793992965736,NC,173.0,2007-11-19T08:00,9.8,76,5.8,6.4,0.0,0.0,0.0,0.0,3,1006.9,986.1,100,25,90,98,0.04,0.29,16.1,29.0,156,169,34.6,9.4,11.7,15.6,18.8,0.097,0.148,0.186,0.289,1,0.0,14.2,0.0,14.2,0.0,6.5,120.6,6.0,0.0,6.0,0.0,6.0,50.8,Eucalyptus L'Hér.; Tracheophyta; Magnoliopsida
2007,2007-11-19,Aveiro,Santa Maria da Feira,São João de Ver,Fonte Seca,40.969386,-8.5381176,NC,237.0,2007-11-19T09:00,10.2,77,6.3,6.6,0.6,0.6,0.0,0.0,53,1006.5,978.2,100,42,89,100,0.06,0.29,18.4,31.5,169,174,40.0,9.8,11.2,14.9,18.1,0.119,0.132,0.163,0.287,1,0.0,56.8,1.5,55.4,6.0,56.8,339.4,39.0,1.0,38.0,6.0,39.0,232.9,Pinus pinaster Aiton; Tracheophyta; Eucalyptus L'Hér.; Magnoliopsida
2007,2007-11-15,Aveiro,Espinho,Guetim,Campo Futebol (GUETIM),41.01698745,-8.604875022597696,NC,93.0,2007-11-15T12:00,16.7,45,4.6,14.5,0.0,0.0,0.0,0.0,0,1018.0,1006.9,0,0,0,0,0.28,1.06,6.7,8.4,54,59,19.1,17.6,13.7,16.7,19.3,0.094,0.131,0.171,0.289,1,3600.0,507.9,428.4,79.5,847.9,507.9,706.4,492.0,415.0,77.0,847.9,492.0,684.3,Eucalyptus L'Hér.; Tracheophyta; Magnoliopsida
2007,2007-11-07,Aveiro,Arouca,Canelas,Prolongo (Prolonga),40.9662166,-8.1727407,NC,338.0,2007-11-07T15:00,20.3,32,3.2,17.7,0.0,0.0,0.0,0.0,0,1025.9,986.5,0,0,0,0,0.27,1.62,6.9,9.1,96,97,21.6,19.8,14.1,15.1,18.0,0.13,0.191,0.223,0.319,1,3600.0,362.2,300.5,61.7,822.0,362.2,509.3,417.0,346.0,71.0,822.0,417.0,586.3,Tracheophyta; Magnoliopsida; Quercus L.; Eucalyptus L'Hér.; Castanea sativa Mill.; Pinus pinaster Aiton
2007,2007-10-16,Aveiro,Santa Maria da Feira,Nogueira da Regedoura,Av S CRistovao (NOGUEIRA DA REGEDOURA),41.0157616,-8.5571606,NC,227.0,2007-10-16T05:00,12.2,91,10.7,11.8,0.0,0.0,0.0,0.0,1,1017.5,990.3,37,41,0,0,0.0,0.13,3.8,5.6,73,40,9.0,13.8,17.7,18.7,19.5,0.178,0.211,0.203,0.318,0,0.0,0.0,0.0,0.0,0.0,0.0,0.0,0.0,0.0,0.0,0.0,0.0,0.0,Eucalyptus L'Hér.; Magnoliopsida; Tracheophyta; Quercus L.
2007,2007-11-09,Aveiro,Espinho,Anta,R. da Lagarta (ANTA),41.004343000000006,-8.6180921214257,NC,39.0,2007-11-09T12:00,18.6,39,4.3,15.2,0.0,0.0,0.0,0.0,1,1023.7,1019.0,34,0,14,84,0.3,1.32,14.6,19.6,81,84,23.4,18.7,15.9,17.7,19.9,0.095,0.134,0.172,0.291,1,3600.0,442.1,264.8,177.2,499.8,442.1,738.7,429.0,257.0,172.0,499.8,429.0,716.8,Eucalyptus L'Hér.; Magnoliopsida; Tracheophyta; Pinus pinaster Aiton
2007,2007-05-08,Aveiro,Castelo de Paiva,Bairros,Carreiros,41.0410842,-8.2505121,NC,326.0,2007-05-08T14:00,25.2,45,12.4,27.2,0.0,0.0,0.0,0.0,0,1026.8,989.3,0,0,0,0,0.63,1.77,7.5,9.3,325,324,20.9,24.5,17.1,13.9,11.7,0.303,0.337,0.353,0.388,1,3600.0,893.3,780.0,113.2,908.8,893.3,1153.1,923.0,806.0,117.0,908.8,923.0,1191.5,Eucalyptus L'Hér.; Tracheophyta; Vitis vinifera L.; Magnoliopsida; Pinus pinaster Aiton
2007,2007-11-10,Aveiro,Santa Maria da Feira,Rio Meão,Rua Centro de Dia (Rua Centro Social),40.9581668,-8.5826133,NC,116.0,2007-11-10T20:00,13.3,50,3.0,10.2,0.0,0.0,0.0,0.0,0,1024.7,1010.6,0,0,0,0,0.05,0.77,10.2,17.3,80,94,17.6,14.5,16.2,17.1,19.3,0.094,0.133,0.172,0.29,0,0.0,0.0,0.0,0.0,0.0,0.0,0.0,0.0,0.0,0.0,0.0,0.0,0.0,Eucalyptus L'Hér.; Tracheophyta; Olea europaea L.; Magnoliopsida
2007,2007-11-08,Aveiro,Santa Maria da Feira,Fornos,Vinhais,40.9183611,-8.5376031,NC,208.0,2007-11-08T04:00,9.3,49,-1.0,5.5,0.0,0.0,0.0,0.0,0,1024.3,998.9,0,0,0,0,0.05,0.6,10.2,13.0,100,114,19.8,10.7,15.2,16.7,18.9,0.119,0.166,0.199,0.312,0,0.0,0.0,0.0,0.0,0.0,0.0,0.0,0.0,0.0,0.0,0.0,0.0,0.0,Magnoliopsida; Eucalyptus L'Hér.; Castanea sativa Mill.; Pinales; Tracheophyta; Quercus L.; Pinus pinaster Aiton
2007,2007-11-15,Aveiro,Aveiro,Eixo,Rua do Barreiro (Rua dos Barreiros),40.6294024,-8.5655405,NC,14.0,2007-11-15T14:00,19.2,38,4.4,16.2,0.0,0.0,0.0,0.0,0,1016.0,1014.3,0,0,0,0,0.31,1.4,11.9,13.7,358,5,20.5,23.0,15.2,17.9,20.1,0.047,0.083,0.094,0.192,1,3600.0,441.5,368.9,72.7,829.8,441.5,621.5,474.0,396.0,78.0,829.8,474.0,667.2,Tracheophyta; Eucalyptus L'Hér.
2007,2007-11-19,Aveiro,Vagos,Santo António de Vagos,Quintã (Quinta),40.527414,-8.68776,NC,16.0,2007-11-19T08:00,11.2,76,7.2,7.2,0.1,0.1,0.0,0.0,51,1006.7,1004.8,100,15,98,98,0.06,0.32,22.8,34.6,162,168,34.9,10.6,13.2,17.3,19.8,0.051,0.077,0.092,0.189,1,0.0,11.8,0.0,11.8,0.0,5.5,122.9,5.0,0.0,5.0,0.0,5.0,51.9,Tracheophyta
2007,2007-11-09,Aveiro,Sever do Vouga,Silva Escura,SILVA ESCURA,40.7578177,-8.391287453981723,NC,298.0,2007-11-09T20:00,13.6,50,3.3,10.2,0.0,0.0,0.0,0.0,0,1024.0,988.4,12,0,0,39,0.06,0.78,12.6,27.7,90,90,28.4,14.2,15.3,16.2,18.7,0.117,0.178,0.21,0.31,0,0.0,0.0,0.0,0.0,0.0,0.0,0.0,0.0,0.0,0.0,0.0,0.0,0.0,Magnoliopsida; Pinus pinaster Aiton; Eucalyptus L'Hér.; Vitis vinifera L.
2007,2007-11-06,Aveiro,Ovar,São João,Cimo de Vila,40.8730429,-8.5917777,NC,48.0,2007-11-06T17:00,21.4,27,1.4,18.1,0.0,0.0,0.0,0.0,0,1024.3,1018.6,0,0,0,0,0.14,1.87,9.9,15.5,33,54,18.4,21.8,17.9,18.0,20.0,0.106,0.123,0.143,0.272,1,3387.9,49.8,33.9,15.9,388.7,48.1,86.5,119.0,81.0,38.0,527.3,119.0,206.8,Eucalyptus L'Hér.; Magnoliopsida; Tracheophyta; Pinus pinaster Aiton; Acacia Mill.; 
2007,2007-11-09,Aveiro,Santa Maria da Feira,Pigeiros,Varzea,40.9508111,-8.492238,NC,192.0,2007-11-09T21:00,13.3,51,3.4,9.7,0.0,0.0,0.0,0.0,0,1024.7,1001.6,0,0,0,1,0.07,0.75,14.2,29.6,81,87,31.7,13.7,15.5,16.6,18.9,0.116,0.138,0.164,0.289,0,0.0,0.0,0.0,0.0,0.0,0.0,0.0,0.0,0.0,0.0,0.0,0.0,0.0,Eucalyptus L'Hér.; Pinales; Magnoliopsida; Tracheophyta
2007,2007-05-07,Aveiro,Anadia,Sangalhos,S. João da Azenha (São João da Azenha),40.4950883,-8.4533195,NC,22.0,2007-05-07T16:00,23.1,60,15.0,22.7,0.0,0.0,0.0,0.0,0,1026.1,1023.5,0,0,0,0,0.44,1.13,19.3,25.6,331,334,38.5,24.1,18.5,15.2,13.4,0.221,0.26,0.25,0.317,1,3600.0,627.6,535.8,91.9,846.9,627.6,850.3,697.0,595.0,102.0,846.9,697.0,944.2,Magnoliopsida; Vitis vinifera L.; Tracheophyta; Eucalyptus L'Hér.; Pinus pinaster Aiton
2007,2007-11-11,Aveiro,Vale de Cambra,Junqueira,Chã,40.8035081,-8.3618629,NC,738.0,2007-11-11T07:00,4.3,60,-2.8,0.6,0.0,0.0,0.0,0.0,0,1026.0,937.6,17,0,0,58,0.02,0.34,8.7,15.2,85,83,24.1,5.7,10.4,13.2,16.0,0.128,0.189,0.222,0.315,0,0.0,0.0,0.0,0.0,0.0,0.0,0.0,0.0,0.0,0.0,0.0,0.0,0.0,Magnoliopsida; Eucalyptus L'Hér.; Pinus pinaster Aiton
2007,2007-11-12,Aveiro,São João da Madeira,São João da Madeira,Av. Casaldelo (SÃO JOÃO DA MADEIRA),40.897404,-8.490683816868543,NC,222.0,2007-11-12T13:00,19.7,23,-2.1,16.6,0.0,0.0,0.0,0.0,0,1020.6,994.6,14,1,12,18,0.31,1.78,5.0,5.5,330,337,12.6,19.8,14.1,16.3,18.7,0.116,0.162,0.198,0.311,1,3600.0,484.4,402.8,81.6,790.8,484.4,711.2,493.0,410.0,83.0,790.8,493.0,723.8,Tracheophyta
2007,2007-11-09,Aveiro,Santa Maria da Feira,Rio Meão,Cardielos,40.9581668,-8.5826133,NC,116.0,2007-11-09T13:00,19.2,35,3.2,14.4,0.0,0.0,0.0,0.0,2,1023.9,1010.1,64,0,58,97,0.33,1.45,22.0,30.2,89,91,41.4,19.7,15.5,17.2,19.4,0.095,0.134,0.172,0.291,1,3600.0,400.1,185.8,214.3,356.6,400.1,726.4,407.0,189.0,218.0,356.6,407.0,738.9,Eucalyptus L'Hér.; Tracheophyta; Olea europaea L.; Magnoliopsida
2007,2007-11-09,Aveiro,Oliveira do Bairro,Oiã,Silveiro (Silveira),40.5517487,-8.5360711,NC,61.0,2007-11-09T15:00,20.0,31,2.2,16.0,0.0,0.0,0.0,0.0,2,1022.1,1014.9,53,0,40,97,0.28,1.63,15.9,21.6,86,86,33.8,21.4,16.6,17.6,19.7,0.066,0.104,0.108,0.21,1,3600.0,271.8,139.8,132.0,383.7,271.8,508.1,313.0,161.0,152.0,383.7,313.0,585.1,Eucalyptus L'Hér.; Tracheophyta; Pinus pinaster Aiton; Magnoliopsida
2007,2007-11-11,Aveiro,Santa Maria da Feira,Fiães,Barroca,40.9978021,-8.5227904,NC,204.0,2007-11-11T13:00,19.4,28,0.2,16.8,0.0,0.0,0.0,0.0,1,1024.2,1000.1,48,0,32,97,0.27,1.63,3.5,4.8,114,117,15.1,19.4,14.1,16.3,18.7,0.115,0.137,0.163,0.289,1,3600.0,437.3,238.8,198.5,466.9,437.3,713.7,445.0,243.0,202.0,466.9,445.0,726.3,Tracheophyta; Eucalyptus L'Hér.; Magnoliopsida
2007,2007-11-09,Aveiro,Aveiro,Esgueira,Qta Simao - Ervideiros (ESGUEIRA),40.6433731,-8.6405427,NC,17.0,2007-11-09T21:00,15.0,49,4.3,11.6,0.0,0.0,0.0,0.0,0,1024.1,1022.0,1,0,1,0,0.08,0.88,14.0,27.1,78,85,22.3,15.0,17.6,18.4,20.3,0.048,0.087,0.095,0.193,0,0.0,0.0,0.0,0.0,0.0,0.0,0.0,0.0,0.0,0.0,0.0,0.0,0.0,Tracheophyta; Magnoliopsida
2007,2007-11-07,Aveiro,Aveiro,Esgueira,Quinta Belavista (Carrajão das Quintas),40.6433731,-8.6405427,NC,17.0,2007-11-07T02:00,13.5,49,2.9,9.8,0.0,0.0,0.0,0.0,0,1025.6,1023.5,0,0,0,0,0.07,0.79,14.1,27.7,84,90,22.0,12.9,17.6,18.5,20.4,0.047,0.089,0.095,0.193,0,0.0,0.0,0.0,0.0,0.0,0.0,0.0,0.0,0.0,0.0,0.0,0.0,0.0,Tracheophyta; Magnoliopsida
2007,2007-10-18,Aveiro,Santa Maria da Feira,Louredo,Santa Ovaia,40.9648022,-8.4425487,NC,216.0,2007-10-18T01:00,11.4,89,9.6,10.6,0.0,0.0,0.0,0.0,1,1021.6,995.5,29,25,0,21,0.0,0.15,4.5,7.2,76,63,13.3,13.3,17.3,18.3,19.4,0.182,0.221,0.215,0.321,0,0.0,0.0,0.0,0.0,0.0,0.0,0.0,0.0,0.0,0.0,0.0,0.0,0.0,Eucalyptus L'Hér.; Magnoliopsida; Pinales; Tracheophyta
2007,2007-05-08,Aveiro,Sever do Vouga,Silva Escura,Fojo,40.7450935,-8.388002,NC,306.0,2007-05-08T14:00,25.3,47,13.0,26.8,0.0,0.0,0.0,0.0,0,1026.7,991.5,0,0,0,0,0.63,1.72,10.8,13.0,330,336,25.6,25.0,17.6,14.2,12.0,0.278,0.32,0.329,0.384,1,3600.0,894.5,784.2,110.4,910.7,894.5,1156.8,924.0,810.0,114.0,910.7,924.0,1194.9,Magnoliopsida; Eucalyptus L'Hér.; Tracheophyta; Pinus pinaster Aiton; Quercus L.
2007,2007-11-19,Aveiro,Mealhada,Vacariça,Travasso,40.3607064,-8.4367368,NC,63.0,2007-11-19T18:00,14.6,98,14.3,14.7,1.5,1.5,0.0,0.0,61,999.4,992.0,100,100,54,67,0.01,0.03,8.6,19.3,158,166,64.1,12.6,11.9,16.1,19.3,0.368,0.19,0.138,0.24,0,0.0,0.0,0.0,0.0,0.0,0.0,0.0,0.0,0.0,0.0,0.0,0.0,9.2,Tracheophyta; Eucalyptus L'Hér.; Vitis vinifera L.; Magnoliopsida; Pinus pinaster Aiton
2007,2007-11-09,Aveiro,Espinho,Guetim,Rua da Picadela (Rua da Tabuaça),41.0177316,-8.604145,NC,96.0,2007-11-09T21:00,14.1,50,3.7,10.2,0.0,0.0,0.0,0.0,0,1024.9,1013.3,8,0,0,27,0.08,0.81,16.5,31.8,80,86,33.8,14.4,16.3,17.4,19.5,0.095,0.134,0.172,0.291,0,0.0,0.0,0.0,0.0,0.0,0.0,0.0,0.0,0.0,0.0,0.0,0.0,0.0,Eucalyptus L'Hér.; Tracheophyta; Magnoliopsida
2007,2007-11-10,Aveiro,Santa Maria da Feira,Santa Maria de Lamas,Lamas (Lama),40.9794526,-8.5715712,NC,124.0,2007-11-10T12:00,18.3,32,1.2,14.2,0.0,0.0,0.0,0.0,0,1025.6,1010.8,0,0,0,0,0.35,1.44,15.1,23.1,93,94,37.1,18.6,15.1,17.1,19.3,0.094,0.133,0.172,0.291,1,3600.0,543.2,461.7,81.4,876.8,543.2,734.5,527.0,448.0,79.0,876.8,527.0,712.7,Eucalyptus L'Hér.; Magnoliopsida; Tracheophyta; Pinus pinaster Aiton
2007,2007-11-10,Aveiro,Vagos,Sosa,Lavandeira,40.5541676,-8.6549767,NC,46.0,2007-11-10T06:00,11.3,63,4.4,6.8,0.0,0.0,0.0,0.0,0,1024.0,1018.4,0,0,0,0,0.07,0.5,21.6,35.3,91,90,36.0,11.4,16.7,18.5,20.5,0.045,0.09,0.105,0.201,0,0.0,0.0,0.0,0.0,0.0,0.0,0.0,0.0,0.0,0.0,0.0,0.0,0.0,Magnoliopsida; Tracheophyta; Pinus pinaster Aiton; Eucalyptus L'Hér.
2007,2007-11-16,Aveiro,Aveiro,Nariz,Verba,40.5476769,-8.5874705,NC,35.0,2007-11-16T15:00,17.8,31,0.4,13.9,0.0,0.0,0.0,0.0,1,1018.8,1014.6,28,0,0,93,0.25,1.41,13.1,17.5,98,99,30.6,19.7,14.9,17.6,19.8,0.05,0.071,0.078,0.178,1,3600.0,278.7,164.8,113.9,483.2,278.7,477.2,323.0,191.0,132.0,483.2,323.0,552.9,Eucalyptus L'Hér.; Magnoliopsida; Pinus pinaster Aiton; Tracheophyta
2007,2007-11-09,Aveiro,Santa Maria da Feira,Lourosa,Rua das Agras - Lourosela (Rua das Costouras),40.983541,-8.5499188,NC,164.0,2007-11-09T19:00,15.1,45,3.3,11.7,0.0,0.0,0.0,0.0,1,1023.9,1004.2,34,0,14,86,0.08,0.94,12.5,26.0,78,85,28.4,15.6,15.8,16.8,19.1,0.116,0.138,0.164,0.289,0,0.0,0.0,0.0,0.0,0.0,0.0,0.0,0.0,0.0,0.0,0.0,0.0,0.0,Tracheophyta; Magnoliopsida; Pinus pinaster Aiton; Eucalyptus L'Hér.
2007,2007-11-12,Aveiro,Vale de Cambra,Macieira de Cambra,Outeiro,40.864024,-8.378498,NC,294.0,2007-11-12T18:00,15.6,44,3.4,12.8,0.0,0.0,0.0,0.0,0,1020.0,985.2,0,0,0,0,0.08,0.99,8.9,16.5,339,344,20.5,16.0,14.5,15.6,18.3,0.117,0.179,0.218,0.315,0,0.0,0.0,0.0,0.0,0.0,0.0,0.0,2.0,1.0,1.0,17.6,2.0,18.5,Tracheophyta; Eucalyptus L'Hér.; Magnoliopsida; Pinus pinaster Aiton
2007,2007-11-12,Aveiro,Vale de Cambra,Macieira de Cambra,Outeiro,40.864024,-8.378498,NC,294.0,2007-11-12T20:00,12.9,57,4.6,10.7,0.0,0.0,0.0,0.0,0,1020.2,985.1,0,0,0,1,0.02,0.64,5.8,14.5,7,354,14.8,13.3,14.5,15.6,18.3,0.117,0.179,0.218,0.315,0,0.0,0.0,0.0,0.0,0.0,0.0,0.0,0.0,0.0,0.0,0.0,0.0,0.0,Tracheophyta; Eucalyptus L'Hér.; Magnoliopsida; Pinus pinaster Aiton
2007,2007-11-07,Aveiro,Vale de Cambra,São Pedro de Castelões,Aguincheira,40.836726,-8.381453,NC,220.0,2007-11-07T18:00,17.7,37,3.0,15.0,0.0,0.0,0.0,0.0,0,1025.7,999.6,0,0,0,0,0.08,1.27,7.9,11.2,43,48,15.8,17.8,16.3,16.6,19.2,0.111,0.174,0.197,0.302,0,0.0,0.0,0.0,0.0,0.0,0.0,0.0,5.0,2.0,3.0,30.8,5.0,30.0,Eucalyptus L'Hér.; Magnoliopsida; Pinus pinaster Aiton; Tracheophyta
2007,2007-11-19,Aveiro,Albergaria-a-Velha,Albergaria-a-Velha,SOBREIRO,40.6938582,-8.5060594,NC,126.0,2007-11-19T08:00,9.6,76,5.6,6.2,0.0,0.0,0.0,0.0,3,1007.2,992.0,97,10,98,98,0.04,0.28,15.9,29.5,155,167,28.4,8.7,11.6,16.0,19.0,0.069,0.105,0.121,0.222,1,0.0,14.1,0.0,14.1,0.0,6.6,124.7,6.0,0.0,6.0,0.0,6.0,52.9,Tracheophyta; Eucalyptus L'Hér.
2007,2007-11-07,Aveiro,Oliveira de Azeméis,Macieira de Sarnes,Barreiro (Barreiro Negro),40.905214,-8.4654957,NC,238.0,2007-11-07T21:00,12.1,55,3.3,9.5,0.0,0.0,0.0,0.0,0,1026.2,997.4,0,0,0,0,0.03,0.64,6.9,12.0,99,106,16.6,13.8,16.1,16.5,18.7,0.119,0.166,0.199,0.312,0,0.0,0.0,0.0,0.0,0.0,0.0,0.0,0.0,0.0,0.0,0.0,0.0,0.0,Magnoliopsida; Eucalyptus L'Hér.; Pinus pinaster Aiton; Tracheophyta; Pinales
2007,2007-11-13,Aveiro,Ovar,Esmoriz,Rua. do Tanque (ESMORIZ),40.9627709,-8.6354758,NC,8.0,2007-11-13T11:00,16.9,40,3.2,14.9,0.0,0.0,0.0,0.0,0,1021.6,1020.6,20,22,0,0,0.21,1.16,3.1,4.0,69,80,13.7,16.7,14.6,17.6,19.9,0.094,0.132,0.171,0.29,1,3600.0,412.0,274.6,137.3,578.3,412.0,663.3,378.0,252.0,126.0,578.3,378.0,608.6,Tracheophyta; Magnoliopsida
2007,2007-05-08,Aveiro,Albergaria-a-Velha,Branca,Albergaria - a- nova (Albergaria a Nova),40.743211,-8.4902351,NC,155.0,2007-05-08T20:00,19.4,75,14.8,19.4,0.0,0.0,0.0,0.0,0,1026.1,1007.7,2,0,3,0,0.05,0.56,10.8,19.9,358,4,22.3,19.8,19.4,15.0,12.7,0.171,0.229,0.229,0.304,0,41.85,0.0,0.0,0.0,0.0,0.0,0.0,13.0,6.0,7.0,70.1,13.0,56.0,Eucalyptus L'Hér.; Tracheophyta
2007,2007-11-10,Aveiro,Vale de Cambra,Macieira de Cambra,Outeiro,40.864024,-8.378498,NC,294.0,2007-11-10T06:00,8.8,67,3.0,4.5,0.0,0.0,0.0,0.0,0,1024.8,989.1,2,0,0,8,0.04,0.37,18.4,33.9,93,92,37.8,10.2,13.9,15.9,18.4,0.121,0.182,0.219,0.316,0,0.0,0.0,0.0,0.0,0.0,0.0,0.0,0.0,0.0,0.0,0.0,0.0,0.0,Tracheophyta; Eucalyptus L'Hér.; Magnoliopsida; Pinus pinaster Aiton
2007,2007-11-10,Aveiro,Santa Maria da Feira,São João de Ver,Ilha dos Capitães (Azenha do Serrilha),40.954172,-8.5534047,NC,161.0,2007-11-10T06:00,10.3,61,3.0,5.9,0.0,0.0,0.0,0.0,0,1025.0,1005.3,3,0,0,11,0.06,0.49,19.1,34.6,90,92,40.0,10.9,14.9,16.9,19.0,0.095,0.134,0.172,0.291,0,0.0,0.0,0.0,0.0,0.0,0.0,0.0,0.0,0.0,0.0,0.0,0.0,0.0,Tracheophyta; Pinus pinaster Aiton; Eucalyptus L'Hér.; Quercus suber L.; Magnoliopsida
2007,2007-11-13,Aveiro,Santa Maria da Feira,Rio Meão,Abelheira,40.9581668,-8.5826133,NC,116.0,2007-11-13T12:00,17.9,33,1.2,14.9,0.0,0.0,0.0,0.0,0,1021.2,1007.4,0,0,0,0,0.29,1.38,7.1,8.9,105,104,15.8,18.5,14.2,16.9,19.2,0.094,0.132,0.171,0.29,1,3600.0,495.2,379.6,115.5,738.2,495.2,718.3,480.0,368.0,112.0,738.2,480.0,696.3,Eucalyptus L'Hér.; Tracheophyta; Olea europaea L.; Magnoliopsida
2007,2007-11-10,Aveiro,Ovar,São Vicente de Pereira Jusã,S´Vicente Pereira (SÃO VICENTE DE PEREIRA JUZA),40.8639776,-8.6166247,NC,18.0,2007-11-10T14:00,21.4,26,1.2,18.7,0.0,0.0,0.0,0.0,0,1023.8,1021.7,0,0,0,0,0.31,1.89,5.2,8.3,74,88,20.5,22.7,16.6,18.1,20.0,0.105,0.121,0.143,0.272,1,3600.0,467.5,394.7,72.8,858.9,467.5,641.0,501.0,423.0,78.0,858.9,501.0,687.0,Tracheophyta; Magnoliopsida; Eucalyptus L'Hér.
2007,2007-11-14,Aveiro,Arouca,Urrô,Povoa reguenga (Póvoa Reguenga),40.916294,-8.2904033,NC,275.0,2007-11-14T09:00,8.4,71,3.5,5.6,0.0,0.0,0.0,0.0,0,1019.8,986.4,0,0,0,0,0.06,0.32,9.0,15.5,90,87,21.6,8.1,11.5,15.1,18.0,0.117,0.17,0.21,0.314,1,3600.0,209.2,145.6,63.6,557.8,209.2,364.7,148.0,103.0,45.0,557.8,148.0,258.0,Eucalyptus L'Hér.; Magnoliopsida; Vitis vinifera L.; Pinus pinaster Aiton
2007,2007-11-13,Aveiro,Santa Maria da Feira,Lourosa,Estrada Nova (Estrada),40.983541,-8.5499188,NC,164.0,2007-11-13T10:00,13.9,48,3.0,11.1,0.0,0.0,0.0,0.0,0,1021.4,1001.7,0,0,0,0,0.16,0.83,8.4,12.4,97,100,20.9,13.2,13.3,16.4,18.9,0.115,0.136,0.163,0.288,1,3600.0,322.6,216.3,106.4,555.3,322.6,544.0,273.0,183.0,90.0,555.3,273.0,460.3,Tracheophyta; Magnoliopsida; Pinus pinaster Aiton; Eucalyptus L'Hér.
2007,2007-10-19,Aveiro,Santa Maria da Feira,Lobão,Miravale (LOBÃO),40.98260465,-8.4900676884166,NC,179.0,2007-10-19T18:00,20.9,50,10.2,19.5,0.0,0.0,0.0,0.0,0,1021.7,1000.7,0,0,0,0,0.08,1.23,10.0,17.7,339,340,18.7,21.4,19.4,18.7,19.7,0.143,0.17,0.165,0.294,0,1153.15,0.0,0.0,0.0,0.0,0.0,0.0,31.0,18.0,13.0,171.8,31.0,85.1,Eucalyptus L'Hér.; Tracheophyta
2007,2007-10-21,Aveiro,Castelo de Paiva,Sobrado,Costinhas (Costinha),41.0427441,-8.2701488,NC,213.0,2007-10-21T13:00,22.7,27,2.6,21.0,0.0,0.0,0.0,0.0,0,1020.9,996.2,20,0,0,66,0.41,2.02,3.9,5.5,68,79,15.1,21.4,15.6,17.5,19.0,0.157,0.211,0.224,0.323,1,3600.0,632.4,536.8,95.5,883.8,632.4,838.4,642.0,545.0,97.0,883.8,642.0,851.2,Tracheophyta; Eucalyptus L'Hér.; Magnoliopsida; Pinus pinaster Aiton
2007,2007-11-07,Aveiro,Ovar,São João,Baixa Murta (Baixa da Murta),40.8730429,-8.5917777,NC,48.0,2007-11-07T12:00,21.5,27,1.6,18.4,0.0,0.0,0.0,0.0,0,1025.9,1020.2,0,0,0,0,0.36,1.89,8.8,12.6,99,103,25.2,21.0,16.4,18.0,19.9,0.106,0.123,0.143,0.272,1,3600.0,561.3,476.8,84.4,882.0,561.3,753.0,545.0,463.0,82.0,882.0,545.0,731.2,Eucalyptus L'Hér.; Magnoliopsida; Tracheophyta; Pinus pinaster Aiton; Acacia Mill.; 
2007,2007-11-10,Aveiro,Arouca,Canelas,Estrada Vila Cova (Estrada),40.9662166,-8.1727407,NC,338.0,2007-11-10T09:00,9.6,60,2.3,5.5,0.0,0.0,0.0,0.0,0,1027.4,986.4,0,0,0,0,0.1,0.47,16.6,27.4,95,94,42.1,10.1,12.6,15.0,17.8,0.128,0.187,0.223,0.319,1,3600.0,234.6,167.0,67.6,600.4,234.6,387.9,170.0,121.0,49.0,600.4,170.0,281.1,Tracheophyta; Magnoliopsida; Quercus L.; Eucalyptus L'Hér.; Castanea sativa Mill.; Pinus pinaster Aiton
2007,2007-11-11,Aveiro,Vale de Cambra,São Pedro de Castelões,Fundo de Janarde (Fundo da Aldeia),40.8299538,-8.397111101527628,NC,218.0,2007-11-11T14:00,20.5,27,0.7,18.2,0.0,0.0,0.0,0.0,1,1023.6,998.0,41,0,18,100,0.25,1.76,1.5,1.5,346,14,15.5,20.6,14.6,16.5,19.0,0.108,0.169,0.197,0.301,1,3600.0,409.3,255.4,153.8,560.4,409.3,636.1,439.0,274.0,165.0,560.4,439.0,682.4,Tracheophyta; Magnoliopsida
2007,2007-11-14,Aveiro,Arouca,Canelas,Prelonga (Prolonga),40.9662166,-8.1727407,NC,338.0,2007-11-14T15:00,17.5,39,3.4,14.7,0.0,0.0,0.0,0.0,0,1017.2,977.7,0,0,0,0,0.24,1.22,8.7,11.5,38,41,24.1,17.7,12.1,14.5,17.6,0.121,0.181,0.222,0.317,1,3600.0,329.2,270.6,58.6,796.4,329.2,474.9,382.0,314.0,68.0,796.4,382.0,551.0,Tracheophyta; Magnoliopsida; Quercus L.; Eucalyptus L'Hér.; Castanea sativa Mill.; Pinus pinaster Aiton
2007,2007-11-11,Aveiro,Santa Maria da Feira,Vila Maior,Zona Industrial (VILA MAIOR),41.010273,-8.487896654288974,NC,174.0,2007-11-11T16:00,19.2,30,1.4,16.7,0.0,0.0,0.0,0.0,1,1023.2,1002.6,30,0,1,98,0.13,1.55,4.0,6.0,333,343,10.8,19.7,15.0,16.5,18.9,0.114,0.137,0.163,0.289,1,3600.0,139.8,52.1,87.8,247.1,139.8,294.1,188.0,70.0,118.0,247.1,188.0,395.4,Pinus pinaster Aiton; Eucalyptus L'Hér.; Magnoliopsida
2007,2007-11-07,Aveiro,Vale de Cambra,Macieira de Cambra,Vale Galhardo,40.8480592,-8.3880687,NC,278.0,2007-11-07T12:00,19.7,33,2.9,16.5,0.0,0.0,0.0,0.0,0,1026.3,993.6,0,0,0,0,0.35,1.54,10.6,13.9,100,100,31.0,18.6,14.7,16.3,18.9,0.12,0.182,0.21,0.31,1,3600.0,560.0,476.6,83.4,881.4,560.0,753.2,544.0,463.0,81.0,881.4,544.0,731.6,Tracheophyta; Pinus pinaster Aiton; Eucalyptus L'Hér.
2007,2007-11-13,Aveiro,Santa Maria da Feira,Rio Meão,Propria (Própria),40.9581668,-8.5826133,NC,116.0,2007-11-13T19:00,13.5,61,6.1,11.8,0.0,0.0,0.0,0.0,0,1020.0,1006.0,0,0,0,0,0.01,0.61,5.3,11.6,28,16,13.3,15.0,15.5,16.8,19.2,0.094,0.131,0.171,0.29,0,0.0,0.0,0.0,0.0,0.0,0.0,0.0,0.0,0.0,0.0,0.0,0.0,0.0,Eucalyptus L'Hér.; Tracheophyta; Olea europaea L.; Magnoliopsida
2007,2007-11-07,Aveiro,Vale de Cambra,Macieira de Cambra,Pintalhos,40.8480592,-8.3880687,NC,278.0,2007-11-07T14:00,21.7,29,2.7,19.4,0.0,0.0,0.0,0.0,0,1025.5,993.1,0,0,0,0,0.32,1.86,4.3,5.8,90,94,19.4,21.3,15.2,16.3,18.9,0.119,0.181,0.21,0.31,1,3600.0,483.7,409.9,73.8,870.1,483.7,656.2,518.0,439.0,79.0,870.1,518.0,702.7,Tracheophyta; Pinus pinaster Aiton; Eucalyptus L'Hér.
2007,2007-05-09,Aveiro,Oliveira de Azeméis,Vila de Cucujães,Vila Nova,40.8812506,-8.5084634,NC,238.0,2007-05-09T23:00,14.7,90,13.1,15.1,0.0,0.0,0.0,0.0,0,1023.0,994.6,0,0,0,0,0.0,0.17,4.0,5.8,170,180,10.1,15.7,18.5,14.8,12.5,0.271,0.31,0.332,0.386,0,0.0,0.0,0.0,0.0,0.0,0.0,0.0,0.0,0.0,0.0,0.0,0.0,0.0,Magnoliopsida; Tracheophyta; Pinus pinaster Aiton
2007,2007-10-21,Aveiro,Oliveira de Azeméis,Ossela,Vermoim,40.8450786,-8.4360696,NC,223.0,2007-10-21T15:00,23.9,25,2.8,21.7,0.0,0.0,0.0,0.0,0,1020.0,994.2,8,0,0,27,0.32,2.22,3.5,3.5,294,294,16.2,23.9,17.6,18.5,19.8,0.142,0.209,0.2,0.306,1,3600.0,450.9,378.1,72.8,851.3,450.9,613.3,508.0,426.0,82.0,851.3,508.0,690.9,Eucalyptus L'Hér.; Magnoliopsida; Tracheophyta; Pinus pinaster Aiton
2007,2007-11-16,Aveiro,Santa Maria da Feira,Paços de Brandão,Z.Industrial (PAÇOS DE BRANDÃO),40.9720222,-8.584498051700898,NC,118.0,2007-11-16T01:00,9.2,76,5.1,6.0,0.0,0.0,0.0,0.0,0,1017.4,1003.0,0,0,0,0,0.02,0.28,13.3,26.4,88,95,25.9,9.7,14.2,16.5,19.1,0.093,0.13,0.171,0.289,0,0.0,0.0,0.0,0.0,0.0,0.0,0.0,0.0,0.0,0.0,0.0,0.0,0.0,Magnoliopsida; Tracheophyta; Eucalyptus L'Hér.; Pinus pinaster Aiton; Pinales
2007,2007-03-14,Aveiro,Santa Maria da Feira,Argoncilhe,R.Calvario (ARGONCILHE),41.0281196,-8.5477538,NC,210.0,2007-03-14T13:00,18.3,52,8.4,16.9,0.0,0.0,0.0,0.0,3,1025.2,1000.3,80,0,87,94,0.39,1.0,10.8,14.0,88,90,24.8,17.0,12.1,11.6,11.5,0.322,0.336,0.369,0.385,1,3600.0,661.2,411.8,249.5,569.9,661.2,1000.5,660.0,411.0,249.0,569.9,660.0,998.6,Tracheophyta; Magnoliopsida
2007,2007-11-10,Aveiro,Santa Maria da Feira,Fiães,FIÃES,40.9984369,-8.5305727,NC,222.0,2007-11-10T10:00,13.3,44,1.4,8.8,0.0,0.0,0.0,0.0,0,1026.5,999.7,0,0,0,0,0.2,0.85,17.7,25.2,92,93,38.9,13.4,14.0,16.3,18.7,0.116,0.138,0.164,0.289,1,3600.0,379.6,303.2,76.4,754.7,379.6,560.3,323.0,258.0,65.0,754.7,323.0,476.8,Tracheophyta; Eucalyptus L'Hér.; Magnoliopsida
2007,2007-11-10,Aveiro,Arouca,Alvarenga,Várzeas (VÁRZEA),40.9662166,-8.1727407,NC,338.0,2007-11-10T14:00,17.8,34,1.6,14.0,0.0,0.0,0.0,0.0,0,1024.5,984.8,0,0,0,0,0.32,1.36,13.0,18.1,95,96,36.7,18.1,13.3,14.9,17.8,0.126,0.187,0.223,0.318,1,3600.0,471.6,399.9,71.8,874.5,471.6,637.8,506.0,429.0,77.0,874.5,506.0,684.3,Tracheophyta; Magnoliopsida; Quercus L.; Eucalyptus L'Hér.; Castanea sativa Mill.; Pinus pinaster Aiton
2007,2007-11-13,Aveiro,Oliveira de Azeméis,Oliveira de Azeméis,IC 2 (OLIVEIRA DE AZEMÉIS),40.8431067,-8.468516409995193,NC,223.0,2007-11-13T19:00,12.9,57,4.7,10.7,0.0,0.0,0.0,0.0,0,1019.8,993.1,0,0,0,0,0.02,0.64,6.4,14.4,27,13,16.6,14.5,15.1,16.3,18.7,0.098,0.152,0.187,0.29,0,0.0,0.0,0.0,0.0,0.0,0.0,0.0,0.0,0.0,0.0,0.0,0.0,0.0,Tracheophyta; Pinus pinaster Aiton; Eucalyptus L'Hér.
2007,2007-11-16,Aveiro,Albergaria-a-Velha,Albergaria-a-Velha,SOBREIRO,40.6938582,-8.5060594,NC,126.0,2007-11-16T19:00,11.6,31,-4.9,7.0,0.0,0.0,0.0,0.0,1,1020.3,1005.0,30,0,0,99,0.09,0.94,12.3,25.6,85,86,22.0,12.9,14.3,16.6,19.1,0.069,0.106,0.121,0.223,0,0.0,0.0,0.0,0.0,0.0,0.0,0.0,0.0,0.0,0.0,0.0,0.0,0.0,Tracheophyta; Eucalyptus L'Hér.
2007,2007-11-10,Aveiro,Espinho,Anta,Junto Campo Futebol Idanha (ANTA),41.004343000000006,-8.6180921214257,NC,39.0,2007-11-10T06:00,11.1,61,3.8,6.7,0.0,0.0,0.0,0.0,0,1024.1,1019.3,0,0,0,0,0.07,0.52,20.2,32.8,94,93,32.8,11.7,15.7,17.7,19.8,0.095,0.134,0.172,0.291,0,0.0,0.0,0.0,0.0,0.0,0.0,0.0,0.0,0.0,0.0,0.0,0.0,0.0,Eucalyptus L'Hér.; Magnoliopsida; Tracheophyta; Pinus pinaster Aiton
2007,2007-11-10,Aveiro,Oliveira de Azeméis,Vila de Cucujães,Margonça,40.87501,-8.4856015,NC,152.0,2007-11-10T14:00,20.2,29,1.5,16.9,0.0,0.0,0.0,0.0,0,1024.2,1006.3,0,0,0,0,0.33,1.69,10.1,15.5,92,94,28.1,20.7,15.5,17.0,19.2,0.117,0.164,0.199,0.311,1,3600.0,469.3,397.5,71.8,864.9,469.3,641.0,503.0,426.0,77.0,864.9,503.0,687.0,Pinus pinaster Aiton; Vitis vinifera L.; Tracheophyta; Eucalyptus L'Hér.; Magnoliopsida
2007,2007-11-10,Aveiro,Aveiro,Nossa Senhora de Fátima,P. Valado (Póvoa do Valado),40.5801268,-8.5818366,NC,56.0,2007-11-10T17:00,20.6,28,1.5,17.7,0.0,0.0,0.0,0.0,0,1023.6,1017.0,0,0,0,0,0.1,1.74,6.9,8.9,39,63,13.3,21.4,17.3,18.1,20.1,0.048,0.086,0.095,0.192,1,3144.65,37.5,24.6,12.9,282.7,34.7,70.0,102.0,67.0,35.0,455.0,102.0,190.3,Eucalyptus L'Hér.; Tracheophyta
2007,2007-11-12,Aveiro,Santa Maria da Feira,Fiães,FIÃES,40.9984369,-8.5305727,NC,222.0,2007-11-12T04:00,7.3,70,2.1,4.7,0.0,0.0,0.0,0.0,2,1021.3,994.1,65,39,15,69,0.0,0.31,5.4,7.7,90,49,14.4,8.2,13.6,16.2,18.6,0.115,0.137,0.164,0.289,0,0.0,0.0,0.0,0.0,0.0,0.0,0.0,0.0,0.0,0.0,0.0,0.0,0.0,Tracheophyta; Eucalyptus L'Hér.; Magnoliopsida
2007,2007-11-19,Aveiro,Estarreja,Beduído,Santiais,40.77887295,-8.542015290694803,NC,67.0,2007-11-19T07:00,10.3,77,6.3,6.4,0.0,0.0,0.0,0.0,3,1006.9,998.8,98,18,87,100,0.03,0.29,20.2,32.0,164,172,33.1,10.2,12.7,16.5,19.4,0.102,0.117,0.143,0.27,0,0.0,0.0,0.0,0.0,0.0,0.0,0.0,0.0,0.0,0.0,0.0,0.0,0.0,Pinus pinaster Aiton; Tracheophyta; Magnoliopsida; Eucalyptus L'Hér.
2007,2007-11-10,Aveiro,Anadia,Arcos,Canha,40.4482059,-8.4419809,NC,31.0,2007-11-10T19:00,16.2,42,3.2,13.5,0.0,0.0,0.0,0.0,0,1024.3,1020.6,0,0,0,0,0.06,1.07,8.0,17.3,63,67,15.5,16.8,17.0,17.8,19.9,0.084,0.124,0.138,0.241,0,0.0,0.0,0.0,0.0,0.0,0.0,0.0,0.0,0.0,0.0,0.0,0.0,0.0,Tracheophyta; Magnoliopsida
2007,2007-11-11,Aveiro,Águeda,Recardães,Fujacos,40.5688007,-8.461833,NC,15.0,2007-11-11T04:00,9.9,59,2.2,6.2,0.0,0.0,0.0,0.0,0,1024.2,1022.3,20,0,0,66,0.05,0.5,13.5,19.7,99,108,20.5,10.7,15.9,17.9,20.0,0.065,0.103,0.108,0.21,0,0.0,0.0,0.0,0.0,0.0,0.0,0.0,0.0,0.0,0.0,0.0,0.0,0.0,Magnoliopsida; Tracheophyta; Pinus pinaster Aiton; Acacia Mill.; Eucalyptus L'Hér.
2007,2007-11-12,Aveiro,Vale de Cambra,Macieira de Cambra,Cimada (MACEIRA DE CAMBRA),40.8480592,-8.3880687,NC,278.0,2007-11-12T05:00,7.3,60,0.0,4.3,0.0,0.0,0.0,0.0,1,1021.0,987.1,26,0,8,72,0.01,0.41,6.2,8.4,83,47,13.3,8.6,13.5,16.1,18.7,0.114,0.175,0.209,0.309,0,0.0,0.0,0.0,0.0,0.0,0.0,0.0,0.0,0.0,0.0,0.0,0.0,0.0,Tracheophyta; Pinus pinaster Aiton; Eucalyptus L'Hér.
2007,2007-11-19,Aveiro,Ovar,Arada,R. Pedras de Baixo (Roçadas de Baixo),40.9152673,-8.5995458,NC,73.0,2007-11-19T07:00,10.2,76,6.3,6.1,0.0,0.0,0.0,0.0,3,1006.5,997.7,100,31,90,100,0.04,0.29,21.8,33.9,171,176,34.9,10.1,12.6,16.5,19.3,0.102,0.117,0.143,0.27,0,0.0,0.0,0.0,0.0,0.0,0.0,0.0,0.0,0.0,0.0,0.0,0.0,0.0,Tracheophyta; Eucalyptus L'Hér.; Pinus pinaster Aiton; Magnoliopsida
2007,2007-11-09,Aveiro,Santa Maria da Feira,Argoncilhe,Rua Nova da Lomba,41.0264716,-8.552985,NC,251.0,2007-11-09T18:00,15.7,38,1.6,12.1,0.0,0.0,0.0,0.0,1,1023.7,993.8,43,0,23,96,0.11,1.1,12.1,25.3,78,85,28.1,16.3,15.7,16.4,18.6,0.118,0.164,0.199,0.312,0,0.0,0.0,0.0,0.0,0.0,0.0,0.0,2.0,0.0,2.0,0.0,2.0,24.5,Tracheophyta; Magnoliopsida
2007,2007-05-06,Aveiro,Arouca,Rossas,Faril (ROSSAS),40.9131386,-8.3088478,NC,219.0,2007-05-06T14:00,21.1,42,7.5,20.7,0.0,0.0,0.0,0.0,0,1024.9,999.2,6,0,0,19,0.57,1.46,12.3,15.4,339,344,26.6,21.9,15.9,14.1,12.3,0.328,0.353,0.344,0.388,1,3600.0,889.6,769.6,120.0,898.6,889.6,1151.6,919.0,795.0,124.0,898.6,919.0,1189.6,Eucalyptus L'Hér.; Olea europaea L.; Tracheophyta; Pinus pinaster Aiton
2007,2007-11-14,Aveiro,Anadia,Tamengos,TAMENGOS,40.4189199,-8.482138978831,NC,80.0,2007-11-14T12:00,17.8,37,2.8,15.2,0.0,0.0,0.0,0.0,0,1018.2,1008.7,0,0,0,0,0.29,1.29,6.1,7.8,28,34,17.6,18.5,13.5,17.1,19.4,0.064,0.094,0.103,0.204,1,3600.0,522.9,442.4,80.4,852.9,522.9,724.9,507.0,429.0,78.0,852.9,507.0,702.9,Eucalyptus L'Hér.; Tracheophyta; Pinus pinaster Aiton; Vitis vinifera L.; Magnoliopsida
2007,2007-11-14,Aveiro,Santa Maria da Feira,Fiães,R: 31 de Janeiro (FIÃES),40.9984369,-8.5305727,NC,222.0,2007-11-14T22:00,9.7,74,5.3,7.3,0.0,0.0,0.0,0.0,0,1018.2,991.3,0,0,0,0,0.01,0.31,8.7,16.8,48,35,21.2,10.9,13.8,15.8,18.5,0.114,0.135,0.163,0.288,0,0.0,0.0,0.0,0.0,0.0,0.0,0.0,0.0,0.0,0.0,0.0,0.0,0.0,Tracheophyta; Eucalyptus L'Hér.; Magnoliopsida
2007,2007-05-14,Aveiro,Ílhavo,Gafanha da Encarnação,Rua da Saudade (Rua da Chousa Velha),40.61297,-8.7203449,NC,8.0,2007-05-14T17:00,16.6,56,7.9,12.3,0.0,0.0,0.0,0.0,0,1025.6,1024.6,0,0,0,0,0.29,0.82,25.4,32.2,339,340,46.8,20.4,17.9,16.8,14.3,0.154,0.159,0.178,0.255,1,3600.0,441.5,351.8,89.7,723.3,441.5,651.6,517.0,412.0,105.0,723.3,517.0,763.0,Pinus pinaster Aiton; Tracheophyta
2007,2007-10-31,Aveiro,Castelo de Paiva,Paraíso,Paraduça,41.0046851,-8.3059719,NC,454.0,2007-10-31T05:00,5.2,88,3.3,2.2,0.0,0.0,0.0,0.0,0,1023.0,967.8,0,0,0,0,0.0,0.11,9.8,18.4,82,73,27.7,7.0,12.1,15.2,17.9,0.164,0.212,0.228,0.322,0,0.0,0.0,0.0,0.0,0.0,0.0,0.0,0.0,0.0,0.0,0.0,0.0,0.0,Eucalyptus L'Hér.; Magnoliopsida; Tracheophyta
2007,2007-11-17,Aveiro,Oliveira de Azeméis,Carregosa,Lugar da Vacaria (Cimo do Lugar),40.8832957,-8.4150805,NC,340.0,2007-11-17T04:00,4.0,36,-9.6,-0.7,0.0,0.0,0.0,0.0,0,1022.1,980.3,0,0,0,0,0.05,0.52,9.7,19.1,94,94,22.0,6.0,11.2,14.7,17.7,0.114,0.174,0.217,0.314,0,0.0,0.0,0.0,0.0,0.0,0.0,0.0,0.0,0.0,0.0,0.0,0.0,0.0,Eucalyptus L'Hér.; Tracheophyta; Magnoliopsida; Pinus pinaster Aiton
2007,2007-11-16,Aveiro,Aveiro,Cacia,Povoa do Paço (PÓVOA DO PAÇO),40.6738158,-8.6210469,NC,17.0,2007-11-16T09:00,10.1,38,-3.8,3.8,0.0,0.0,0.0,0.0,1,1019.1,1017.0,29,0,0,98,0.15,0.77,24.6,34.7,101,100,40.7,10.6,14.4,17.7,20.0,0.049,0.083,0.095,0.191,1,3600.0,190.4,120.3,70.1,472.4,190.4,356.0,133.0,84.0,49.0,472.4,133.0,248.7,Magnoliopsida; Tracheophyta
2007,2007-05-10,Aveiro,Santa Maria da Feira,Fiães,Monte Grande,40.9745667,-8.515285881786024,NC,219.0,2007-05-10T17:00,16.4,67,10.3,14.9,0.0,0.0,0.0,0.0,0,1021.6,995.6,16,9,3,22,0.26,0.61,11.3,13.8,263,261,31.3,20.9,18.0,15.0,12.5,0.234,0.267,0.285,0.356,1,3600.0,405.8,272.2,133.6,573.2,405.8,637.4,477.0,320.0,157.0,573.2,477.0,749.3,Pinus pinaster Aiton; Eucalyptus L'Hér.; Pinales; Tracheophyta; Magnoliopsida
2007,2007-05-11,Aveiro,Espinho,Paramos,Junto a via ferrea (PARAMOS),40.9775399,-8.641645937119653,NC,4.0,2007-05-11T16:00,18.3,59,10.2,16.8,0.0,0.0,0.0,0.0,1,1020.9,1020.4,36,29,0,34,0.37,0.85,14.3,17.9,236,236,29.9,22.4,18.2,16.4,13.9,0.21,0.255,0.279,0.352,1,3600.0,592.2,436.9,155.3,681.8,592.2,859.7,656.0,484.0,172.0,681.8,656.0,952.3,Tracheophyta; Magnoliopsida
2007,2007-11-10,Aveiro,Santa Maria da Feira,Rio Meão,Rua Centro Dia (Rua Centro Social),40.9581668,-8.5826133,NC,116.0,2007-11-10T14:00,20.3,28,1.0,16.7,0.0,0.0,0.0,0.0,0,1024.3,1010.6,0,0,0,0,0.34,1.73,11.2,18.0,92,92,29.2,21.5,15.6,17.1,19.3,0.094,0.133,0.172,0.29,1,3600.0,468.4,395.6,72.8,862.6,468.4,639.8,502.0,424.0,78.0,862.6,502.0,685.7,Eucalyptus L'Hér.; Tracheophyta; Olea europaea L.; Magnoliopsida
2007,2007-11-16,Aveiro,Ovar,São João,Cimo de Vila,40.8730429,-8.5917777,NC,48.0,2007-11-16T16:00,16.3,24,-4.5,11.9,0.0,0.0,0.0,0.0,1,1018.6,1012.8,26,0,0,87,0.18,1.42,11.7,16.9,99,102,23.8,17.9,14.9,17.2,19.6,0.103,0.117,0.143,0.27,1,3600.0,141.5,65.3,76.3,330.0,141.5,276.6,193.0,89.0,104.0,330.0,193.0,377.2,Eucalyptus L'Hér.; Magnoliopsida; Tracheophyta; Pinus pinaster Aiton; Acacia Mill.; 
2007,2007-11-11,Aveiro,Aveiro,Oliveirinha,Costa Valado (Arrotas da Costa),40.6059884,-8.5954063,NC,52.0,2007-11-11T08:00,9.8,58,1.9,6.2,0.0,0.0,0.0,0.0,1,1024.7,1018.3,30,0,0,99,0.06,0.51,11.9,16.9,90,92,19.1,9.8,15.6,18.1,20.1,0.048,0.086,0.095,0.192,1,26.26,47.3,13.5,33.8,116.4,25.8,162.0,21.0,6.0,15.0,63.5,21.0,71.9,Tracheophyta; Eucalyptus L'Hér.
2007,2007-03-14,Aveiro,Oliveira de Azeméis,Oliveira de Azeméis,L.Vilar (Vilar),40.8431067,-8.468516409995193,NC,223.0,2007-03-14T18:00,17.3,61,9.8,16.3,0.0,0.0,0.0,0.0,2,1023.5,997.1,58,0,49,95,0.09,0.76,6.5,13.0,354,357,16.9,16.2,13.6,11.6,11.6,0.323,0.347,0.382,0.399,1,3600.0,68.4,26.6,41.8,235.7,68.4,156.2,126.0,49.0,77.0,235.7,126.0,287.8,Tracheophyta; Pinus pinaster Aiton; Eucalyptus L'Hér.
2007,2007-11-11,Aveiro,Santa Maria da Feira,Rio Meão,Cardielos,40.9581668,-8.5826133,NC,116.0,2007-11-11T05:00,8.8,61,1.6,5.1,0.0,0.0,0.0,0.0,0,1024.5,1010.2,14,0,0,46,0.04,0.45,12.6,19.7,92,99,24.1,9.7,14.9,17.1,19.3,0.094,0.133,0.172,0.29,0,0.0,0.0,0.0,0.0,0.0,0.0,0.0,0.0,0.0,0.0,0.0,0.0,0.0,Eucalyptus L'Hér.; Tracheophyta; Olea europaea L.; Magnoliopsida
2007,2007-11-17,Aveiro,Castelo de Paiva,Pedorido,Mina da Pedra (PEDORIDO),41.0477196,-8.379940842441858,NC,12.0,2007-11-17T12:00,15.1,26,-4.2,11.7,0.0,0.0,0.0,0.0,1,1021.2,1019.7,21,0,0,71,0.26,1.27,4.8,5.5,117,113,17.3,15.0,12.3,16.4,19.4,0.124,0.153,0.194,0.317,1,3600.0,497.7,382.0,115.6,767.3,497.7,696.7,482.0,370.0,112.0,767.3,482.0,674.7,Tracheophyta; Magnoliopsida; Eucalyptus L'Hér.
2007,2007-05-17,Aveiro,Santa Maria da Feira,Lobão,Candal,40.9861377,-8.4871403,Desconhecida,210.0,2007-05-17T14:00,27.0,42,13.1,29.3,0.0,0.0,0.0,0.0,0,1021.2,997.1,0,0,0,0,0.65,2.06,6.6,8.2,29,38,19.8,26.2,18.3,15.0,12.9,0.247,0.262,0.276,0.353,1,3600.0,895.5,787.0,108.5,899.0,895.5,1171.2,924.0,812.0,112.0,899.0,924.0,1208.5,Eucalyptus L'Hér.; Tracheophyta; Pinus pinaster Aiton
2007,2007-11-11,Aveiro,Vale de Cambra,Cepelos,Merlães,40.843105,-8.344178,NC,440.0,2007-11-11T04:00,6.9,61,-0.2,3.4,0.0,0.0,0.0,0.0,0,1024.8,971.5,15,0,0,51,0.02,0.39,9.3,18.9,77,81,23.0,8.3,12.9,15.2,18.0,0.128,0.189,0.222,0.315,0,0.0,0.0,0.0,0.0,0.0,0.0,0.0,0.0,0.0,0.0,0.0,0.0,0.0,Eucalyptus L'Hér.; Magnoliopsida; Pinus pinaster Aiton; Tracheophyta
2007,2007-11-17,Aveiro,Ílhavo,Ílhavo (são Salvador),Ermida,40.5776089,-8.6709383,NC,15.0,2007-11-17T01:00,8.6,40,-4.1,3.6,0.0,0.0,0.0,0.0,0,1021.2,1019.3,4,0,0,15,0.08,0.67,16.2,25.8,94,97,27.7,9.2,15.1,17.9,20.4,0.044,0.087,0.105,0.199,0,0.0,0.0,0.0,0.0,0.0,0.0,0.0,0.0,0.0,0.0,0.0,0.0,0.0,Magnoliopsida; Pinus pinaster Aiton; Eucalyptus L'Hér.; Tracheophyta
2007,2007-11-15,Aveiro,Estarreja,Veiros,Lugar do Casalinho (Lugar),40.7511477,-8.5754765,NC,5.0,2007-11-15T09:00,11.6,63,4.8,8.5,0.0,0.0,0.0,0.0,0,1018.4,1017.8,0,0,0,0,0.08,0.5,12.3,19.8,75,80,22.0,11.2,14.5,17.6,19.9,0.091,0.143,0.182,0.287,1,3600.0,201.8,140.7,61.1,543.9,201.8,361.6,142.0,99.0,43.0,543.9,142.0,254.5,Tracheophyta; Magnoliopsida
2007,2007-11-11,Aveiro,Santa Maria da Feira,Fiães,Lugar da Barroca (Lugar Novo),40.9945859,-8.5247192,NC,203.0,2007-11-11T11:00,16.9,35,1.2,13.6,0.0,0.0,0.0,0.0,1,1025.4,1001.2,36,0,12,96,0.24,1.26,9.4,13.1,97,98,21.2,15.3,13.6,16.3,18.7,0.115,0.137,0.164,0.289,1,3600.0,382.9,183.8,199.1,380.9,382.9,673.5,352.0,169.0,183.0,380.9,352.0,619.1,Tracheophyta; Eucalyptus L'Hér.; Magnoliopsida; Olea europaea L.
2007,2007-11-17,Aveiro,Vale de Cambra,Macieira de Cambra,Lugar do Oueiteiro (Lugar da Estrada),40.8480592,-8.3880687,NC,278.0,2007-11-17T06:00,4.0,38,-9.1,-1.2,0.0,0.0,0.0,0.0,0,1021.3,987.0,19,0,0,63,0.06,0.51,14.1,24.2,94,95,26.6,6.1,11.6,15.4,18.4,0.11,0.17,0.208,0.308,0,0.0,0.0,0.0,0.0,0.0,0.0,0.0,0.0,0.0,0.0,0.0,0.0,0.0,Tracheophyta; Pinus pinaster Aiton; Eucalyptus L'Hér.
2007,2007-11-15,Aveiro,Santa Maria da Feira,Fiães,Rua Drº Mario de Castro (Rua da Fonte da Ribeira),40.9945859,-8.5247192,NC,203.0,2007-11-15T11:00,14.6,49,4.1,11.9,0.0,0.0,0.0,0.0,0,1018.3,994.1,0,0,0,0,0.23,0.84,9.0,11.8,74,78,25.6,14.3,12.4,15.9,18.5,0.114,0.134,0.163,0.288,1,3600.0,457.2,377.5,79.6,809.5,457.2,652.0,419.0,346.0,73.0,809.5,419.0,597.6,Tracheophyta; Eucalyptus L'Hér.; Magnoliopsida; Olea europaea L.
2007,2007-11-10,Aveiro,Arouca,Alvarenga,Lugar de Palmagem (Lugar da Lage),40.9662166,-8.1727407,NC,338.0,2007-11-10T16:00,17.4,34,1.6,14.2,0.0,0.0,0.0,0.0,0,1024.3,984.5,0,0,0,0,0.18,1.31,9.1,15.3,97,98,31.3,17.7,13.8,14.9,17.8,0.126,0.186,0.223,0.318,1,3600.0,196.0,152.8,43.2,715.8,196.0,297.7,263.0,205.0,58.0,715.8,263.0,399.5,Tracheophyta; Magnoliopsida; Quercus L.; Eucalyptus L'Hér.; Castanea sativa Mill.; Pinus pinaster Aiton
2007,2007-11-10,Aveiro,Santa Maria da Feira,Fiães,Chousa Baixo (Casais de Baixo),40.9945859,-8.5247192,NC,203.0,2007-11-10T05:00,9.9,62,3.1,5.6,0.0,0.0,0.0,0.0,0,1024.9,1000.2,4,0,0,13,0.06,0.46,18.7,34.2,90,92,38.9,10.9,14.6,16.5,18.8,0.116,0.138,0.164,0.289,0,0.0,0.0,0.0,0.0,0.0,0.0,0.0,0.0,0.0,0.0,0.0,0.0,0.0,Tracheophyta; Eucalyptus L'Hér.; Magnoliopsida; Olea europaea L.
2007,2007-05-08,Aveiro,Albergaria-a-Velha,Albergaria-a-Velha,Brandão Gomes (ALBERGARIA-A-VELHA),40.690328,-8.479538190307041,NC,121.0,2007-05-08T14:00,25.7,50,14.5,27.9,0.0,0.0,0.0,0.0,0,1026.3,1012.2,0,0,0,0,0.63,1.64,9.8,11.8,332,337,23.8,26.6,18.6,15.1,13.0,0.179,0.232,0.229,0.304,1,3600.0,893.5,784.1,109.4,910.3,893.5,1157.3,923.0,810.0,113.0,910.3,923.0,1195.5,Tracheophyta; Eucalyptus L'Hér.
2007,2007-11-15,Aveiro,Santa Maria da Feira,São João de Ver,Passo (Passais),40.954172,-8.5534047,NC,161.0,2007-11-15T13:00,17.1,42,4.2,14.6,0.0,0.0,0.0,0.0,0,1016.9,997.8,0,0,0,0,0.29,1.13,7.9,9.9,39,44,22.7,18.9,13.5,16.3,18.8,0.093,0.13,0.171,0.289,1,3600.0,502.3,424.7,77.7,854.2,502.3,695.0,511.0,432.0,79.0,854.2,511.0,707.1,Tracheophyta; Pinus pinaster Aiton; Eucalyptus L'Hér.; Quercus suber L.; Magnoliopsida
2007,2007-11-10,Aveiro,Espinho,Anta,R. da Congosta (ANTA),41.004343000000006,-8.6180921214257,NC,39.0,2007-11-10T11:00,17.0,36,1.9,13.1,0.0,0.0,0.0,0.0,0,1025.6,1020.9,1,0,1,1,0.29,1.24,14.5,18.8,96,95,29.2,16.9,15.4,17.7,19.8,0.095,0.133,0.172,0.291,1,3600.0,484.0,401.3,82.7,825.2,484.0,678.3,445.0,369.0,76.0,825.2,445.0,623.7,Eucalyptus L'Hér.; Magnoliopsida; Tracheophyta; Pinus pinaster Aiton
2007,2007-11-11,Aveiro,Aveiro,Oliveirinha,Granja de Baixo,40.6059884,-8.5954063,NC,52.0,2007-11-11T12:00,20.2,27,0.6,17.5,0.0,0.0,0.0,0.0,1,1024.7,1018.5,43,0,23,96,0.29,1.72,4.0,5.5,117,113,18.7,21.0,15.8,18.1,20.1,0.048,0.086,0.095,0.192,1,3600.0,495.9,351.6,144.3,666.5,495.9,736.2,481.0,341.0,140.0,666.5,481.0,714.0,Tracheophyta; Eucalyptus L'Hér.
2007,2007-11-12,Aveiro,Estarreja,Canelas,Canelas,40.6909514,-8.5405111,NC,52.0,2007-11-12T15:00,21.4,23,-0.5,16.9,0.0,0.0,0.0,0.0,0,1019.6,1013.5,2,0,2,2,0.32,1.96,15.5,19.2,329,332,25.2,23.2,15.8,17.6,19.8,0.07,0.109,0.122,0.223,1,3600.0,330.6,267.4,63.2,760.1,330.6,491.2,382.0,309.0,73.0,760.1,382.0,567.6,Pinus pinaster Aiton; Tracheophyta; Eucalyptus L'Hér.; Magnoliopsida
2007,2007-10-31,Aveiro,Albergaria-a-Velha,Ribeira de Fráguas,Carvalhal (Carvalhais),40.7410269,-8.4455598,NC,68.0,2007-10-31T13:00,19.1,37,4.2,15.0,0.0,0.0,0.0,0.0,0,1022.4,1014.3,0,0,0,0,0.39,1.38,19.7,25.3,59,62,34.6,20.8,15.6,18.2,20.1,0.082,0.125,0.124,0.226,1,3600.0,587.4,503.7,83.6,893.3,587.4,782.6,597.0,512.0,85.0,893.3,597.0,795.5,Eucalyptus L'Hér.; Pinus pinaster Aiton; Magnoliopsida
2007,2007-11-11,Aveiro,Santa Maria da Feira,Vila Maior,Z. I. (VILA MAIOR),41.010273,-8.487896654288974,NC,174.0,2007-11-11T14:00,20.0,27,0.3,17.7,0.0,0.0,0.0,0.0,1,1023.8,1003.3,44,0,24,100,0.24,1.72,1.5,1.8,76,90,13.3,20.7,14.6,16.5,18.9,0.115,0.137,0.163,0.289,1,3600.0,399.0,235.8,163.1,520.5,399.0,632.4,428.0,253.0,175.0,520.5,428.0,678.4,Pinus pinaster Aiton; Eucalyptus L'Hér.; Magnoliopsida
2007,2007-11-11,Aveiro,Sever do Vouga,Couto de Esteves,Couto de Baixo,40.7527183,-8.3069181,NC,237.0,2007-11-11T15:00,20.2,27,0.4,17.6,0.0,0.0,0.0,0.0,1,1023.2,995.4,33,0,6,98,0.2,1.74,3.4,3.7,342,349,14.4,20.3,14.7,16.3,18.9,0.108,0.169,0.197,0.301,1,3600.0,265.7,110.8,154.9,313.3,265.7,493.5,307.0,128.0,179.0,313.3,307.0,570.2,Magnoliopsida; Pinus pinaster Aiton; Eucalyptus L'Hér.; Vitis vinifera L.
2007,2007-11-11,Aveiro,Arouca,Canelas,Lugar do Cimal (Lugar da Lage),40.9662166,-8.1727407,NC,338.0,2007-11-11T17:00,17.0,40,3.1,14.6,0.0,0.0,0.0,0.0,1,1023.3,983.5,37,0,11,100,0.07,1.17,5.1,5.4,356,4,11.2,16.1,13.3,14.8,17.8,0.124,0.185,0.222,0.318,1,599.09,21.7,3.9,17.8,45.3,19.5,58.7,66.0,12.0,54.0,84.2,66.0,178.4,Tracheophyta; Magnoliopsida; Quercus L.; Eucalyptus L'Hér.; Castanea sativa Mill.; Pinus pinaster Aiton
2007,2007-11-11,Aveiro,Vale de Cambra,Macieira de Cambra,Relvas (Relva),40.8480592,-8.3880687,NC,278.0,2007-11-11T21:00,10.5,65,4.2,8.3,0.0,0.0,0.0,0.0,1,1023.1,989.5,27,0,0,91,0.01,0.45,6.1,12.8,40,10,12.2,12.3,14.8,16.1,18.7,0.114,0.175,0.209,0.309,0,0.0,0.0,0.0,0.0,0.0,0.0,0.0,0.0,0.0,0.0,0.0,0.0,0.0,Tracheophyta; Pinus pinaster Aiton; Eucalyptus L'Hér.
2007,2007-11-12,Aveiro,Vale de Cambra,São Pedro de Castelões,Cavião (Cavião de Baixo),40.8390621,-8.402303678879736,NC,216.0,2007-11-12T07:00,6.5,57,-1.3,3.1,0.0,0.0,0.0,0.0,1,1021.0,994.5,32,0,12,84,0.02,0.42,7.2,9.7,84,51,14.8,8.5,13.5,16.4,19.0,0.108,0.169,0.197,0.301,0,0.0,0.0,0.0,0.0,0.0,0.0,0.0,0.0,0.0,0.0,0.0,0.0,0.0,Tracheophyta; Eucalyptus L'Hér.
2007,2007-05-12,Aveiro,Mealhada,Barcouço,BARCOUÇO,40.3064678,-8.469902360856825,NC,129.0,2007-05-12T16:00,20.4,55,11.0,18.0,0.0,0.0,0.0,0.0,2,1014.0,998.9,52,41,5,42,0.38,1.09,20.8,27.9,236,234,42.1,24.6,17.8,15.7,12.9,0.071,0.155,0.174,0.249,1,3600.0,554.0,403.3,150.7,626.8,554.0,862.8,614.0,447.0,167.0,626.8,614.0,956.2,Tracheophyta; Pinus pinaster Aiton; Eucalyptus L'Hér.; Vitis vinifera L.; Olea europaea L.; Magnoliopsida
2007,2007-11-10,Aveiro,Espinho,Anta,Rua da Idanha (Rua da Tabuaça),41.0084406,-8.6215403,NC,37.0,2007-11-10T12:00,18.9,32,1.7,15.4,0.0,0.0,0.0,0.0,0,1025.0,1020.6,4,0,6,1,0.34,1.49,11.6,14.9,95,97,27.0,19.1,15.6,17.7,19.8,0.094,0.133,0.172,0.291,1,3600.0,538.1,455.6,82.5,866.9,538.1,733.1,522.0,442.0,80.0,866.9,522.0,711.2,Eucalyptus L'Hér.; Tracheophyta; Pinus pinaster Aiton; Magnoliopsida
2007,2007-11-15,Aveiro,Aveiro,Cacia,A.25 (Avenida 25 de Abril),40.6846984,-8.59805780483871,NC,13.0,2007-11-15T17:00,17.7,45,5.7,14.8,0.0,0.0,0.0,0.0,0,1015.7,1014.2,0,0,0,0,0.11,1.11,12.7,20.4,345,351,22.3,19.5,15.9,17.8,20.1,0.049,0.083,0.095,0.191,1,2833.43,25.7,16.4,9.4,188.0,22.4,49.4,88.0,56.0,32.0,403.7,88.0,168.7,Tracheophyta; Magnoliopsida
2007,2007-11-10,Aveiro,Aveiro,Esgueira,Junto a Fabrica Telha Campos Taboeira (ESGUEIRA),40.6433731,-8.6405427,NC,17.0,2007-11-10T14:00,21.8,26,1.6,19.2,0.0,0.0,0.0,0.0,0,1023.8,1021.8,0,0,0,0,0.32,1.93,5.2,8.3,74,88,20.5,24.3,16.9,18.3,20.3,0.048,0.086,0.095,0.192,1,3600.0,467.7,394.9,72.8,853.0,467.7,645.8,501.0,423.0,78.0,853.0,501.0,691.7,Tracheophyta; Magnoliopsida
2007,2007-11-12,Aveiro,Santa Maria da Feira,Canedo,Povoas (Póvoas),41.0147569,-8.4671673,NC,186.0,2007-11-12T23:00,10.3,75,6.0,8.4,0.0,0.0,0.0,0.0,1,1020.8,998.2,21,0,0,69,0.0,0.32,6.2,7.9,69,30,11.2,11.0,14.7,16.4,18.8,0.115,0.136,0.163,0.288,0,0.0,0.0,0.0,0.0,0.0,0.0,0.0,0.0,0.0,0.0,0.0,0.0,0.0,Tracheophyta; Magnoliopsida; Eucalyptus L'Hér.; Pinus pinaster Aiton
2007,2007-11-10,Aveiro,Castelo de Paiva,Santa Maria de Sardoura,Lugar da Boavista (Lugar da Igreja),41.0338464,-8.2910799,NC,173.0,2007-11-10T18:00,14.8,42,2.2,12.0,0.0,0.0,0.0,0.0,0,1024.7,1003.9,0,0,0,0,0.07,0.97,7.4,13.7,76,92,17.6,15.5,14.8,15.8,18.5,0.124,0.168,0.207,0.318,0,0.0,0.0,0.0,0.0,0.0,0.0,0.0,3.0,1.0,2.0,17.0,3.0,21.2,Eucalyptus L'Hér.; Vitis vinifera L.; Pinus pinaster Aiton; Tracheophyta; Magnoliopsida
2007,2007-11-13,Aveiro,Arouca,Chave,Coto da Lomba (Alto do Coto),40.9065071,-8.3520825,NC,399.0,2007-11-13T21:00,7.8,72,3.0,5.1,0.0,0.0,0.0,0.0,0,1020.1,972.0,0,0,0,0,0.01,0.3,8.0,9.7,95,75,16.2,10.2,13.4,14.8,17.5,0.116,0.177,0.218,0.315,0,0.0,0.0,0.0,0.0,0.0,0.0,0.0,0.0,0.0,0.0,0.0,0.0,0.0,Eucalyptus L'Hér.; Pinus pinaster Aiton; Tracheophyta
2007,2007-11-13,Aveiro,Santa Maria da Feira,Milheirós de Poiares,Gandara,40.9220638,-8.4699237,NC,231.0,2007-11-13T17:00,17.0,36,1.7,14.1,0.0,0.0,0.0,0.0,0,1019.7,992.4,0,0,0,0,0.09,1.25,7.6,13.3,360,2,15.1,17.8,14.9,16.1,18.6,0.115,0.16,0.198,0.311,1,2881.57,27.8,18.1,9.8,207.1,24.5,52.6,91.0,59.0,32.0,421.7,91.0,171.8,Tracheophyta; Magnoliopsida; Eucalyptus L'Hér.
2007,2007-11-11,Aveiro,Ovar,Ovar,Varios locais (OVAR),40.8456684,-8.64847761987809,NC,0.0,2007-11-11T14:00,21.7,25,0.6,18.9,0.0,0.0,0.0,0.0,1,1023.6,1023.6,38,0,13,100,0.28,1.95,4.8,4.0,297,297,14.0,22.8,16.4,18.1,20.1,0.092,0.145,0.183,0.288,1,3600.0,400.1,240.6,159.5,528.1,400.1,635.8,429.0,258.0,171.0,528.1,429.0,681.7,Magnoliopsida; Eucalyptus L'Hér.
2007,2007-11-11,Aveiro,Santa Maria da Feira,Rio Meão,Mortais,40.9581668,-8.5826133,NC,116.0,2007-11-11T19:00,14.5,55,5.6,12.6,0.0,0.0,0.0,0.0,1,1023.2,1009.2,30,0,2,95,0.02,0.75,5.7,8.1,18,13,9.0,15.6,15.8,17.1,19.3,0.094,0.132,0.171,0.29,0,0.0,0.0,0.0,0.0,0.0,0.0,0.0,0.0,0.0,0.0,0.0,0.0,0.0,Eucalyptus L'Hér.; Tracheophyta; Olea europaea L.; Magnoliopsida
2007,2007-11-12,Aveiro,Ovar,Maceda,Rua da Devesa (MACEDA),40.9269211,-8.6166867,NC,31.0,2007-11-12T11:00,18.3,25,-2.2,15.3,0.0,0.0,0.0,0.0,1,1022.1,1018.4,24,1,7,63,0.24,1.59,4.0,4.8,5,13,13.3,17.7,15.0,17.9,19.9,0.104,0.12,0.143,0.271,1,3600.0,443.3,343.1,100.2,716.2,443.3,668.7,407.0,315.0,92.0,716.2,407.0,614.0,Tracheophyta; Magnoliopsida; Eucalyptus L'Hér.
2007,2007-11-10,Aveiro,Santa Maria da Feira,Pigeiros,Malaposta,40.9494491,-8.513274,NC,306.0,2007-11-10T16:00,18.9,31,1.6,16.0,0.0,0.0,0.0,0.0,0,1024.0,988.1,0,0,0,0,0.18,1.5,7.2,12.7,93,97,22.3,19.2,14.9,16.0,18.5,0.115,0.177,0.209,0.309,1,3600.0,195.7,152.4,43.3,709.4,195.7,299.6,262.0,204.0,58.0,709.4,262.0,401.2,Eucalyptus L'Hér.; Tracheophyta; Pinales
2007,2007-11-17,Aveiro,Arouca,Burgo,Devesa de Pizão (Devesa),40.932273,-8.2577676,NC,314.0,2007-11-17T14:00,15.2,23,-6.0,12.0,0.0,0.0,0.0,0.0,0,1020.7,983.6,6,0,0,19,0.25,1.34,2.1,2.9,121,120,16.9,15.6,10.4,14.1,17.6,0.119,0.179,0.222,0.317,1,3600.0,451.0,377.5,73.5,874.2,451.0,604.2,485.0,406.0,79.0,874.2,485.0,649.8,Magnoliopsida; Eucalyptus L'Hér.; Tracheophyta; Pinus pinaster Aiton; Pinus pinea L.; Vitis vinifera L.
2007,2007-11-17,Aveiro,Santa Maria da Feira,Nogueira da Regedoura,Rua do Mercado (Rua do Marco da Poça),41.0157616,-8.5571606,NC,227.0,2007-11-17T14:00,16.2,19,-7.2,13.0,0.0,0.0,0.0,0.0,0,1020.6,993.7,11,0,0,37,0.23,1.49,1.1,1.1,270,252,11.9,17.6,12.4,15.6,18.4,0.114,0.158,0.198,0.31,1,3600.0,433.5,342.3,91.2,793.2,433.5,603.9,466.0,368.0,98.0,793.2,466.0,649.2,Eucalyptus L'Hér.; Magnoliopsida; Tracheophyta; Quercus L.
2007,2007-11-02,Aveiro,Santa Maria da Feira,Lourosa,Rua do Parque Ornitologico (Rua do Professor Antonio F. Silva),40.983541,-8.5499188,NC,164.0,2007-11-02T12:00,19.5,35,3.6,15.9,0.0,0.0,0.0,0.0,0,1024.7,1005.3,0,0,0,0,0.37,1.47,14.1,18.8,71,73,29.5,19.0,14.0,17.1,19.4,0.124,0.147,0.165,0.291,1,3600.0,576.1,492.8,83.3,876.8,576.1,780.9,560.0,479.0,81.0,876.8,560.0,759.0,Tracheophyta; Magnoliopsida; Pinus pinaster Aiton; Eucalyptus L'Hér.
2007,2007-05-08,Aveiro,Sever do Vouga,Sever do Vouga,Padrões (SEVER DO VOUGA),40.73271785,-8.377764570212443,NC,345.0,2007-05-08T23:00,14.9,87,12.8,14.7,0.0,0.0,0.0,0.0,0,1026.0,985.0,12,0,20,0,0.0,0.22,7.7,10.9,62,44,18.0,16.1,18.0,14.3,12.0,0.288,0.326,0.342,0.386,0,0.0,0.0,0.0,0.0,0.0,0.0,0.0,0.0,0.0,0.0,0.0,0.0,0.0,Tracheophyta; Magnoliopsida; Quercus L.; Eucalyptus L'Hér.
2007,2007-11-12,Aveiro,Oliveira de Azeméis,Santiago De Riba-ul,Gisteira (SANTIAGO DE RIBA UL),40.85168295,-8.494810948710231,NC,116.0,2007-11-12T02:00,8.7,60,1.4,5.9,0.0,0.0,0.0,0.0,0,1021.7,1007.5,19,0,10,44,0.02,0.45,6.5,9.3,84,54,10.8,10.5,15.1,17.1,19.4,0.116,0.162,0.199,0.311,0,0.0,0.0,0.0,0.0,0.0,0.0,0.0,0.0,0.0,0.0,0.0,0.0,0.0,Tracheophyta; Eucalyptus L'Hér.; Magnoliopsida; Pinus pinaster Aiton
2007,2007-11-15,Aveiro,Anadia,Ancas,Junto ao Pavilhao (ANCAS),40.46917615,-8.499950878459057,NC,45.0,2007-11-15T17:00,17.6,44,5.0,15.2,0.0,0.0,0.0,0.0,0,1015.4,1010.0,0,0,0,0,0.08,1.14,8.0,14.4,5,4,16.2,18.5,15.3,17.1,19.6,0.082,0.12,0.138,0.24,1,2861.37,26.3,16.7,9.6,192.1,23.0,51.1,88.0,56.0,32.0,401.0,88.0,170.9,Magnoliopsida; Vitis vinifera L.; Eucalyptus L'Hér.; Pinales
2007,2007-11-12,Aveiro,Ovar,Arada,Olho Marinho,40.9152673,-8.5995458,NC,73.0,2007-11-12T09:00,11.5,48,0.7,8.5,0.0,0.0,0.0,0.0,1,1022.2,1013.3,24,0,3,74,0.08,0.71,6.7,10.7,36,14,15.5,11.3,14.5,17.6,19.6,0.105,0.12,0.143,0.271,1,3600.0,192.0,109.3,82.7,408.4,192.0,373.7,137.0,78.0,59.0,408.4,137.0,266.6,Tracheophyta; Eucalyptus L'Hér.; Pinus pinaster Aiton; Magnoliopsida
2007,2007-11-18,Aveiro,Santa Maria da Feira,Nogueira da Regedoura,R. do Mercado (NOGUEIRA DA REGEDOURA),41.0157616,-8.5571606,NC,227.0,2007-11-18T01:00,2.7,58,-4.8,-1.0,0.0,0.0,0.0,0.0,1,1019.6,991.4,34,38,0,0,0.01,0.31,5.9,6.0,104,115,14.4,6.0,12.0,15.5,18.4,0.113,0.158,0.198,0.31,0,0.0,0.0,0.0,0.0,0.0,0.0,0.0,0.0,0.0,0.0,0.0,0.0,0.0,Eucalyptus L'Hér.; Magnoliopsida; Tracheophyta; Quercus L.
2007,2007-11-16,Aveiro,Albergaria-a-Velha,Albergaria-a-Velha,Albergaria (Albergaria a Nova),40.743211,-8.4902351,NC,155.0,2007-11-16T06:00,8.4,61,1.2,3.6,0.0,0.0,0.0,0.0,1,1018.6,999.7,21,0,0,71,0.06,0.44,19.9,35.3,95,94,39.6,8.9,13.4,16.4,19.0,0.069,0.107,0.122,0.223,0,0.0,0.0,0.0,0.0,0.0,0.0,0.0,0.0,0.0,0.0,0.0,0.0,0.0,Eucalyptus L'Hér.; Tracheophyta
2007,2007-11-18,Aveiro,Aveiro,Esgueira,Taboeira,40.6523699,-8.5901667,NC,24.0,2007-11-18T11:00,13.3,32,-3.0,10.3,0.0,0.0,0.0,0.0,0,1017.7,1014.8,0,0,0,0,0.2,1.04,2.9,3.4,210,212,14.4,14.6,12.3,17.2,19.9,0.049,0.082,0.095,0.19,1,3600.0,436.3,335.7,100.6,730.0,436.3,643.6,399.0,307.0,92.0,730.0,399.0,588.7,Magnoliopsida; Tracheophyta; Pinus pinaster Aiton; Eucalyptus L'Hér.
2007,2007-10-23,Aveiro,Albergaria-a-Velha,Frossos,Vale da Fria (Azenha do Vale Cerejo),40.6593513,-8.5359631,NC,30.0,2007-10-23T23:00,14.7,96,14.1,15.3,0.0,0.0,0.0,0.0,1,1014.2,1010.6,25,0,41,0,0.0,0.06,4.8,4.8,243,257,9.4,15.4,18.4,19.5,20.6,0.083,0.136,0.125,0.228,0,0.0,0.0,0.0,0.0,0.0,0.0,0.0,0.0,0.0,0.0,0.0,0.0,0.0,Eucalyptus L'Hér.; Magnoliopsida; Tracheophyta; Pinus pinaster Aiton; Acacia Mill.; 
2007,2007-11-10,Aveiro,Arouca,Alvarenga,Pirraça,40.9662166,-8.1727407,NC,338.0,2007-11-10T20:00,10.7,55,2.0,7.8,0.0,0.0,0.0,0.0,0,1025.0,984.3,0,0,0,0,0.03,0.58,7.3,17.4,99,96,21.6,12.0,13.9,14.9,17.8,0.126,0.186,0.223,0.318,0,0.0,0.0,0.0,0.0,0.0,0.0,0.0,0.0,0.0,0.0,0.0,0.0,0.0,Tracheophyta; Magnoliopsida; Quercus L.; Eucalyptus L'Hér.; Castanea sativa Mill.; Pinus pinaster Aiton
2007,2007-12-05,Aveiro,Arouca,Rossas,Ribeiro branco (Ponte de Ribeiro Grande),40.6755406,-8.5607755,NC,2.0,2007-12-05T12:00,14.3,78,10.5,12.0,0.0,0.0,0.0,0.0,3,1029.2,1029.0,100,100,43,61,0.11,0.36,16.6,20.9,158,159,29.2,13.4,11.4,13.6,18.6,0.186,0.191,0.124,0.189,1,3063.96,190.5,72.9,117.6,162.1,190.5,633.1,183.0,70.0,113.0,162.1,183.0,608.1,Magnoliopsida; Eucalyptus L'Hér.; Tracheophyta
2007,2007-12-15,Aveiro,Albergaria-a-Velha,Albergaria-a-Velha,Lugar de Açores (ALBERGARIA-A-VELHA),40.690328,-8.479538190307041,NC,121.0,2007-12-15T13:00,11.9,41,-1.0,8.8,0.0,0.0,0.0,0.0,0,1021.2,1006.5,0,0,0,0,0.22,0.82,5.4,6.8,352,357,14.0,11.3,7.1,11.7,16.9,0.205,0.218,0.155,0.22,1,3600.0,457.2,385.0,72.2,888.8,457.2,611.5,462.0,389.0,73.0,888.8,462.0,617.9,Tracheophyta; Eucalyptus L'Hér.
2007,2007-11-17,Aveiro,Águeda,Valongo do Vouga,Penedo -Arrancada (VALONGO),40.627799,-8.444303170590363,NC,17.0,2007-11-17T02:00,7.2,40,-5.6,1.9,0.0,0.0,0.0,0.0,0,1021.0,1018.9,1,0,0,4,0.08,0.61,16.3,24.9,95,100,25.9,8.5,14.1,17.2,19.7,0.063,0.098,0.108,0.209,0,0.0,0.0,0.0,0.0,0.0,0.0,0.0,0.0,0.0,0.0,0.0,0.0,0.0,Tracheophyta; Eucalyptus L'Hér.; Magnoliopsida; Pinus pinaster Aiton
2007,2007-11-17,Aveiro,Águeda,Valongo do Vouga,Pedrozelo (VALONGO),40.627799,-8.444303170590363,NC,17.0,2007-11-17T06:00,5.6,43,-6.0,0.5,0.0,0.0,0.0,0.0,1,1021.1,1019.0,22,0,0,74,0.07,0.52,15.6,23.0,97,100,24.1,7.0,13.5,17.1,19.7,0.063,0.098,0.108,0.209,0,0.0,0.0,0.0,0.0,0.0,0.0,0.0,0.0,0.0,0.0,0.0,0.0,0.0,Tracheophyta; Eucalyptus L'Hér.; Magnoliopsida; Pinus pinaster Aiton
2007,2007-11-13,Aveiro,Sever do Vouga,Silva Escura,Espinheiro (Espinheirinha),40.7581987,-8.3907248,NC,288.0,2007-11-13T03:00,7.2,71,2.3,4.8,0.0,0.0,0.0,0.0,0,1020.0,984.9,9,0,0,29,0.0,0.3,4.4,6.4,81,47,10.8,9.2,13.8,15.9,18.6,0.113,0.174,0.209,0.309,0,0.0,0.0,0.0,0.0,0.0,0.0,0.0,0.0,0.0,0.0,0.0,0.0,0.0,Magnoliopsida; Eucalyptus L'Hér.; Vitis vinifera L.
2007,2007-11-12,Aveiro,Espinho,Paramos,Monte,40.9759416,-8.6385737,NC,4.0,2007-11-12T12:00,19.6,27,-0.1,16.5,0.0,0.0,0.0,0.0,0,1021.4,1020.9,17,1,11,32,0.3,1.67,6.3,6.6,329,338,16.9,19.9,15.0,17.7,20.0,0.095,0.132,0.172,0.29,1,3600.0,503.3,408.4,94.9,788.0,503.3,723.6,488.0,396.0,92.0,788.0,488.0,701.6,Tracheophyta; Magnoliopsida
2007,2007-02-01,Aveiro,Sever do Vouga,Silva Escura,Presas,40.7581987,-8.3907248,NC,288.0,2007-02-01T12:00,11.7,54,2.8,8.8,0.0,0.0,0.0,0.0,0,1027.8,993.0,0,0,0,0,0.24,0.63,9.0,12.2,88,88,20.5,10.0,6.5,8.7,12.6,0.344,0.349,0.355,0.397,1,3600.0,523.7,438.2,85.5,848.1,523.7,728.0,496.0,415.0,81.0,848.1,496.0,689.5,Magnoliopsida; Eucalyptus L'Hér.; Vitis vinifera L.
2007,2007-05-08,Aveiro,Santa Maria da Feira,Canedo,Campelo (Campinha),41.017568,-8.4518566,NC,188.0,2007-05-08T18:00,21.0,66,14.3,20.5,0.0,0.0,0.0,0.0,0,1026.4,1004.3,0,0,0,0,0.21,0.86,13.2,19.7,338,342,30.2,22.2,18.7,14.7,12.6,0.258,0.286,0.288,0.357,1,3600.0,249.5,194.9,54.6,675.3,249.5,387.7,329.0,257.0,72.0,675.3,329.0,511.2,Pinus pinaster Aiton; Tracheophyta; Eucalyptus L'Hér.; Magnoliopsida
2007,2007-11-12,Aveiro,Santa Maria da Feira,Vila Maior,Rua da Ceara (Rua da Fonte da Ribeira),41.0076751,-8.4874977,NC,185.0,2007-11-12T14:00,20.1,23,-1.4,16.6,0.0,0.0,0.0,0.0,0,1020.0,998.3,12,3,9,14,0.31,1.81,8.3,10.0,342,347,15.1,21.0,14.2,16.4,18.8,0.115,0.136,0.163,0.289,1,3600.0,425.8,347.6,78.3,773.6,425.8,627.3,457.0,373.0,84.0,773.6,457.0,673.2,Pinus pinaster Aiton; Eucalyptus L'Hér.; Magnoliopsida
2007,2007-11-12,Aveiro,Sever do Vouga,Silva Escura,Angios (SILVA ESCURA),40.7578177,-8.391287453981723,NC,298.0,2007-11-12T10:00,15.1,36,0.3,12.3,0.0,0.0,0.0,0.0,1,1022.0,986.7,30,0,7,85,0.16,1.09,4.7,7.6,81,71,15.1,13.0,12.9,16.0,18.6,0.114,0.175,0.209,0.309,1,3600.0,321.5,219.0,102.5,551.2,321.5,554.8,273.0,186.0,87.0,551.2,273.0,471.1,Magnoliopsida; Pinus pinaster Aiton; Eucalyptus L'Hér.; Vitis vinifera L.
2007,2007-11-13,Aveiro,Santa Maria da Feira,Feira,Rua da Barroca (Rua da Fonte da Ribeira),41.0307599,-8.527268,NC,132.0,2007-11-13T14:00,19.3,30,1.1,17.0,0.0,0.0,0.0,0.0,0,1019.8,1004.2,0,0,0,0,0.27,1.57,1.8,2.5,79,82,14.8,21.0,14.4,16.6,19.1,0.114,0.135,0.163,0.288,1,3600.0,450.8,376.3,74.5,844.7,450.8,622.3,484.0,404.0,80.0,844.7,484.0,668.1,Tracheophyta; Eucalyptus L'Hér.
2007,2007-11-28,Aveiro,Vagos,Santo André de Vagos,Moínhos (Moinho do Manhoso),40.51228875,-8.673943479981956,NC,13.0,2007-11-28T13:00,13.9,57,5.6,11.9,0.0,0.0,0.0,0.0,0,1019.1,1017.5,0,0,0,0,0.23,0.68,5.8,6.9,22,28,16.6,14.7,11.1,14.4,19.2,0.193,0.209,0.116,0.188,1,3600.0,464.9,390.0,74.9,842.7,464.9,650.5,472.0,396.0,76.0,842.7,472.0,660.4,Magnoliopsida; Tracheophyta; Olea europaea L.; Pinus pinaster Aiton
2007,2007-11-11,Aveiro,Vale de Cambra,São Pedro de Castelões,Cavião (Cavião de Baixo),40.8390621,-8.402303678879736,NC,216.0,2007-11-11T03:00,8.9,56,0.7,5.2,0.0,0.0,0.0,0.0,0,1024.7,998.3,18,0,0,61,0.04,0.5,11.9,20.7,93,98,23.0,10.2,14.6,16.5,19.1,0.109,0.17,0.197,0.301,0,0.0,0.0,0.0,0.0,0.0,0.0,0.0,0.0,0.0,0.0,0.0,0.0,0.0,Tracheophyta; Eucalyptus L'Hér.
2007,2007-03-15,Aveiro,São João da Madeira,São João da Madeira,Rua da Fundiçao (SÃO JOÃO DA MADEIRA),40.897404,-8.490683816868543,NC,222.0,2007-03-15T12:00,18.7,49,7.9,19.2,0.0,0.0,0.0,0.0,0,1024.1,997.9,4,3,3,0,0.42,1.1,1.1,1.9,108,112,15.1,17.5,12.3,11.8,11.6,0.346,0.362,0.394,0.416,1,3600.0,746.8,649.2,97.6,904.6,746.8,993.3,719.0,625.0,94.0,904.6,719.0,956.3,Tracheophyta
2007,2007-11-12,Aveiro,Castelo de Paiva,Santa Maria de Sardoura,Areal,41.0338464,-8.2910799,NC,173.0,2007-11-12T11:00,16.6,36,1.5,14.4,0.0,0.0,0.0,0.0,1,1022.1,1001.5,22,0,10,54,0.21,1.21,2.7,3.8,67,73,11.2,14.9,12.4,15.6,18.4,0.124,0.167,0.207,0.317,1,3600.0,410.2,302.5,107.7,631.5,410.2,668.8,377.0,278.0,99.0,631.5,377.0,614.6,Eucalyptus L'Hér.; Vitis vinifera L.; Pinus pinaster Aiton; Tracheophyta; Magnoliopsida
2007,2007-11-17,Aveiro,Aveiro,Esgueira,Taboeira,40.6523699,-8.5901667,NC,24.0,2007-11-17T13:00,17.2,17,-7.9,13.9,0.0,0.0,0.0,0.0,1,1020.9,1018.0,20,0,0,68,0.26,1.63,1.9,1.8,248,233,12.6,20.1,13.9,17.5,19.9,0.049,0.082,0.095,0.191,1,3600.0,484.6,359.8,124.8,728.2,484.6,691.3,493.0,366.0,127.0,728.2,493.0,703.3,Magnoliopsida; Tracheophyta; Pinus pinaster Aiton; Eucalyptus L'Hér.
2007,2007-12-01,Aveiro,Arouca,Chave,Ribeira,40.9065071,-8.3520825,NC,399.0,2007-12-01T17:00,10.5,93,9.4,9.9,0.0,0.0,0.0,0.0,3,1022.9,975.1,94,100,6,0,0.02,0.09,3.1,3.5,291,294,9.0,9.9,9.0,11.1,16.2,0.321,0.306,0.238,0.312,1,414.49,1.3,0.6,0.7,6.6,0.9,7.1,22.0,10.0,12.0,83.1,22.0,123.3,Eucalyptus L'Hér.; Pinus pinaster Aiton; Tracheophyta
2007,2007-11-14,Aveiro,Santa Maria da Feira,Milheirós de Poiares,Gandara,40.9220638,-8.4699237,NC,231.0,2007-11-14T14:00,18.5,35,2.7,15.3,0.0,0.0,0.0,0.0,0,1017.7,990.6,0,0,0,0,0.3,1.39,10.2,12.9,18,23,20.2,19.5,13.6,16.0,18.5,0.115,0.16,0.198,0.31,1,3600.0,441.4,371.5,69.8,839.1,441.4,618.8,474.0,399.0,75.0,839.1,474.0,664.5,Tracheophyta; Magnoliopsida; Eucalyptus L'Hér.
2007,2007-05-09,Aveiro,Castelo de Paiva,Bairros,Lugar de Carreiros (Lugar da Igreja),41.027231400000005,-8.251373094059069,NC,252.0,2007-05-09T16:00,25.9,47,13.8,26.1,0.0,0.0,0.0,0.0,0,1022.5,993.6,1,0,2,0,0.47,1.77,11.4,14.8,259,256,29.9,24.7,18.9,14.7,12.3,0.28,0.324,0.35,0.388,1,3600.0,590.4,479.5,110.9,756.4,590.4,851.2,655.0,532.0,123.0,756.4,655.0,944.4,Eucalyptus L'Hér.; Pinus pinaster Aiton; Vitis vinifera L.; Magnoliopsida
2007,2007-11-15,Aveiro,Santa Maria da Feira,Rio Meão,Cardielo (Cardielos),40.9581668,-8.5826133,NC,116.0,2007-11-15T17:00,16.3,49,5.6,14.4,0.0,0.0,0.0,0.0,0,1015.9,1002.1,0,0,0,0,0.06,0.94,5.4,11.3,360,7,11.5,17.8,14.7,16.6,19.1,0.093,0.13,0.171,0.289,1,2795.84,23.6,15.0,8.5,172.6,20.3,47.1,83.0,53.0,30.0,385.5,83.0,165.9,Eucalyptus L'Hér.; Tracheophyta; Olea europaea L.; Magnoliopsida
2007,2007-10-25,Aveiro,Santa Maria da Feira,Santa Maria de Lamas,Junto ao Intermachê (LAMAS),40.97821435,-8.570031208138195,NC,120.0,2007-10-25T15:00,19.5,41,5.9,17.2,0.0,0.0,0.0,0.0,0,1013.9,999.8,16,0,1,51,0.27,1.34,9.0,11.2,16,21,20.2,22.2,17.1,18.6,19.9,0.116,0.148,0.174,0.294,1,3600.0,369.4,251.9,117.5,592.9,369.4,587.8,418.0,285.0,133.0,592.9,418.0,665.1,Tracheophyta; Eucalyptus L'Hér.; Magnoliopsida; Pinus pinaster Aiton
2007,2007-02-02,Aveiro,Águeda,Barrô,BARRÔ,40.5364413,-8.459288410729727,NC,49.0,2007-02-02T13:00,13.3,57,4.9,10.8,0.0,0.0,0.0,0.0,1,1024.1,1018.1,20,0,0,67,0.26,0.66,8.8,11.4,102,103,23.4,12.1,7.8,9.4,13.0,0.266,0.27,0.253,0.327,1,3600.0,540.2,434.6,105.6,807.0,540.2,758.5,537.0,432.0,105.0,807.0,537.0,754.0,Magnoliopsida; Tracheophyta; Pinus pinaster Aiton; Eucalyptus L'Hér.
2007,2007-10-26,Aveiro,Albergaria-a-Velha,Albergaria-a-Velha,Assilho (Assilhó),40.690328,-8.479538190307041,NC,121.0,2007-10-26T23:00,12.4,60,4.8,9.6,0.0,0.0,0.0,0.0,0,1021.0,1006.3,0,0,0,0,0.04,0.58,10.1,24.1,63,68,18.7,12.8,16.6,18.4,19.9,0.094,0.132,0.124,0.227,0,0.0,0.0,0.0,0.0,0.0,0.0,0.0,0.0,0.0,0.0,0.0,0.0,0.0,Tracheophyta; Eucalyptus L'Hér.
2007,2007-10-27,Aveiro,Santa Maria da Feira,Gião,Canedinho,40.9997905,-8.4656091,NC,180.0,2007-10-27T02:00,9.5,71,4.6,6.9,0.0,0.0,0.0,0.0,0,1021.9,1000.0,0,0,0,0,0.02,0.34,9.2,20.9,48,63,27.0,10.7,15.6,17.9,19.5,0.138,0.156,0.165,0.293,0,0.0,0.0,0.0,0.0,0.0,0.0,0.0,0.0,0.0,0.0,0.0,0.0,0.0,Eucalyptus L'Hér.; Tracheophyta; Pinus pinaster Aiton; Magnoliopsida
2007,2007-11-14,Aveiro,Aveiro,Oliveirinha,Granja de Baixo,40.6059884,-8.5954063,NC,52.0,2007-11-14T01:00,7.8,83,5.1,5.5,0.0,0.0,0.0,0.0,0,1019.4,1013.0,0,0,0,0,0.0,0.18,7.6,11.3,87,63,12.6,8.5,15.7,17.9,20.0,0.047,0.084,0.095,0.192,0,0.0,0.0,0.0,0.0,0.0,0.0,0.0,0.0,0.0,0.0,0.0,0.0,0.0,Tracheophyta; Eucalyptus L'Hér.
2007,2007-11-14,Aveiro,Sever do Vouga,Silva Escura,Angios (SILVA ESCURA),40.7578177,-8.391287453981723,NC,298.0,2007-11-14T00:00,6.3,78,2.7,3.7,0.0,0.0,0.0,0.0,0,1019.3,983.0,0,0,0,0,0.0,0.21,6.2,10.9,83,63,14.4,9.0,13.9,15.8,18.5,0.112,0.173,0.209,0.309,0,0.0,0.0,0.0,0.0,0.0,0.0,0.0,0.0,0.0,0.0,0.0,0.0,0.0,Magnoliopsida; Pinus pinaster Aiton; Eucalyptus L'Hér.; Vitis vinifera L.
2007,2007-11-18,Aveiro,Arouca,Urrô,Povoa (Povos),40.916294,-8.2904033,NC,275.0,2007-11-18T11:00,11.9,33,-4.0,8.6,0.0,0.0,0.0,0.0,0,1017.5,984.6,0,0,0,0,0.2,0.94,4.3,5.6,222,220,14.4,11.5,9.5,14.3,17.7,0.114,0.167,0.21,0.313,1,3600.0,452.7,365.2,87.5,800.8,452.7,638.4,414.0,334.0,80.0,800.8,414.0,583.8,Eucalyptus L'Hér.; Magnoliopsida; Vitis vinifera L.; Pinus pinaster Aiton
2007,2007-11-14,Aveiro,Santa Maria da Feira,Milheirós de Poiares,Gandara,40.9220638,-8.4699237,NC,231.0,2007-11-14T11:00,15.6,40,2.2,12.8,0.0,0.0,0.0,0.0,0,1019.2,991.8,0,0,0,0,0.24,1.06,7.1,9.7,60,63,19.1,14.9,12.8,16.0,18.5,0.115,0.16,0.198,0.311,1,3600.0,462.2,383.7,78.5,814.0,462.2,658.7,424.0,352.0,72.0,814.0,424.0,604.3,Tracheophyta; Magnoliopsida; Eucalyptus L'Hér.
2007,2007-11-12,Aveiro,Arouca,Alvarenga,Pade,40.9662166,-8.1727407,NC,338.0,2007-11-12T12:00,18.1,28,-0.8,15.6,0.0,0.0,0.0,0.0,1,1021.2,981.7,21,2,10,45,0.27,1.5,2.2,2.5,81,82,14.0,16.7,11.9,14.7,17.7,0.125,0.184,0.222,0.318,1,3600.0,503.9,409.1,94.8,788.9,503.9,723.9,489.0,397.0,92.0,788.9,489.0,702.6,Tracheophyta; Magnoliopsida; Quercus L.; Eucalyptus L'Hér.; Castanea sativa Mill.; Pinus pinaster Aiton
2007,2007-11-12,Aveiro,Sever do Vouga,Silva Escura,Felgares,40.7581987,-8.3907248,NC,288.0,2007-11-12T00:00,8.4,65,2.2,5.8,0.0,0.0,0.0,0.0,1,1022.8,987.8,22,0,5,64,0.01,0.38,5.2,9.2,74,42,11.9,10.2,14.3,16.1,18.6,0.114,0.175,0.209,0.309,0,0.0,0.0,0.0,0.0,0.0,0.0,0.0,0.0,0.0,0.0,0.0,0.0,0.0,Magnoliopsida; Eucalyptus L'Hér.; Vitis vinifera L.
2007,2007-11-14,Aveiro,Águeda,Águeda,Catraia de Assequins,40.5782418,-8.4151922,NC,87.0,2007-11-14T11:00,16.2,42,3.4,13.7,0.0,0.0,0.0,0.0,0,1018.8,1008.4,0,0,0,0,0.24,1.06,6.6,8.5,49,54,17.3,15.3,13.4,16.9,19.6,0.107,0.165,0.191,0.297,1,3600.0,471.7,392.1,79.5,822.7,471.7,666.1,433.0,360.0,73.0,822.7,433.0,611.5,Tracheophyta; Magnoliopsida; Eucalyptus L'Hér.; Pinus pinaster Aiton
