year,date,district,municipality,parish,local,latitude,longitude,cause,elevation,hourly.time,hourly.temperature_2m,hourly.relative_humidity_2m,hourly.dew_point_2m,hourly.apparent_temperature,hourly.precipitation,hourly.rain,hourly.snowfall,hourly.snow_depth,hourly.weather_code,hourly.pressure_msl,hourly.surface_pressure,hourly.cloud_cover,hourly.cloud_cover_low,hourly.cloud_cover_mid,hourly.cloud_cover_high,hourly.et0_fao_evapotranspiration,hourly.vapour_pressure_deficit,hourly.wind_speed_10m,hourly.wind_speed_100m,hourly.wind_direction_10m,hourly.wind_direction_100m,hourly.wind_gusts_10m,hourly.soil_temperature_0_to_7cm,hourly.soil_temperature_7_to_28cm,hourly.soil_temperature_28_to_100cm,hourly.soil_temperature_100_to_255cm,hourly.soil_moisture_0_to_7cm,hourly.soil_moisture_7_to_28cm,hourly.soil_moisture_28_to_100cm,hourly.soil_moisture_100_to_255cm,hourly.is_day,hourly.sunshine_duration,hourly.shortwave_radiation_instant,hourly.direct_radiation_instant,hourly.diffuse_radiation_instant,hourly.direct_normal_irradiance_instant,hourly.global_tilted_irradiance_instant,hourly.terrestrial_radiation_instant,hourly.shortwave_radiation,hourly.direct_radiation,hourly.diffuse_radiation,hourly.direct_normal_irradiance,hourly.global_tilted_irradiance,hourly.terrestrial_radiation,scientificNames
2009,2009-09-25,Braga,Guimarães,Sande (são Clemente),OUTINHO (S. CLEMENTE) (OUTINHO),41.4834778,-8.36945167731423,NC,172.0,2009-09-25T23:00,18.2,66,11.8,17.7,0.0,0.0,0.0,0.0,0,1016.9,996.6,0,0,0,0,0.02,0.71,7.7,14.8,62,61,14.8,19.7,22.7,20.5,19.4,0.105,0.146,0.217,0.318,0,0.0,0.0,0.0,0.0,0.0,0.0,0.0,0.0,0.0,0.0,0.0,0.0,0.0,Vitis vinifera L.; Tracheophyta; Eucalyptus L'Hér.
2009,2009-09-26,Braga,Braga,Braga (são Vítor),BAIRRO DA ALEGRIA (S. VITOR) (Bairro),41.5543932,-8.406436719135339,Desconhecida,181.0,2009-09-26T22:00,19.2,66,12.7,18.9,0.0,0.0,0.0,0.0,0,1017.3,996.1,0,0,0,0,0.03,0.76,8.2,10.7,41,20,13.0,20.1,22.6,20.4,19.2,0.103,0.148,0.224,0.322,0,0.0,0.0,0.0,0.0,0.0,0.0,0.0,0.0,0.0,0.0,0.0,0.0,0.0,Tracheophyta
2009,2009-09-27,Braga,Vila Verde,Esqueiros,MONTE SANTA(ESQUEIROS) (Casal do Monte),41.6619775,-8.444120725517863,Desconhecida,158.0,2009-09-27T14:00,29.1,31,10.4,28.9,0.0,0.0,0.0,0.0,0,1017.5,999.5,4,0,7,0,0.53,2.78,8.4,9.8,290,294,20.2,31.4,22.0,20.5,19.4,0.102,0.15,0.229,0.327,1,3600.0,669.2,571.8,97.4,863.8,669.2,901.7,701.0,599.0,102.0,863.8,701.0,944.6,Tracheophyta; Eucalyptus L'Hér.; Magnoliopsida; Pinus pinaster Aiton
2009,2009-09-30,Braga,Cabeceiras de Basto,Cabeceiras de Basto,LAPELA (CABECEIRAS DE BASTO) (Lapela),41.5654887,-8.010196481857573,NC,706.0,2009-09-30T22:00,16.2,78,12.4,16.4,0.0,0.0,0.0,0.0,0,1017.6,936.8,16,1,25,0,0.0,0.4,3.5,4.5,294,284,10.1,16.0,19.0,18.6,17.6,0.13,0.147,0.217,0.318,0,0.0,0.0,0.0,0.0,0.0,0.0,0.0,0.0,0.0,0.0,0.0,0.0,0.0,Pinus pinaster Aiton; Magnoliopsida; Eucalyptus L'Hér.
2009,2009-09-26,Braga,Celorico de Basto,Moreira do Castelo,SRA. DO CALVELO (MOREIRA CASTELO) (SENHORA DO CALVELO),41.34924095,-8.063864104521198,NC,386.0,2009-09-26T22:00,21.3,45,8.9,20.7,0.0,0.0,0.0,0.0,0,1018.0,973.6,0,0,0,0,0.01,1.4,2.6,3.4,74,18,7.9,19.0,21.6,19.8,18.8,0.098,0.141,0.203,0.312,0,0.0,0.0,0.0,0.0,0.0,0.0,0.0,0.0,0.0,0.0,0.0,0.0,0.0,Olea europaea L.; Pinales; Pinus pinaster Aiton; Vitis vinifera L.; Magnoliopsida; Tracheophyta; Eucalyptus L'Hér.
2009,2009-09-26,Braga,Barcelos,Tamel (São Veríssimo),R. DA CACHADA (TAMEL Sº VERISSIMO) (São Veríssimo),41.5534447,-8.585131202469817,Desconhecida,59.0,2009-09-26T23:00,18.6,73,13.7,18.5,0.0,0.0,0.0,0.0,0,1017.2,1010.2,0,0,0,0,0.02,0.58,8.8,13.5,35,25,14.8,20.1,23.4,21.2,20.0,0.101,0.145,0.217,0.319,0,0.0,0.0,0.0,0.0,0.0,0.0,0.0,0.0,0.0,0.0,0.0,0.0,0.0,Tracheophyta; Pinus pinaster Aiton; Eucalyptus L'Hér.
2009,2009-09-27,Braga,Braga,Adaúfe,QUINTA DE CEDOFEITA (ADAUFE) (Quinta),41.5974172,-8.41330385241841,Desconhecida,76.0,2009-09-27T06:00,14.5,82,11.5,14.0,0.0,0.0,0.0,0.0,0,1017.5,1008.4,0,0,0,0,0.0,0.29,6.7,10.3,74,102,13.7,16.4,21.8,21.2,19.8,0.104,0.144,0.211,0.315,0,0.0,0.0,0.0,0.0,0.0,0.0,0.0,0.0,0.0,0.0,0.0,0.0,0.0,Magnoliopsida; Tracheophyta; Eucalyptus L'Hér.; Pinus pinaster Aiton
2009,2009-09-27,Braga,Braga,Sobreposta,Lageosa (SOBREPOSTA),41.5596396,-8.349108738134145,Desconhecida,454.0,2009-09-27T00:00,15.4,75,10.9,15.0,0.0,0.0,0.0,0.0,0,1017.9,964.9,0,0,0,0,0.0,0.44,4.3,6.7,90,54,9.4,17.3,21.4,19.6,18.6,0.106,0.149,0.223,0.322,0,0.0,0.0,0.0,0.0,0.0,0.0,0.0,0.0,0.0,0.0,0.0,0.0,0.0,Magnoliopsida; Eucalyptus L'Hér.; Pinus pinaster Aiton
2009,2009-09-24,Braga,Guimarães,Longos,TRAVESSAS (LONGOS) (Travessas),41.5203519,-8.36354,NC,231.0,2009-09-24T05:00,15.0,71,9.8,13.5,0.0,0.0,0.0,0.0,0,1020.3,992.8,0,0,0,0,0.02,0.49,9.8,14.1,62,77,20.5,16.1,20.3,20.0,19.0,0.113,0.147,0.219,0.319,0,0.0,0.0,0.0,0.0,0.0,0.0,0.0,0.0,0.0,0.0,0.0,0.0,0.0,Eucalyptus L'Hér.; Magnoliopsida; Tracheophyta; Vitis vinifera L.
2009,2009-09-27,Braga,Braga,Palmeira,R. DA MARGINAL (PALMEIRA) (PALMEIRA),41.587031,-8.4420428,Desconhecida,72.0,2009-09-27T00:00,17.3,75,12.9,17.1,0.0,0.0,0.0,0.0,0,1017.2,1008.6,0,0,0,0,0.01,0.49,7.1,10.1,60,63,13.3,19.3,23.2,21.2,19.9,0.104,0.144,0.211,0.315,0,0.0,0.0,0.0,0.0,0.0,0.0,0.0,0.0,0.0,0.0,0.0,0.0,0.0,Tracheophyta; Magnoliopsida; Pinales
2009,2009-10-01,Braga,Cabeceiras de Basto,Cabeceiras de Basto,LAPELA (CABECEIRAS BASTO) (Lapela),41.5654887,-8.010196481857573,Desconhecida,706.0,2009-10-01T06:00,13.9,86,11.6,13.8,0.0,0.0,0.0,0.0,0,1018.0,936.6,2,0,0,5,0.0,0.22,3.7,5.4,299,270,10.4,12.1,17.4,18.6,17.6,0.13,0.147,0.217,0.318,0,0.0,0.0,0.0,0.0,0.0,0.0,0.0,0.0,0.0,0.0,0.0,0.0,0.0,Pinus pinaster Aiton; Magnoliopsida; Eucalyptus L'Hér.
2009,2009-09-27,Braga,Guimarães,Rendufe,STA MARINHA(RENDUFE) (RENDUFE),41.4832161,-8.227029966714362,Desconhecida,450.0,2009-09-27T13:00,27.1,31,8.5,27.4,0.0,0.0,0.0,0.0,0,1018.5,967.9,0,0,0,0,0.51,2.48,3.5,4.7,66,67,19.1,29.6,20.6,19.6,18.4,0.1,0.142,0.209,0.314,1,3600.0,724.9,626.9,98.0,873.1,724.9,978.0,732.0,633.0,99.0,873.1,732.0,987.6,Tracheophyta; Vitis vinifera L.; Pinus pinaster Aiton; ; Magnoliopsida; Eucalyptus L'Hér.; Pinales
2009,2009-09-24,Braga,Fafe,Monte,CASAL DE ESTIME (MONTE) (Casal),41.5265896,-8.1675461,NC,624.0,2009-09-24T08:00,16.2,73,11.4,15.3,0.0,0.0,0.0,0.0,0,1022.2,950.1,0,0,0,0,0.09,0.5,9.1,12.2,72,88,22.3,15.2,18.0,18.7,17.9,0.119,0.149,0.221,0.321,1,3600.0,229.3,159.7,69.7,536.7,229.3,404.5,158.0,110.0,48.0,536.7,158.0,278.7,Magnoliopsida; Eucalyptus L'Hér.; Tracheophyta; Pinales; Castanea sativa Mill.
2009,2009-09-27,Braga,Fafe,Freitas,STª MARINHA (FREITAS) (SANTA MARINHA),41.517727,-8.220231994344001,NC,405.0,2009-09-27T14:00,27.9,29,8.4,27.8,0.0,0.0,0.0,0.0,0,1017.5,972.0,6,0,10,0,0.49,2.65,4.0,4.9,280,287,14.8,31.0,21.3,19.9,18.7,0.099,0.142,0.209,0.314,1,3600.0,665.8,566.6,99.2,855.9,665.8,901.7,698.0,594.0,104.0,855.9,698.0,945.3,Magnoliopsida; Vitis vinifera L.; Eucalyptus L'Hér.; Tracheophyta; Pinales; Pinus pinaster Aiton
2009,2009-10-01,Braga,Esposende,Gemeses,SOUTO (GEMESES) (Souto),41.5171755,-8.7459134,NC,17.0,2009-10-01T14:00,22.4,61,14.5,22.1,0.0,0.0,0.0,0.0,1,1019.4,1017.4,27,15,0,44,0.37,1.06,12.3,13.8,265,263,23.0,27.2,21.8,21.5,20.2,0.104,0.144,0.21,0.315,1,3600.0,539.5,326.9,212.6,507.3,539.5,879.8,566.0,343.0,223.0,507.3,566.0,923.0,Eucalyptus L'Hér.; Tracheophyta; Pinus pinaster Aiton; Magnoliopsida
2009,2009-09-27,Braga,Barcelos,Abade de Neiva,SARDOAL(ABADE NEIVA) (Sardoal),41.5514443,-8.624704111524998,NC,72.0,2009-09-27T08:00,17.5,77,13.4,17.3,0.0,0.0,0.0,0.0,0,1018.1,1009.5,0,0,0,0,0.08,0.46,9.1,13.1,81,99,18.4,17.7,21.4,21.2,19.9,0.101,0.145,0.217,0.319,1,3600.0,210.5,141.8,68.7,506.2,210.5,381.6,141.0,95.0,46.0,506.2,141.0,255.6,Eucalyptus L'Hér.; Magnoliopsida; Vitis vinifera L.; Tracheophyta; Pinus pinaster Aiton
2009,2009-09-27,Braga,Celorico de Basto,Basto (São Clemente),GANDARELA (BASTO S. CLEMENTE) (Gandarela),41.479005,-8.061231,Desconhecida,613.0,2009-09-27T10:00,22.4,44,9.6,21.3,0.0,0.0,0.0,0.0,0,1019.9,950.6,0,0,0,0,0.33,1.52,6.8,9.4,93,92,22.0,21.9,18.9,18.9,18.0,0.107,0.147,0.219,0.319,1,3600.0,572.0,480.0,92.0,816.7,572.0,800.5,510.0,428.0,82.0,816.7,510.0,713.8,Magnoliopsida; Pinus pinaster Aiton; Tracheophyta; Pinales
2009,2009-09-27,Braga,Braga,Adaúfe,QUINTA DE CEDOFEITA (ADAUFE) (Quinta),41.5974172,-8.41330385241841,Desconhecida,76.0,2009-09-27T14:00,29.3,30,9.9,29.0,0.0,0.0,0.0,0.0,0,1017.5,1008.8,4,0,7,0,0.53,2.86,8.4,9.8,290,294,20.2,31.9,22.7,21.2,19.9,0.103,0.144,0.211,0.315,1,3600.0,669.2,571.8,97.4,862.9,669.2,902.6,701.0,599.0,102.0,862.9,701.0,945.6,Magnoliopsida; Tracheophyta; Eucalyptus L'Hér.; Pinus pinaster Aiton
2009,2009-02-25,Braga,Guimarães,Sande (vila Nova),BARREIRO (VILA NOVA) (Barreiro),41.4666405,-8.3499313,NC,133.0,2009-02-25T14:00,18.7,48,7.6,18.1,0.0,0.0,0.0,0.0,0,1021.3,1005.5,0,0,0,0,0.38,1.12,5.2,6.8,124,122,17.6,16.2,10.0,9.0,9.6,0.322,0.342,0.374,0.415,1,3600.0,635.4,553.4,82.0,921.8,635.4,838.3,659.0,574.0,85.0,921.8,659.0,869.5,Magnoliopsida; Tracheophyta; Eucalyptus L'Hér.
2009,2009-09-26,Braga,Fafe,Regadas,(REGADAS) (REGADAS),41.3906143,-8.1536889,Desconhecida,423.0,2009-09-26T04:00,15.2,50,4.8,12.3,0.0,0.0,0.0,0.0,0,1017.3,967.8,3,0,0,10,0.06,0.87,11.3,24.8,81,89,27.4,15.8,20.5,19.5,18.4,0.105,0.141,0.205,0.312,0,0.0,0.0,0.0,0.0,0.0,0.0,0.0,0.0,0.0,0.0,0.0,0.0,0.0,Eucalyptus L'Hér.; Magnoliopsida; Tracheophyta; Pinales
2009,2009-09-25,Braga,Barcelos,Abade de Neiva,SEBORDAL (ABADE NEIVA) (ABADE DE NEIVA),41.5514443,-8.624704111524998,NC,72.0,2009-09-25T07:00,15.6,80,12.3,14.9,0.0,0.0,0.0,0.0,0,1019.5,1010.9,0,0,0,0,0.03,0.35,9.8,20.0,82,97,20.2,16.7,21.2,20.9,19.8,0.107,0.146,0.219,0.32,1,40.16,32.7,14.0,18.7,140.5,16.2,135.7,14.0,6.0,8.0,69.6,14.0,58.1,Eucalyptus L'Hér.; Magnoliopsida; Vitis vinifera L.; Tracheophyta; Pinus pinaster Aiton
2009,2009-09-27,Braga,Guimarães,Briteiros (santa Leocádia),MATA DE MILHO (BRITEIROS S. LEOCÁDIA) (Chão da Mata),41.5212139,-8.3402236,NC,187.0,2009-09-27T04:00,14.6,76,10.4,13.9,0.0,0.0,0.0,0.0,0,1017.0,994.7,0,0,0,0,0.0,0.41,6.0,7.7,73,101,13.0,16.7,21.9,20.9,19.8,0.098,0.145,0.217,0.318,0,0.0,0.0,0.0,0.0,0.0,0.0,0.0,0.0,0.0,0.0,0.0,0.0,0.0,Eucalyptus L'Hér.; Magnoliopsida; Tracheophyta; Pinus pinaster Aiton
2009,2009-09-27,Braga,Fafe,Freitas,SANTA MARINHA (FREITAS) (Santa Cristina),41.517727,-8.220231994344001,Desconhecida,405.0,2009-09-27T05:00,13.4,72,8.5,11.9,0.0,0.0,0.0,0.0,0,1017.6,969.9,1,0,1,0,0.01,0.43,8.0,11.3,72,97,18.0,15.2,20.5,19.9,18.7,0.1,0.142,0.209,0.314,0,0.0,0.0,0.0,0.0,0.0,0.0,0.0,0.0,0.0,0.0,0.0,0.0,0.0,Magnoliopsida; Vitis vinifera L.; Eucalyptus L'Hér.; Tracheophyta; Pinales; Pinus pinaster Aiton
2009,2009-09-27,Braga,Vila Verde,Mós,BOUCINHA (MÓS) (Boucinha),41.68303525,-8.439896897514675,Desconhecida,152.0,2009-09-27T22:00,19.1,72,13.8,19.1,0.0,0.0,0.0,0.0,0,1018.5,1000.6,1,0,1,0,0.02,0.63,8.4,10.4,50,34,12.6,19.7,22.7,20.6,19.4,0.101,0.15,0.228,0.327,0,0.0,0.0,0.0,0.0,0.0,0.0,0.0,0.0,0.0,0.0,0.0,0.0,0.0,Eucalyptus L'Hér.; Vitis vinifera L.; Magnoliopsida; Tracheophyta
2009,2009-09-25,Braga,Cabeceiras de Basto,Vila Nune,L. MONTE COVILHA(VILA NUNE) (VILA NUNE),41.45937325,-7.95366441822654,Desconhecida,257.0,2009-09-25T13:00,28.3,31,9.7,28.3,0.0,0.0,0.0,0.0,0,1018.1,989.0,0,0,0,0,0.56,2.63,8.0,10.2,82,82,23.8,30.3,21.6,20.7,19.8,0.103,0.139,0.199,0.309,1,3600.0,748.8,651.8,97.1,895.2,748.8,990.6,756.0,658.0,98.0,895.2,756.0,1000.0,Magnoliopsida; Eucalyptus L'Hér.; Tracheophyta; Vitis vinifera L.; Pinus pinaster Aiton
2009,2009-09-27,Braga,Barcelos,Abade de Neiva,SARDOAL (ABADE NEIVA) (Sardoal),41.5514443,-8.624704111524998,NC,72.0,2009-09-27T01:00,16.3,82,13.3,16.4,0.0,0.0,0.0,0.0,0,1017.1,1008.5,0,0,0,0,0.0,0.33,6.8,9.0,65,74,13.0,18.4,22.9,21.2,19.9,0.101,0.145,0.217,0.319,0,0.0,0.0,0.0,0.0,0.0,0.0,0.0,0.0,0.0,0.0,0.0,0.0,0.0,Eucalyptus L'Hér.; Magnoliopsida; Vitis vinifera L.; Tracheophyta; Pinus pinaster Aiton
2009,2009-09-09,Braga,Vila Verde,Marrancos,L. ARRANHÓ (MARRANCOS) (MARRANCOS),41.66936215,-8.520924363445054,Desconhecida,202.0,2009-09-09T15:00,31.8,39,16.3,32.8,0.0,0.0,0.0,0.0,0,1016.0,993.3,3,0,5,0,0.55,2.84,11.8,13.4,337,346,22.7,33.9,24.1,20.9,18.4,0.099,0.159,0.243,0.334,1,3600.0,614.4,521.7,92.7,799.2,614.4,880.5,663.0,563.0,100.0,799.2,663.0,950.2,Eucalyptus L'Hér.; Magnoliopsida; Pinales; Pinus pinaster Aiton; Quercus L.
2009,2009-02-24,Braga,Cabeceiras de Basto,Refojos de Basto,Cucana,41.4992307,-8.0370865,Desconhecida,632.0,2009-02-24T00:00,3.1,85,0.7,-0.1,0.0,0.0,0.0,0.0,0,1018.5,942.5,10,0,0,32,0.0,0.12,7.6,12.6,65,92,24.1,3.9,6.8,6.2,7.4,0.344,0.357,0.385,0.411,0,0.0,0.0,0.0,0.0,0.0,0.0,0.0,0.0,0.0,0.0,0.0,0.0,0.0,Magnoliopsida; Eucalyptus L'Hér.; Tracheophyta; Vitis vinifera L.; Pinus pinaster Aiton
2009,2009-09-27,Braga,Vila Verde,Portela das Cabras,(PORTELA  DAS CABRAS) (PORTELA DAS CABRAS),41.669306000000006,-8.501353551875118,Desconhecida,270.0,2009-09-27T13:00,28.0,31,9.4,28.2,0.0,0.0,0.0,0.0,0,1018.3,987.7,10,0,16,0,0.53,2.6,5.6,6.5,285,289,19.1,29.8,20.8,19.7,18.6,0.102,0.148,0.225,0.325,1,3600.0,733.1,636.0,97.1,887.5,733.1,976.2,740.0,642.0,98.0,887.5,740.0,985.3,Pinus pinaster Aiton; Tracheophyta; Magnoliopsida; Eucalyptus L'Hér.
2009,2009-09-27,Braga,Braga,Braga (são Vítor),BAIRRO DA ALEGRIA (S. VITOR) (Bairro),41.5543932,-8.406436719135339,Desconhecida,181.0,2009-09-27T07:00,14.0,82,11.0,13.2,0.0,0.0,0.0,0.0,0,1017.8,996.2,0,0,0,0,0.02,0.29,7.8,11.3,77,99,15.1,15.5,20.7,20.4,19.2,0.103,0.148,0.224,0.322,1,0.0,28.3,11.8,16.5,124.6,13.6,128.8,12.0,5.0,7.0,59.8,12.0,54.7,Tracheophyta
2009,2009-09-27,Braga,Vila Verde,Penascais,L. (PENASCAIS) (PENASCAIS),41.72670645,-8.425202881513751,Desconhecida,263.0,2009-09-27T09:00,23.1,50,12.1,23.1,0.0,0.0,0.0,0.0,0,1018.9,988.5,0,0,0,0,0.21,1.42,4.4,6.8,99,108,15.5,20.3,19.9,19.8,18.7,0.103,0.15,0.229,0.327,1,3600.0,396.9,311.4,85.5,696.6,396.9,608.9,325.0,255.0,70.0,696.6,325.0,498.5,Eucalyptus L'Hér.; Quercus L.; Magnoliopsida; Tracheophyta; Pinus pinaster Aiton
2009,2009-09-25,Braga,Fafe,Regadas,L.DOROSO(REGADAS) (REGADAS),41.3906143,-8.1536889,NC,423.0,2009-09-25T16:00,28.1,27,7.3,27.3,0.0,0.0,0.0,0.0,0,1016.5,969.1,9,0,15,0,0.3,2.78,0.7,0.7,270,270,10.1,30.1,21.3,19.4,18.4,0.105,0.141,0.205,0.312,1,3600.0,414.5,345.4,69.1,805.7,414.5,583.3,486.0,405.0,81.0,805.7,486.0,684.0,Eucalyptus L'Hér.; Magnoliopsida; Tracheophyta; Pinales
2009,2009-09-25,Braga,Vila Verde,Esqueiros,MONTE DA SANTA (ESQUEIROS) (Casal do Monte),41.6619775,-8.444120725517863,Desconhecida,158.0,2009-09-25T16:00,29.3,33,11.1,28.6,0.0,0.0,0.0,0.0,0,1016.3,998.4,4,0,6,0,0.37,2.75,6.9,8.7,317,318,18.4,30.8,22.4,20.3,19.3,0.107,0.151,0.231,0.328,1,3600.0,415.2,345.2,70.1,802.8,415.2,585.1,486.0,404.0,82.0,802.8,486.0,684.8,Tracheophyta; Eucalyptus L'Hér.; Magnoliopsida; Pinus pinaster Aiton
2009,2009-09-25,Braga,Vila Verde,Gomide,CABANINHA(GOMIDE) (Cabaninhas),41.6905826,-8.2151641,Desconhecida,759.0,2009-09-25T21:00,18.6,61,10.9,17.4,0.0,0.0,0.0,0.0,0,1019.3,933.3,1,0,1,0,0.04,0.84,9.9,14.1,33,38,19.1,19.0,20.1,17.9,17.2,0.126,0.162,0.24,0.331,0,0.0,0.0,0.0,0.0,0.0,0.0,0.0,0.0,0.0,0.0,0.0,0.0,0.0,Magnoliopsida; Tracheophyta; Quercus L.; Pinus pinaster Aiton; Pinales
2009,2009-09-10,Braga,Braga,Santa Lucrécia de Algeriz,IGREJA ( SANTA LUCRÉCIA) (Igreja),41.590529,-8.36501068058126,Desconhecida,197.0,2009-09-10T01:00,22.5,77,18.3,24.7,0.0,0.0,0.0,0.0,0,1017.8,994.9,3,0,1,9,0.01,0.62,6.2,8.5,126,144,11.2,21.6,24.5,21.2,18.5,0.099,0.158,0.24,0.33,0,0.0,0.0,0.0,0.0,0.0,0.0,0.0,0.0,0.0,0.0,0.0,0.0,0.0,Eucalyptus L'Hér.; Magnoliopsida; Vitis vinifera L.; Pinus pinaster Aiton
2009,2009-09-27,Braga,Vila Verde,Gondiães,BOUCINHAS(GONDIAES) (Boucinhas),41.67957865,-8.45247296377648,Desconhecida,269.0,2009-09-27T15:00,27.6,33,9.8,26.4,0.0,0.0,0.0,0.0,0,1017.8,987.3,9,0,15,0,0.46,2.47,9.9,12.7,303,305,26.6,30.3,21.5,19.7,18.6,0.102,0.148,0.225,0.325,1,3600.0,549.5,460.2,89.3,822.7,549.5,761.9,603.0,505.0,98.0,822.7,603.0,836.1,Eucalyptus L'Hér.; Magnoliopsida; Tracheophyta; Pinus pinaster Aiton
2009,2009-09-25,Braga,Vila Verde,Parada de Gatim,PALMAS(PARADA GATIM) (Palmas),41.6235501,-8.5239676,Desconhecida,90.0,2009-09-25T21:00,21.4,63,14.0,21.7,0.0,0.0,0.0,0.0,0,1017.0,1006.5,0,0,0,0,0.03,0.95,7.2,12.4,27,10,13.0,22.2,23.2,20.8,19.6,0.103,0.147,0.221,0.321,0,0.0,0.0,0.0,0.0,0.0,0.0,0.0,0.0,0.0,0.0,0.0,0.0,0.0,Eucalyptus L'Hér.; Tracheophyta; Pinus pinaster Aiton; Magnoliopsida
2009,2009-09-27,Braga,Guimarães,Gominhães,VILA NOVA (GOMINHÃES) (Vale de Vila Nova),41.4827506,-8.283272461002646,NC,244.0,2009-09-27T23:00,16.7,74,12.1,16.1,0.0,0.0,0.0,0.0,0,1018.7,989.9,0,0,0,0,0.02,0.49,8.5,10.6,62,55,13.3,18.7,22.6,20.7,19.4,0.097,0.144,0.216,0.317,0,0.0,0.0,0.0,0.0,0.0,0.0,0.0,0.0,0.0,0.0,0.0,0.0,0.0,Magnoliopsida; Eucalyptus L'Hér.; Tracheophyta
2009,2009-09-28,Braga,Amares,Rendufe,RUA PARQUE DESPORTIVO (RENDUFE) (RENDUFE),41.5392653,-8.4810617,Desconhecida,136.0,2009-09-28T02:00,14.8,85,12.4,14.6,0.0,0.0,0.0,0.0,0,1017.7,1001.4,0,0,0,0,0.0,0.25,7.1,11.8,66,78,14.0,16.9,22.0,20.8,19.5,0.103,0.143,0.211,0.315,0,0.0,0.0,0.0,0.0,0.0,0.0,0.0,0.0,0.0,0.0,0.0,0.0,0.0,Tracheophyta; Vitis vinifera L.; Pinus pinaster Aiton; ; Eucalyptus L'Hér.; Magnoliopsida
2009,2009-09-28,Braga,Barcelos,Abade de Neiva,SARDOAL (ABADE DE NEIVA) (Sardoal),41.5550286,-8.63940610432154,NC,129.0,2009-09-28T05:00,13.9,85,11.4,13.2,0.0,0.0,0.0,0.0,0,1017.7,1002.2,0,0,0,0,0.0,0.24,7.6,13.0,71,85,12.2,15.8,21.3,20.8,19.5,0.099,0.145,0.216,0.319,0,0.0,0.0,0.0,0.0,0.0,0.0,0.0,0.0,0.0,0.0,0.0,0.0,0.0,Eucalyptus L'Hér.; Vitis vinifera L.; Tracheophyta; Pinus pinaster Aiton
2009,2009-09-26,Braga,Guimarães,Costa,QTª ALVIM (COSTA) (COSTA),41.4460018,-8.2735055,NC,242.0,2009-09-26T01:00,16.7,59,8.6,14.9,0.0,0.0,0.0,0.0,0,1017.2,988.7,0,0,0,0,0.04,0.78,9.3,20.2,74,93,22.3,18.0,22.1,20.5,19.4,0.105,0.144,0.214,0.316,0,0.0,0.0,0.0,0.0,0.0,0.0,0.0,0.0,0.0,0.0,0.0,0.0,0.0,Tracheophyta; Eucalyptus L'Hér.; Magnoliopsida; Pinales
2009,2009-09-28,Braga,Amares,Sequeiros,RAMALHA(SEQUEIROS) (Ramalha),41.6843918,-8.361232057997864,Desconhecida,172.0,2009-09-28T04:00,14.3,84,11.7,13.8,0.0,0.0,0.0,0.0,0,1017.5,997.0,0,0,0,0,0.0,0.26,7.6,14.0,71,89,15.8,15.9,21.2,20.5,19.3,0.101,0.15,0.228,0.327,0,0.0,0.0,0.0,0.0,0.0,0.0,0.0,0.0,0.0,0.0,0.0,0.0,0.0,Magnoliopsida; Eucalyptus L'Hér.; Tracheophyta; Pinus pinaster Aiton; Quercus L.; 
2009,2009-10-01,Braga,Guimarães,Polvoreira,AREAL (POLVOREIRA) (Areal),41.4090203,-8.292317199999992,NC,282.0,2009-10-01T16:00,22.5,51,11.8,21.5,0.0,0.0,0.0,0.0,1,1019.2,986.6,23,0,0,77,0.28,1.35,10.8,14.0,268,270,27.7,26.6,21.1,20.4,19.2,0.105,0.143,0.21,0.314,1,3600.0,337.9,241.0,96.9,606.7,337.9,542.4,401.0,286.0,115.0,606.7,401.0,643.6,Tracheophyta; Magnoliopsida; Vitis vinifera L.; Pinus pinaster Aiton; Eucalyptus L'Hér.
2009,2009-09-28,Braga,Fafe,Moreira do Rei,MARINHÃO (MOREIRA DE REI) (Marinhão),41.479027,-8.11899,NC,499.0,2009-09-28T01:00,14.0,76,9.8,12.7,0.0,0.0,0.0,0.0,0,1019.1,960.7,0,0,0,0,0.01,0.39,8.5,18.1,62,73,20.9,16.1,20.9,19.5,18.3,0.099,0.14,0.203,0.311,0,0.0,0.0,0.0,0.0,0.0,0.0,0.0,0.0,0.0,0.0,0.0,0.0,0.0,Eucalyptus L'Hér.; Tracheophyta; Magnoliopsida; Pinus pinaster Aiton
2009,2009-09-26,Braga,Terras de Bouro,Gondoriz,Igreja(GONDORIZ) (Igreja),41.7510343,-8.307355,NC,522.0,2009-09-26T07:00,12.4,78,8.8,10.7,0.0,0.0,0.0,0.0,0,1018.0,956.7,5,0,8,0,0.03,0.31,9.6,18.0,77,89,25.9,13.9,19.1,18.8,17.8,0.122,0.151,0.228,0.332,1,40.02,32.6,14.0,18.6,138.8,16.3,137.2,14.0,6.0,8.0,69.2,14.0,58.8,Tracheophyta; Magnoliopsida; Pinus pinaster Aiton; Quercus L.; Eucalyptus L'Hér.
2009,2009-09-27,Braga,Amares,Portela,REGATO  - (PORTELA) (Regato),41.65368395,-8.37058419712319,Desconhecida,192.0,2009-09-27T12:00,28.1,34,10.5,29.2,0.0,0.0,0.0,0.0,0,1018.4,996.5,0,0,0,0,0.47,2.52,0.4,1.0,180,135,17.6,28.8,21.1,20.3,19.2,0.103,0.15,0.229,0.327,1,3600.0,721.7,619.0,102.7,857.7,721.7,983.1,703.0,603.0,100.0,857.7,703.0,957.7,Pinus pinaster Aiton; Tracheophyta; Eucalyptus L'Hér.; Magnoliopsida; 
2009,2009-09-26,Braga,Guimarães,Sande (são Clemente),L. MÃO-SANDE S.CLEMENTE (São Clemente),41.4834778,-8.36945167731423,NC,172.0,2009-09-26T10:00,23.7,37,8.1,21.3,0.0,0.0,0.0,0.0,0,1017.4,997.5,1,0,2,0,0.37,1.85,13.0,17.3,92,91,31.7,23.1,21.1,20.5,19.4,0.105,0.146,0.217,0.318,1,3600.0,566.1,471.8,94.4,802.7,566.1,800.0,504.0,420.0,84.0,802.7,504.0,712.2,Vitis vinifera L.; Tracheophyta; Eucalyptus L'Hér.
2009,2009-09-28,Braga,Vila Verde,Marrancos,ARRANHÓ (MARRANCOS) (Arranhó),41.66936215,-8.520924363445054,Desconhecida,202.0,2009-09-28T07:00,13.3,87,11.2,12.6,0.0,0.0,0.0,0.0,0,1018.2,994.0,0,0,0,0,0.02,0.2,6.8,6.0,93,115,13.0,15.0,20.3,20.3,19.0,0.101,0.148,0.225,0.325,1,0.0,23.8,9.5,14.3,106.9,11.0,121.5,10.0,4.0,6.0,49.4,10.0,51.0,Eucalyptus L'Hér.; Magnoliopsida; Pinales; Pinus pinaster Aiton; Quercus L.
2009,2009-09-26,Braga,Vila Verde,Aboim da Nóbrega,L. BARRETE (ABOIM NOBREGA) (ABOIM DA NOBREGA),41.755104,-8.37449322690776,Desconhecida,518.0,2009-09-26T12:00,25.6,32,7.8,25.4,0.0,0.0,0.0,0.0,0,1017.4,959.2,5,0,8,1,0.49,2.23,4.7,6.1,99,90,23.4,26.6,19.5,18.8,17.8,0.111,0.155,0.235,0.332,1,3600.0,740.0,642.5,97.5,885.5,740.0,987.8,721.0,626.0,95.0,885.5,721.0,962.4,Magnoliopsida; Tracheophyta; Quercus L.; Pinus pinaster Aiton; Acacia Mill.
2009,2009-09-27,Braga,Fafe,Fornelos,RUA DA PANELADA (FORNELOS) (FORNELOS),41.4686761,-8.170805437454934,Desconhecida,351.0,2009-09-27T16:00,27.6,30,8.7,25.7,0.0,0.0,0.0,0.0,0,1017.2,977.6,10,0,17,0,0.34,2.56,10.7,14.5,290,293,24.5,30.3,22.3,20.2,19.1,0.099,0.142,0.208,0.314,1,3600.0,321.9,241.2,80.7,577.7,321.9,568.8,379.0,284.0,95.0,577.7,379.0,669.6,Magnoliopsida; Tracheophyta; Pinales
2009,2009-09-27,Braga,Fafe,Golães,SAMOÇA (GOLÃES) (Samoça),41.4650753,-8.196132750072195,NC,339.0,2009-09-27T17:00,26.3,36,10.0,24.7,0.0,0.0,0.0,0.0,0,1017.2,978.8,4,0,7,0,0.22,2.19,10.8,16.9,291,297,27.0,28.6,22.6,20.3,19.2,0.099,0.142,0.208,0.314,1,3600.0,132.4,79.5,53.0,324.0,132.4,334.1,180.0,108.0,72.0,324.0,180.0,454.1,Pinales; Eucalyptus L'Hér.; Magnoliopsida
2009,2009-09-26,Braga,Vila Verde,Prado (São Miguel),L. VILELA DE BAIXO (PRADO S. MIGUEL) (São Miguel),41.698327,-8.443079,Desconhecida,301.0,2009-09-26T14:00,28.0,31,9.1,27.8,0.0,0.0,0.0,0.0,0,1016.3,982.3,0,0,0,0,0.51,2.62,6.4,7.7,313,319,20.2,30.1,21.0,19.5,18.4,0.104,0.151,0.23,0.328,1,3600.0,676.0,583.4,92.6,876.5,676.0,906.1,708.0,611.0,97.0,876.5,708.0,949.0,Eucalyptus L'Hér.; Magnoliopsida; Quercus L.; Pinus pinaster Aiton; Tracheophyta
2009,2009-09-10,Braga,Cabeceiras de Basto,Rio Douro,L. ASNELA (RIO DOURO) (RIO DOURO),41.5565621,-7.984128259352389,Desconhecida,747.0,2009-09-10T15:00,29.0,31,10.3,28.8,0.0,0.0,0.0,0.0,1,1019.0,937.1,28,0,19,57,0.45,2.75,4.4,5.1,189,188,22.3,32.2,23.2,19.7,16.6,0.098,0.154,0.229,0.326,1,3600.0,558.0,436.9,121.0,680.1,558.0,866.9,604.0,473.0,131.0,680.1,604.0,938.5,Magnoliopsida; Pinus pinaster Aiton; Tracheophyta; Eucalyptus L'Hér.
2009,2009-09-28,Braga,Guimarães,Rendufe,SABUGOSA(RENDUFE) (Sabugosa),41.4832161,-8.227029966714362,NC,450.0,2009-09-28T14:00,26.2,33,8.6,25.4,0.0,0.0,0.0,0.0,0,1017.2,966.5,14,0,23,0,0.47,2.29,7.1,9.3,60,62,27.0,29.1,20.8,19.6,18.4,0.099,0.141,0.208,0.313,1,3600.0,617.8,514.8,103.0,783.6,617.8,895.4,648.0,540.0,108.0,783.6,648.0,939.2,Tracheophyta; Vitis vinifera L.; Pinus pinaster Aiton; ; Magnoliopsida; Eucalyptus L'Hér.; Pinales
2009,2009-09-28,Braga,Celorico de Basto,Codeçoso,MEIA VIA(CODEÇOSO) (Meia Via),41.34099565,-8.023161860676737,NC,275.0,2009-09-28T10:00,22.5,54,12.8,21.5,0.0,0.0,0.0,0.0,0,1019.3,987.5,0,0,0,0,0.33,1.25,13.3,18.0,93,93,33.1,22.5,20.3,20.6,19.7,0.102,0.14,0.199,0.31,1,3600.0,560.5,465.0,95.5,797.1,560.5,795.0,499.0,414.0,85.0,797.1,499.0,707.8,Pinus pinaster Aiton; Eucalyptus L'Hér.; Magnoliopsida; Tracheophyta
2009,2009-09-27,Braga,Vila Verde,Aboim da Nóbrega,BARRETE(ABOIM NOBREGA) (BARRETE),41.755104,-8.37449322690776,Desconhecida,518.0,2009-09-27T12:00,26.2,32,8.2,26.6,0.0,0.0,0.0,0.0,0,1019.1,960.9,0,0,0,0,0.45,2.31,0.4,0.5,270,315,12.6,27.1,19.5,18.9,17.8,0.108,0.154,0.234,0.331,1,3600.0,704.1,602.4,101.6,835.4,704.1,982.2,686.0,587.0,99.0,835.4,686.0,957.0,Magnoliopsida; Tracheophyta; Quercus L.; Pinus pinaster Aiton; Acacia Mill.
2009,2009-09-27,Braga,Vila Nova de Famalicão,Calendário,LAGE(CALENDARIO) (Lage),41.4010249,-8.525828120666462,NC,101.0,2009-09-27T14:00,29.3,29,9.3,28.8,0.0,0.0,0.0,0.0,0,1017.5,1006.0,4,0,7,0,0.53,2.9,8.4,9.8,290,294,20.2,31.6,22.8,21.2,19.8,0.123,0.14,0.194,0.317,1,3600.0,669.3,571.9,97.4,859.4,669.3,906.5,701.0,599.0,102.0,859.4,701.0,949.4,Tracheophyta; Magnoliopsida
2009,2009-09-26,Braga,Vila Verde,Marrancos,L. ARRANHO (MARRANCOS),41.66936215,-8.520924363445054,Desconhecida,202.0,2009-09-26T16:00,27.8,33,10.1,26.4,0.0,0.0,0.0,0.0,0,1016.2,993.2,0,0,0,0,0.38,2.5,10.2,13.0,312,318,23.0,30.1,22.3,20.1,19.0,0.104,0.149,0.226,0.326,1,3600.0,401.9,330.2,71.7,775.3,401.9,579.9,471.0,387.0,84.0,775.3,471.0,679.6,Eucalyptus L'Hér.; Magnoliopsida; Pinales; Pinus pinaster Aiton; Quercus L.
2009,2009-09-28,Braga,Vila Verde,Gondomar,NOGUEIRA(GONDOMAR) (Nogueira),41.741840100000005,-8.363813937503647,Desconhecida,544.0,2009-09-28T16:00,25.7,33,8.3,24.7,0.0,0.0,0.0,0.0,0,1016.4,955.5,16,0,26,0,0.28,2.21,3.8,5.1,343,356,15.1,27.6,20.6,18.8,17.7,0.115,0.149,0.225,0.331,1,3600.0,334.0,242.5,91.6,590.4,334.0,559.7,394.0,286.0,108.0,590.4,394.0,660.2,Tracheophyta; Magnoliopsida
2009,2009-09-28,Braga,Vieira do Minho,Ventosa,PENEDO (VENTOSA) (Carvalhas dos Penedos),41.6640851,-8.16181673272944,Desconhecida,438.0,2009-09-28T11:00,25.1,43,11.6,25.7,0.0,0.0,0.0,0.0,0,1019.0,969.4,0,0,0,0,0.41,1.81,1.9,2.9,68,83,14.4,25.0,19.8,19.5,18.4,0.116,0.149,0.226,0.331,1,3600.0,656.5,549.8,106.8,817.3,656.5,916.7,615.0,515.0,100.0,817.3,615.0,858.7,Tracheophyta; Quercus L.; Pinus pinaster Aiton
2009,2009-09-27,Braga,Guimarães,Sande (são Clemente),SRª SAUDE (SANDE S. CLEMENTE) (São Clemente),41.4834778,-8.36945167731423,NC,172.0,2009-09-27T17:00,26.0,40,11.3,24.8,0.0,0.0,0.0,0.0,0,1017.2,997.5,4,0,7,0,0.23,2.03,11.6,16.6,306,309,29.5,28.4,22.9,20.7,19.4,0.102,0.145,0.215,0.317,1,3600.0,159.6,106.4,53.2,428.5,159.6,338.2,216.0,144.0,72.0,428.5,216.0,457.7,Vitis vinifera L.; Tracheophyta; Eucalyptus L'Hér.
2009,2009-09-27,Braga,Celorico de Basto,Ourilhe,S. JOÃO (OURILHE) (São João),41.388259,-8.000059,NC,226.0,2009-09-27T22:00,21.2,56,11.9,21.0,0.0,0.0,0.0,0.0,0,1018.7,992.4,1,0,1,0,0.02,1.12,5.1,6.4,94,52,8.3,20.0,22.7,20.9,19.9,0.097,0.141,0.203,0.312,0,0.0,0.0,0.0,0.0,0.0,0.0,0.0,0.0,0.0,0.0,0.0,0.0,0.0,Tracheophyta; Pinus pinaster Aiton; Magnoliopsida; Pinales; Vitis vinifera L.
2009,2009-09-28,Braga,Fafe,Silvares (são Clemente),BOUCINHA DE CIMA ( SILVARES S. CLEMENTE) (Boucinha),41.4237717,-8.161419557911447,NC,350.0,2009-09-28T15:00,26.9,31,8.4,25.9,0.0,0.0,0.0,0.0,0,1016.5,976.9,16,0,27,0,0.36,2.43,3.3,4.3,49,48,18.0,29.5,21.5,20.1,19.0,0.1,0.14,0.203,0.311,1,3600.0,467.6,365.7,101.9,659.3,467.6,756.1,514.0,402.0,112.0,659.3,514.0,831.1,Pinus pinaster Aiton; Magnoliopsida; Tracheophyta; Pinales; Vitis vinifera L.; Eucalyptus L'Hér.
2009,2009-09-28,Braga,Guimarães,Rendufe,SABUGOSA (RENDUFE) (Sabugosa),41.4832161,-8.227029966714362,NC,450.0,2009-09-28T00:00,14.8,75,10.4,14.0,0.0,0.0,0.0,0.0,0,1018.7,966.0,0,0,0,0,0.01,0.42,6.3,11.0,77,49,12.2,17.0,21.3,19.6,18.4,0.099,0.142,0.208,0.313,0,0.0,0.0,0.0,0.0,0.0,0.0,0.0,0.0,0.0,0.0,0.0,0.0,0.0,Tracheophyta; Vitis vinifera L.; Pinus pinaster Aiton; ; Magnoliopsida; Eucalyptus L'Hér.; Pinales
2009,2009-09-28,Braga,Braga,Palmeira,(PALMEIRA) (PALMEIRA),41.587031,-8.4420428,Desconhecida,72.0,2009-09-28T16:00,28.3,33,10.3,27.4,0.0,0.0,0.0,0.0,0,1015.6,1007.4,14,0,23,0,0.31,2.58,6.7,8.6,324,327,18.4,30.2,23.0,21.3,19.9,0.102,0.143,0.21,0.315,1,3600.0,328.6,240.3,88.3,580.2,328.6,564.5,387.0,283.0,104.0,580.2,387.0,664.9,Tracheophyta; Magnoliopsida; Pinales
2009,2009-09-26,Braga,Guimarães,Selho (são Lourenço),RUA DAS FLORES (SELHO S. LOURENÇO) (São Lourenço),41.46996235,-8.284070548478876,NC,255.0,2009-09-26T21:00,21.5,53,11.5,21.2,0.0,0.0,0.0,0.0,0,1017.2,987.6,0,0,0,0,0.02,1.21,4.9,7.2,17,342,11.9,21.6,22.8,20.5,19.3,0.098,0.145,0.217,0.318,0,0.0,0.0,0.0,0.0,0.0,0.0,0.0,0.0,0.0,0.0,0.0,0.0,0.0,Tracheophyta; Vitis vinifera L.; Pinales; Magnoliopsida; Eucalyptus L'Hér.; Pinus pinaster Aiton
2009,2009-09-29,Braga,Vila Verde,Esqueiros,MONTE DA SANTA (ESQUEIROS) (Casal do Monte),41.6619775,-8.444120725517863,Desconhecida,158.0,2009-09-29T06:00,14.4,78,10.6,13.0,0.0,0.0,0.0,0.0,0,1016.3,997.4,0,0,0,0,0.02,0.36,10.9,23.8,84,93,25.6,15.5,20.8,20.6,19.4,0.1,0.149,0.228,0.327,0,0.0,0.0,0.0,0.0,0.0,0.0,0.0,0.0,0.0,0.0,0.0,0.0,0.0,Tracheophyta; Eucalyptus L'Hér.; Magnoliopsida; Pinus pinaster Aiton
2009,2009-09-28,Braga,Fafe,Armil,L. S.SALVADOR(ARMIL) (ARMIL),41.4165865,-8.19842119713909,Desconhecida,233.0,2009-09-28T16:00,27.7,31,9.0,27.2,0.0,0.0,0.0,0.0,0,1015.8,989.3,8,0,13,0,0.27,2.57,2.2,3.3,351,6,15.5,30.0,22.5,20.7,19.5,0.096,0.144,0.216,0.317,1,3600.0,334.2,241.8,92.5,584.6,334.2,563.7,394.0,285.0,109.0,584.6,394.0,664.5,Tracheophyta; Pinus pinaster Aiton; Magnoliopsida; Eucalyptus L'Hér.; Pinales
2009,2009-09-28,Braga,Barcelos,Balugães,PONTE DAS TÁBUAS (BALUGÃES) (Bouça da Ponte),41.6486244,-8.6373566,NC,111.0,2009-09-28T20:00,21.6,60,13.6,21.8,0.0,0.0,0.0,0.0,0,1016.3,1003.3,6,0,10,0,0.03,1.02,6.6,10.0,9,347,12.6,23.2,23.0,21.0,19.7,0.098,0.144,0.215,0.318,0,0.0,0.0,0.0,0.0,0.0,0.0,0.0,0.0,0.0,0.0,0.0,0.0,0.0,Tracheophyta; Eucalyptus L'Hér.; Pinus pinaster Aiton; Magnoliopsida
2009,2009-09-28,Braga,Barcelos,Lijó,MOSQUEIRO(LIJO) (Mosqueiro),41.5684934,-8.6135064,NC,57.0,2009-09-28T16:00,27.8,36,11.2,26.3,0.0,0.0,0.0,0.0,0,1015.7,1009.2,19,0,31,0,0.35,2.4,12.8,15.6,328,331,21.2,30.4,23.1,21.3,20.0,0.098,0.144,0.215,0.318,1,3600.0,324.6,242.2,82.4,582.8,324.6,566.4,382.0,285.0,97.0,582.8,382.0,666.5,Pinus pinaster Aiton; Tracheophyta; Eucalyptus L'Hér.; Magnoliopsida
2009,2009-09-27,Braga,Vila Nova de Famalicão,Fradelos,VALDOSSOS(FRADELOS) (Valdoe),41.3867182,-8.5872799,NC,111.0,2009-09-27T16:00,26.2,41,11.8,24.9,0.0,0.0,0.0,0.0,0,1017.3,1004.5,7,0,11,0,0.34,2.02,12.8,17.1,302,305,29.2,29.9,23.2,21.1,19.7,0.104,0.14,0.198,0.31,1,3600.0,342.3,261.4,80.9,619.3,342.3,574.9,402.0,307.0,95.0,619.3,402.0,675.3,Eucalyptus L'Hér.; Magnoliopsida; Pinus pinaster Aiton; Tracheophyta
2009,2009-09-11,Braga,Fafe,Fornelos,AVENIDA DE SANTA COMBA (FORNELOS) (FORNELOS),41.4686761,-8.170805437454934,NC,351.0,2009-09-11T06:00,17.9,53,8.3,16.4,0.0,0.0,0.0,0.0,1,1018.0,977.1,31,0,2,98,0.04,0.96,7.2,17.0,72,86,22.3,18.9,23.7,21.7,18.5,0.097,0.148,0.221,0.321,0,0.0,0.0,0.0,0.0,0.0,0.0,0.0,0.0,0.0,0.0,0.0,0.0,0.0,Magnoliopsida; Tracheophyta; Pinales
2009,2009-09-28,Braga,Celorico de Basto,Arnóia,TRIBUDO (ARNOIA) (Tribudo),41.39054365,-8.006846020187858,NC,220.0,2009-09-28T21:00,21.1,48,9.6,20.0,0.0,0.0,0.0,0.0,0,1016.5,990.9,2,0,3,0,0.04,1.31,6.9,9.2,47,31,12.6,21.2,22.7,21.0,20.0,0.096,0.141,0.202,0.312,0,0.0,0.0,0.0,0.0,0.0,0.0,0.0,0.0,0.0,0.0,0.0,0.0,0.0,Tracheophyta; Pinus pinaster Aiton; Magnoliopsida
2009,2009-09-28,Braga,Vila Nova de Famalicão,Vale (são Cosme),TORRE(VALE S COSME) (Torre),41.44744765,-8.475031760706035,NC,164.0,2009-09-28T06:00,15.0,75,10.7,14.0,0.0,0.0,0.0,0.0,0,1018.1,998.5,0,0,0,0,0.01,0.42,8.2,17.7,75,92,17.6,16.1,21.1,20.9,19.4,0.122,0.14,0.194,0.317,0,0.0,0.0,0.0,0.0,0.0,0.0,0.0,0.0,0.0,0.0,0.0,0.0,0.0,Tracheophyta; Magnoliopsida; Pinus pinaster Aiton
2009,2009-09-28,Braga,Fafe,Ribeiros,CASAL CIMO DE VILA (RIBEIROS) (Casal),41.462056200000006,-8.130801614145298,NC,411.0,2009-09-28T09:00,20.7,57,11.9,19.5,0.0,0.0,0.0,0.0,0,1019.7,972.3,1,0,2,0,0.22,1.05,12.2,16.9,88,88,27.7,19.7,20.0,20.0,18.9,0.099,0.14,0.203,0.311,1,3600.0,396.6,311.2,85.4,693.6,396.6,611.3,325.0,255.0,70.0,693.6,325.0,501.0,Tracheophyta; Magnoliopsida; Eucalyptus L'Hér.
2009,2009-09-27,Braga,Barcelos,Lijó,MOSQUEIRO (LIJÓ) (Mosqueiro),41.56224255,-8.612601098389531,NC,53.0,2009-09-27T23:00,18.1,77,14.1,18.3,0.0,0.0,0.0,0.0,0,1018.2,1011.9,0,0,0,0,0.01,0.47,7.9,11.7,39,34,13.3,19.4,23.1,21.3,20.0,0.099,0.145,0.216,0.319,0,0.0,0.0,0.0,0.0,0.0,0.0,0.0,0.0,0.0,0.0,0.0,0.0,0.0,Tracheophyta; Eucalyptus L'Hér.; Pinus pinaster Aiton
2009,2009-09-27,Braga,Celorico de Basto,Codeçoso,MEIA VIA (CODEÇOSO) (Meia Via),41.34099565,-8.023161860676737,NC,275.0,2009-09-27T22:00,21.2,56,12.1,21.1,0.0,0.0,0.0,0.0,0,1018.7,986.8,1,0,1,0,0.02,1.11,5.1,6.4,94,52,8.3,19.7,22.3,20.6,19.7,0.102,0.14,0.199,0.31,0,0.0,0.0,0.0,0.0,0.0,0.0,0.0,0.0,0.0,0.0,0.0,0.0,0.0,Pinus pinaster Aiton; Eucalyptus L'Hér.; Magnoliopsida; Tracheophyta
2009,2009-03-16,Braga,Braga,Cunha,L.(CUNHA) (CUNHA),41.498127800000006,-8.51447295289708,Desconhecida,147.0,2009-03-16T14:00,23.4,43,10.2,23.0,0.0,0.0,0.0,0.0,0,1019.3,1002.2,0,0,0,0,0.5,1.64,11.1,15.2,103,104,28.1,19.8,13.2,11.0,9.9,0.285,0.318,0.352,0.402,1,3600.0,729.4,637.6,91.8,926.1,729.4,952.1,755.0,660.0,95.0,926.1,755.0,985.5,Pinus pinaster Aiton; Eucalyptus L'Hér.; Tracheophyta; Magnoliopsida
2009,2009-09-28,Braga,Vila Verde,Nevogilde,PEDREIRAS (NEVOGILDE) (Pedreira),41.66427475,-8.472380098650124,Desconhecida,170.0,2009-09-28T02:00,14.6,86,12.3,14.3,0.0,0.0,0.0,0.0,0,1017.9,997.6,0,0,0,0,0.0,0.24,7.1,9.1,75,81,13.3,16.6,21.6,20.5,19.2,0.101,0.148,0.225,0.325,0,0.0,0.0,0.0,0.0,0.0,0.0,0.0,0.0,0.0,0.0,0.0,0.0,0.0,Magnoliopsida; Eucalyptus L'Hér.; Tracheophyta
2009,2009-09-27,Braga,Celorico de Basto,Moreira do Castelo,CASTELO (MOREIRA DO CASTELO) (Castelo),41.34924095,-8.063864104521198,NC,386.0,2009-09-27T02:00,14.0,71,8.9,12.5,0.0,0.0,0.0,0.0,0,1017.9,972.4,0,0,0,0,0.02,0.46,8.7,12.4,83,73,16.2,15.7,20.8,19.8,18.8,0.098,0.141,0.203,0.312,0,0.0,0.0,0.0,0.0,0.0,0.0,0.0,0.0,0.0,0.0,0.0,0.0,0.0,Olea europaea L.; Pinales; Pinus pinaster Aiton; Vitis vinifera L.; Magnoliopsida; Tracheophyta; Eucalyptus L'Hér.
2009,2009-10-01,Braga,Celorico de Basto,Ourilhe,S. JOÃO (OURILHE) (São João),41.388259,-8.000059,NC,226.0,2009-10-01T17:00,22.1,53,12.2,21.5,0.0,0.0,0.0,0.0,1,1019.5,993.3,29,0,0,96,0.17,1.25,9.1,12.0,279,279,24.8,26.0,21.8,21.0,20.0,0.102,0.14,0.201,0.311,1,3600.0,157.0,72.4,84.6,323.9,157.0,305.1,219.0,101.0,118.0,323.9,219.0,425.7,Tracheophyta; Pinus pinaster Aiton; Magnoliopsida; Pinales; Vitis vinifera L.
2009,2009-09-29,Braga,Celorico de Basto,Carvalho,CALVELO(CARVALHO) (CALVELO),41.3794834,-8.071291706396416,NC,537.0,2009-09-29T13:00,24.3,31,6.2,23.1,0.0,0.0,0.0,0.0,1,1015.9,955.5,29,0,0,96,0.5,2.09,8.6,11.2,88,86,31.0,26.8,19.5,19.1,18.2,0.106,0.141,0.198,0.311,1,3600.0,710.5,578.9,131.6,815.5,710.5,967.9,718.0,585.0,133.0,815.5,718.0,978.2,Tracheophyta; Eucalyptus L'Hér.; Olea europaea L.; Pinus pinaster Aiton; Magnoliopsida
2009,2009-09-28,Braga,Barcelos,Durrães,FOJO(DURRAES) (Fojos),41.63260885,-8.664978352522887,Desconhecida,91.0,2009-09-28T16:00,26.3,40,11.7,25.1,0.0,0.0,0.0,0.0,0,1015.9,1005.4,16,0,27,0,0.33,2.05,12.2,15.8,326,325,23.8,29.3,22.6,20.9,19.6,0.101,0.146,0.216,0.319,1,3600.0,323.2,245.8,77.4,590.1,323.2,567.7,380.0,289.0,91.0,590.1,380.0,667.5,Tracheophyta; Eucalyptus L'Hér.; Vitis vinifera L.
2009,2009-09-29,Braga,Vila Nova de Famalicão,Oliveira (santa Maria),VISTA ALEGRE(PEDOME) (Boa Vista),41.4067307,-8.3909771,NC,121.0,2009-09-29T05:00,17.8,57,9.2,16.0,0.0,0.0,0.0,0.0,0,1016.0,1001.7,1,0,2,0,0.05,0.88,11.2,25.6,86,93,26.6,18.1,21.7,21.1,19.8,0.106,0.146,0.214,0.317,0,0.0,0.0,0.0,0.0,0.0,0.0,0.0,0.0,0.0,0.0,0.0,0.0,0.0,Tracheophyta; Magnoliopsida; Eucalyptus L'Hér.
2009,2009-09-21,Braga,Guimarães,Lordelo,LUGAR DA IGREJA (LORDELO) (Lugar),41.3725051,-8.3787227,NC,139.0,2009-09-21T17:00,25.0,39,10.1,23.4,0.0,0.0,0.0,0.0,1,1020.7,1004.6,27,0,0,90,0.27,1.92,11.2,16.1,339,344,23.4,26.3,20.5,20.7,19.6,0.132,0.15,0.219,0.32,1,3600.0,249.4,192.2,57.2,682.1,249.4,382.6,327.0,252.0,75.0,682.1,327.0,501.6,Tracheophyta; Acacia Mill.; Eucalyptus L'Hér.; Magnoliopsida; Vitis vinifera L.
2009,2009-09-28,Braga,Vila Verde,Pedregais,FOJO (PEDREGAIS) (Fojo),41.7026936,-8.475341825507588,Desconhecida,316.0,2009-09-28T20:00,23.1,46,10.7,22.7,0.0,0.0,0.0,0.0,0,1016.6,980.3,5,0,9,0,0.02,1.53,4.1,5.5,15,349,11.2,22.0,22.0,19.9,18.8,0.102,0.151,0.231,0.329,0,0.0,0.0,0.0,0.0,0.0,0.0,0.0,0.0,0.0,0.0,0.0,0.0,0.0,Magnoliopsida; Tracheophyta; Pinus pinaster Aiton; Eucalyptus L'Hér.
2009,2009-10-02,Braga,Barcelos,Galegos (São Martinho),OURO(GALEGOS S. MARTINHO) (São Martinho),41.557329,-8.5630806,Desconhecida,54.0,2009-10-02T21:00,16.5,88,14.5,17.1,0.0,0.0,0.0,0.0,0,1020.8,1014.3,0,0,0,0,0.0,0.22,6.2,7.6,324,341,11.9,18.6,21.4,21.3,20.1,0.098,0.143,0.213,0.317,0,0.0,0.0,0.0,0.0,0.0,0.0,0.0,0.0,0.0,0.0,0.0,0.0,0.0,Tracheophyta; Vitis vinifera L.; Pinus pinaster Aiton; Quercus L.; Eucalyptus L'Hér.
2009,2009-09-28,Braga,Guimarães,Rendufe,SABUGOSA(RENDUFE) (Sabugosa),41.4832161,-8.227029966714362,NC,450.0,2009-09-28T09:00,20.5,55,11.2,19.2,0.0,0.0,0.0,0.0,0,1020.4,968.6,0,0,0,0,0.22,1.08,11.5,15.9,86,87,32.0,19.4,19.7,19.6,18.4,0.099,0.142,0.208,0.313,1,3600.0,402.7,316.1,86.6,705.7,402.7,610.4,330.0,259.0,71.0,705.7,330.0,500.2,Tracheophyta; Vitis vinifera L.; Pinus pinaster Aiton; ; Magnoliopsida; Eucalyptus L'Hér.; Pinales
2009,2009-09-21,Braga,Braga,Sobreposta,AVª LAGEOSA(SOBREPOSTA) (SOBREPOSTA),41.5596396,-8.349108738134145,Desconhecida,454.0,2009-09-21T22:00,14.9,70,9.4,13.5,0.0,0.0,0.0,0.0,0,1022.9,969.5,6,0,0,20,0.02,0.52,8.6,11.3,75,81,23.0,16.6,19.3,19.6,18.5,0.13,0.151,0.228,0.324,0,0.0,0.0,0.0,0.0,0.0,0.0,0.0,0.0,0.0,0.0,0.0,0.0,0.0,Magnoliopsida; Eucalyptus L'Hér.; Pinus pinaster Aiton
2009,2009-09-28,Braga,Braga,Adaúfe,QUINTA DA CEDOFEITA (ADAUFE) (Quinta),41.5974172,-8.41330385241841,Desconhecida,76.0,2009-09-28T10:00,24.7,47,12.6,23.8,0.0,0.0,0.0,0.0,0,1019.0,1010.2,0,0,0,0,0.36,1.66,11.6,15.5,95,94,27.4,23.6,21.3,21.2,19.9,0.103,0.143,0.211,0.315,1,3600.0,553.4,457.8,95.6,790.5,553.4,789.1,492.0,407.0,85.0,790.5,492.0,701.6,Magnoliopsida; Tracheophyta; Eucalyptus L'Hér.; Pinus pinaster Aiton
2009,2009-09-27,Braga,Fafe,São Gens,LAMEIRINHA (S.GENS) (Lameirinha),41.4468161,-8.13452635762129,Desconhecida,429.0,2009-09-27T03:00,13.1,74,8.6,11.3,0.0,0.0,0.0,0.0,0,1017.8,967.2,0,0,0,0,0.02,0.39,9.8,13.2,84,79,20.9,15.3,20.7,19.7,18.6,0.099,0.139,0.198,0.309,0,0.0,0.0,0.0,0.0,0.0,0.0,0.0,0.0,0.0,0.0,0.0,0.0,0.0,Tracheophyta; Eucalyptus L'Hér.; Magnoliopsida; Pinales
2009,2009-09-29,Braga,Guimarães,Gondomar,PEDREIRAS(GONDOMAR) (Pedreira),41.52654655,-8.273177603924456,NC,170.0,2009-09-29T16:00,27.1,30,8.2,25.0,0.0,0.0,0.0,0.0,1,1014.2,994.8,39,0,16,98,0.32,2.5,10.8,14.5,291,293,23.8,28.9,22.3,20.6,19.3,0.099,0.147,0.221,0.321,1,3600.0,283.0,136.4,146.6,333.4,283.0,558.0,334.0,161.0,173.0,333.4,334.0,658.6,Magnoliopsida; Eucalyptus L'Hér.; Pinales; Tracheophyta
2009,2009-09-28,Braga,Celorico de Basto,Fervença,LAMOSO(FERVENÇA) (Lamoso),41.35791315,-8.087527598506348,Desconhecida,430.0,2009-09-28T00:00,15.0,74,10.4,14.3,0.0,0.0,0.0,0.0,0,1018.7,968.3,0,0,0,0,0.01,0.45,6.3,11.0,77,49,12.2,17.1,21.4,19.8,18.6,0.097,0.138,0.197,0.308,0,0.0,0.0,0.0,0.0,0.0,0.0,0.0,0.0,0.0,0.0,0.0,0.0,0.0,Vitis vinifera L.; Magnoliopsida; Eucalyptus L'Hér.; Pinus pinaster Aiton; Tracheophyta; Olea europaea L.
2009,2009-09-28,Braga,Terras de Bouro,Souto,LAJES (SOUTO) (Lajes),41.6939526,-8.3429892,NC,160.0,2009-09-28T04:00,14.7,79,11.1,13.9,0.0,0.0,0.0,0.0,0,1017.5,998.4,0,0,0,0,0.01,0.35,7.6,14.0,71,89,15.8,16.2,21.4,20.6,19.3,0.101,0.148,0.223,0.322,0,0.0,0.0,0.0,0.0,0.0,0.0,0.0,0.0,0.0,0.0,0.0,0.0,0.0,Vitis vinifera L.; Eucalyptus L'Hér.; Magnoliopsida; Tracheophyta; Pinus pinaster Aiton
2009,2009-09-28,Braga,Fafe,Golães,TRV FERREIROS (GOLÃES) (GOLÃES),41.4650753,-8.196132750072195,NC,339.0,2009-09-28T09:00,21.2,56,12.0,20.0,0.0,0.0,0.0,0.0,0,1019.7,980.5,1,0,2,0,0.23,1.12,12.2,16.9,88,88,27.7,20.2,20.4,20.4,19.2,0.099,0.142,0.208,0.313,1,3600.0,396.6,311.2,85.4,693.6,396.6,611.3,325.0,255.0,70.0,693.6,325.0,501.0,Pinales; Eucalyptus L'Hér.; Magnoliopsida
2009,2009-09-28,Braga,Fafe,Fornelos,RUA DO MONTE (FORNELOS) (FORNELOS),41.4686761,-8.170805437454934,NC,351.0,2009-09-28T09:00,21.1,56,11.9,19.9,0.0,0.0,0.0,0.0,0,1019.7,979.1,1,0,2,0,0.23,1.12,12.2,16.9,88,88,27.7,20.1,20.3,20.3,19.1,0.099,0.142,0.208,0.313,1,3600.0,396.6,311.2,85.4,693.6,396.6,611.3,325.0,255.0,70.0,693.6,325.0,501.0,Magnoliopsida; Tracheophyta; Pinales
2009,2009-09-28,Braga,Vila Nova de Famalicão,Pedome,V.I.M(PEDOME) (PEDOME),41.415461,-8.3869005,NC,125.0,2009-09-28T13:00,27.9,35,10.9,28.4,0.0,0.0,0.0,0.0,0,1017.5,1003.2,9,0,15,0,0.5,2.44,4.7,5.9,99,101,22.7,29.1,21.8,21.1,19.8,0.107,0.146,0.214,0.317,1,3600.0,695.5,581.5,113.9,813.8,695.5,973.9,702.0,587.0,115.0,813.8,702.0,983.1,Tracheophyta; Vitis vinifera L.; Magnoliopsida; Eucalyptus L'Hér.
2009,2009-09-29,Braga,Cabeceiras de Basto,Arco de Baúlhe,L. (ARCO DE BAULHE) (ARCO DE BAÚLHE),41.477588,-7.951632577634242,NC,269.0,2009-09-29T01:00,16.2,56,7.4,14.2,0.0,0.0,0.0,0.0,0,1016.2,984.5,3,0,5,0,0.04,0.81,9.1,23.7,81,80,23.4,17.5,22.0,20.9,19.7,0.097,0.138,0.197,0.308,0,0.0,0.0,0.0,0.0,0.0,0.0,0.0,0.0,0.0,0.0,0.0,0.0,0.0,Magnoliopsida; Tracheophyta; Pinus pinaster Aiton; Eucalyptus L'Hér.; Vitis vinifera L.
2009,2009-03-16,Braga,VIZELA,Santa Eulália,R. REQUEIXOS (STª EULÁLIA) (BARROSAS),41.3546121,-8.301686697121095,NC,214.0,2009-03-16T19:00,21.3,41,7.4,19.6,0.0,0.0,0.0,0.0,0,1018.8,993.9,0,0,0,0,0.08,1.51,7.6,10.2,45,58,15.8,15.7,14.1,10.8,9.5,0.283,0.319,0.353,0.402,0,464.62,0.0,0.0,0.0,0.0,0.0,0.0,21.0,12.0,9.0,125.4,21.0,72.2,Tracheophyta; Eucalyptus L'Hér.; Magnoliopsida
2009,2009-09-29,Braga,Barcelos,Tamel (São Veríssimo),CACHADA(TAMEL S. VERISSIMO) (Cachada),41.5526107,-8.5867891,Desconhecida,55.0,2009-09-29T02:00,17.3,61,9.8,15.4,0.0,0.0,0.0,0.0,0,1015.3,1008.8,2,0,3,0,0.05,0.76,12.4,26.3,80,89,19.8,18.1,22.5,21.4,20.0,0.098,0.144,0.215,0.318,0,0.0,0.0,0.0,0.0,0.0,0.0,0.0,0.0,0.0,0.0,0.0,0.0,0.0,Tracheophyta
2009,2009-09-29,Braga,Fafe,Arnozela,NOVO (ARNOZELA) (Campos Novos),41.3897004,-8.1226233,NC,629.0,2009-09-29T08:00,14.9,69,9.3,13.2,0.0,0.0,0.0,0.0,0,1018.5,945.8,0,0,0,0,0.08,0.53,10.1,17.9,73,81,26.3,14.7,18.1,18.6,17.6,0.107,0.141,0.199,0.311,1,3600.0,208.7,141.6,67.1,504.2,208.7,382.9,140.0,95.0,45.0,504.2,140.0,256.9,Pinales; Tracheophyta; Magnoliopsida; Pinus pinaster Aiton; Eucalyptus L'Hér.
2009,2009-09-29,Braga,Celorico de Basto,Arnóia,CAMPINHO(ARNÓIA) (Campinho),41.3728475,-8.0107928,NC,344.0,2009-09-29T13:00,25.7,31,7.4,25.3,0.0,0.0,0.0,0.0,1,1015.4,976.4,29,0,0,96,0.5,2.28,5.8,7.2,94,93,24.8,28.4,20.7,20.2,19.2,0.095,0.14,0.202,0.311,1,3600.0,712.7,587.0,125.7,826.6,712.7,968.3,720.0,593.0,127.0,826.6,720.0,978.3,Pinus pinaster Aiton; Tracheophyta; Magnoliopsida; Vitis vinifera L.
2009,2009-10-03,Braga,Guimarães,Gondomar,BOAVISTA (GONDOMAR) (Boavista),41.52654655,-8.273177603924456,NC,170.0,2009-10-03T15:00,22.6,55,13.1,21.8,0.1,0.1,0.0,0.0,51,1018.1,998.3,53,8,59,34,0.3,1.23,11.9,15.1,245,242,27.4,26.0,19.8,20.4,19.4,0.104,0.146,0.22,0.32,1,3600.0,375.0,237.3,137.7,448.1,375.0,724.0,414.0,262.0,152.0,448.1,414.0,799.2,Magnoliopsida; Eucalyptus L'Hér.; Pinales; Tracheophyta
2009,2009-09-29,Braga,Braga,Pedralva,PICOS (PEDRALVA) (Picos),41.57719105,-8.322675272587194,Desconhecida,478.0,2009-09-29T06:00,13.6,74,9.2,11.9,0.0,0.0,0.0,0.0,0,1017.5,961.5,1,0,0,2,0.02,0.4,10.1,17.3,84,78,24.5,14.8,19.8,19.6,18.5,0.103,0.148,0.221,0.321,0,0.0,0.0,0.0,0.0,0.0,0.0,0.0,0.0,0.0,0.0,0.0,0.0,0.0,Magnoliopsida; Eucalyptus L'Hér.; Pinus pinaster Aiton; Tracheophyta; Pinales
2009,2009-09-28,Braga,Terras de Bouro,Monte,ALECRIMES (MONTE) (Alecrimes),41.6969222,-8.247790860526315,NC,731.0,2009-09-28T10:00,20.9,52,10.5,20.2,0.0,0.0,0.0,0.0,0,1020.7,938.2,0,0,0,0,0.31,1.2,6.0,7.6,107,109,19.4,20.6,18.2,18.3,17.4,0.12,0.161,0.238,0.33,1,3600.0,555.9,462.7,93.2,797.1,555.9,791.0,495.0,412.0,83.0,797.1,495.0,704.4,Tracheophyta; Magnoliopsida; Quercus L.; Pinales
2009,2009-03-16,Braga,Vila Verde,Duas Igrejas,PORRINHOSO(DUAS IGREJAS) (Porrinhoso),41.6943268,-8.4908715,Desconhecida,211.0,2009-03-16T17:00,23.1,44,10.1,22.0,0.0,0.0,0.0,0.0,0,1018.7,994.3,0,0,0,0,0.25,1.59,7.4,9.1,321,326,14.8,19.4,13.9,10.6,9.3,0.292,0.326,0.359,0.403,1,3600.0,286.3,230.6,55.7,756.0,286.3,421.8,365.0,294.0,71.0,756.0,365.0,537.8,Magnoliopsida; Eucalyptus L'Hér.; Tracheophyta; Pinus pinaster Aiton
2009,2009-03-16,Braga,Fafe,Golães,VARZIELA(GOLAES) (Varziela),41.4650753,-8.196132750072195,Desconhecida,339.0,2009-03-16T14:00,22.3,43,9.1,21.5,0.0,0.0,0.0,0.0,0,1019.7,980.6,0,0,0,0,0.49,1.54,11.8,15.5,102,102,28.8,19.3,12.4,10.2,8.9,0.289,0.322,0.355,0.403,1,3600.0,731.6,640.9,90.7,932.1,731.6,950.8,758.0,664.0,94.0,932.1,758.0,985.1,Pinales; Eucalyptus L'Hér.; Magnoliopsida
2009,2009-09-21,Braga,Guimarães,Infantas,L. MATAMA(INFANTAS) (INFANTAS),41.42267,-8.2424567,NC,284.0,2009-09-21T20:00,20.0,50,9.3,19.1,0.0,0.0,0.0,0.0,0,1021.7,988.5,10,0,0,35,0.03,1.17,5.0,5.9,21,14,11.2,20.2,20.3,20.4,19.2,0.124,0.142,0.208,0.314,0,0.0,0.0,0.0,0.0,0.0,0.0,0.0,0.0,0.0,0.0,0.0,0.0,0.0,Magnoliopsida; Tracheophyta; Vitis vinifera L.; Eucalyptus L'Hér.
2009,2009-09-29,Braga,Barcelos,Lijó,MOSQUEIRO(LIJO) (Mosqueiro),41.5684934,-8.6135064,NC,57.0,2009-09-29T11:00,26.7,36,10.3,25.6,0.0,0.0,0.0,0.0,0,1017.0,1010.4,3,0,0,9,0.46,2.24,10.3,14.1,126,122,23.8,26.7,21.8,21.4,20.0,0.098,0.144,0.215,0.318,1,3600.0,654.2,550.5,103.7,824.8,654.2,910.1,612.0,515.0,97.0,824.8,612.0,851.4,Pinus pinaster Aiton; Tracheophyta; Eucalyptus L'Hér.; Magnoliopsida
2009,2009-09-28,Braga,Braga,Adaúfe,L.(ADAUFE) (ADAÚFE),41.5974172,-8.41330385241841,Desconhecida,76.0,2009-09-28T14:00,28.5,33,10.5,28.8,0.0,0.0,0.0,0.0,0,1016.7,1008.0,19,0,32,0,0.44,2.63,2.7,3.6,23,37,19.1,30.8,22.3,21.2,19.9,0.102,0.143,0.21,0.315,1,3600.0,602.0,485.6,116.4,738.4,602.0,896.3,631.0,509.0,122.0,738.4,631.0,939.5,Magnoliopsida; Tracheophyta; Eucalyptus L'Hér.; Pinus pinaster Aiton
2009,2009-03-16,Braga,Barcelos,Airó,MONTE (AIRÓ) (Alto do Monte),41.5156174,-8.5587895,Desconhecida,100.0,2009-03-16T15:00,23.9,42,10.4,23.4,0.0,0.0,0.0,0.0,0,1018.7,1007.1,0,0,0,0,0.45,1.71,9.6,12.9,110,108,24.8,20.5,14.1,11.6,10.5,0.283,0.317,0.352,0.401,1,3600.0,625.2,540.9,84.3,900.6,625.2,830.6,675.0,584.0,91.0,900.6,675.0,896.7,Tracheophyta; Eucalyptus L'Hér.
2009,2009-09-12,Braga,Fafe,Várzea Cova,LAGOA(VARZEA COVA) (Lagoa),41.5085893,-8.0696939,Desconhecida,476.0,2009-09-12T00:00,17.0,78,13.2,16.7,0.0,0.0,0.0,0.0,0,1015.9,960.8,0,0,0,0,0.01,0.42,8.5,13.0,78,88,19.1,19.5,24.1,21.2,17.9,0.096,0.145,0.214,0.318,0,0.0,0.0,0.0,0.0,0.0,0.0,0.0,0.0,0.0,0.0,0.0,0.0,0.0,Magnoliopsida; Tracheophyta
2009,2009-09-21,Braga,Vila Nova de Famalicão,Vale (são Cosme),VILAR(VALE S. COSME) (Vilar),41.44744765,-8.475031760706035,Desconhecida,164.0,2009-09-21T23:00,16.9,69,11.1,16.1,0.0,0.0,0.0,0.0,0,1022.7,1003.2,10,0,0,35,0.02,0.6,7.4,11.2,51,57,14.8,18.1,20.5,20.5,19.3,0.143,0.142,0.198,0.319,0,0.0,0.0,0.0,0.0,0.0,0.0,0.0,0.0,0.0,0.0,0.0,0.0,0.0,Tracheophyta; Magnoliopsida; Pinus pinaster Aiton
2009,2009-09-21,Braga,Fafe,Moreira do Rei,VILA POUCA(MOREIRA REI) (Vila Pouca),41.479027,-8.11899,NC,499.0,2009-09-21T19:00,21.2,43,8.1,19.8,0.0,0.0,0.0,0.0,1,1022.1,964.9,26,0,0,86,0.07,1.43,5.9,8.7,79,95,20.9,21.1,19.2,19.4,18.2,0.121,0.142,0.208,0.314,0,0.0,0.0,0.0,0.0,0.0,0.0,0.0,9.0,2.0,7.0,24.9,9.0,50.0,Eucalyptus L'Hér.; Tracheophyta; Magnoliopsida; Pinus pinaster Aiton
2009,2009-09-12,Braga,Vila Verde,Esqueiros,MONTE SANTA(ESQUEIROS) (Casal do Monte),41.6619775,-8.444120725517863,Desconhecida,158.0,2009-09-12T01:00,18.0,83,15.0,19.1,0.0,0.0,0.0,0.0,0,1014.9,996.3,14,15,0,0,0.0,0.35,4.1,8.0,142,170,11.5,19.6,24.5,21.8,18.8,0.097,0.158,0.243,0.334,0,0.0,0.0,0.0,0.0,0.0,0.0,0.0,0.0,0.0,0.0,0.0,0.0,0.0,Tracheophyta; Eucalyptus L'Hér.; Magnoliopsida; Pinus pinaster Aiton
2009,2009-09-28,Braga,Braga,Pedralva,L. SERRA DE PICOS (PEDRALVA) (PEDRALVA),41.57719105,-8.322675272587194,Desconhecida,478.0,2009-09-28T17:00,25.6,32,7.8,24.5,0.0,0.0,0.0,0.0,0,1016.2,962.4,6,0,10,0,0.18,2.23,3.8,6.9,41,51,17.6,27.3,21.5,19.6,18.5,0.103,0.148,0.221,0.321,1,3600.0,183.6,130.9,52.7,546.8,183.6,326.4,251.0,179.0,72.0,546.8,251.0,446.2,Magnoliopsida; Eucalyptus L'Hér.; Pinus pinaster Aiton; Tracheophyta; Pinales
2009,2009-09-29,Braga,Vieira do Minho,Salamonde,CHÁ DA CABANA (SALAMONDE) (Chã da Cabana),41.6917121,-8.091391770862678,Desconhecida,261.0,2009-09-29T15:00,27.3,29,7.5,26.3,0.0,0.0,0.0,0.0,1,1014.3,984.7,36,0,14,92,0.3,2.59,2.2,3.1,81,69,17.3,29.5,22.3,21.0,19.9,0.102,0.147,0.221,0.32,1,3600.0,382.7,236.3,146.3,431.9,382.7,746.2,421.0,260.0,161.0,431.9,421.0,821.0,Quercus L.; Pinus pinaster Aiton; Tracheophyta; Magnoliopsida
2009,2009-09-29,Braga,Fafe,Passos,ERMO (PASSOS) (Costa do Ermo),41.4861863,-8.0470833,NC,507.0,2009-09-29T14:00,25.6,29,6.3,24.0,0.0,0.0,0.0,0.0,1,1015.3,958.4,29,0,1,95,0.45,2.33,7.6,9.7,90,86,27.0,28.6,20.4,19.6,18.5,0.097,0.14,0.201,0.31,1,3600.0,584.9,414.4,170.5,636.3,584.9,888.1,614.0,435.0,179.0,636.3,614.0,932.3,Magnoliopsida; Pinus pinaster Aiton; Pinales; Eucalyptus L'Hér.
2009,2009-09-12,Braga,Guimarães,Candoso (são Martinho),SRª MONTES (CANDOSO S. MARTINHO) (Candoso (São Martinho)),41.426217,-8.335401658261803,NC,206.0,2009-09-12T12:00,27.1,40,12.3,27.4,0.0,0.0,0.0,0.0,0,1015.3,991.8,0,0,0,0,0.52,2.15,8.9,10.8,207,201,23.4,30.2,23.5,22.3,19.1,0.098,0.15,0.223,0.322,1,3600.0,723.2,517.7,205.4,656.9,723.2,1064.6,704.0,504.0,200.0,656.9,704.0,1036.4,Tracheophyta; Eucalyptus L'Hér.; Magnoliopsida; Vitis vinifera L.
2009,2009-09-29,Braga,Celorico de Basto,Caçarilhe,VISO(CAÇARILHE) (VISO),41.4229801,-8.044302450060265,NC,592.0,2009-09-29T08:00,15.4,69,9.7,13.9,0.0,0.0,0.0,0.0,0,1018.5,950.0,0,0,0,0,0.08,0.54,10.1,17.9,73,81,26.3,15.3,18.9,19.5,18.5,0.117,0.135,0.176,0.31,1,3600.0,208.1,141.2,66.9,501.0,208.1,384.3,140.0,95.0,45.0,501.0,140.0,258.5,Pinus pinaster Aiton; Magnoliopsida; Pinales; Tracheophyta
2009,2009-09-12,Braga,Celorico de Basto,Infesta,IGREJA (INFESTA) (Igreja),41.4294123,-8.0451192,NC,601.0,2009-09-12T14:00,26.7,33,9.2,26.0,0.0,0.0,0.0,0.0,0,1014.6,947.9,19,0,32,0,0.55,2.35,11.2,13.8,255,255,27.0,32.5,23.6,21.4,17.9,0.11,0.136,0.18,0.316,1,3600.0,709.7,571.4,138.3,778.3,709.7,991.9,739.0,595.0,144.0,778.3,739.0,1032.8,Pinus pinaster Aiton; Tracheophyta; Magnoliopsida; Pinales
2009,2009-09-29,Braga,Cabeceiras de Basto,Abadim,TRANCADA (ABADIM) (Trancada),41.5565621,-7.984128259352389,Desconhecida,747.0,2009-09-29T16:00,23.8,29,4.6,21.5,0.0,0.0,0.0,0.0,2,1015.0,932.1,55,0,42,98,0.22,2.1,6.8,9.4,93,94,23.8,25.5,19.5,18.3,17.3,0.101,0.147,0.217,0.319,1,3600.0,197.4,75.1,122.4,186.9,197.4,548.1,234.0,89.0,145.0,186.9,234.0,649.5,Magnoliopsida; Pinus pinaster Aiton; Tracheophyta; Eucalyptus L'Hér.
2009,2009-03-16,Braga,Fafe,Moreira do Rei,BARBOSA (MOREIRA DO REI) (Barbosa),41.48023505,-8.116233950234749,NC,525.0,2009-03-16T17:00,21.0,43,7.8,19.5,0.0,0.0,0.0,0.0,0,1019.2,959.2,0,0,0,0,0.23,1.43,6.4,11.3,106,107,22.7,17.5,12.1,8.9,7.6,0.29,0.324,0.358,0.403,1,3600.0,285.0,231.9,53.1,770.1,285.0,416.4,365.0,297.0,68.0,770.1,365.0,533.3,Tracheophyta; Magnoliopsida; Eucalyptus L'Hér.
2009,2009-09-30,Braga,Guimarães,Guardizela,R. D. JOAO(GUARDIZELA) (GUARDIZELA),41.3874758,-8.3697895,NC,167.0,2009-09-30T01:00,19.4,59,11.3,19.1,0.0,0.0,0.0,0.0,1,1014.4,994.8,40,1,23,86,0.01,0.91,4.4,4.5,99,104,8.3,19.0,22.2,20.9,19.5,0.105,0.146,0.213,0.316,0,0.0,0.0,0.0,0.0,0.0,0.0,0.0,0.0,0.0,0.0,0.0,0.0,0.0,Tracheophyta; Magnoliopsida; Eucalyptus L'Hér.; Pinus pinaster Aiton
2009,2009-09-29,Braga,Braga,Adaúfe,L. IGREJA(ADAUFE) (ADAÚFE),41.5974172,-8.41330385241841,Desconhecida,76.0,2009-09-29T02:00,18.2,54,8.7,16.3,0.0,0.0,0.0,0.0,0,1015.7,1006.7,2,0,3,0,0.06,0.97,11.0,27.0,79,89,24.1,18.4,22.4,21.3,19.9,0.102,0.143,0.21,0.314,0,0.0,0.0,0.0,0.0,0.0,0.0,0.0,0.0,0.0,0.0,0.0,0.0,0.0,Magnoliopsida; Tracheophyta; Eucalyptus L'Hér.; Pinus pinaster Aiton
2009,2009-09-29,Braga,Vila Nova de Famalicão,Sezures,MONTE(SEZURES) (Monte),41.4646932,-8.520303,NC,124.0,2009-09-29T01:00,17.4,59,9.3,15.8,0.0,0.0,0.0,0.0,0,1015.9,1001.2,2,0,3,0,0.04,0.82,9.6,22.8,70,84,20.5,18.3,22.3,21.0,19.6,0.102,0.143,0.21,0.314,0,0.0,0.0,0.0,0.0,0.0,0.0,0.0,0.0,0.0,0.0,0.0,0.0,0.0,Magnoliopsida; Tracheophyta; Eucalyptus L'Hér.
2009,2009-10-01,Braga,Barcelos,Aguiar,POMARAÇO - (AGUIAR) (Pomaraço),41.62449685,-8.655787850142348,Desconhecida,96.0,2009-10-01T09:00,18.0,81,14.7,18.6,0.0,0.0,0.0,0.0,2,1019.1,1007.7,61,64,0,11,0.14,0.39,6.1,6.8,177,177,14.8,19.9,20.5,21.0,19.7,0.1,0.145,0.215,0.318,1,3600.0,310.4,177.4,133.0,412.7,310.4,586.8,252.0,144.0,108.0,412.7,252.0,476.4,Tracheophyta; Eucalyptus L'Hér.
2009,2009-03-16,Braga,Vila Verde,Atiães,Atiães - L. MONTE,41.628951,-8.4932868,Desconhecida,92.0,2009-03-16T17:00,23.7,44,10.7,23.3,0.0,0.0,0.0,0.0,0,1018.3,1007.6,0,0,0,0,0.24,1.65,4.3,5.7,24,72,14.4,19.9,14.5,11.3,10.1,0.285,0.321,0.354,0.403,1,3600.0,288.6,232.9,55.7,763.0,288.6,422.1,368.0,297.0,71.0,763.0,368.0,538.2,Eucalyptus L'Hér.; Magnoliopsida; Pinus pinaster Aiton
2009,2009-09-27,Braga,Braga,Pedralva,IGREJA(PEDRALVA) (Igreja),41.57719105,-8.322675272587194,Desconhecida,478.0,2009-09-27T15:00,27.5,29,8.1,26.7,0.0,0.0,0.0,0.0,0,1017.5,964.0,3,0,5,0,0.41,2.6,3.8,4.4,343,351,16.2,30.5,21.2,19.5,18.4,0.104,0.148,0.222,0.321,1,3600.0,538.3,453.6,84.7,811.6,538.3,761.2,591.0,498.0,93.0,811.6,591.0,835.8,Magnoliopsida; Eucalyptus L'Hér.; Pinus pinaster Aiton; Tracheophyta; Pinales
2009,2009-09-29,Braga,Guimarães,Sande (são Clemente),L.SRª SAUDE (São Clemente),41.4834778,-8.36945167731423,NC,172.0,2009-09-29T20:00,21.1,51,10.6,20.1,0.0,0.0,0.0,0.0,1,1015.1,995.1,39,0,16,98,0.05,1.22,8.4,15.7,329,340,18.7,22.8,22.8,20.8,19.4,0.1,0.144,0.214,0.316,0,0.0,0.0,0.0,0.0,0.0,0.0,0.0,0.0,0.0,0.0,0.0,0.0,0.0,Vitis vinifera L.; Tracheophyta; Eucalyptus L'Hér.
2009,2009-10-01,Braga,Fafe,Arnozela,TARRIO (ARNOZELA) (Tarrio),41.3897004,-8.1226233,Desconhecida,629.0,2009-10-01T14:00,22.5,38,7.5,20.8,0.0,0.0,0.0,0.0,0,1018.8,947.8,6,0,0,21,0.45,1.69,11.5,14.8,266,269,33.1,25.9,18.6,18.5,17.7,0.116,0.14,0.198,0.31,1,3600.0,639.4,528.0,111.3,821.9,639.4,877.1,672.0,555.0,117.0,821.9,672.0,921.9,Pinales; Tracheophyta; Magnoliopsida; Pinus pinaster Aiton; Eucalyptus L'Hér.
2009,2009-02-25,Braga,VIZELA,Caldas De Vizela (são Miguel),MONTESINHOS(S. MIGUEL) (Monte),41.381217,-8.304166266030755,NC,173.0,2009-02-25T15:00,18.5,49,7.6,17.7,0.0,0.0,0.0,0.0,0,1021.3,1000.9,0,0,0,0,0.33,1.09,2.9,4.3,150,138,18.4,16.1,10.0,8.9,9.5,0.32,0.341,0.373,0.415,1,3600.0,533.6,457.3,76.2,884.4,533.6,722.0,581.0,498.0,83.0,884.4,581.0,786.2,Magnoliopsida; Tracheophyta; Eucalyptus L'Hér.
2009,2009-09-27,Braga,Guimarães,Atães,(ATÃES) (ATÃES),41.4643058,-8.247725524819103,NC,259.0,2009-09-27T14:00,28.9,29,9.0,29.0,0.0,0.0,0.0,0.0,0,1017.5,988.2,6,0,10,0,0.5,2.83,4.0,4.9,280,287,14.8,31.7,22.0,20.5,19.3,0.097,0.145,0.217,0.318,1,3600.0,666.0,566.8,99.2,854.4,666.0,903.6,698.0,594.0,104.0,854.4,698.0,947.0,Magnoliopsida; Eucalyptus L'Hér.; Tracheophyta
2009,2009-09-30,Braga,Fafe,Arnozela,TARRIO(ARNOZELA) (Tarrio),41.3897004,-8.1226233,Desconhecida,629.0,2009-09-30T02:00,15.6,63,8.5,14.4,0.0,0.0,0.0,0.0,1,1015.1,942.8,50,0,36,94,0.02,0.66,5.8,6.2,83,126,11.9,16.0,19.4,18.6,17.7,0.106,0.141,0.198,0.31,0,0.0,0.0,0.0,0.0,0.0,0.0,0.0,0.0,0.0,0.0,0.0,0.0,0.0,Pinales; Tracheophyta; Magnoliopsida; Pinus pinaster Aiton; Eucalyptus L'Hér.
2009,2009-09-30,Braga,Vila Verde,Lage,STA. HELENA (LAGE) (LAJE),41.6261807,-8.466666872904527,Desconhecida,77.0,2009-09-30T15:00,23.8,53,13.7,23.2,0.0,0.0,0.0,0.0,1,1015.0,1006.1,23,0,38,0,0.34,1.38,11.9,14.9,235,233,24.1,26.8,22.2,21.2,19.8,0.102,0.145,0.217,0.319,1,3600.0,427.2,309.9,117.2,569.1,427.2,743.1,470.0,341.0,129.0,569.1,470.0,817.6,Magnoliopsida; Tracheophyta; Pinus pinaster Aiton; Eucalyptus L'Hér.
2009,2009-03-16,Braga,Guimarães,Calvos,SALGUEIRINHO CIMA (CALVOS) (Salgueirinhos),41.404291,-8.244651427697441,NC,316.0,2009-03-16T16:00,22.4,41,8.4,20.7,0.0,0.0,0.0,0.0,0,1019.0,982.6,0,0,0,0,0.36,1.6,8.7,12.1,114,113,23.8,19.2,13.0,10.1,8.9,0.288,0.322,0.355,0.403,1,3600.0,473.5,402.0,71.5,857.4,473.5,648.4,543.0,461.0,82.0,857.4,543.0,743.5,Vitis vinifera L.; Tracheophyta; Eucalyptus L'Hér.; Magnoliopsida
2009,2009-03-13,Braga,Vila Verde,Valdreu,MIXÕES DA SERRA (VALDREU) (Mixões de Baixo),41.7263368,-8.316646445788313,Desconhecida,254.0,2009-03-13T11:00,20.7,41,7.1,19.5,0.0,0.0,0.0,0.0,0,1022.2,992.5,0,0,0,0,0.38,1.43,5.7,7.3,215,213,20.9,16.3,10.6,9.9,9.1,0.334,0.35,0.368,0.406,1,3600.0,663.6,569.3,94.3,890.4,663.6,885.7,612.0,525.0,87.0,890.4,612.0,816.8,Tracheophyta; Eucalyptus L'Hér.; Magnoliopsida; Acacia Mill.; Quercus L.
2009,2009-09-27,Braga,Fafe,Arões (Santa Cristina),SOUTO NOVO (ARÕES STª CRISTINA) (Cima do Souto),41.4308014,-8.2342262,Desconhecida,344.0,2009-09-27T16:00,27.4,30,8.3,25.4,0.0,0.0,0.0,0.0,0,1017.2,978.3,10,0,17,0,0.34,2.56,10.7,14.5,290,293,24.5,30.0,22.0,20.1,18.9,0.101,0.14,0.203,0.311,1,3600.0,322.2,241.4,80.8,576.3,322.2,570.7,379.0,284.0,95.0,576.3,379.0,671.3,Eucalyptus L'Hér.; Pinales; Pinus pinaster Aiton; Tracheophyta; Magnoliopsida
2009,2009-10-13,Braga,Guimarães,Conde,OUTEIRO(CONDE) (Outeiro),41.39311605,-8.332526528493043,NC,170.0,2009-10-13T13:00,21.4,37,6.3,18.6,0.0,0.0,0.0,0.0,0,1017.9,998.1,0,0,0,0,0.46,1.6,17.6,24.8,90,90,42.5,20.9,18.5,19.3,19.6,0.309,0.329,0.259,0.313,1,3600.0,679.9,591.1,88.8,923.2,679.9,880.2,689.0,599.0,90.0,923.2,689.0,892.0,Eucalyptus L'Hér.; Tracheophyta; Magnoliopsida; Vitis vinifera L.
2009,2009-09-30,Braga,Barcelos,Perelhal,ERMIDA (PERELHAL) (Ermida),41.529709,-8.693145621852857,NC,61.0,2009-09-30T13:00,23.7,53,13.6,23.4,0.0,0.0,0.0,0.0,1,1015.7,1008.6,41,0,68,0,0.4,1.38,11.2,14.7,195,191,24.1,26.6,21.9,21.3,19.8,0.104,0.145,0.211,0.315,1,3600.0,571.7,409.2,162.5,580.7,571.7,961.5,577.0,413.0,164.0,580.7,577.0,970.3,Tracheophyta; Pinus pinaster Aiton; Eucalyptus L'Hér.; Magnoliopsida
2009,2009-09-27,Braga,Barcelos,Lijó,MOSQUEIRO(LIJO) (Mosqueiro),41.5684934,-8.6135064,Desconhecida,57.0,2009-09-27T19:00,22.4,59,13.9,22.2,0.0,0.0,0.0,0.0,0,1017.7,1011.0,2,0,3,0,0.08,1.12,9.9,19.4,341,345,19.4,24.7,23.6,21.3,20.0,0.099,0.145,0.216,0.319,0,0.0,0.0,0.0,0.0,0.0,0.0,0.0,5.0,2.0,3.0,30.2,5.0,30.8,Pinus pinaster Aiton; Tracheophyta; Eucalyptus L'Hér.; Magnoliopsida
2009,2009-09-29,Braga,Vila Verde,Loureira,CARVALHOSA(LOUREIRA) (Carvalhosa),41.63780315,-8.419953253413123,Desconhecida,36.0,2009-09-29T15:00,28.2,30,9.1,26.1,0.0,0.0,0.0,0.0,1,1014.5,1010.4,36,0,13,95,0.43,2.67,12.8,15.3,286,285,23.4,30.8,23.1,21.5,20.2,0.101,0.143,0.209,0.314,1,3600.0,445.8,309.3,136.5,562.5,445.8,749.9,490.0,340.0,150.0,562.5,490.0,824.3,Vitis vinifera L.; Tracheophyta; Magnoliopsida; Pinus pinaster Aiton; Eucalyptus L'Hér.
2009,2009-09-30,Braga,Esposende,Gemeses,SOUTO(GEMESES) (Souto),41.5171755,-8.7459134,NC,17.0,2009-09-30T09:00,20.9,65,14.1,20.7,0.0,0.0,0.0,0.0,2,1015.9,1013.9,54,0,85,10,0.13,0.86,10.1,13.9,153,155,18.0,20.7,21.8,21.6,20.1,0.104,0.145,0.211,0.315,1,1505.91,179.5,47.9,131.5,110.2,179.5,593.6,146.0,39.0,107.0,110.2,146.0,482.8,Eucalyptus L'Hér.; Tracheophyta; Pinus pinaster Aiton; Magnoliopsida
2009,2009-09-27,Braga,Braga,Sobreposta,Lageosa (SOBREPOSTA),41.5596396,-8.349108738134145,Desconhecida,454.0,2009-09-27T21:00,20.1,58,11.7,20.3,0.0,0.0,0.0,0.0,0,1018.8,966.6,0,0,0,0,0.0,0.98,2.5,4.9,270,306,11.9,20.2,21.9,19.7,18.6,0.104,0.148,0.222,0.321,0,0.0,0.0,0.0,0.0,0.0,0.0,0.0,0.0,0.0,0.0,0.0,0.0,0.0,Magnoliopsida; Eucalyptus L'Hér.; Pinus pinaster Aiton
2009,2009-09-30,Braga,Barcelos,Balugães,APARECIDA (BALUGÃES) (Aparecida),41.6486244,-8.6373566,Desconhecida,111.0,2009-09-30T17:00,22.4,58,13.6,22.3,0.0,0.0,0.0,0.0,0,1015.2,1002.3,2,0,3,0,0.18,1.15,8.5,11.4,242,242,22.3,25.9,22.4,21.1,19.7,0.099,0.144,0.214,0.317,1,3600.0,183.9,128.6,55.2,552.1,183.9,317.9,253.0,177.0,76.0,552.1,253.0,437.4,Tracheophyta; Eucalyptus L'Hér.; Pinus pinaster Aiton; Magnoliopsida
2009,2009-09-28,Braga,Fafe,Golães,SAMOÇA (GOLÃES) (Samoça),41.4650753,-8.196132750072195,NC,339.0,2009-09-28T01:00,14.8,76,10.6,13.9,0.0,0.0,0.0,0.0,0,1018.4,978.4,0,0,0,0,0.01,0.41,7.6,15.0,65,73,16.2,17.1,21.8,20.4,19.2,0.099,0.142,0.208,0.313,0,0.0,0.0,0.0,0.0,0.0,0.0,0.0,0.0,0.0,0.0,0.0,0.0,0.0,Pinales; Eucalyptus L'Hér.; Magnoliopsida
2009,2009-09-30,Braga,Guimarães,Abação (são Tomé),RUA DA LIBERDADE (ABAÇÃO) (ABAÇÃO),41.411135,-8.26772784021524,NC,440.0,2009-09-30T21:00,18.2,70,12.5,18.4,0.0,0.0,0.0,0.0,0,1017.3,966.4,15,6,16,0,0.0,0.64,3.8,4.5,229,256,7.9,18.3,20.7,19.8,18.5,0.113,0.141,0.207,0.312,0,0.0,0.0,0.0,0.0,0.0,0.0,0.0,0.0,0.0,0.0,0.0,0.0,0.0,Eucalyptus L'Hér.; Tracheophyta; Magnoliopsida; Pinales; Pinus pinaster Aiton
2009,2009-10-01,Braga,Póvoa de Lanhoso,São João de Rei,CANCELOS (S. JOÃO DE REI) (Cancelos),41.5728902,-8.3657372,Desconhecida,240.0,2009-10-01T14:00,23.2,48,11.5,22.7,0.0,0.0,0.0,0.0,0,1018.9,991.2,4,0,0,15,0.43,1.48,10.9,13.4,262,262,27.7,27.2,20.4,20.1,18.9,0.106,0.146,0.221,0.321,1,3600.0,618.0,478.0,140.0,745.0,618.0,876.0,649.0,502.0,147.0,745.0,649.0,920.0,Tracheophyta; Magnoliopsida; Eucalyptus L'Hér.
2009,2009-10-01,Braga,Póvoa de Lanhoso,São João de Rei,CANCELOS (S. JOAO REI) (Cancelos),41.6227449,-8.293268526025166,Desconhecida,185.0,2009-10-01T06:00,14.8,89,13.0,15.3,0.0,0.0,0.0,0.0,1,1017.7,995.6,32,32,0,10,0.0,0.19,3.0,4.9,104,126,8.6,15.3,20.0,20.6,19.3,0.107,0.147,0.221,0.321,0,0.0,0.0,0.0,0.0,0.0,0.0,0.0,0.0,0.0,0.0,0.0,0.0,0.0,Tracheophyta; Pinus pinaster Aiton; Magnoliopsida; Eucalyptus L'Hér.; Quercus L.
2009,2009-09-28,Braga,Barcelos,Balugães,GANDRA(BALUGAES) (Gandra),41.6486244,-8.6373566,NC,111.0,2009-09-28T10:00,24.8,46,12.3,24.9,0.0,0.0,0.0,0.0,0,1019.0,1006.1,0,0,0,0,0.32,1.7,4.5,6.8,104,108,13.3,23.7,21.0,21.0,19.7,0.099,0.145,0.216,0.318,1,3600.0,544.7,449.0,95.7,777.9,544.7,786.7,484.0,399.0,85.0,777.9,484.0,699.0,Tracheophyta; Eucalyptus L'Hér.; Pinus pinaster Aiton; Magnoliopsida
2009,2009-09-29,Braga,Vila Verde,Passó,CERCA(PASSO) (Cerca),41.7146824,-8.3497284,Desconhecida,214.0,2009-09-29T22:00,19.0,66,12.5,19.1,0.0,0.0,0.0,0.0,1,1014.8,989.8,49,0,34,94,0.01,0.75,4.7,11.4,9,11,14.4,20.3,22.0,20.3,19.1,0.099,0.149,0.227,0.326,0,0.0,0.0,0.0,0.0,0.0,0.0,0.0,0.0,0.0,0.0,0.0,0.0,0.0,Pinus pinaster Aiton; Eucalyptus L'Hér.; Magnoliopsida; Vitis vinifera L.; Tracheophyta
2009,2009-09-28,Braga,Vila Verde,Gondiães,L.DA COSTA  (GONDIÃES) (GONDIÃES),41.67957865,-8.45247296377648,Desconhecida,269.0,2009-09-28T12:00,26.8,37,10.8,27.5,0.0,0.0,0.0,0.0,0,1018.4,987.8,10,0,17,0,0.48,2.22,3.5,4.9,114,107,18.7,27.8,20.4,19.8,18.6,0.101,0.148,0.225,0.325,1,3600.0,725.8,627.2,98.6,874.5,725.8,977.6,707.0,611.0,96.0,874.5,707.0,952.2,Eucalyptus L'Hér.; Magnoliopsida; Tracheophyta; Pinus pinaster Aiton
2009,2009-09-30,Braga,Celorico de Basto,Arnóia,POMBAL ( ARNOIA) (Pombal),41.39054365,-8.006846020187858,NC,220.0,2009-09-30T19:00,20.1,67,13.7,20.7,0.0,0.0,0.0,0.0,0,1016.2,990.5,5,0,9,0,0.03,0.78,4.1,4.7,285,293,12.2,22.0,22.2,21.1,20.0,0.105,0.14,0.201,0.311,0,0.0,0.0,0.0,0.0,0.0,0.0,0.0,2.0,0.0,2.0,0.0,2.0,16.1,Tracheophyta; Pinus pinaster Aiton; Magnoliopsida
2009,2009-10-03,Braga,Celorico de Basto,Basto (São Clemente),L.QUINTÃ(BASTO S.CLEMENTE) (São Clemente),41.479005,-8.061231,Desconhecida,613.0,2009-10-03T14:00,21.9,49,10.6,20.5,0.0,0.0,0.0,0.0,0,1018.5,949.2,16,12,7,2,0.39,1.35,12.6,16.2,250,249,32.4,25.1,18.0,18.8,18.1,0.115,0.145,0.215,0.317,1,3600.0,555.8,425.6,130.2,675.7,555.8,860.9,585.0,448.0,137.0,675.7,585.0,906.2,Magnoliopsida; Pinus pinaster Aiton; Tracheophyta; Pinales
2009,2009-09-28,Braga,Celorico de Basto,Ribas,CERDEIRA (RIBAS) (Cerdeira),41.4568185,-8.017551136386082,Desconhecida,362.0,2009-09-28T22:00,17.7,54,8.3,15.9,0.0,0.0,0.0,0.0,0,1017.0,974.8,1,0,2,0,0.05,0.93,9.4,9.2,58,59,15.1,19.2,22.0,20.3,19.1,0.097,0.138,0.197,0.308,0,0.0,0.0,0.0,0.0,0.0,0.0,0.0,0.0,0.0,0.0,0.0,0.0,0.0,Magnoliopsida; Tracheophyta; Vitis vinifera L.; Eucalyptus L'Hér.; Pinus pinaster Aiton
2009,2009-03-16,Braga,Fafe,Regadas,AREDE(REGADAS) (Arede),41.3906143,-8.1536889,Desconhecida,423.0,2009-03-16T09:00,13.6,64,7.0,11.1,0.0,0.0,0.0,0.0,0,1021.6,971.6,0,0,0,0,0.15,0.56,12.1,22.1,78,84,29.2,10.7,9.9,9.3,8.2,0.301,0.326,0.356,0.403,1,3600.0,369.0,288.1,80.9,706.3,369.0,564.2,292.0,228.0,64.0,706.3,292.0,446.5,Eucalyptus L'Hér.; Magnoliopsida; Tracheophyta; Pinales
2009,2009-09-28,Braga,Fafe,Fafe,URBº SOL POENTE (FAFE),41.4468733,-8.180584376446348,NC,343.0,2009-09-28T23:00,16.4,57,7.8,14.7,0.0,0.0,0.0,0.0,0,1016.8,976.6,3,0,5,0,0.03,0.8,7.7,14.2,62,74,17.3,18.2,21.8,20.2,19.0,0.1,0.14,0.203,0.311,0,0.0,0.0,0.0,0.0,0.0,0.0,0.0,0.0,0.0,0.0,0.0,0.0,0.0,Magnoliopsida; Pinus pinaster Aiton; Tracheophyta; Eucalyptus L'Hér.
2009,2009-09-27,Braga,Guimarães,Brito,RUA CAMÕES (BRITO) (BRITO),41.45071425,-8.361856568447685,NC,127.0,2009-09-27T16:00,27.8,34,10.6,26.1,0.0,0.0,0.0,0.0,0,1017.2,1002.7,3,0,5,0,0.37,2.47,13.4,19.5,306,309,27.0,30.4,23.0,21.0,19.7,0.102,0.145,0.215,0.317,1,3600.0,338.6,258.6,80.0,615.3,338.6,572.6,398.0,304.0,94.0,615.3,398.0,673.0,Tracheophyta; Magnoliopsida; Quercus L.; Eucalyptus L'Hér.
2009,2009-09-30,Braga,Barcelos,Abade de Neiva,SARDOAL ( ABADE NEIVA) (Sardoal),41.5550286,-8.63940610432154,NC,129.0,2009-09-30T18:00,21.0,65,14.1,21.6,0.0,0.0,0.0,0.0,0,1015.4,1000.3,0,0,0,0,0.06,0.88,4.7,7.6,270,273,18.0,24.1,22.3,21.0,19.6,0.099,0.144,0.214,0.317,1,3088.02,30.1,17.9,12.2,205.7,27.4,61.5,94.0,56.0,38.0,362.7,94.0,192.1,Eucalyptus L'Hér.; Vitis vinifera L.; Tracheophyta; Pinus pinaster Aiton
2009,2009-10-01,Braga,Braga,Braga (são Vicente),QUINTA DE CABANAS (S. VICENTE) (Quinta),41.56249955,-8.429867703056743,Desconhecida,98.0,2009-10-01T12:00,23.5,51,12.7,23.8,0.0,0.0,0.0,0.0,0,1019.4,1008.0,16,0,0,54,0.42,1.42,6.7,7.7,234,229,22.0,26.5,20.8,21.1,19.8,0.107,0.147,0.221,0.321,1,3600.0,644.8,495.9,148.9,704.3,644.8,961.4,628.0,483.0,145.0,704.3,628.0,936.3,Tracheophyta; Magnoliopsida
2009,2009-10-01,Braga,Fafe,Quinchães,PORTELA(QUINCHAES) (Portela),41.433209950000006,-8.14012539283317,NC,500.0,2009-10-01T03:00,14.9,84,12.3,15.3,0.0,0.0,0.0,0.0,0,1017.0,958.8,2,0,0,6,0.0,0.26,1.9,3.3,158,257,9.0,14.2,19.1,19.4,18.5,0.118,0.141,0.198,0.31,0,0.0,0.0,0.0,0.0,0.0,0.0,0.0,0.0,0.0,0.0,0.0,0.0,0.0,Magnoliopsida; Tracheophyta; Pinales; Eucalyptus L'Hér.
2009,2009-10-01,Braga,Vila Verde,Valdreu,QUINTÃES (VALDREU) (Quintães),41.7263368,-8.316646445788313,Desconhecida,254.0,2009-10-01T14:00,24.1,44,11.2,23.4,0.0,0.0,0.0,0.0,0,1019.1,989.9,14,0,0,46,0.42,1.67,9.6,11.8,257,258,26.6,27.5,20.6,20.4,19.3,0.113,0.151,0.229,0.327,1,3600.0,579.9,420.9,159.0,657.5,579.9,874.0,609.0,442.0,167.0,657.5,609.0,917.8,Tracheophyta; Eucalyptus L'Hér.; Magnoliopsida; Acacia Mill.; Quercus L.
2009,2009-10-03,Braga,Celorico de Basto,Ribas,GANDARELA(RIVAS) (Gandarela),41.4547262,-8.0174719,NC,331.0,2009-10-03T00:00,14.7,80,11.3,14.6,0.0,0.0,0.0,0.0,0,1020.9,981.7,0,0,0,0,0.0,0.33,3.4,2.0,72,135,7.2,14.4,19.8,20.4,19.4,0.106,0.138,0.195,0.306,0,0.0,0.0,0.0,0.0,0.0,0.0,0.0,0.0,0.0,0.0,0.0,0.0,0.0,Magnoliopsida; Tracheophyta; Vitis vinifera L.; Eucalyptus L'Hér.; Pinus pinaster Aiton
2009,2009-09-30,Braga,Celorico de Basto,Borba de Montanha,QUINTELA(BORBA) (Quintela),41.3854212,-8.0916897,NC,551.0,2009-09-30T01:00,16.9,59,8.8,15.7,0.0,0.0,0.0,0.0,1,1015.3,951.9,46,0,29,94,0.02,0.79,6.5,7.4,84,113,11.5,17.1,20.1,19.1,18.2,0.106,0.141,0.198,0.31,0,0.0,0.0,0.0,0.0,0.0,0.0,0.0,0.0,0.0,0.0,0.0,0.0,0.0,Pinus pinaster Aiton; Vitis vinifera L.; Magnoliopsida; Tracheophyta
2009,2009-09-29,Braga,Vila Verde,Portela das Cabras,L. VILA (PORTELA DAS CABRAS) (PORTELA DAS CABRAS),41.669306000000006,-8.501353551875118,Desconhecida,270.0,2009-09-29T00:00,15.6,72,10.5,14.7,0.0,0.0,0.0,0.0,0,1016.6,984.7,1,0,2,0,0.01,0.5,7.2,11.9,72,88,17.3,17.3,21.4,19.9,18.6,0.1,0.148,0.224,0.325,0,0.0,0.0,0.0,0.0,0.0,0.0,0.0,0.0,0.0,0.0,0.0,0.0,0.0,Pinus pinaster Aiton; Tracheophyta; Magnoliopsida; Eucalyptus L'Hér.
2009,2009-09-27,Braga,Fafe,Quinchães,CASADELA (QUINCHÃES) (Casadela),41.45156195,-8.14628494042217,Desconhecida,413.0,2009-09-27T18:00,24.8,40,10.1,23.9,0.0,0.0,0.0,0.0,0,1017.9,971.0,0,0,0,0,0.1,1.9,6.6,14.7,292,301,25.9,26.5,22.2,20.0,18.9,0.099,0.14,0.203,0.311,1,3269.14,29.8,16.0,13.8,183.2,28.1,74.6,82.0,44.0,38.0,275.5,82.0,205.5,Tracheophyta; Magnoliopsida; Pinales; Vitis vinifera L.
2009,2009-09-29,Braga,Fafe,São Gens,L. PICA D´ALEM (SÃO GENS),41.4468161,-8.13452635762129,NC,429.0,2009-09-29T01:00,15.1,56,6.3,12.4,0.0,0.0,0.0,0.0,0,1017.0,966.8,2,0,3,0,0.06,0.76,12.3,21.4,75,77,31.3,16.4,21.0,19.9,18.7,0.097,0.138,0.197,0.308,0,0.0,0.0,0.0,0.0,0.0,0.0,0.0,0.0,0.0,0.0,0.0,0.0,0.0,Tracheophyta; Eucalyptus L'Hér.; Magnoliopsida; Pinales
2009,2009-10-01,Braga,Barcelos,Abade de Neiva,SARDOAL (ABADE DE NEIVA) (Sardoal),41.5550286,-8.63940610432154,NC,129.0,2009-10-01T16:00,21.6,59,13.4,21.1,0.0,0.0,0.0,0.0,1,1019.6,1004.5,36,9,0,92,0.24,1.05,11.4,13.0,288,289,22.3,26.6,21.7,20.9,19.6,0.098,0.144,0.213,0.317,1,3600.0,289.0,155.5,133.5,388.1,289.0,546.9,342.0,184.0,158.0,388.1,342.0,647.3,Eucalyptus L'Hér.; Vitis vinifera L.; Tracheophyta; Pinus pinaster Aiton
2009,2009-03-16,Braga,Braga,Vilaça,ZONA INDUSTRIAL(VILAÇA) (VILAÇA),41.51604735,-8.483833859911854,Desconhecida,162.0,2009-03-16T22:00,11.9,80,8.6,10.4,0.0,0.0,0.0,0.0,0,1019.3,999.7,0,0,0,0,0.0,0.28,7.6,11.6,59,54,14.8,12.2,13.9,11.1,9.8,0.282,0.316,0.351,0.402,0,0.0,0.0,0.0,0.0,0.0,0.0,0.0,0.0,0.0,0.0,0.0,0.0,0.0,Tracheophyta; Eucalyptus L'Hér.; Pinus pinaster Aiton; Magnoliopsida
2009,2009-10-01,Braga,Barcelos,Carvalhal,RUA DO OUTEIRO(CARVALHAL) (CARVALHAL),41.519811,-8.6345309,Desconhecida,28.0,2009-10-01T20:00,17.8,81,14.5,18.4,0.0,0.0,0.0,0.0,1,1020.9,1017.6,30,12,0,63,0.0,0.39,6.1,8.8,332,341,12.2,20.7,22.3,21.6,20.2,0.102,0.142,0.206,0.312,0,0.0,0.0,0.0,0.0,0.0,0.0,0.0,0.0,0.0,0.0,0.0,0.0,0.0,Magnoliopsida; Tracheophyta; Pinus pinaster Aiton
2009,2009-10-01,Braga,Guimarães,Mesão Frio,DEVESA (MESÃO FRIO) (Devesa),41.452952,-8.2643426,Desconhecida,324.0,2009-10-01T14:00,23.5,45,10.9,22.8,0.0,0.0,0.0,0.0,0,1018.9,981.7,4,0,0,15,0.44,1.6,10.9,13.4,262,262,27.7,27.5,20.4,20.2,19.0,0.105,0.144,0.214,0.316,1,3600.0,617.9,478.0,140.0,743.2,617.9,878.0,649.0,502.0,147.0,743.2,649.0,922.1,Pinus pinaster Aiton; Tracheophyta; Eucalyptus L'Hér.; Magnoliopsida
2009,2009-10-01,Braga,Fafe,Golães,RUA ALTO SAMOÇA (GOLÃES) (GOLÃES),41.4650753,-8.196132750072195,NC,339.0,2009-10-01T21:00,16.9,78,13.0,17.7,0.0,0.0,0.0,0.0,0,1021.1,981.3,14,0,0,47,0.0,0.43,1.1,0.8,252,297,6.1,18.4,21.1,20.5,19.3,0.11,0.141,0.206,0.312,0,0.0,0.0,0.0,0.0,0.0,0.0,0.0,0.0,0.0,0.0,0.0,0.0,0.0,Pinales; Eucalyptus L'Hér.; Magnoliopsida
2009,2009-10-03,Braga,Vila Verde,Lage,MONTE STª HELENA(LAGE) (Casal do Monte),41.6261807,-8.466666872904527,Desconhecida,77.0,2009-10-03T12:00,23.2,48,11.6,22.0,0.0,0.0,0.0,0.0,1,1018.8,1009.8,49,21,21,57,0.39,1.48,11.5,14.5,194,187,22.7,25.4,19.6,20.9,19.9,0.1,0.145,0.216,0.318,1,3600.0,577.0,377.9,199.2,544.5,577.0,948.4,562.0,368.0,194.0,544.5,562.0,923.7,Magnoliopsida; Tracheophyta; Pinus pinaster Aiton; Eucalyptus L'Hér.
2009,2009-10-01,Braga,Guimarães,Sande (são Clemente),SRª DA SAÚDE (S.CLEMENTE) (Senhora da Saúde),41.4834778,-8.36945167731423,NC,172.0,2009-10-01T20:00,17.3,82,14.2,18.2,0.0,0.0,0.0,0.0,1,1020.8,1000.4,21,0,0,69,0.0,0.35,3.1,4.8,306,333,9.7,20.2,21.6,20.8,19.5,0.105,0.144,0.213,0.316,0,0.0,0.0,0.0,0.0,0.0,0.0,0.0,0.0,0.0,0.0,0.0,0.0,0.0,Vitis vinifera L.; Tracheophyta; Eucalyptus L'Hér.
2009,2009-10-16,Braga,Fafe,Várzea Cova,(VARZEA COVA) (VÁRZEA COVA),41.5085893,-8.0696939,NC,476.0,2009-10-16T11:00,13.6,32,-2.8,8.5,0.0,0.0,0.0,0.0,0,1022.4,966.3,0,0,0,0,0.33,1.06,18.7,26.3,88,88,50.0,14.2,13.5,17.3,18.6,0.262,0.296,0.231,0.307,1,3600.0,637.9,549.0,89.0,925.1,637.9,817.1,595.0,512.0,83.0,925.1,595.0,762.1,Magnoliopsida; Tracheophyta
2009,2009-10-01,Braga,Vila Nova de Famalicão,Lagoa,AV. 1 MAIO (LAGOA) (Agra Maior),41.38883665,-8.488305667485236,NC,70.0,2009-10-01T22:00,16.6,87,14.4,17.8,0.0,0.0,0.0,0.0,0,1021.3,1012.9,9,1,0,28,0.0,0.25,2.1,2.3,329,18,7.2,18.4,22.0,21.6,20.1,0.122,0.139,0.192,0.315,0,0.0,0.0,0.0,0.0,0.0,0.0,0.0,0.0,0.0,0.0,0.0,0.0,0.0,Tracheophyta; Pinus pinaster Aiton; Magnoliopsida; Vitis vinifera L.
2009,2009-10-04,Braga,Celorico de Basto,Arnóia,ALTO DO CABO (ARNOIA) (Alto),41.39054365,-8.006846020187858,NC,220.0,2009-10-04T07:00,18.4,94,17.4,20.6,0.2,0.2,0.0,0.0,51,1016.3,990.5,100,51,72,95,0.02,0.14,3.2,8.1,117,135,13.3,18.9,20.4,20.8,20.1,0.107,0.14,0.2,0.31,1,0.0,5.0,0.0,5.0,0.0,2.0,102.0,2.0,0.0,2.0,0.0,2.0,41.2,Tracheophyta; Pinus pinaster Aiton; Magnoliopsida
2009,2009-10-01,Braga,Vizela,Tagilde,TORRE(TAGILDE) (Torre),41.38681455,-8.258183304744154,NC,172.0,2009-10-01T14:00,23.6,49,12.2,23.0,0.0,0.0,0.0,0.0,0,1019.1,999.2,9,1,0,27,0.42,1.49,10.9,13.1,261,261,26.3,27.6,21.0,20.8,19.5,0.106,0.144,0.213,0.316,1,3600.0,578.1,400.0,178.1,620.7,578.1,879.9,607.0,420.0,187.0,620.7,607.0,923.9,Tracheophyta; Pinus pinaster Aiton; Magnoliopsida; Eucalyptus L'Hér.
2009,2009-10-03,Braga,Vieira do Minho,Mosteiro,L. RIO LONGO(MOSTEIRO) (MOSTEIRO),41.6198062,-8.1351963,Desconhecida,351.0,2009-10-03T14:00,23.2,47,11.3,22.0,0.0,0.0,0.0,0.0,1,1018.4,978.2,33,24,19,1,0.4,1.51,11.8,15.1,243,242,28.1,26.6,19.2,20.1,19.2,0.106,0.141,0.206,0.311,1,3600.0,536.4,401.4,135.1,636.6,536.4,861.8,564.0,422.0,142.0,636.6,564.0,906.0,Pinus pinaster Aiton; Quercus L.
2009,2009-10-02,Braga,Celorico de Basto,Arnóia,CASTELO (ARNOIA) (Castelo),41.39054365,-8.006846020187858,NC,220.0,2009-10-02T06:00,14.3,87,12.1,14.3,0.0,0.0,0.0,0.0,3,1021.2,994.9,90,100,0,0,0.0,0.21,4.1,1.4,105,180,7.6,12.6,19.7,21.0,20.0,0.102,0.14,0.201,0.311,0,0.0,0.0,0.0,0.0,0.0,0.0,0.0,0.0,0.0,0.0,0.0,0.0,0.0,Tracheophyta; Pinus pinaster Aiton; Magnoliopsida
2009,2009-10-15,Braga,Guimarães,Atães,CABEÇO DO MOÇO(ATAES) (Cabeço),41.4643058,-8.247725524819103,NC,259.0,2009-10-15T11:00,19.7,40,5.7,15.8,0.0,0.0,0.0,0.0,0,1017.5,987.3,0,0,0,0,0.38,1.37,19.9,28.6,85,85,42.8,17.8,15.6,18.6,19.5,0.284,0.311,0.258,0.314,1,3600.0,615.7,525.6,90.1,879.1,615.7,822.8,574.0,490.0,84.0,879.1,574.0,767.1,Magnoliopsida; Eucalyptus L'Hér.; Tracheophyta
2009,2009-10-02,Braga,Vila Nova de Famalicão,Oliveira (santa Maria),RUA FONTE NOVA (OLIVEIRA STª MARIA) (Rua Tapada da Fonte),41.40652995,-8.410710210265893,NC,169.0,2009-10-02T00:00,15.8,87,13.6,16.7,0.0,0.0,0.0,0.0,0,1020.9,1000.7,16,11,0,19,0.0,0.24,1.6,1.1,27,108,5.8,15.8,20.9,20.8,19.6,0.109,0.145,0.212,0.316,0,0.0,0.0,0.0,0.0,0.0,0.0,0.0,0.0,0.0,0.0,0.0,0.0,0.0,Tracheophyta; Vitis vinifera L.; Eucalyptus L'Hér.
2009,2009-09-30,Braga,Cabeceiras de Basto,Outeiro,ERVIDEIRO (OUTEIRO) (ERVIDEIRO),41.5093153,-8.036059588052112,NC,620.0,2009-09-30T20:00,16.8,76,12.5,17.0,0.0,0.0,0.0,0.0,1,1016.9,945.7,20,13,14,1,0.0,0.46,4.2,4.7,250,266,11.2,18.5,20.1,19.5,18.4,0.138,0.136,0.182,0.309,0,0.0,0.0,0.0,0.0,0.0,0.0,0.0,0.0,0.0,0.0,0.0,0.0,0.0,Magnoliopsida; Tracheophyta; Vitis vinifera L.
2009,2009-10-16,Braga,Vila Verde,Carreiras (são Miguel),L. MONTE MAIOR (CARREIRAS S. MIGUEL) (Lugar do Monte),41.6560713,-8.4914409,Desconhecida,129.0,2009-10-16T06:00,8.9,40,-3.9,4.5,0.0,0.0,0.0,0.0,0,1018.5,1002.7,0,0,0,0,0.06,0.68,11.6,19.5,97,94,25.2,10.5,15.3,18.7,19.6,0.294,0.317,0.293,0.321,0,0.0,0.0,0.0,0.0,0.0,0.0,0.0,0.0,0.0,0.0,0.0,0.0,0.0,Pinus pinaster Aiton; Eucalyptus L'Hér.; Magnoliopsida; Tracheophyta
2009,2009-10-04,Braga,Fafe,Ardegão,STª.MARINHA (ARDEGÃO) (Ardegão),41.39957525,-8.130573324460432,NC,558.0,2009-10-04T12:00,21.5,71,16.0,22.0,3.8,3.8,0.0,0.0,63,1015.9,952.6,96,49,38,98,0.18,0.75,11.2,15.1,195,192,43.6,22.2,18.6,18.7,18.2,0.119,0.14,0.197,0.309,1,0.0,240.0,31.8,208.2,45.9,240.0,948.0,234.0,31.0,203.0,45.9,234.0,924.3,Magnoliopsida; Pinales
2009,2009-09-30,Braga,Barcelos,Mariz,VILAR (MARIZ) (AREIAS DE VILAR),41.52729755,-8.667218407927539,Desconhecida,48.0,2009-09-30T23:00,18.2,89,16.3,19.9,0.0,0.0,0.0,0.0,1,1016.9,1011.2,30,31,3,0,0.0,0.24,2.9,4.6,173,162,7.6,18.4,22.2,21.4,20.0,0.104,0.145,0.211,0.315,0,0.0,0.0,0.0,0.0,0.0,0.0,0.0,0.0,0.0,0.0,0.0,0.0,0.0,Eucalyptus L'Hér.; Tracheophyta; Pinus pinaster Aiton
2009,2009-09-12,Braga,Guimarães,Gondomar,BOUÇA DA LAGE(GONDOMAR) (Bouça),41.52654655,-8.273177603924456,NC,170.0,2009-09-12T18:00,21.2,75,16.7,22.5,0.0,0.0,0.0,0.0,0,1014.7,994.9,5,3,1,5,0.09,0.62,7.4,9.5,241,241,20.9,26.2,24.2,21.8,18.8,0.098,0.155,0.236,0.328,1,3600.0,81.5,37.8,43.8,264.8,81.5,192.6,136.0,63.0,73.0,264.8,136.0,321.4,Magnoliopsida; Eucalyptus L'Hér.; Pinales; Tracheophyta
2009,2009-10-04,Braga,Guimarães,Serzedelo,L. VARZEA (SERZEDELO) (SERZEDELO),41.4023385,-8.369240901280321,NC,146.0,2009-10-04T14:00,22.2,81,18.7,22.7,0.3,0.3,0.0,0.0,51,1014.4,997.4,50,15,28,67,0.24,0.52,18.6,24.5,224,223,43.6,23.3,20.5,20.7,19.8,0.171,0.145,0.212,0.315,1,3600.0,366.1,143.6,222.5,228.3,366.1,860.1,385.0,151.0,234.0,228.3,385.0,904.6,Magnoliopsida; Tracheophyta; Vitis vinifera L.; Eucalyptus L'Hér.
2009,2009-10-02,Braga,Esposende,Gemeses,ERMIDA (GEMESES) (GEMEZES),41.5171755,-8.7459134,NC,17.0,2009-10-02T17:00,20.5,67,14.0,20.2,0.0,0.0,0.0,0.0,0,1020.3,1018.3,0,0,0,0,0.17,0.81,10.5,12.5,308,311,23.4,24.8,21.4,21.4,20.2,0.103,0.144,0.21,0.315,1,3600.0,189.7,140.8,48.9,629.0,189.7,305.8,264.0,196.0,68.0,629.0,264.0,425.7,Eucalyptus L'Hér.; Tracheophyta; Pinus pinaster Aiton; Magnoliopsida
2009,2009-10-03,Braga,Cabeceiras de Basto,Rio Douro,ASNELA (RIO DOURO) (Asnela),41.5565621,-7.984128259352389,Desconhecida,747.0,2009-10-03T14:00,21.2,48,9.9,19.7,0.0,0.0,0.0,0.0,0,1018.2,934.3,11,5,3,17,0.38,1.3,11.3,15.0,243,246,30.2,24.2,17.1,18.0,17.3,0.117,0.146,0.215,0.317,1,3600.0,542.3,395.1,147.2,628.7,542.3,858.9,571.0,416.0,155.0,628.7,571.0,904.4,Magnoliopsida; Pinus pinaster Aiton; Tracheophyta; Eucalyptus L'Hér.
2009,2009-10-02,Braga,Barcelos,Abade de Neiva,SARDOAL(ABADE NEIVA) (Sardoal),41.5514443,-8.624704111524998,NC,72.0,2009-10-02T11:00,20.4,61,12.7,21.1,0.0,0.0,0.0,0.0,0,1022.1,1013.6,5,1,0,15,0.35,0.93,2.5,2.5,270,270,15.5,23.6,19.9,21.3,20.0,0.099,0.144,0.213,0.317,1,3600.0,630.0,497.4,132.6,760.1,630.0,893.8,589.0,465.0,124.0,760.1,589.0,835.6,Eucalyptus L'Hér.; Magnoliopsida; Vitis vinifera L.; Tracheophyta; Pinus pinaster Aiton
2009,2009-10-03,Braga,Braga,Pedralva,OUTEIRO (Outeiral),41.5599098,-8.3208927,Desconhecida,387.0,2009-10-03T17:00,19.9,65,13.1,19.8,0.0,0.0,0.0,0.0,3,1018.1,973.4,94,36,53,98,0.12,0.81,7.6,10.2,262,262,24.5,23.0,19.2,19.4,18.5,0.106,0.146,0.22,0.32,1,3600.0,108.8,49.4,59.3,233.5,108.8,289.5,154.0,70.0,84.0,233.5,154.0,409.8,Pinus pinaster Aiton; Eucalyptus L'Hér.
2009,2009-09-12,Braga,Vila Nova de Famalicão,Calendário,L. OUTEIRO(CALENDARIO) (CALENDÁRIO),41.4010249,-8.525828120666462,Desconhecida,101.0,2009-09-12T21:00,18.5,91,16.9,20.3,0.0,0.0,0.0,0.0,1,1015.9,1004.0,46,51,0,1,0.0,0.2,4.2,5.5,160,157,10.8,21.8,24.2,22.3,19.4,0.116,0.144,0.202,0.322,0,0.0,0.0,0.0,0.0,0.0,0.0,0.0,0.0,0.0,0.0,0.0,0.0,0.0,Tracheophyta; Magnoliopsida
2009,2009-10-13,Braga,Barcelos,Tamel (Santa Leocádia),VARZIELA (TAMEL STª LEOCADIA) (Varziela),41.576985050000005,-8.656226349459738,Desconhecida,234.0,2009-10-13T16:00,22.6,37,7.3,20.3,0.0,0.0,0.0,0.0,0,1016.9,989.8,0,0,0,0,0.29,1.72,10.7,18.7,102,101,29.2,21.4,18.9,18.9,19.1,0.315,0.337,0.293,0.321,1,3600.0,323.3,263.5,59.7,790.0,323.3,458.6,395.0,322.0,73.0,790.0,395.0,560.3,Eucalyptus L'Hér.; Magnoliopsida; Tracheophyta; Pinus pinaster Aiton
2009,2009-09-29,Braga,Barcelos,Abade de Neiva,SARDOAL(ABADE  DE NEIVA) (Sardoal),41.5550286,-8.63940610432154,NC,129.0,2009-09-29T07:00,16.2,68,10.3,14.3,0.0,0.0,0.0,0.0,0,1016.3,1001.0,0,0,0,1,0.06,0.59,13.7,25.2,104,107,24.1,16.8,21.1,20.9,19.5,0.098,0.144,0.215,0.318,1,0.0,21.7,9.6,12.1,110.6,9.7,115.0,9.0,4.0,5.0,51.0,9.0,47.7,Eucalyptus L'Hér.; Vitis vinifera L.; Tracheophyta; Pinus pinaster Aiton
2009,2009-10-14,Braga,Vila Nova de Famalicão,Lousado,GARRIDA (LOUSADO) (Garrida),41.3570723,-8.5270427,NC,59.0,2009-10-14T12:00,22.5,42,8.9,20.8,0.0,0.0,0.0,0.0,0,1017.5,1010.6,8,0,0,27,0.43,1.58,13.7,18.0,90,92,26.3,21.3,18.4,20.0,20.3,0.298,0.313,0.23,0.313,1,3600.0,666.5,573.0,93.4,889.6,666.5,886.0,649.0,558.0,91.0,889.6,649.0,862.8,Eucalyptus L'Hér.; Pinus pinaster Aiton; Vitis vinifera L.; Magnoliopsida; Tracheophyta
2009,2009-09-28,Braga,Braga,Pedralva,SERRA DO CARVALHO (PEDRALVA) (Serra),41.57719105,-8.322675272587194,Desconhecida,478.0,2009-09-28T05:00,13.7,75,9.3,12.0,0.0,0.0,0.0,0.0,0,1019.3,963.2,0,0,0,0,0.02,0.4,10.1,18.1,84,85,26.3,15.1,20.1,19.6,18.5,0.104,0.148,0.222,0.321,0,0.0,0.0,0.0,0.0,0.0,0.0,0.0,0.0,0.0,0.0,0.0,0.0,0.0,Magnoliopsida; Eucalyptus L'Hér.; Pinus pinaster Aiton; Tracheophyta; Pinales
2009,2009-03-16,Braga,Celorico de Basto,Basto (Santa Tecla),LEVANDEIRA(TECLA) (Levandeira),41.3857262,-8.047076446852284,NC,300.0,2009-03-16T22:00,11.8,71,6.7,9.7,0.0,0.0,0.0,0.0,0,1019.4,983.5,0,0,0,0,0.02,0.4,8.6,12.1,92,67,16.9,11.2,13.0,10.1,8.8,0.295,0.327,0.36,0.403,0,0.0,0.0,0.0,0.0,0.0,0.0,0.0,0.0,0.0,0.0,0.0,0.0,0.0,Olea europaea L.; Magnoliopsida; Tracheophyta; Pinus pinaster Aiton; Vitis vinifera L.
2009,2009-10-16,Braga,Fafe,São Gens,RUIVÃES (S. GENS) (Ruivães),41.4468161,-8.13452635762129,Desconhecida,429.0,2009-10-16T21:00,9.2,38,-4.3,4.7,0.0,0.0,0.0,0.0,0,1020.7,969.3,0,0,0,0,0.07,0.72,12.6,22.0,93,94,33.5,10.8,14.6,17.4,18.7,0.239,0.284,0.214,0.304,0,0.0,0.0,0.0,0.0,0.0,0.0,0.0,0.0,0.0,0.0,0.0,0.0,0.0,Tracheophyta; Eucalyptus L'Hér.; Magnoliopsida; Pinales
2009,2009-03-16,Braga,Guimarães,Prazins (santo Tirso),RUA 1ºMAIO(PRAZINS STO TIRSO) (Santo Tirso),41.48338955,-8.307207931573364,NC,192.0,2009-03-16T19:00,22.2,38,7.2,20.6,0.0,0.0,0.0,0.0,0,1018.8,996.5,0,0,0,0,0.07,1.65,6.0,5.6,17,45,10.1,16.0,14.4,11.0,9.7,0.279,0.317,0.352,0.402,0,465.45,0.0,0.0,0.0,0.0,0.0,0.0,23.0,12.0,11.0,125.5,23.0,72.2,Magnoliopsida; Eucalyptus L'Hér.; Tracheophyta
2009,2009-09-28,Braga,Amares,Besteiros,L. (BESTEIROS) (BESTEIROS),41.638628100000005,-8.371362135618773,Desconhecida,128.0,2009-09-28T06:00,14.6,79,11.1,13.8,0.0,0.0,0.0,0.0,0,1018.1,1002.8,0,0,0,0,0.01,0.35,8.2,17.7,75,92,17.6,16.0,21.1,20.8,19.6,0.101,0.148,0.223,0.322,0,0.0,0.0,0.0,0.0,0.0,0.0,0.0,0.0,0.0,0.0,0.0,0.0,0.0,Pinus pinaster Aiton; Tracheophyta; Magnoliopsida; Vitis vinifera L.; Eucalyptus L'Hér.; 
2009,2009-09-29,Braga,Fafe,Queimadela,BARRAGEM (QUEIMADELA) (Barranca),41.5153906,-8.156642079484353,NC,516.0,2009-09-29T13:00,25.5,32,7.4,24.5,0.0,0.0,0.0,0.0,1,1015.7,957.8,29,0,0,97,0.51,2.22,8.8,11.4,71,72,31.3,27.8,20.1,19.4,18.2,0.102,0.147,0.221,0.321,1,3600.0,709.5,570.0,139.5,804.9,709.5,965.7,717.0,576.0,141.0,804.9,717.0,975.9,Magnoliopsida; Tracheophyta; Pinales
