year,date,district,municipality,parish,local,latitude,longitude,cause,elevation,hourly.time,hourly.temperature_2m,hourly.relative_humidity_2m,hourly.dew_point_2m,hourly.apparent_temperature,hourly.precipitation,hourly.rain,hourly.snowfall,hourly.snow_depth,hourly.weather_code,hourly.pressure_msl,hourly.surface_pressure,hourly.cloud_cover,hourly.cloud_cover_low,hourly.cloud_cover_mid,hourly.cloud_cover_high,hourly.et0_fao_evapotranspiration,hourly.vapour_pressure_deficit,hourly.wind_speed_10m,hourly.wind_speed_100m,hourly.wind_direction_10m,hourly.wind_direction_100m,hourly.wind_gusts_10m,hourly.soil_temperature_0_to_7cm,hourly.soil_temperature_7_to_28cm,hourly.soil_temperature_28_to_100cm,hourly.soil_temperature_100_to_255cm,hourly.soil_moisture_0_to_7cm,hourly.soil_moisture_7_to_28cm,hourly.soil_moisture_28_to_100cm,hourly.soil_moisture_100_to_255cm,hourly.is_day,hourly.sunshine_duration,hourly.shortwave_radiation_instant,hourly.direct_radiation_instant,hourly.diffuse_radiation_instant,hourly.direct_normal_irradiance_instant,hourly.global_tilted_irradiance_instant,hourly.terrestrial_radiation_instant,hourly.shortwave_radiation,hourly.direct_radiation,hourly.diffuse_radiation,hourly.direct_normal_irradiance,hourly.global_tilted_irradiance,hourly.terrestrial_radiation2010,2010-02-14,Porto,Vila Nova de Gaia,Oliveira do Douro,Monte da Virgem,41.11258085,-8.597501604999291,NC,206.0,2010-02-14T17:00,8.1,49,-2.0,3.8,0.0,0.0.1,0.0.2,0.0.3,3,1004.1,979.3,85,0,92,100,0.11,0.55,12.6,21.6,87,93,31.7,7.4,5.6,8.5,11.5,0.371,0.382,0.389,0.411,1,3600.0,128.9,47.4,81.6,253.2,128.9.1,262.6,185.0,68.0,117.0,253.2.1,185.0.1,376.8,scientificNames
2010,2010-07-30,Braga,Póvoa de Lanhoso,Covelas,L. IGREJA(COVELAS) (FRIANDE),41.5936786,-8.3311061,NC,245.0,2010-07-30T22:00,27.8,52,17.0,30.0,0.0,0.0,0.0,0.0,0,1012.4,984.7,0,0,0,0,0.0,1.8,1.8,0.7,143,90,7.6,27.1,28.0,22.5,17.2,0.097,0.155,0.245,0.35,0,0.0,0.0,0.0,0.0,0.0,0.0,0.0,0.0,0.0,0.0,0.0,0.0,0.0,,,,,,,,,,,,,,,,,,,,,,,,,,,,,,,,,,,,,,,,,,,,,,,,,,,,,,,Pinus pinaster Aiton; Tracheophyta; Magnoliopsida; Eucalyptus L'Hér.; Pinus pinea L.
2010,2010-08-13,Porto,Vila Nova de Gaia,Vilar de Andorinho,RUA BENTO ISPINOSA (Recanto de São Bento),41.1032455,-8.5767749,NC,155.0,2010-08-13T10:00,24.5,41,10.4,23.1,0.0,0.0,0.0,0.0,0,1017.0,999.1,0,0,0,0,0.46,1.81,14.1,18.2,52,56,34.2,26.2,24.2,23.6,19.0,0.113,0.14,0.211,0.348,1,3600.0,709.7,605.0,104.7,833.3,709.7,967.4,644.0,549.0,95.0,833.3,644.0,877.8,,,,,,,,,,,,,,,,,,,,,,,,,,,,,,,,,,,,,,,,,,,,,,,,,,,,,,,Magnoliopsida; Tracheophyta
2010,2010-08-10,Aveiro,Santa Maria da Feira,Louredo,Vila Seca,40.9714029,-8.4544631,Desconhecida,256.0,2010-08-10T10:00,30.1,39,14.6,31.2,0.0,0.0,0.0,0.0,0,1017.6,988.8,0,0,0,0,0.48,2.61,6.8,7.6,302,301,17.6,31.8,26.8,23.7,18.6,0.104,0.141,0.215,0.34,1,3600.0,700.9,598.6,102.3,815.0,700.9,977.7,637.0,544.0,93.0,815.0,637.0,888.5,,,,,,,,,,,,,,,,,,,,,,,,,,,,,,,,,,,,,,,,,,,,,,,,,,,,,,,Magnoliopsida; Eucalyptus L'Hér.; Tracheophyta; Quercus L.
2010,2010-08-30,Porto,Gondomar,Foz do Sousa,Gens,41.0916552,-8.5093029,NC,21.0,2010-08-30T19:00,31.6,36,14.9,31.0,0.0,0.0,0.0,0.0,0,1010.2,1007.8,1,0,0,3,0.21,2.96,15.3,27.0,352,1,25.9,33.5,28.4,24.0,21.3,0.094,0.115,0.161,0.305,1,2617.42,12.9,8.2,4.7,94.3,10.5,26.3,77.0,49.0,28.0,341.6,77.0,156.9,,,,,,,,,,,,,,,,,,,,,,,,,,,,,,,,,,,,,,,,,,,,,,,,,,,,,,,Tracheophyta; Magnoliopsida; Eucalyptus L'Hér.; Pinus pinaster Aiton
2010,2010-07-31,Braga,Vila Nova de Famalicão,Fradelos,L. VALE D'OSSOS(FRADELOS) (JOANE),41.3867182,-8.5872799,NC,111.0,2010-07-31T00:00,24.1,68,17.9,26.7,0.0,0.0,0.0,0.0,0,1011.7,998.9,0,0,0,0,0.0,0.95,1.9,4.2,112,121,10.4,24.5,27.5,22.8,17.9,0.1,0.146,0.227,0.344,0,0.0,0.0,0.0,0.0,0.0,0.0,0.0,0.0,0.0,0.0,0.0,0.0,0.0,,,,,,,,,,,,,,,,,,,,,,,,,,,,,,,,,,,,,,,,,,,,,,,,,,,,,,,Eucalyptus L'Hér.; Magnoliopsida; Pinus pinaster Aiton; Tracheophyta
2010,2010-08-15,Lisboa,Arruda dos Vinhos,Arruda dos Vinhos,Lapão,39.024983000000006,-9.09001266333455,Desconhecida,222.0,2010-08-15T21:00,19.2,66,12.7,18.2,0.0,0.0,0.0,0.0,0,1015.6,989.7,0,0,0,0,0.05,0.75,12.5,20.2,311,319,24.1,24.5,27.8,25.2,20.7,0.081,0.156,0.217,0.317,0,0.0,0.0,0.0,0.0,0.0,0.0,0.0,0.0,0.0,0.0,0.0,0.0,0.0,,,,,,,,,,,,,,,,,,,,,,,,,,,,,,,,,,,,,,,,,,,,,,,,,,,,,,,Vitis vinifera L.; Tracheophyta; Magnoliopsida
2010,2010-08-31,Porto,Felgueiras,Idães,MONTE DE SANTANA (Monte),41.3268566,-8.261018678170327,NC,487.0,2010-08-31T16:00,32.4,22,8.0,30.3,0.0,0.0,0.0,0.0,1,1007.6,954.5,43,0,25,93,0.47,3.79,10.8,14.7,206,205,30.6,33.0,24.7,21.5,18.4,0.109,0.136,0.195,0.321,1,3600.0,445.4,330.1,115.3,592.5,445.4,747.9,502.0,372.0,130.0,592.5,502.0,842.9,,,,,,,,,,,,,,,,,,,,,,,,,,,,,,,,,,,,,,,,,,,,,,,,,,,,,,,Eucalyptus L'Hér.; Tracheophyta; Vitis vinifera L.; Magnoliopsida; Pinus pinaster Aiton
2010,2010-09-05,Braga,Póvoa de Lanhoso,Monsul,CASTRO (MONSUL) (Castro),41.61630265,-8.307589145930823,NC,96.0,2010-09-05T21:00,19.2,87,17.0,20.3,0.0,0.0,0.0,0.0,0,1015.3,1004.0,3,3,0,0,0.0,0.29,9.2,13.6,315,323,19.4,22.9,24.9,23.2,20.5,0.1,0.137,0.198,0.322,0,0.0,0.0,0.0,0.0,0.0,0.0,0.0,0.0,0.0,0.0,0.0,0.0,0.0,,,,,,,,,,,,,,,,,,,,,,,,,,,,,,,,,,,,,,,,,,,,,,,,,,,,,,,Tracheophyta; Pinus pinaster Aiton; Magnoliopsida; Quercus L.
2010,2010-08-06,Aveiro,Albergaria-a-Velha,Albergaria-a-Velha,Junto a Polivouga (RIBEIRA DE FRÁGOAS),40.690328,-8.479538190307041,Desconhecida,121.0,2010-08-06T12:00,32.2,22,7.9,32.4,0.0,0.0,0.0,0.0,0,1012.2,998.6,0,0,0,0,0.7,3.73,8.4,10.8,59,64,26.6,35.8,26.0,23.4,19.0,0.065,0.089,0.134,0.254,1,3600.0,916.8,806.8,110.0,893.9,916.8,1199.9,892.0,785.0,107.0,893.9,892.0,1167.5,,,,,,,,,,,,,,,,,,,,,,,,,,,,,,,,,,,,,,,,,,,,,,,,,,,,,,,Tracheophyta; Eucalyptus L'Hér.
2010,2010-07-31,Porto,Marco de Canaveses,Tabuado,LG VENDA (BANHO E CARVALHOSA),41.1843748,-8.1228476,NC,230.0,2010-07-31T01:00,24.8,61,16.8,26.3,0.0,0.0,0.0,0.0,0,1012.2,985.9,0,0,0,0,0.03,1.22,6.0,7.2,163,186,8.6,23.6,27.2,22.4,17.2,0.102,0.156,0.242,0.349,0,0.0,0.0,0.0,0.0,0.0,0.0,0.0,0.0,0.0,0.0,0.0,0.0,0.0,,,,,,,,,,,,,,,,,,,,,,,,,,,,,,,,,,,,,,,,,,,,,,,,,,,,,,,Quercus L.; Tracheophyta; Magnoliopsida; Pinus pinaster Aiton; Vitis vinifera L.; Eucalyptus L'Hér.; 
2010,2010-08-20,Porto,Amarante,Fregim,L.IGREJA (Igreja),41.2702199,-8.1170009,Desconhecida,242.0,2010-08-20T16:00,28.5,46,15.8,29.6,0.0,0.0,0.0,0.0,0,1019.9,992.4,0,0,0,0,0.49,2.09,9.8,12.1,298,300,28.4,33.3,24.8,23.0,19.0,0.104,0.141,0.214,0.334,1,3600.0,585.3,493.7,91.6,817.5,585.3,806.9,652.0,550.0,102.0,817.5,652.0,898.9,,,,,,,,,,,,,,,,,,,,,,,,,,,,,,,,,,,,,,,,,,,,,,,,,,,,,,,Tracheophyta; Magnoliopsida; Pinus pinaster Aiton; Vitis vinifera L.; Quercus L.; Eucalyptus L'Hér.; 
2010,2010-08-06,Aveiro,Albergaria-a-Velha,Albergaria-a-Velha,Zona Industrial junto a Damasovo (RIBEIRA DE FRÁGOAS),40.690328,-8.479538190307041,Desconhecida,121.0,2010-08-06T09:00,26.5,30,7.5,23.4,0.0,0.0,0.0,0.0,0,1012.7,998.8,0,0,0,0,0.42,2.42,16.8,23.0,75,76,33.1,26.5,25.4,23.4,19.0,0.065,0.089,0.134,0.255,1,3600.0,558.9,464.0,94.9,767.0,558.9,804.2,483.0,401.0,82.0,767.0,483.0,695.1,,,,,,,,,,,,,,,,,,,,,,,,,,,,,,,,,,,,,,,,,,,,,,,,,,,,,,,Tracheophyta; Eucalyptus L'Hér.
2010,2010-08-10,Braga,Fafe,Travassós,AV. LIBERDADE (ABOIM),41.4925764,-8.1962009,NC,327.0,2010-08-10T12:00,32.1,28,11.2,32.8,0.0,0.0,0.0,0.0,0,1017.5,981.1,0,0,0,0,0.71,3.46,11.2,14.0,268,270,26.3,35.4,26.8,23.4,18.0,0.096,0.141,0.218,0.337,1,3600.0,911.2,809.5,101.7,910.8,911.2,1183.1,887.0,788.0,99.0,910.8,887.0,1151.6,,,,,,,,,,,,,,,,,,,,,,,,,,,,,,,,,,,,,,,,,,,,,,,,,,,,,,,Tracheophyta; Magnoliopsida; Eucalyptus L'Hér.; Pinales
2010,2010-08-06,Porto,TROFA,Alvarelhos,CASTRO (Castelinho),41.3107904,-8.6115389,NC,66.0,2010-08-06T12:00,30.4,28,9.7,30.2,0.0,0.0,0.0,0.0,0,1013.3,1005.8,0,0,0,0,0.71,3.13,13.4,17.4,63,66,30.6,32.6,25.7,23.6,18.9,0.103,0.143,0.218,0.344,1,3600.0,918.1,812.2,105.9,904.9,918.1,1193.3,893.0,790.0,103.0,904.9,893.0,1160.7,,,,,,,,,,,,,,,,,,,,,,,,,,,,,,,,,,,,,,,,,,,,,,,,,,,,,,,Magnoliopsida; Tracheophyta; Pinales; Eucalyptus L'Hér.
2010,2010-08-04,Castelo Branco,Vila de Rei,Vila de Rei,Fundo da Lameira,39.6751385,-8.143569043758214,Desconhecida,433.0,2010-08-04T21:00,24.8,50,13.7,24.6,0.0,0.0,0.0,0.0,0,1013.9,965.0,20,0,0,66,0.07,1.56,9.5,18.2,323,335,26.6,28.9,30.2,25.3,19.6,0.093,0.153,0.204,0.339,0,0.0,0.0,0.0,0.0,0.0,0.0,0.0,0.0,0.0,0.0,0.0,0.0,0.0,,,,,,,,,,,,,,,,,,,,,,,,,,,,,,,,,,,,,,,,,,,,,,,,,,,,,,,Pinales; Olea europaea L.; Tracheophyta; Magnoliopsida; Pinus pinaster Aiton
2010,2010-08-06,Porto,Paredes,Bitarães,L.BAIXINHO (Baixinho),41.216499,-8.3237921,Desconhecida,154.0,2010-08-06T13:00,31.8,22,7.4,32.3,0.0,0.0,0.0,0.0,0,1013.2,995.9,0,0,0,0,0.72,3.66,7.2,9.4,53,58,26.3,33.6,25.8,23.4,18.4,0.11,0.143,0.217,0.345,1,3600.0,930.7,824.8,106.0,910.0,930.7,1204.9,931.0,825.0,106.0,910.0,931.0,1205.3,,,,,,,,,,,,,,,,,,,,,,,,,,,,,,,,,,,,,,,,,,,,,,,,,,,,,,,Magnoliopsida; Pinus pinaster Aiton; Eucalyptus L'Hér.; Tracheophyta; Vitis vinifera L.
2010,2010-08-29,Porto,Marco de Canaveses,Várzea Da Ovelha E Aliviada,Cortinas,41.2020195,-8.1349573,NC,152.0,2010-08-29T05:00,17.9,70,12.3,17.3,0.0,0.0,0.0,0.0,0,1015.4,997.5,0,0,0,0,0.02,0.61,8.7,15.5,73,93,16.9,19.0,23.8,23.2,20.2,0.125,0.14,0.209,0.329,0,0.0,0.0,0.0,0.0,0.0,0.0,0.0,0.0,0.0,0.0,0.0,0.0,0.0,,,,,,,,,,,,,,,,,,,,,,,,,,,,,,,,,,,,,,,,,,,,,,,,,,,,,,,Pinus pinaster Aiton; Olea europaea L.; Magnoliopsida; Vitis vinifera L.; Quercus L.
2010,2010-07-31,Lisboa,Mafra,Vila Franca do Rosário,VILA FRANCA DO ROSARIO,38.97511545,-9.251081895559102,Desconhecida,132.0,2010-07-31T02:00,17.9,97,17.4,18.6,0.0,0.0,0.0,0.0,2,1012.8,997.3,77,86,0,0,0.0,0.06,13.2,16.5,325,324,16.9,20.0,25.4,23.3,19.3,0.086,0.166,0.237,0.344,0,0.0,0.0,0.0,0.0,0.0,0.0,0.0,0.0,0.0,0.0,0.0,0.0,0.0,,,,,,,,,,,,,,,,,,,,,,,,,,,,,,,,,,,,,,,,,,,,,,,,,,,,,,,Magnoliopsida; Eucalyptus L'Hér.; Tracheophyta; Pinus pinaster Aiton; Vitis vinifera L.
2010,2010-08-31,Coimbra,Cantanhede,Bolho,Venda Nova,40.41208015,-8.52479837342231,Desconhecida,86.0,2010-08-31T18:00,28.4,42,14.3,27.9,0.0,0.0,0.0,0.0,0,1007.3,997.5,5,0,7,2,0.25,2.25,13.0,18.7,267,268,28.8,33.4,28.3,23.4,20.5,0.063,0.074,0.103,0.221,1,3600.0,162.2,119.1,43.1,573.9,162.2,278.6,237.0,174.0,63.0,573.9,237.0,407.1,,,,,,,,,,,,,,,,,,,,,,,,,,,,,,,,,,,,,,,,,,,,,,,,,,,,,,,Tracheophyta; Vitis vinifera L.; Eucalyptus L'Hér.; Olea europaea L.; Pinus pinaster Aiton; Magnoliopsida; Pinales; 
2010,2010-08-10,Guarda,Trancoso,Vilares,VILARES,40.7250613,-7.2829191,Desconhecida,664.0,2010-08-10T01:00,23.9,58,15.1,25.0,0.0,0.0,0.0,0.0,0,1016.8,942.6,16,0,26,0,0.02,1.26,4.5,6.1,299,332,7.9,24.3,28.1,23.9,17.9,0.123,0.155,0.204,0.317,0,0.0,0.0,0.0,0.0,0.0,0.0,0.0,0.0,0.0,0.0,0.0,0.0,0.0,,,,,,,,,,,,,,,,,,,,,,,,,,,,,,,,,,,,,,,,,,,,,,,,,,,,,,,Magnoliopsida; Pinales; Castanea sativa Mill.; Quercus L.; Pinus pinaster Aiton; Tracheophyta; Olea europaea L.; Vitis vinifera L.; Acacia Mill.; 
2010,2010-08-10,Aveiro,Arouca,Fermedo,Tapada Nova,40.9531619,-8.428823,NC,350.0,2010-08-10T14:00,32.6,30,12.8,33.3,0.0,0.0,0.0,0.0,0,1017.5,978.6,0,0,0,0,0.72,3.43,13.1,16.6,286,288,34.9,37.1,27.7,23.4,18.2,0.101,0.144,0.225,0.342,1,3600.0,846.2,733.5,112.7,855.5,846.2,1141.4,871.0,755.0,116.0,855.5,871.0,1174.8,,,,,,,,,,,,,,,,,,,,,,,,,,,,,,,,,,,,,,,,,,,,,,,,,,,,,,,Tracheophyta; Eucalyptus L'Hér.; Pinus pinaster Aiton; Magnoliopsida; Pinales
2010,2010-08-13,Aveiro,Albergaria-a-Velha,Angeja,Alto da Angeja (Alto das Lavoiras),40.6909514,-8.5405111,Desconhecida,52.0,2010-08-13T12:00,29.1,31,10.4,28.0,0.0,0.0,0.0,0.0,0,1015.3,1009.4,0,0,0,0,0.7,2.77,19.9,25.6,356,2,36.7,34.3,26.0,24.6,20.0,0.065,0.088,0.126,0.248,1,3600.0,901.8,790.8,111.1,890.8,901.8,1182.9,877.0,769.0,108.0,890.8,877.0,1150.3,,,,,,,,,,,,,,,,,,,,,,,,,,,,,,,,,,,,,,,,,,,,,,,,,,,,,,,Eucalyptus L'Hér.; Magnoliopsida; Tracheophyta; Pinus pinaster Aiton; 
2010,2010-08-13,Lisboa,Oeiras,Algés,ALTO ALGES - R DR MARIO CHARRUA (Alto da Lagôa),38.6992118,-9.2270546,Desconhecida,6.0,2010-08-13T12:00,27.9,44,14.6,27.4,0.0,0.0,0.0,0.0,0,1013.9,1013.2,0,0,0,0,0.65,2.09,24.0,31.4,351,355,42.5,30.0,25.1,24.9,20.8,0.135,0.161,0.222,0.34,1,3600.0,908.5,795.2,113.3,883.1,908.5,1199.8,882.0,772.0,110.0,883.1,882.0,1164.9,,,,,,,,,,,,,,,,,,,,,,,,,,,,,,,,,,,,,,,,,,,,,,,,,,,,,,,Tracheophyta; Pinus pinaster Aiton; Pinales; Magnoliopsida; Pinus pinea L.; Vitis vinifera L.; Eucalyptus L'Hér.; Olea europaea L.
2010,2010-08-04,Viseu,Viseu,São João de Lourosa,Oliveira de Barreiros,40.6190443,-7.9039998,Desconhecida,465.0,2010-08-04T21:00,25.1,47,13.1,25.0,0.0,0.0,0.0,0.0,1,1013.7,961.4,23,0,0,77,0.06,1.67,7.4,12.0,313,327,15.1,27.5,27.5,23.3,17.6,0.092,0.164,0.247,0.35,0,0.0,0.0,0.0,0.0,0.0,0.0,0.0,0.0,0.0,0.0,0.0,0.0,0.0,,,,,,,,,,,,,,,,,,,,,,,,,,,,,,,,,,,,,,,,,,,,,,,,,,,,,,,Tracheophyta; Pinus pinaster Aiton; Magnoliopsida; Vitis vinifera L.
2010,2010-09-09,Lisboa,Arruda dos Vinhos,Arruda dos Vinhos,Lapão,39.024983000000006,-9.09001266333455,Desconhecida,222.0,2010-09-09T21:00,18.2,73,13.2,16.8,0.0,0.0,0.0,0.0,0,1021.4,995.2,5,0,0,18,0.04,0.57,16.2,28.2,343,350,29.9,21.3,24.2,24.2,22.2,0.089,0.152,0.204,0.309,0,0.0,0.0,0.0,0.0,0.0,0.0,0.0,0.0,0.0,0.0,0.0,0.0,0.0,,,,,,,,,,,,,,,,,,,,,,,,,,,,,,,,,,,,,,,,,,,,,,,,,,,,,,,Vitis vinifera L.; Tracheophyta; Magnoliopsida
2010,2010-08-16,Porto,Paredes,Cete,Casal,41.1782871,-8.3649391,Desconhecida,151.0,2010-08-16T20:00,25.7,44,12.5,24.9,0.0,0.0,0.0,0.0,0,1015.9,998.5,0,0,0,0,0.11,1.85,10.1,19.6,325,340,21.2,28.4,27.0,23.9,19.4,0.118,0.134,0.183,0.339,0,0.0,0.0,0.0,0.0,0.0,0.0,0.0,10.0,4.0,6.0,51.2,10.0,45.8,,,,,,,,,,,,,,,,,,,,,,,,,,,,,,,,,,,,,,,,,,,,,,,,,,,,,,,Magnoliopsida; Pinus pinaster Aiton; Eucalyptus L'Hér.; Tracheophyta; Vitis vinifera L.
2010,2010-07-31,Lisboa,Sintra,Rio de Mouro,RIO DE MOURO,38.7895144,-9.312803990561676,Desconhecida,152.0,2010-07-31T02:00,18.3,96,17.7,18.7,0.0,0.0,0.0,0.0,2,1012.7,994.8,70,78,0,0,0.0,0.08,16.2,19.8,328,327,22.0,20.1,23.7,22.1,18.5,0.121,0.176,0.242,0.338,0,0.0,0.0,0.0,0.0,0.0,0.0,0.0,0.0,0.0,0.0,0.0,0.0,0.0,,,,,,,,,,,,,,,,,,,,,,,,,,,,,,,,,,,,,,,,,,,,,,,,,,,,,,,Tracheophyta; Magnoliopsida; Pinales; ; Pinus pinaster Aiton
2010,2010-08-29,Porto,Lousada,Nogueira,LG. FUNDO DE VILA (Porto de Rei),41.2852099,-8.2639497,NC,262.0,2010-08-29T09:00,24.7,41,10.6,22.9,0.0,0.0,0.0,0.0,0,1017.5,987.5,0,0,0,0,0.34,1.84,14.2,19.6,97,96,31.0,23.6,22.7,22.6,19.7,0.121,0.138,0.205,0.327,1,3600.0,500.4,409.8,90.7,747.9,500.4,734.8,425.0,348.0,77.0,747.9,425.0,624.1,,,,,,,,,,,,,,,,,,,,,,,,,,,,,,,,,,,,,,,,,,,,,,,,,,,,,,,Magnoliopsida; Eucalyptus L'Hér.; Tracheophyta; Pinus pinaster Aiton; ; Vitis vinifera L.
2010,2010-07-31,Porto,Baião,Santa Cruz do Douro,Penedo do Cão,41.124492,-8.0130669,Desconhecida,449.0,2010-07-31T02:00,24.0,61,16.0,25.7,0.0,0.0,0.0,0.0,0,1012.2,961.5,0,0,0,0,0.0,1.17,2.4,1.0,117,135,8.3,22.6,26.6,21.8,16.7,0.118,0.141,0.218,0.353,0,0.0,0.0,0.0,0.0,0.0,0.0,0.0,0.0,0.0,0.0,0.0,0.0,0.0,,,,,,,,,,,,,,,,,,,,,,,,,,,,,,,,,,,,,,,,,,,,,,,,,,,,,,,Magnoliopsida; Pinus pinaster Aiton; Vitis vinifera L.; Quercus L.; Tracheophyta; Eucalyptus L'Hér.; Olea europaea L.; 
2010,2010-08-06,Viana do Castelo,Caminha,Âncora,LAGE - ANCORA (Lage),41.7959527,-8.8510326,Desconhecida,48.0,2010-08-06T15:00,27.9,41,13.4,28.6,0.0,0.0,0.0,0.0,0,1012.9,1007.4,0,0,0,0,0.61,2.23,13.5,17.1,335,345,27.4,34.5,25.0,22.8,18.6,0.082,0.158,0.244,0.348,1,3600.0,782.5,686.2,96.3,882.0,782.5,1034.4,829.0,727.0,102.0,882.0,829.0,1095.9,,,,,,,,,,,,,,,,,,,,,,,,,,,,,,,,,,,,,,,,,,,,,,,,,,,,,,,Eucalyptus L'Hér.; Magnoliopsida; Tracheophyta; Pinus pinaster Aiton
2010,2010-08-20,Lisboa,Lourinhã,Moita dos Ferreiros,Casal Novo da Moita,39.2484247,-9.2237757,Desconhecida,93.0,2010-08-20T17:00,24.6,62,16.8,23.8,0.0,0.0,0.0,0.0,0,1019.5,1008.7,0,0,0,0,0.35,1.18,21.7,28.1,355,359,39.2,31.8,25.4,23.7,20.7,0.082,0.146,0.205,0.301,1,3600.0,416.6,337.5,79.1,742.0,416.6,607.8,495.0,401.0,94.0,742.0,495.0,722.1,,,,,,,,,,,,,,,,,,,,,,,,,,,,,,,,,,,,,,,,,,,,,,,,,,,,,,,Vitis vinifera L.; Pinus pinea L.; Eucalyptus L'Hér.; Tracheophyta; Magnoliopsida; 
2010,2010-07-30,Porto,Valongo,Valongo,SANTA JUSTA,41.1716423,-8.4937177,Desconhecida,366.0,2010-07-30T14:00,32.2,29,12.1,34.8,0.0,0.0,0.0,0.0,0,1012.4,971.9,0,0,0,0,0.68,3.41,3.1,3.1,225,225,17.6,36.9,26.0,21.6,16.5,0.093,0.151,0.237,0.348,1,3600.0,891.5,787.3,104.1,895.4,891.5,1166.8,916.0,809.0,107.0,895.4,916.0,1199.0,,,,,,,,,,,,,,,,,,,,,,,,,,,,,,,,,,,,,,,,,,,,,,,,,,,,,,,Eucalyptus L'Hér.; Pinus pinaster Aiton; Magnoliopsida
2010,2010-08-11,Vila Real,Vila Real,Lamas de Olo,Dornelas,41.3867947,-7.8083088,NC,1037.0,2010-08-11T11:00,25.3,19,0.1,23.8,0.0,0.0,0.0,0.0,0,1020.4,907.4,0,0,0,0,0.58,2.6,7.1,9.2,330,334,25.9,27.9,22.4,20.2,14.8,0.123,0.14,0.213,0.348,1,3600.0,873.1,771.5,101.6,924.3,873.1,1111.4,825.0,729.0,96.0,924.3,825.0,1050.2,,,,,,,,,,,,,,,,,,,,,,,,,,,,,,,,,,,,,,,,,,,,,,,,,,,,,,,Magnoliopsida; Tracheophyta
2010,2010-08-13,Porto,Paredes,Lordelo,ZONA INDUSTRIAL (LORDELO),41.2364966,-8.415551743176014,Desconhecida,210.0,2010-08-13T21:00,22.9,45,10.3,20.4,0.0,0.0,0.0,0.0,0,1014.5,990.3,0,0,0,0,0.13,1.54,17.7,30.4,5,11,34.6,25.8,26.5,23.6,18.7,0.119,0.134,0.187,0.341,0,0.0,0.0,0.0,0.0,0.0,0.0,0.0,0.0,0.0,0.0,0.0,0.0,0.0,,,,,,,,,,,,,,,,,,,,,,,,,,,,,,,,,,,,,,,,,,,,,,,,,,,,,,,Magnoliopsida; Pinus pinaster Aiton; Eucalyptus L'Hér.; Tracheophyta; Vitis vinifera L.
2010,2010-08-29,Guarda,Aguiar da Beira,Souto de Aguiar da Beira,LEZÍRIA - Castelo,40.8035572,-7.5039506,Desconhecida,767.0,2010-08-29T11:00,25.4,30,6.4,24.1,0.0,0.0,0.0,0.0,0,1018.4,933.5,0,0,0,0,0.55,2.28,10.7,13.6,48,50,28.8,27.8,23.3,22.3,18.4,0.113,0.136,0.182,0.318,1,3600.0,806.2,704.3,101.8,886.7,806.2,1065.3,760.0,664.0,96.0,886.7,760.0,1004.3,,,,,,,,,,,,,,,,,,,,,,,,,,,,,,,,,,,,,,,,,,,,,,,,,,,,,,,Pinus pinaster Aiton; Magnoliopsida
2010,2010-08-07,Vila Real,Montalegre,Viade de Baixo,Bairro de Baixo (TOURÉM),41.7613598,-7.8633282,NC,924.0,2010-08-07T00:00,17.5,59,9.4,15.7,0.0,0.0,0.0,0.0,0,1015.4,911.9,0,0,0,0,0.05,0.83,11.2,16.6,48,66,22.3,19.5,23.0,20.0,14.9,0.103,0.177,0.267,0.361,0,0.0,0.0,0.0,0.0,0.0,0.0,0.0,0.0,0.0,0.0,0.0,0.0,0.0,,,,,,,,,,,,,,,,,,,,,,,,,,,,,,,,,,,,,,,,,,,,,,,,,,,,,,,Tracheophyta; Magnoliopsida; Quercus L.
2010,2010-09-04,Porto,Santo Tirso,Monte Córdova,L.VALINHAS (Azenhas de Valinhas),41.3164414,-8.4320306,NC,357.0,2010-09-04T17:00,25.7,51,14.7,25.7,0.0,0.0,0.0,0.0,0,1015.0,974.6,7,0,0,24,0.31,1.63,11.0,14.1,281,285,26.6,31.0,24.3,22.2,19.3,0.094,0.137,0.2,0.324,1,3600.0,340.7,277.3,63.4,741.5,340.7,503.1,419.0,341.0,78.0,741.5,419.0,618.7,,,,,,,,,,,,,,,,,,,,,,,,,,,,,,,,,,,,,,,,,,,,,,,,,,,,,,,Tracheophyta; Vitis vinifera L.; Eucalyptus L'Hér.; Pinus pinaster Aiton; Magnoliopsida
2010,2010-08-04,Porto,Felgueiras,Macieira da Lixa,Passarias,41.3496108,-8.1492033,NC,406.0,2010-08-04T22:00,21.1,66,14.6,21.6,0.0,0.0,0.0,0.0,1,1015.4,968.8,23,0,0,77,0.02,0.84,6.7,11.3,324,343,18.7,24.3,26.3,22.3,16.8,0.093,0.15,0.236,0.346,0,0.0,0.0,0.0,0.0,0.0,0.0,0.0,0.0,0.0,0.0,0.0,0.0,0.0,,,,,,,,,,,,,,,,,,,,,,,,,,,,,,,,,,,,,,,,,,,,,,,,,,,,,,,Eucalyptus L'Hér.; Tracheophyta; Pinus pinaster Aiton; Magnoliopsida; Vitis vinifera L.
2010,2010-09-06,Porto,Paços de Ferreira,Frazão,L.CRUZ (Cruz),41.2660579,-8.4157532,NC,315.0,2010-09-06T11:00,21.2,61,13.5,20.4,0.0,0.0,0.0,0.0,3,1013.8,977.5,100,85,3,100,0.34,0.97,13.3,17.3,237,239,33.1,24.9,22.4,22.4,19.7,0.095,0.137,0.2,0.323,1,3600.0,566.1,299.0,267.1,393.0,566.1,1024.4,532.0,281.0,251.0,393.0,532.0,962.7,,,,,,,,,,,,,,,,,,,,,,,,,,,,,,,,,,,,,,,,,,,,,,,,,,,,,,,Eucalyptus L'Hér.; Tracheophyta; Magnoliopsida; Vitis vinifera L.; 
2010,2010-08-11,Braga,Celorico de Basto,Agilde,L. VARZEAS(AGILDE) (São Clemente),41.3637109,-8.1040764,NC,482.0,2010-08-11T13:00,30.0,17,1.9,28.9,0.0,0.0,0.0,0.0,0,1019.0,965.4,0,0,0,0,0.73,3.53,10.1,12.9,297,300,31.0,34.4,25.2,22.6,17.1,0.094,0.14,0.216,0.336,1,3600.0,945.8,842.9,102.9,943.0,945.8,1190.3,947.0,844.0,103.0,943.0,947.0,1191.8,,,,,,,,,,,,,,,,,,,,,,,,,,,,,,,,,,,,,,,,,,,,,,,,,,,,,,,Vitis vinifera L.; Tracheophyta; Pinus pinaster Aiton; Magnoliopsida; Eucalyptus L'Hér.
2010,2010-08-10,Porto,Santo Tirso,Vilarinho,Fontainhas,41.3604512,-8.3352657,NC,187.0,2010-08-10T11:00,31.1,31,11.9,31.9,0.0,0.0,0.0,0.0,0,1017.4,996.3,0,0,0,0,0.61,3.13,8.6,10.8,272,272,22.0,33.5,26.5,23.6,18.4,0.098,0.142,0.219,0.337,1,3600.0,833.9,729.0,104.9,874.7,833.9,1109.4,787.0,688.0,99.0,874.7,787.0,1047.0,,,,,,,,,,,,,,,,,,,,,,,,,,,,,,,,,,,,,,,,,,,,,,,,,,,,,,,Eucalyptus L'Hér.; Tracheophyta; Pinus pinaster Aiton; Magnoliopsida
2010,2010-08-30,Castelo Branco,Fundão,Enxames,Vale Godinho,40.1583838,-7.3973884,Desconhecida,469.0,2010-08-30T15:00,36.5,15,5.2,35.7,0.0,0.0,0.0,0.0,0,1012.0,961.2,0,0,0,0,0.63,5.22,6.6,8.0,77,72,23.0,40.9,28.6,25.3,21.5,0.095,0.153,0.205,0.336,1,3600.0,712.2,622.0,90.2,889.6,712.2,938.3,766.0,669.0,97.0,889.6,766.0,1009.2,,,,,,,,,,,,,,,,,,,,,,,,,,,,,,,,,,,,,,,,,,,,,,,,,,,,,,,Magnoliopsida; Eucalyptus L'Hér.; Pinus pinaster Aiton; Tracheophyta; Olea europaea L.; Pinales; Quercus suber L.; Acacia Mill.; 
2010,2010-08-04,Porto,Paredes,Rebordosa,LG. MONTE ALTO (VILELA),41.2202567,-8.4112601,NC,216.0,2010-08-04T17:00,28.9,40,13.9,26.6,0.0,0.0,0.0,0.0,1,1013.9,989.5,29,0,0,96,0.5,2.4,24.7,34.1,331,334,44.6,33.4,26.9,22.8,17.8,0.119,0.136,0.201,0.347,1,3600.0,470.0,384.9,85.1,775.0,470.0,659.9,547.0,448.0,99.0,775.0,547.0,768.1,,,,,,,,,,,,,,,,,,,,,,,,,,,,,,,,,,,,,,,,,,,,,,,,,,,,,,,Magnoliopsida; Pinus pinaster Aiton; Eucalyptus L'Hér.; Tracheophyta; Vitis vinifera L.
2010,2010-08-20,Porto,Penafiel,Bustelo,LG. MATOS (Ribeira de Matos),41.2299987,-8.2677145,Desconhecida,259.0,2010-08-20T18:00,25.4,57,16.1,26.1,0.0,0.0,0.0,0.0,0,1020.1,990.4,0,0,0,0,0.22,1.41,9.2,12.2,301,304,26.3,29.9,25.0,22.8,18.9,0.112,0.138,0.199,0.334,1,3600.0,214.2,162.2,52.1,632.0,214.2,342.8,292.0,221.0,71.0,632.0,292.0,467.2,,,,,,,,,,,,,,,,,,,,,,,,,,,,,,,,,,,,,,,,,,,,,,,,,,,,,,,Magnoliopsida; Tracheophyta; Eucalyptus L'Hér.; Pinus pinaster Aiton; Vitis vinifera L.; Pinales; 
2010,2010-08-07,Porto,Gondomar,Covelo,LG COVELO (FANZERES),41.119341,-8.50547,NC,95.0,2010-08-07T01:00,21.6,55,12.2,21.2,0.0,0.0,0.0,0.0,0,1012.6,1001.5,0,0,0,0,0.05,1.16,8.0,17.1,54,49,17.3,23.4,27.3,23.8,19.0,0.113,0.136,0.201,0.347,0,0.0,0.0,0.0,0.0,0.0,0.0,0.0,0.0,0.0,0.0,0.0,0.0,0.0,,,,,,,,,,,,,,,,,,,,,,,,,,,,,,,,,,,,,,,,,,,,,,,,,,,,,,,Pinus pinaster Aiton; Eucalyptus L'Hér.; Tracheophyta; Magnoliopsida
2010,2010-08-13,Porto,Vila Nova de Gaia,Seixezelo,RUA JOAQUIM FERREIRA SANTOS (Rua de Joaquim Correia),41.0340746,-8.5534641,NC,192.0,2010-08-13T21:00,23.2,46,10.9,20.9,0.0,0.0,0.0,0.0,0,1014.3,992.1,0,0,0,0,0.13,1.54,17.3,27.4,358,3,32.8,25.9,26.6,24.1,19.3,0.106,0.137,0.2,0.336,0,0.0,0.0,0.0,0.0,0.0,0.0,0.0,0.0,0.0,0.0,0.0,0.0,0.0,,,,,,,,,,,,,,,,,,,,,,,,,,,,,,,,,,,,,,,,,,,,,,,,,,,,,,,Magnoliopsida; Eucalyptus L'Hér.; Tracheophyta; Vitis vinifera L.
2010,2010-08-07,Viseu,Castro Daire,Cabril,CABRIL,40.93607895,-8.103220796131419,Desconhecida,210.0,2010-08-07T00:00,22.8,34,6.0,20.5,0.0,0.0,0.0,0.0,0,1012.9,988.7,0,0,0,0,0.09,1.84,9.0,12.9,85,67,16.6,24.6,27.9,24.6,19.3,0.1,0.146,0.229,0.344,0,0.0,0.0,0.0,0.0,0.0,0.0,0.0,0.0,0.0,0.0,0.0,0.0,0.0,,,,,,,,,,,,,,,,,,,,,,,,,,,,,,,,,,,,,,,,,,,,,,,,,,,,,,,Magnoliopsida; Pinus pinaster Aiton; Eucalyptus L'Hér.; Pinales; Tracheophyta
2010,2010-08-10,Vila Real,Alijó,Pegarinhos,MAGUSTEIRO,41.3560757,-7.4454014,Desconhecida,515.0,2010-08-10T12:00,32.3,29,11.9,32.5,0.0,0.0,0.0,0.0,0,1017.1,960.5,1,0,2,0,0.7,3.44,13.7,17.7,273,274,35.3,34.4,26.4,23.0,17.6,0.13,0.148,0.211,0.346,1,3600.0,863.7,723.2,140.5,811.3,863.7,1186.6,842.0,705.0,137.0,811.3,842.0,1156.8,,,,,,,,,,,,,,,,,,,,,,,,,,,,,,,,,,,,,,,,,,,,,,,,,,,,,,,Vitis vinifera L.; Magnoliopsida; Pinus pinaster Aiton; Olea europaea L.; Tracheophyta
2010,2010-07-31,Aveiro,Oliveira de Azeméis,Vila de Cucujães,Lugar da Luz (SÃO JOÃO DA MADEIRA),40.8809089,-8.4881355,Desconhecida,183.0,2010-07-31T06:00,19.5,86,17.1,21.4,0.0,0.0,0.0,0.0,1,1012.1,990.8,27,30,0,0,0.02,0.32,4.3,6.8,180,180,9.7,21.0,26.2,23.1,18.1,0.106,0.144,0.221,0.347,1,0.0,19.8,7.4,12.4,85.2,8.3,104.3,8.0,3.0,5.0,39.7,8.0,42.1,,,,,,,,,,,,,,,,,,,,,,,,,,,,,,,,,,,,,,,,,,,,,,,,,,,,,,,Pinus pinaster Aiton; Magnoliopsida; Tracheophyta; Eucalyptus L'Hér.
2010,2010-08-30,Porto,Santo Tirso,Negrelos (são Mamede),Regadas,41.3488993,-8.403043,NC,145.0,2010-08-30T10:00,29.6,31,10.7,28.2,0.0,0.0,0.0,0.0,0,1014.9,998.5,0,0,0,0,0.5,2.87,13.0,17.0,92,94,22.7,27.6,23.7,22.6,20.0,0.139,0.136,0.188,0.329,1,3600.0,662.8,566.4,96.4,829.9,662.8,915.8,598.0,511.0,87.0,829.9,598.0,826.2,,,,,,,,,,,,,,,,,,,,,,,,,,,,,,,,,,,,,,,,,,,,,,,,,,,,,,,Magnoliopsida; Tracheophyta; Vitis vinifera L.; Quercus suber L.
2010,2010-08-30,Vila Real,Boticas,São Salvador de Viveiro,Agrelos,41.6582129,-7.8072261,NC,784.0,2010-08-30T11:00,26.5,33,9.0,26.5,0.0,0.0,0.0,0.0,0,1017.7,931.4,0,0,0,0,0.53,2.32,6.5,8.3,124,124,22.7,28.0,22.3,20.9,17.7,0.113,0.155,0.237,0.345,1,3600.0,791.7,692.0,99.8,883.8,791.7,1050.6,746.0,652.0,94.0,883.8,746.0,989.9,,,,,,,,,,,,,,,,,,,,,,,,,,,,,,,,,,,,,,,,,,,,,,,,,,,,,,,Magnoliopsida; Tracheophyta; Pinus pinaster Aiton
2010,2010-08-30,Porto,Felgueiras,Torrados,Igreja,41.34382305,-8.248301329544802,NC,312.0,2010-08-30T23:00,21.9,56,12.6,21.4,0.0,0.0,0.0,0.0,1,1010.8,975.1,28,0,0,94,0.05,1.16,8.7,11.4,95,79,15.1,23.2,25.7,22.6,19.5,0.099,0.138,0.205,0.327,0,0.0,0.0,0.0,0.0,0.0,0.0,0.0,0.0,0.0,0.0,0.0,0.0,0.0,,,,,,,,,,,,,,,,,,,,,,,,,,,,,,,,,,,,,,,,,,,,,,,,,,,,,,,Tracheophyta; Eucalyptus L'Hér.; Magnoliopsida; Vitis vinifera L.
2010,2010-08-10,Aveiro,Arouca,Fermedo,Tenhel,40.9531619,-8.428823,NC,350.0,2010-08-10T13:00,32.7,30,13.1,33.8,0.0,0.0,0.0,0.0,0,1017.8,978.9,0,0,0,0,0.74,3.44,12.6,16.3,283,284,32.4,36.7,27.3,23.4,18.2,0.101,0.144,0.226,0.342,1,3600.0,910.4,803.5,106.9,893.1,910.4,1197.6,911.0,804.0,107.0,893.1,911.0,1198.4,,,,,,,,,,,,,,,,,,,,,,,,,,,,,,,,,,,,,,,,,,,,,,,,,,,,,,,Tracheophyta; Eucalyptus L'Hér.; Pinus pinaster Aiton; Magnoliopsida; Pinales
2010,2010-08-07,Porto,Paredes,Parada de Todeia,L.MARCO (Marco),41.1690637,-8.3770562,NC,191.0,2010-08-07T04:00,18.0,55,8.8,16.4,0.0,0.0,0.0,0.0,0,1013.0,990.6,0,0,0,0,0.05,0.94,9.4,19.1,67,70,20.2,20.1,25.7,23.2,18.2,0.119,0.136,0.197,0.346,0,0.0,0.0,0.0,0.0,0.0,0.0,0.0,0.0,0.0,0.0,0.0,0.0,0.0,,,,,,,,,,,,,,,,,,,,,,,,,,,,,,,,,,,,,,,,,,,,,,,,,,,,,,,Magnoliopsida; Pinus pinaster Aiton; Eucalyptus L'Hér.; Tracheophyta; Vitis vinifera L.
2010,2010-07-31,Braga,Vila Nova de Famalicão,Pedome,PEDOMINHO(PEDOME) (Pedominho),41.415461,-8.3869005,NC,125.0,2010-07-31T14:00,31.7,46,18.6,35.3,0.0,0.0,0.0,0.0,0,1012.7,998.6,0,0,0,0,0.7,2.53,10.8,12.6,274,275,27.0,36.4,27.3,23.1,17.9,0.103,0.153,0.239,0.348,1,3600.0,881.8,773.7,108.0,883.3,881.8,1162.7,906.0,795.0,111.0,883.3,906.0,1194.7,,,,,,,,,,,,,,,,,,,,,,,,,,,,,,,,,,,,,,,,,,,,,,,,,,,,,,,Tracheophyta; Vitis vinifera L.; Magnoliopsida; Eucalyptus L'Hér.
2010,2010-08-29,Viseu,Lamego,Lamego (almacave),Quinta do Cipreste,41.1031703,-7.8108512,Desconhecida,546.0,2010-08-29T15:00,31.1,27,9.9,31.4,0.0,0.0,0.0,0.0,0,1016.7,956.6,0,0,0,0,0.57,3.29,6.2,7.7,10,11,20.9,35.1,25.1,22.8,19.1,0.129,0.14,0.18,0.333,1,3600.0,702.2,614.6,87.5,879.2,702.2,937.7,754.0,660.0,94.0,879.2,754.0,1006.9,,,,,,,,,,,,,,,,,,,,,,,,,,,,,,,,,,,,,,,,,,,,,,,,,,,,,,,Magnoliopsida; Tracheophyta; Pinales
2010,2010-08-30,Vila Real,Vila Pouca de Aguiar,Vreia de Jales,FONTE FRIA - QUINTÃ,41.4363303,-7.5917163,Desconhecida,861.0,2010-08-30T01:00,17.2,72,12.1,16.8,0.0,0.0,0.0,0.0,0,1018.1,920.9,0,0,0,0,0.01,0.56,7.3,12.0,11,21,18.0,19.8,23.9,21.2,17.5,0.124,0.136,0.193,0.337,0,0.0,0.0,0.0,0.0,0.0,0.0,0.0,0.0,0.0,0.0,0.0,0.0,0.0,,,,,,,,,,,,,,,,,,,,,,,,,,,,,,,,,,,,,,,,,,,,,,,,,,,,,,,Magnoliopsida; Tracheophyta; Pinus pinaster Aiton
2010,2010-08-10,Porto,Paredes,Madalena,LG BELMONTE (SOBROSA),41.2038602,-8.324328159111156,Desconhecida,149.0,2010-08-10T16:00,32.7,26,10.6,31.7,0.0,0.0,0.0,0.0,0,1016.9,1000.1,0,0,0,1,0.61,3.66,13.8,17.6,317,319,31.3,37.0,28.7,23.9,18.7,0.109,0.14,0.209,0.341,1,3600.0,634.4,537.6,96.8,840.0,634.4,851.9,701.0,594.0,107.0,840.0,701.0,941.3,,,,,,,,,,,,,,,,,,,,,,,,,,,,,,,,,,,,,,,,,,,,,,,,,,,,,,,Magnoliopsida; Pinus pinaster Aiton; Eucalyptus L'Hér.; Tracheophyta; Vitis vinifera L.
2010,2010-08-13,Porto,Gondomar,Foz do Sousa,L.GENS (Gens),41.0916552,-8.5093029,NC,21.0,2010-08-13T12:00,28.5,32,10.4,27.3,0.0,0.0,0.0,0.0,0,1015.6,1013.2,0,0,0,0,0.68,2.62,19.8,25.6,358,4,36.4,33.4,26.1,24.9,20.2,0.089,0.116,0.172,0.314,1,3600.0,900.8,790.8,110.0,894.2,900.8,1178.4,876.0,769.0,107.0,894.2,876.0,1145.9,,,,,,,,,,,,,,,,,,,,,,,,,,,,,,,,,,,,,,,,,,,,,,,,,,,,,,,Tracheophyta; Magnoliopsida; Eucalyptus L'Hér.; Pinus pinaster Aiton
2010,2010-08-10,Braga,Cabeceiras de Basto,Rio Douro,TONINHA (RIO DOURO)M2 (Toninha),41.5565621,-7.984128259352389,NC,747.0,2010-08-10T11:00,28.9,31,9.8,28.8,0.0,0.0,0.0,0.0,0,1018.2,936.3,0,0,0,0,0.61,2.77,10.1,13.3,268,268,29.2,31.0,24.1,21.2,15.8,0.098,0.156,0.244,0.35,1,3600.0,841.2,736.4,104.7,881.7,841.2,1111.8,795.0,696.0,99.0,881.7,795.0,1050.8,,,,,,,,,,,,,,,,,,,,,,,,,,,,,,,,,,,,,,,,,,,,,,,,,,,,,,,Magnoliopsida; Pinus pinaster Aiton; Tracheophyta; Eucalyptus L'Hér.
2010,2010-08-30,Porto,Felgueiras,Sendim,CALVARIO (Calvário),41.3886903,-8.1773043,NC,432.0,2010-08-30T13:00,31.6,25,9.4,32.2,0.0,0.0,0.0,0.0,0,1015.0,967.2,0,0,0,0,0.67,3.46,7.9,10.4,90,90,27.4,32.5,23.5,21.7,18.7,0.119,0.137,0.197,0.322,1,3600.0,866.0,767.4,98.7,915.0,866.0,1125.4,869.0,770.0,99.0,915.0,869.0,1129.3,,,,,,,,,,,,,,,,,,,,,,,,,,,,,,,,,,,,,,,,,,,,,,,,,,,,,,,Magnoliopsida; Tracheophyta; Eucalyptus L'Hér.; Pinus pinaster Aiton
2010,2010-08-21,Setúbal,Sesimbra,Quinta do Conde,CASAL DO SAPO - JUNTO AO CAFE MIRA (Casal de Santa Rita),38.5512344,-9.0530777,NC,58.0,2010-08-21T14:00,30.6,42,16.2,32.5,0.0,0.0,0.0,0.0,0,1020.4,1013.8,19,0,0,64,0.66,2.56,13.0,13.8,304,309,22.7,39.0,26.4,24.2,21.3,0.052,0.064,0.102,0.217,1,3600.0,824.6,661.6,163.0,780.4,824.6,1133.2,850.0,682.0,168.0,780.4,850.0,1168.2,,,,,,,,,,,,,,,,,,,,,,,,,,,,,,,,,,,,,,,,,,,,,,,,,,,,,,,Pinus pinaster Aiton; Magnoliopsida; Tracheophyta
2010,2010-08-13,Porto,Amarante,Real,ESPINHAL (Espinheiro),41.2668833,-8.072193852545904,NC,87.0,2010-08-13T22:00,22.8,47,10.8,21.7,0.0,0.0,0.0,0.0,0,1015.1,1005.0,0,0,0,0,0.07,1.48,9.3,20.0,36,39,22.7,25.2,27.0,24.5,19.5,0.102,0.143,0.221,0.338,0,0.0,0.0,0.0,0.0,0.0,0.0,0.0,0.0,0.0,0.0,0.0,0.0,0.0,,,,,,,,,,,,,,,,,,,,,,,,,,,,,,,,,,,,,,,,,,,,,,,,,,,,,,,Magnoliopsida; Tracheophyta; Eucalyptus L'Hér.; Vitis vinifera L.; Pinus pinaster Aiton
2010,2010-08-04,Porto,Santo Tirso,Monte Córdova,STª. CRUZ (Santa Cruz),41.3164414,-8.4320306,NC,357.0,2010-08-04T23:00,19.8,64,12.8,19.3,0.0,0.0,0.0,0.0,0,1015.5,974.2,5,0,0,16,0.04,0.83,9.4,18.4,360,11,19.8,22.6,25.9,22.3,17.1,0.093,0.147,0.229,0.344,0,0.0,0.0,0.0,0.0,0.0,0.0,0.0,0.0,0.0,0.0,0.0,0.0,0.0,,,,,,,,,,,,,,,,,,,,,,,,,,,,,,,,,,,,,,,,,,,,,,,,,,,,,,,Tracheophyta; Vitis vinifera L.; Eucalyptus L'Hér.; Pinus pinaster Aiton; Magnoliopsida
2010,2010-08-13,Vila Real,Vila Pouca de Aguiar,Pensalvos,CABANES,41.5408741,-7.6652019,Desconhecida,958.0,2010-08-13T13:00,22.8,32,5.3,22.2,0.0,0.0,0.0,0.0,0,1017.6,912.1,0,0,0,0,0.62,1.89,11.2,14.5,42,44,37.1,27.9,22.2,20.7,15.5,0.122,0.139,0.21,0.346,1,3600.0,922.1,816.3,105.8,919.7,922.1,1182.6,924.0,818.0,106.0,919.7,924.0,1185.1,,,,,,,,,,,,,,,,,,,,,,,,,,,,,,,,,,,,,,,,,,,,,,,,,,,,,,,Tracheophyta; Magnoliopsida; Quercus L.
2010,2010-08-31,Braga,Braga,Fraião,AVª ALFREDO BARROS(FRAIAO)M2 (CRESPOS),41.5371652,-8.399261023686998,NC,223.0,2010-08-31T01:00,21.9,57,13.0,21.5,0.0,0.0,0.0,0.0,1,1009.6,983.9,30,0,0,100,0.05,1.13,9.2,18.4,69,84,19.4,22.1,25.2,22.3,19.6,0.118,0.138,0.2,0.324,0,0.0,0.0,0.0,0.0,0.0,0.0,0.0,0.0,0.0,0.0,0.0,0.0,0.0,,,,,,,,,,,,,,,,,,,,,,,,,,,,,,,,,,,,,,,,,,,,,,,,,,,,,,,Tracheophyta; Magnoliopsida; Eucalyptus L'Hér.
2010,2010-07-31,Porto,Paredes,Sobreira,Casconha,41.1451105,-8.389249,NC,95.0,2010-07-31T13:00,30.6,51,19.4,34.8,0.0,0.0,0.0,0.0,0,1013.0,1002.2,0,0,0,0,0.69,2.15,10.4,12.2,268,268,21.6,36.1,27.3,23.4,18.4,0.108,0.146,0.226,0.35,1,3600.0,924.9,815.9,109.0,888.7,924.9,1218.6,925.0,816.0,109.0,888.7,925.0,1218.7,,,,,,,,,,,,,,,,,,,,,,,,,,,,,,,,,,,,,,,,,,,,,,,,,,,,,,,Magnoliopsida; Pinus pinaster Aiton; Eucalyptus L'Hér.; Tracheophyta; Vitis vinifera L.
2010,2010-08-10,Aveiro,Vale de Cambra,Roge,Sandiaes,40.8529519,-8.3562767,Desconhecida,370.0,2010-08-10T08:00,26.5,50,15.4,27.9,0.0,0.0,0.0,0.0,0,1017.0,975.2,0,0,0,0,0.18,1.72,3.2,4.5,297,299,12.6,26.5,26.1,23.3,18.2,0.102,0.144,0.224,0.341,1,3600.0,349.1,266.3,82.8,623.6,349.1,568.4,274.0,209.0,65.0,623.6,274.0,446.1,,,,,,,,,,,,,,,,,,,,,,,,,,,,,,,,,,,,,,,,,,,,,,,,,,,,,,,Tracheophyta; Eucalyptus L'Hér.; Pinus pinaster Aiton; Magnoliopsida
2010,2010-08-20,Porto,Felgueiras,Rande,Terra Seca,41.3308088,-8.2277133,NC,214.0,2010-08-20T20:00,23.0,68,16.7,24.6,0.0,0.0,0.0,0.0,0,1020.9,996.1,0,0,0,0,0.04,0.91,4.9,5.6,287,315,10.8,26.2,25.4,23.1,19.2,0.112,0.138,0.199,0.334,0,0.0,0.0,0.0,0.0,0.0,0.0,0.0,5.0,2.0,3.0,29.1,5.0,33.5,,,,,,,,,,,,,,,,,,,,,,,,,,,,,,,,,,,,,,,,,,,,,,,,,,,,,,,Magnoliopsida; Tracheophyta; Eucalyptus L'Hér.; Vitis vinifera L.
2010,2010-08-21,Porto,Paços de Ferreira,Frazão,ISAURA VILELA (MEIXOMIL),41.2615463,-8.4087418,NC,298.0,2010-08-21T15:00,30.2,42,15.9,30.8,0.0,0.0,0.0,0.0,0,1020.0,986.4,7,0,12,0,0.5,2.49,11.9,15.1,295,295,23.8,34.6,24.9,22.7,18.9,0.094,0.139,0.209,0.332,1,3600.0,560.4,430.1,130.3,586.4,560.4,980.5,598.0,459.0,139.0,586.4,598.0,1046.3,,,,,,,,,,,,,,,,,,,,,,,,,,,,,,,,,,,,,,,,,,,,,,,,,,,,,,,Eucalyptus L'Hér.; Tracheophyta; Magnoliopsida; Vitis vinifera L.; 
2010,2010-08-20,Porto,Penafiel,Milhundos,Barroquinho,41.2142926,-8.2655992,NC,387.0,2010-08-20T20:00,22.9,63,15.6,24.0,0.0,0.0,0.0,0.0,0,1021.2,976.8,0,0,0,0,0.05,1.03,5.9,7.1,317,336,13.0,26.2,25.0,22.4,18.3,0.092,0.139,0.212,0.333,0,0.0,0.0,0.0,0.0,0.0,0.0,0.0,5.0,1.0,4.0,14.8,5.0,32.1,,,,,,,,,,,,,,,,,,,,,,,,,,,,,,,,,,,,,,,,,,,,,,,,,,,,,,,Vitis vinifera L.; Eucalyptus L'Hér.; Tracheophyta; Magnoliopsida; Quercus L.
2010,2010-08-21,Vila Real,Vila Pouca de Aguiar,Telões,Tourencinho,41.4259187,-7.6784217,Desconhecida,664.0,2010-08-21T16:00,31.4,33,13.0,30.8,0.0,0.0,0.0,0.0,0,1019.8,947.1,12,0,18,3,0.46,3.09,10.0,12.9,249,247,25.9,34.1,25.2,21.6,17.5,0.118,0.136,0.196,0.34,1,3600.0,474.1,384.7,89.5,649.8,474.1,791.3,530.0,430.0,100.0,649.8,530.0,884.5,,,,,,,,,,,,,,,,,,,,,,,,,,,,,,,,,,,,,,,,,,,,,,,,,,,,,,,Pinus pinaster Aiton; Tracheophyta; Quercus L.; Magnoliopsida
2010,2010-08-21,Aveiro,Santa Maria da Feira,Mozelos,Zona Industrial de Prime,40.99774985,-8.560747557187135,Desconhecida,141.0,2010-08-21T16:00,27.5,52,16.9,27.4,0.0,0.0,0.0,0.0,0,1020.1,1003.9,11,10,2,2,0.43,1.74,17.1,22.3,319,321,32.4,33.9,25.7,23.6,20.0,0.09,0.115,0.166,0.309,1,3600.0,483.0,357.3,125.7,590.8,483.0,808.3,538.0,398.0,140.0,590.8,538.0,900.4,,,,,,,,,,,,,,,,,,,,,,,,,,,,,,,,,,,,,,,,,,,,,,,,,,,,,,,Tracheophyta; Eucalyptus L'Hér.; Magnoliopsida; Pinus pinaster Aiton
2010,2010-08-20,Aveiro,Arouca,Albergaria da Serra,Junto Frecha da Mizarela (ALVARENGA),40.8685183,-8.2752777,Desconhecida,948.0,2010-08-20T09:00,19.7,54,10.0,19.4,0.0,0.0,0.0,0.0,0,1020.0,914.3,0,0,0,0,0.26,1.07,2.2,3.0,81,76,13.0,21.1,20.0,20.1,16.0,0.117,0.136,0.195,0.339,1,3600.0,526.9,431.1,95.8,750.6,526.9,767.3,451.0,369.0,82.0,750.6,451.0,656.8,,,,,,,,,,,,,,,,,,,,,,,,,,,,,,,,,,,,,,,,,,,,,,,,,,,,,,,Magnoliopsida; Quercus L.; Eucalyptus L'Hér.; Tracheophyta
2010,2010-08-13,Setúbal,Sines,Sines,Rotunda do Bolbugão,37.9574843,-8.812298931051298,Desconhecida,40.0,2010-08-13T14:00,28.1,46,15.4,28.7,0.0,0.0,0.0,0.0,0,1012.2,1007.6,0,0,0,0,0.66,2.05,20.5,26.1,321,327,40.0,36.0,26.3,24.7,21.2,0.049,0.068,0.115,0.22,1,3600.0,883.7,776.9,106.8,891.2,883.7,1161.6,910.0,800.0,110.0,891.2,910.0,1196.2,,,,,,,,,,,,,,,,,,,,,,,,,,,,,,,,,,,,,,,,,,,,,,,,,,,,,,,Tracheophyta; Pinus pinea L.; Pinus pinaster Aiton; Magnoliopsida
2010,2010-07-31,Braga,Vila Nova de Famalicão,Arnoso (Santa Maria),MOINHOS (ARNOSO STª.MARIA) (Moinhos),41.4675071,-8.497075093328993,NC,151.0,2010-07-31T15:00,30.8,47,18.1,33.6,0.0,0.0,0.0,0.0,0,1012.6,995.6,0,0,0,0,0.64,2.36,11.7,14.4,281,283,29.9,36.3,27.2,22.7,17.5,0.099,0.148,0.232,0.344,1,3600.0,784.1,680.2,103.9,859.9,784.1,1049.9,830.0,720.0,110.0,859.9,830.0,1111.4,,,,,,,,,,,,,,,,,,,,,,,,,,,,,,,,,,,,,,,,,,,,,,,,,,,,,,,Eucalyptus L'Hér.; Tracheophyta; Vitis vinifera L.
2010,2010-08-10,Lisboa,Sintra,Almargem do Bispo,ARUIL,38.8389903,-9.256516,Desconhecida,285.0,2010-08-10T13:00,32.5,31,13.2,34.0,0.0,0.0,0.0,0.0,0,1016.5,984.7,0,0,0,0,0.74,3.36,11.0,13.4,328,329,25.9,39.6,28.0,23.7,19.4,0.09,0.161,0.227,0.332,1,3600.0,923.0,813.8,109.1,888.7,923.0,1219.1,922.0,813.0,109.0,888.7,922.0,1217.8,,,,,,,,,,,,,,,,,,,,,,,,,,,,,,,,,,,,,,,,,,,,,,,,,,,,,,,Tracheophyta; Magnoliopsida; Pinus pinaster Aiton; Eucalyptus L'Hér.; Vitis vinifera L.; 
2010,2010-08-04,Braga,Vila Verde,Cervães,TRAVESSA DA DIDA (CERVAES) (Travessas),41.594017750000006,-8.521835250843868,NC,92.0,2010-08-04T17:00,28.8,42,14.5,27.0,0.0,0.0,0.0,0.0,1,1014.2,1003.7,29,0,0,96,0.48,2.31,22.1,30.9,330,332,46.8,33.5,27.1,23.3,18.2,0.095,0.145,0.228,0.342,1,3600.0,466.4,367.4,99.0,737.1,466.4,662.4,542.0,427.0,115.0,737.1,542.0,769.8,,,,,,,,,,,,,,,,,,,,,,,,,,,,,,,,,,,,,,,,,,,,,,,,,,,,,,,Pinus pinaster Aiton; Eucalyptus L'Hér.; Magnoliopsida; Tracheophyta
2010,2010-08-20,Porto,Felgueiras,Torrados,Espadanal,41.3553907,-8.2397668,NC,303.0,2010-08-20T14:00,29.2,41,14.5,31.2,0.0,0.0,0.0,0.0,0,1020.2,986.0,0,0,0,0,0.63,2.4,8.2,9.5,293,295,25.9,34.4,24.3,23.0,18.9,0.099,0.137,0.204,0.328,1,3600.0,823.9,690.1,133.8,835.1,823.9,1104.2,850.0,712.0,138.0,835.1,850.0,1139.2,,,,,,,,,,,,,,,,,,,,,,,,,,,,,,,,,,,,,,,,,,,,,,,,,,,,,,,Tracheophyta; Vitis vinifera L.; Eucalyptus L'Hér.; Magnoliopsida
2010,2010-08-10,Lisboa,Sobral de Monte Agraço,Sobral de Monte Agraço,Barqueira,39.0194091,-9.1549093,Desconhecida,260.0,2010-08-10T15:00,32.3,32,13.4,33.0,0.0,0.0,0.0,0.0,0,1015.4,986.4,0,0,0,0,0.68,3.3,13.2,16.4,331,331,32.4,40.1,28.9,23.8,19.5,0.089,0.159,0.224,0.326,1,3600.0,777.2,678.3,98.9,864.6,777.2,1044.4,825.0,720.0,105.0,864.6,825.0,1108.6,,,,,,,,,,,,,,,,,,,,,,,,,,,,,,,,,,,,,,,,,,,,,,,,,,,,,,,Tracheophyta; Vitis vinifera L.; Magnoliopsida
2010,2010-08-31,Porto,Paredes,Duas Igrejas,LG SEIXOSO (VILELA),41.2344904,-8.38887287447855,Desconhecida,275.0,2010-08-31T02:00,21.9,56,12.6,21.5,0.0,0.0,0.0,0.0,1,1009.2,977.7,30,0,0,100,0.05,1.17,9.0,20.9,92,91,22.3,22.5,25.6,22.5,19.4,0.132,0.134,0.176,0.331,0,0.0,0.0,0.0,0.0,0.0,0.0,0.0,0.0,0.0,0.0,0.0,0.0,0.0,,,,,,,,,,,,,,,,,,,,,,,,,,,,,,,,,,,,,,,,,,,,,,,,,,,,,,,Magnoliopsida; Pinus pinaster Aiton; Eucalyptus L'Hér.; Tracheophyta; Vitis vinifera L.
2010,2010-09-01,Aveiro,Sever do Vouga,Silva Escura,Espinheiro,40.7581987,-8.3907248,Desconhecida,288.0,2010-09-01T13:00,26.0,48,14.2,27.3,0.0,0.0,0.0,0.0,0,1009.9,977.3,0,0,0,0,0.58,1.74,11.4,13.3,283,283,30.2,33.0,26.3,23.8,20.5,0.1,0.136,0.194,0.321,1,3600.0,836.3,729.6,106.7,870.7,836.3,1125.6,839.0,732.0,107.0,870.7,839.0,1129.2,,,,,,,,,,,,,,,,,,,,,,,,,,,,,,,,,,,,,,,,,,,,,,,,,,,,,,,Magnoliopsida; Eucalyptus L'Hér.; Vitis vinifera L.
2010,2010-08-31,Aveiro,Santa Maria da Feira,Mozelos,Zona Industrial de Prime,40.99774985,-8.560747557187135,Desconhecida,141.0,2010-08-31T04:00,25.2,36,9.2,23.1,0.0,0.0,0.0,0.0,1,1008.1,992.0,31,0,2,98,0.13,2.05,13.0,26.4,92,95,28.4,24.0,26.8,23.3,20.5,0.093,0.115,0.161,0.305,0,0.0,0.0,0.0,0.0,0.0,0.0,0.0,0.0,0.0,0.0,0.0,0.0,0.0,,,,,,,,,,,,,,,,,,,,,,,,,,,,,,,,,,,,,,,,,,,,,,,,,,,,,,,Tracheophyta; Eucalyptus L'Hér.; Magnoliopsida; Pinus pinaster Aiton
2010,2010-08-21,Porto,Amarante,Mancelos,Pidre,41.2894833,-8.155317,Desconhecida,471.0,2010-08-21T18:00,28.8,43,15.2,29.3,0.0,0.0,0.0,0.0,0,1019.7,967.0,1,0,2,0,0.22,2.24,8.7,12.0,287,291,24.5,31.9,25.6,22.1,18.0,0.095,0.137,0.204,0.328,1,3600.0,175.4,123.7,51.7,496.6,175.4,333.0,241.0,170.0,71.0,496.6,241.0,457.6,,,,,,,,,,,,,,,,,,,,,,,,,,,,,,,,,,,,,,,,,,,,,,,,,,,,,,,Tracheophyta; Magnoliopsida; Eucalyptus L'Hér.; Pinus pinaster Aiton; Vitis vinifera L.; 
2010,2010-08-29,Lisboa,Loures,Loures,Montemor,38.823416,-9.2043282,Desconhecida,338.0,2010-08-29T18:00,26.3,44,13.0,24.6,0.0,0.0,0.0,0.0,0,1014.2,976.0,0,0,0,0,0.28,1.93,18.4,26.9,332,335,41.0,31.1,25.9,23.1,20.4,0.089,0.156,0.216,0.325,1,3600.0,185.3,141.2,44.0,624.6,185.3,303.3,265.0,202.0,63.0,624.6,265.0,433.8,,,,,,,,,,,,,,,,,,,,,,,,,,,,,,,,,,,,,,,,,,,,,,,,,,,,,,,Magnoliopsida; Tracheophyta; Eucalyptus L'Hér.
2010,2010-08-29,Viseu,Viseu,Viseu (coração De Jesus),RUA TEN. MANUEL JOAQUIM (Rua Tenente Manuel Joaquim),40.6603841,-7.920613,Desconhecida,446.0,2010-08-29T19:00,29.9,32,11.6,29.2,0.0,0.0,0.0,0.0,0,1015.7,966.1,0,0,0,0,0.12,2.86,8.4,11.0,329,337,17.3,32.1,27.3,23.9,20.4,0.084,0.145,0.219,0.334,1,2520.25,9.2,5.9,3.3,67.8,7.3,18.9,73.0,47.0,26.0,332.9,73.0,150.0,,,,,,,,,,,,,,,,,,,,,,,,,,,,,,,,,,,,,,,,,,,,,,,,,,,,,,,Magnoliopsida; Tracheophyta; Pinus pinaster Aiton
2010,2010-08-10,Braga,Celorico de Basto,Agilde,VARZEA(AGILDE) (Varzea),41.3637109,-8.1040764,NC,482.0,2010-08-10T13:00,31.6,28,10.9,31.8,0.0,0.0,0.0,0.0,0,1017.7,964.4,0,0,0,0,0.74,3.33,13.8,17.9,279,279,37.4,35.9,26.2,22.4,17.0,0.094,0.141,0.218,0.337,1,3600.0,914.9,813.0,101.9,907.3,914.9,1192.9,916.0,814.0,102.0,907.3,916.0,1194.3,,,,,,,,,,,,,,,,,,,,,,,,,,,,,,,,,,,,,,,,,,,,,,,,,,,,,,,Vitis vinifera L.; Tracheophyta; Pinus pinaster Aiton; Magnoliopsida; Eucalyptus L'Hér.
2010,2010-08-10,Porto,Gondomar,Foz do Sousa,RUA PLAINA (FANZERES),41.119341,-8.50547,NC,95.0,2010-08-10T17:00,31.2,28,10.3,29.2,0.0,0.0,0.0,0.0,0,1016.6,1005.8,0,0,0,0,0.49,3.29,14.4,18.8,323,328,28.1,36.0,29.2,24.3,19.3,0.114,0.135,0.195,0.344,1,3600.0,452.4,378.1,74.3,788.0,452.4,638.8,530.0,443.0,87.0,788.0,530.0,748.4,,,,,,,,,,,,,,,,,,,,,,,,,,,,,,,,,,,,,,,,,,,,,,,,,,,,,,,Pinus pinaster Aiton; Eucalyptus L'Hér.; Tracheophyta; Magnoliopsida
2010,2010-08-15,Porto,Penafiel,Portela,Areal,41.1077057,-8.2950347,Desconhecida,181.0,2010-08-15T11:00,27.2,33,9.7,28.0,0.0,0.0,0.0,0.0,0,1015.3,994.7,0,0,0,0,0.55,2.4,4.3,6.0,66,73,20.2,29.2,24.2,23.9,19.2,0.1,0.142,0.22,0.338,1,3600.0,833.5,728.5,105.0,883.5,833.5,1099.6,786.0,687.0,99.0,883.5,786.0,1036.9,,,,,,,,,,,,,,,,,,,,,,,,,,,,,,,,,,,,,,,,,,,,,,,,,,,,,,,Tracheophyta; Vitis vinifera L.; Magnoliopsida; Eucalyptus L'Hér.
2010,2010-08-21,Porto,Felgueiras,Macieira da Lixa,SEIXOSO (Seixo),41.3496108,-8.1492033,NC,406.0,2010-08-21T19:00,26.0,56,16.5,27.3,0.0,0.0,0.0,0.0,0,1020.6,974.6,0,0,0,0,0.09,1.49,6.6,9.9,299,303,21.6,29.9,26.0,22.4,18.4,0.093,0.141,0.214,0.334,1,3345.97,36.6,22.1,14.5,253.9,35.1,79.1,96.0,58.0,38.0,358.4,96.0,207.3,,,,,,,,,,,,,,,,,,,,,,,,,,,,,,,,,,,,,,,,,,,,,,,,,,,,,,,Eucalyptus L'Hér.; Tracheophyta; Pinus pinaster Aiton; Magnoliopsida; Vitis vinifera L.
2010,2010-08-15,Porto,Vila Nova de Gaia,Grijó,RUA CRUZ BICO (Rua Alexandre Marta da Cruz),41.030392250000006,-8.583434430828127,NC,110.0,2010-08-15T14:00,30.1,26,8.6,31.1,0.0,0.0,0.0,0.0,0,1014.8,1002.3,0,0,0,0,0.65,3.14,5.2,5.5,326,337,15.8,37.7,26.3,24.2,19.8,0.089,0.116,0.17,0.312,1,3600.0,863.3,763.2,100.0,903.0,863.3,1127.2,889.0,786.0,103.0,903.0,889.0,1160.8,,,,,,,,,,,,,,,,,,,,,,,,,,,,,,,,,,,,,,,,,,,,,,,,,,,,,,,Magnoliopsida; Tracheophyta; Eucalyptus L'Hér.
2010,2010-08-13,Vila Real,Valpaços,Lebução,Pedome,41.757527,-7.2595444,NC,661.0,2010-08-13T17:00,25.6,28,5.8,23.1,0.0,0.0,0.0,0.0,0,1014.4,941.1,0,0,0,0,0.39,2.37,10.0,12.8,339,344,22.3,31.6,24.9,22.2,16.9,0.119,0.136,0.199,0.345,1,3600.0,432.3,362.1,70.2,795.3,432.3,606.7,511.0,428.0,83.0,795.3,511.0,717.1,,,,,,,,,,,,,,,,,,,,,,,,,,,,,,,,,,,,,,,,,,,,,,,,,,,,,,,Tracheophyta; Castanea sativa Mill.; Magnoliopsida; Vitis vinifera L.; Pinales
2010,2010-08-21,Aveiro,Ovar,Cortegaça,Rua do Codeleiro (EN. 109),40.9420364,-8.6197785,Desconhecida,33.0,2010-08-21T22:00,20.1,87,17.8,21.3,0.0,0.0,0.0,0.0,0,1021.6,1017.7,8,9,0,0,0.01,0.31,11.4,15.9,325,335,22.3,23.8,26.4,24.1,20.5,0.1,0.107,0.136,0.29,0,0.0,0.0,0.0,0.0,0.0,0.0,0.0,0.0,0.0,0.0,0.0,0.0,0.0,,,,,,,,,,,,,,,,,,,,,,,,,,,,,,,,,,,,,,,,,,,,,,,,,,,,,,,Eucalyptus L'Hér.; Tracheophyta; Magnoliopsida; Pinus pinaster Aiton
2010,2010-08-10,Viseu,Viseu,Torredeita,Torredeita,40.64143025,-8.02021742673422,Desconhecida,439.0,2010-08-10T16:00,32.8,28,12.1,32.2,0.0,0.0,0.0,0.0,0,1016.9,968.5,0,0,0,0,0.6,3.57,13.6,17.8,287,288,36.4,38.0,29.1,24.1,18.4,0.093,0.141,0.211,0.332,1,3600.0,619.6,536.5,83.1,841.9,619.6,848.3,686.0,594.0,92.0,841.9,686.0,939.2,,,,,,,,,,,,,,,,,,,,,,,,,,,,,,,,,,,,,,,,,,,,,,,,,,,,,,,Pinus pinaster Aiton; Magnoliopsida; Tracheophyta; Pinus pinea L.
2010,2010-08-29,Braga,Esposende,Fonte Boa,BARCA(FONTE BOA) (Barca),41.501016750000005,-8.746299770425866,NC,17.0,2010-08-29T21:00,23.9,65,17.0,24.7,0.0,0.0,0.0,0.0,0,1015.8,1013.8,0,0,0,0,0.05,1.03,11.5,17.7,2,2,16.6,25.2,25.6,22.8,20.5,0.126,0.139,0.205,0.325,0,0.0,0.0,0.0,0.0,0.0,0.0,0.0,0.0,0.0,0.0,0.0,0.0,0.0,,,,,,,,,,,,,,,,,,,,,,,,,,,,,,,,,,,,,,,,,,,,,,,,,,,,,,,Tracheophyta; Pinus pinaster Aiton; Eucalyptus L'Hér.
2010,2010-08-30,Aveiro,Arouca,Canelas,Lugar de Cima,40.9674579,-8.2083107,Desconhecida,351.0,2010-08-30T23:00,23.2,49,12.0,22.3,0.0,0.0,0.0,0.0,1,1011.0,971.1,28,0,0,94,0.07,1.44,10.1,12.4,94,82,19.1,24.1,26.4,22.8,19.7,0.104,0.138,0.205,0.328,0,0.0,0.0,0.0,0.0,0.0,0.0,0.0,0.0,0.0,0.0,0.0,0.0,0.0,,,,,,,,,,,,,,,,,,,,,,,,,,,,,,,,,,,,,,,,,,,,,,,,,,,,,,,Eucalyptus L'Hér.; Pinus pinaster Aiton; Magnoliopsida; Vitis vinifera L.
2010,2010-08-10,Braga,Braga,Priscos,MARCO (PRISCOS) (Marco),41.4978026,-8.477387837262985,NC,133.0,2010-08-10T15:00,32.0,24,9.0,31.3,0.0,0.0,0.0,0.0,0,1016.9,1001.9,1,0,0,4,0.69,3.61,13.6,16.8,310,313,31.3,36.6,27.7,23.7,18.6,0.098,0.141,0.216,0.336,1,3600.0,779.7,679.9,99.8,887.4,779.7,1019.9,828.0,722.0,106.0,887.4,828.0,1083.1,,,,,,,,,,,,,,,,,,,,,,,,,,,,,,,,,,,,,,,,,,,,,,,,,,,,,,,Magnoliopsida; Eucalyptus L'Hér.; Tracheophyta; Pinales
2010,2010-07-31,Porto,Marco de Canaveses,Soalhães,Aldeia,41.1603957,-8.0979057,Desconhecida,397.0,2010-07-31T16:00,30.5,46,17.5,32.1,0.0,0.0,0.0,0.0,0,1012.2,968.2,0,0,0,0,0.55,2.36,13.0,17.0,273,274,36.0,36.3,27.2,21.9,16.5,0.096,0.154,0.241,0.349,1,3600.0,635.3,544.4,90.9,822.0,635.3,879.1,699.0,599.0,100.0,822.0,699.0,967.3,,,,,,,,,,,,,,,,,,,,,,,,,,,,,,,,,,,,,,,,,,,,,,,,,,,,,,,Magnoliopsida; Tracheophyta; Quercus L.; Eucalyptus L'Hér.; Pinus pinaster Aiton; Vitis vinifera L.; Castanea sativa Mill.; Pinales; 
2010,2010-08-13,Porto,Felgueiras,Moure,Quintã,41.3528045,-8.1754517,Desconhecida,306.0,2010-08-13T17:00,28.6,28,8.4,26.7,0.0,0.0,0.0,0.0,0,1013.6,979.2,0,0,0,0,0.42,2.81,9.8,12.8,6,10,23.4,33.3,26.1,23.5,18.3,0.097,0.139,0.211,0.333,1,3600.0,446.6,374.5,72.2,804.3,446.6,620.4,526.0,441.0,85.0,804.3,526.0,730.6,,,,,,,,,,,,,,,,,,,,,,,,,,,,,,,,,,,,,,,,,,,,,,,,,,,,,,,Magnoliopsida; Tracheophyta; Pinus pinaster Aiton; Eucalyptus L'Hér.; Vitis vinifera L.
2010,2010-08-30,Aveiro,Sever do Vouga,Rocas do Vouga,Borralhal,40.7599485,-8.3439116,Desconhecida,384.0,2010-08-30T00:00,20.5,68,14.5,21.0,0.0,0.0,0.0,0.0,0,1016.3,972.1,0,0,0,0,0.02,0.77,7.1,9.2,66,51,14.8,21.9,25.2,22.4,19.5,0.108,0.138,0.204,0.327,0,0.0,0.0,0.0,0.0,0.0,0.0,0.0,0.0,0.0,0.0,0.0,0.0,0.0,,,,,,,,,,,,,,,,,,,,,,,,,,,,,,,,,,,,,,,,,,,,,,,,,,,,,,,Eucalyptus L'Hér.; Tracheophyta
2010,2010-08-10,Aveiro,Santa Maria da Feira,Arrifana,Corga do Lobão (Corga),40.91239985,-8.495619894173418,Desconhecida,257.0,2010-08-10T16:00,31.2,28,10.4,29.7,0.0,0.0,0.0,0.0,0,1017.0,988.2,0,0,0,0,0.6,3.29,15.9,20.2,322,325,32.4,36.2,28.2,23.6,18.6,0.107,0.138,0.203,0.338,1,3600.0,625.1,537.3,87.7,838.7,625.1,852.8,691.0,594.0,97.0,838.7,691.0,942.8,,,,,,,,,,,,,,,,,,,,,,,,,,,,,,,,,,,,,,,,,,,,,,,,,,,,,,,Tracheophyta; Eucalyptus L'Hér.
2010,2010-08-15,Aveiro,Santa Maria da Feira,Feira,Milheirós,40.9319453,-8.4671842,Desconhecida,265.0,2010-08-15T16:00,29.2,28,8.8,27.5,0.0,0.0,0.0,0.0,0,1014.2,984.4,0,0,0,0,0.56,2.92,14.4,17.6,323,325,24.8,34.7,26.0,23.5,19.0,0.106,0.137,0.197,0.334,1,3600.0,616.7,532.8,83.8,852.5,616.7,833.5,684.0,591.0,93.0,852.5,684.0,924.5,,,,,,,,,,,,,,,,,,,,,,,,,,,,,,,,,,,,,,,,,,,,,,,,,,,,,,,Tracheophyta; Eucalyptus L'Hér.; Pinales
2010,2010-08-13,Lisboa,Vila Franca de Xira,Vialonga,QUINTA MARANHOTA- Bº NASCENTE DO CABO (Bairro da Quinta da Figueira),38.8735511,-9.0785504,Desconhecida,60.0,2010-08-13T19:00,23.6,51,13.0,21.1,0.0,0.0,0.0,0.0,0,1011.8,1004.8,0,0,0,0,0.21,1.42,23.9,37.3,344,347,49.3,28.8,27.8,25.9,21.1,0.098,0.17,0.235,0.339,1,3600.0,68.4,46.3,22.2,484.5,68.4,127.3,139.0,94.0,45.0,484.5,139.0,258.6,,,,,,,,,,,,,,,,,,,,,,,,,,,,,,,,,,,,,,,,,,,,,,,,,,,,,,,Tracheophyta; Magnoliopsida; Pinus pinea L.; Olea europaea L.; Pinus pinaster Aiton; Pinales; 
2010,2010-08-21,Braga,Cabeceiras de Basto,Refojos de Basto,ALTO DO MONTE (REFOJOS) (Alto da Bouça),41.5107376,-7.9986954,NC,352.0,2010-08-21T23:00,20.9,82,17.8,23.1,0.0,0.0,0.0,0.0,0,1021.5,980.7,3,0,5,0,0.0,0.43,4.5,5.0,241,249,9.4,23.9,26.2,22.9,18.8,0.095,0.137,0.204,0.328,0,0.0,0.0,0.0,0.0,0.0,0.0,0.0,0.0,0.0,0.0,0.0,0.0,0.0,,,,,,,,,,,,,,,,,,,,,,,,,,,,,,,,,,,,,,,,,,,,,,,,,,,,,,,Tracheophyta; Vitis vinifera L.; Magnoliopsida; Eucalyptus L'Hér.; Pinus pinaster Aiton
2010,2010-08-10,Braga,Guimarães,Sande (são Martinho),VILARINHO (SANDE S. MARTINHO) (Candoso (São Martinho)),41.4867482,-8.3530938,NC,143.0,2010-08-10T15:00,32.6,24,9.4,31.7,0.0,0.0,0.0,0.0,0,1016.8,1000.7,1,0,0,2,0.7,3.73,14.8,18.3,313,315,28.4,37.2,28.0,23.9,18.6,0.098,0.141,0.218,0.337,1,3600.0,772.1,675.2,97.0,881.2,772.1,1019.9,820.0,717.0,103.0,881.2,820.0,1083.1,,,,,,,,,,,,,,,,,,,,,,,,,,,,,,,,,,,,,,,,,,,,,,,,,,,,,,,Magnoliopsida; Tracheophyta
2010,2010-08-04,Porto,Vila Nova de Gaia,Olival,R.CARREIRA (Rua da Carreira),41.061152,-8.5284604,NC,130.0,2010-08-04T19:00,24.3,59,15.7,23.3,0.0,0.0,0.0,0.0,1,1014.4,999.4,27,0,0,91,0.18,1.26,20.3,32.4,335,339,46.8,29.6,27.6,23.5,18.6,0.114,0.137,0.205,0.349,1,3600.0,87.1,43.0,44.2,329.5,87.1,173.4,150.0,74.0,76.0,329.5,150.0,298.4,,,,,,,,,,,,,,,,,,,,,,,,,,,,,,,,,,,,,,,,,,,,,,,,,,,,,,,Tracheophyta; Eucalyptus L'Hér.; Magnoliopsida
2010,2010-08-13,Viana do Castelo,Viana do Castelo,Serreleis,MARCÕES - SERRELEIS (Marcões),41.7077545,-8.7511027,Desconhecida,27.0,2010-08-13T15:00,25.9,40,11.1,24.0,0.0,0.0,0.0,0.0,0,1015.8,1012.7,0,0,0,0,0.6,2.02,24.1,32.8,357,3,45.0,31.5,24.5,23.3,19.3,0.082,0.153,0.236,0.343,1,3600.0,768.4,667.6,100.8,878.8,768.4,1012.3,816.0,709.0,107.0,878.8,816.0,1075.0,,,,,,,,,,,,,,,,,,,,,,,,,,,,,,,,,,,,,,,,,,,,,,,,,,,,,,,Magnoliopsida; Tracheophyta
2010,2010-08-30,Porto,Maia,Águas Santas,R. NOVA DE REBRODAES (Rua Azenha Nova),41.2077591,-8.5727501,NC,123.0,2010-08-30T02:00,20.3,89,18.5,22.5,0.0,0.0,0.0,0.0,0,1015.3,1000.9,0,0,0,0,0.0,0.25,6.2,9.8,69,66,13.3,21.1,25.1,22.8,20.2,0.126,0.136,0.196,0.333,0,0.0,0.0,0.0,0.0,0.0,0.0,0.0,0.0,0.0,0.0,0.0,0.0,0.0,,,,,,,,,,,,,,,,,,,,,,,,,,,,,,,,,,,,,,,,,,,,,,,,,,,,,,,Tracheophyta; Pinus pinaster Aiton; Magnoliopsida; Eucalyptus L'Hér.; 
2010,2010-08-30,Porto,Matosinhos,Guifões,Rua Ponte do Carro,41.2200325,-8.657883,NC,47.0,2010-08-30T02:00,20.0,90,18.3,21.8,0.0,0.0,0.0,0.0,0,1015.3,1009.8,0,0,0,0,0.0,0.23,8.4,10.0,47,52,13.0,20.9,25.1,23.1,20.6,0.1,0.14,0.21,0.329,0,0.0,0.0,0.0,0.0,0.0,0.0,0.0,0.0,0.0,0.0,0.0,0.0,0.0,,,,,,,,,,,,,,,,,,,,,,,,,,,,,,,,,,,,,,,,,,,,,,,,,,,,,,,Eucalyptus L'Hér.; Acacia Mill.; Tracheophyta; Magnoliopsida
2010,2010-06-13,Lisboa,Cascais,Cascais,BAIRRO SÃO LUIS (Bairro 16 de Novembro),38.7282176,-9.3536674,NC,104.0,2010-06-13T20:00,17.4,83,14.5,15.3,0.0,0.0,0.0,0.0,0,1015.5,1003.2,6,1,9,0,0.05,0.34,25.3,37.8,349,352,40.7,19.4,19.9,18.4,16.5,0.18,0.184,0.218,0.304,1,1832.64,0.0,0.0,0.0,0.0,0.0,0.0,41.0,21.0,20.0,169.1,41.0,111.4,,,,,,,,,,,,,,,,,,,,,,,,,,,,,,,,,,,,,,,,,,,,,,,,,,,,,,,Tracheophyta; Magnoliopsida
2010,2010-08-31,Vila Real,Boticas,Bobadela,BOBADELA,41.7306282,-7.617843795125788,NC,596.0,2010-08-31T10:00,23.2,33,6.3,21.2,0.0,0.0,0.0,0.0,1,1013.6,946.7,37,0,11,100,0.32,1.89,7.4,10.0,129,128,21.6,25.1,23.7,22.4,18.7,0.09,0.157,0.238,0.343,1,3600.0,472.1,186.8,285.2,273.2,472.1,918.1,427.0,169.0,258.0,273.2,427.0,830.4,,,,,,,,,,,,,,,,,,,,,,,,,,,,,,,,,,,,,,,,,,,,,,,,,,,,,,,Magnoliopsida; Tracheophyta; Pinus pinaster Aiton
2010,2010-08-30,Coimbra,Miranda do Corvo,Semide,Foz do Mosteiro,40.1599192,-8.3362204,Desconhecida,199.0,2010-08-30T03:00,19.9,67,13.7,20.0,0.0,0.0,0.0,0.0,0,1014.7,991.5,0,0,0,0,0.02,0.75,7.2,11.2,87,50,11.9,21.3,26.4,24.1,20.8,0.095,0.129,0.174,0.303,0,0.0,0.0,0.0,0.0,0.0,0.0,0.0,0.0,0.0,0.0,0.0,0.0,0.0,,,,,,,,,,,,,,,,,,,,,,,,,,,,,,,,,,,,,,,,,,,,,,,,,,,,,,,Eucalyptus L'Hér.; Magnoliopsida; Pinus pinaster Aiton; Tracheophyta
2010,2010-07-23,Porto,Felgueiras,Jugueiros,Cruzes,41.4013104,-8.2104389,NC,157.0,2010-07-23T17:00,30.0,31,11.3,28.8,0.0,0.0,0.0,0.0,0,1019.5,1001.7,0,0,0,1,0.49,2.91,12.8,17.3,338,343,29.9,33.2,24.2,21.3,17.2,0.098,0.162,0.253,0.353,1,3600.0,510.1,431.1,78.9,824.6,510.1,692.9,588.0,497.0,91.0,824.6,588.0,798.7,,,,,,,,,,,,,,,,,,,,,,,,,,,,,,,,,,,,,,,,,,,,,,,,,,,,,,,Pinus pinaster Aiton; Eucalyptus L'Hér.; Tracheophyta; Magnoliopsida
2010,2010-08-10,Aveiro,Arouca,Alvarenga,Lugar de Vázeas,40.9662166,-8.1727407,Desconhecida,338.0,2010-08-10T14:00,32.7,30,12.9,33.4,0.0,0.0,0.0,0.0,0,1017.7,980.1,1,0,0,2,0.72,3.45,13.0,16.7,289,289,35.3,37.2,27.8,23.5,18.3,0.101,0.144,0.225,0.342,1,3600.0,844.2,725.7,118.5,846.4,844.2,1141.4,869.0,747.0,122.0,846.4,869.0,1174.8,,,,,,,,,,,,,,,,,,,,,,,,,,,,,,,,,,,,,,,,,,,,,,,,,,,,,,,Tracheophyta; Magnoliopsida; Quercus L.; Eucalyptus L'Hér.; Castanea sativa Mill.; Pinus pinaster Aiton
2010,2010-08-10,Viseu,Vila Nova de Paiva,Touro,POVOA,40.900362,-7.7108113,Desconhecida,847.0,2010-08-10T15:00,31.0,28,10.5,29.7,0.0,0.0,0.0,0.0,0,1016.7,925.2,1,0,1,1,0.67,3.23,18.1,23.6,277,278,42.8,34.5,26.2,21.6,16.2,0.126,0.14,0.211,0.346,1,3600.0,730.2,634.3,95.9,830.1,730.2,1017.2,777.0,675.0,102.0,830.1,777.0,1082.5,,,,,,,,,,,,,,,,,,,,,,,,,,,,,,,,,,,,,,,,,,,,,,,,,,,,,,,Magnoliopsida; Pinus pinaster Aiton; Tracheophyta; Eucalyptus L'Hér.; Quercus L.; 
2010,2010-08-30,Viseu,Sernancelhe,Macieira,MACIEIRA,40.989796,-7.4854129,Desconhecida,796.0,2010-08-30T13:00,29.2,25,7.3,28.8,0.0,0.0,0.0,0.0,0,1015.3,928.7,0,0,0,0,0.68,3.04,10.9,13.5,56,56,29.9,33.0,24.3,22.4,18.5,0.13,0.144,0.179,0.329,1,3600.0,872.8,772.2,100.5,918.5,872.8,1128.3,877.0,776.0,101.0,918.5,877.0,1133.8,,,,,,,,,,,,,,,,,,,,,,,,,,,,,,,,,,,,,,,,,,,,,,,,,,,,,,,Magnoliopsida; Pinales; Vitis vinifera L.; Castanea sativa Mill.; Tracheophyta; Quercus L.; Pinus pinaster Aiton; Olea europaea L.; 
2010,2010-08-15,Porto,Felgueiras,Moure,Argonda,41.3528045,-8.1754517,Desconhecida,306.0,2010-08-15T10:00,24.0,39,9.1,22.6,0.0,0.0,0.0,0.0,0,1015.6,980.6,0,0,0,0,0.45,1.82,11.7,14.9,99,98,31.3,25.9,23.6,23.4,18.4,0.097,0.138,0.209,0.332,1,3600.0,715.7,614.4,101.3,848.9,715.7,965.1,650.0,558.0,92.0,848.9,650.0,876.5,,,,,,,,,,,,,,,,,,,,,,,,,,,,,,,,,,,,,,,,,,,,,,,,,,,,,,,Magnoliopsida; Tracheophyta; Pinus pinaster Aiton; Eucalyptus L'Hér.; Vitis vinifera L.
2010,2010-09-09,Aveiro,Estarreja,Veiros,Rua do Canedo (Rua do Desembargador Correia Teles),40.7511477,-8.5754765,Desconhecida,5.0,2010-09-09T17:00,22.8,62,15.2,21.2,0.0,0.0,0.0,0.0,0,1022.2,1021.6,3,0,0,9,0.28,1.06,23.4,29.8,331,333,38.9,26.4,22.8,23.3,21.8,0.173,0.127,0.177,0.3,1,3600.0,319.9,256.5,63.3,728.3,319.9,475.1,399.0,320.0,79.0,728.3,399.0,592.6,,,,,,,,,,,,,,,,,,,,,,,,,,,,,,,,,,,,,,,,,,,,,,,,,,,,,,,Tracheophyta; Magnoliopsida
2010,2010-08-21,Porto,Gondomar,Medas,R. PORTELINHA (MELRES),41.065996600000005,-8.424200798370626,NC,162.0,2010-08-21T23:00,19.8,89,18.0,21.7,0.0,0.0,0.0,0.0,1,1021.8,1002.7,25,28,0,0,0.0,0.25,6.9,10.3,298,306,14.4,23.3,26.1,23.6,19.8,0.109,0.137,0.198,0.335,0,0.0,0.0,0.0,0.0,0.0,0.0,0.0,0.0,0.0,0.0,0.0,0.0,0.0,,,,,,,,,,,,,,,,,,,,,,,,,,,,,,,,,,,,,,,,,,,,,,,,,,,,,,,Tracheophyta; Eucalyptus L'Hér.; Magnoliopsida; Pinus pinaster Aiton
2010,2010-07-31,Porto,Gondomar,Jovim,EN 101 (FANZERES),41.119341,-8.50547,NC,95.0,2010-07-31T20:00,23.9,70,18.0,25.7,0.0,0.0,0.0,0.0,0,1012.7,1001.7,0,0,0,0,0.05,0.9,7.5,10.8,287,291,20.2,28.8,28.3,23.4,18.4,0.114,0.139,0.211,0.351,0,1006.24,0.0,0.0,0.0,0.0,0.0,0.0,31.0,16.0,15.0,148.4,31.0,84.5,,,,,,,,,,,,,,,,,,,,,,,,,,,,,,,,,,,,,,,,,,,,,,,,,,,,,,,Pinus pinaster Aiton; Eucalyptus L'Hér.; Tracheophyta; Magnoliopsida
2010,2010-09-01,Porto,Valongo,Alfena,R. FERRARIA (ALFENA),41.22144345,-8.47176603571262,NC,183.0,2010-09-01T15:00,23.9,56,14.5,23.4,0.0,0.0,0.0,0.0,0,1009.5,988.5,4,0,2,9,0.43,1.31,16.5,20.5,293,294,33.8,31.4,26.1,23.2,20.2,0.108,0.135,0.189,0.327,1,3600.0,578.5,453.7,124.8,655.6,578.5,929.5,621.0,487.0,134.0,655.6,621.0,997.8,,,,,,,,,,,,,,,,,,,,,,,,,,,,,,,,,,,,,,,,,,,,,,,,,,,,,,,Magnoliopsida; Eucalyptus L'Hér.; Tracheophyta; Pinus pinaster Aiton
2010,2010-08-30,Lisboa,Mafra,Sobral da Abelheira,Rua Campo da Bola,38.9960641,-9.3334902,Desconhecida,95.0,2010-08-30T14:00,30.6,36,13.9,32.1,0.0,0.0,0.0,0.0,0,1011.4,1000.7,0,0,0,0,0.67,2.81,10.9,12.7,343,353,23.4,38.8,26.6,23.9,21.4,0.085,0.157,0.22,0.332,1,3600.0,834.6,735.9,98.8,901.0,834.6,1096.0,862.0,760.0,102.0,901.0,862.0,1131.9,,,,,,,,,,,,,,,,,,,,,,,,,,,,,,,,,,,,,,,,,,,,,,,,,,,,,,,Eucalyptus L'Hér.; Magnoliopsida; Pinus pinaster Aiton; Vitis vinifera L.; Tracheophyta
2010,2010-09-01,Castelo Branco,Covilhã,Peraboa,Quinta dos Lamaçãis - CASTANHEIRA,40.2565271,-7.387151,Natural,504.0,2010-09-01T15:00,25.7,49,14.1,26.6,0.0,0.0,0.0,0.0,0,1008.5,952.3,13,0,21,0,0.38,1.69,2.9,3.4,187,198,21.6,30.5,26.3,24.9,21.1,0.135,0.155,0.216,0.34,1,3600.0,496.4,369.3,127.1,536.3,496.4,925.0,535.0,398.0,137.0,536.3,535.0,996.9,,,,,,,,,,,,,,,,,,,,,,,,,,,,,,,,,,,,,,,,,,,,,,,,,,,,,,,Tracheophyta; Magnoliopsida; Olea europaea L.
2010,2010-08-15,Braga,Celorico de Basto,Britelo,AGRA (BRITELO) (Agra),41.3878479,-7.98631663297138,NC,241.0,2010-08-15T15:00,28.9,29,9.0,30.0,0.0,0.0,0.0,0.0,0,1014.4,987.2,0,0,0,0,0.58,2.84,3.1,3.4,324,328,15.8,35.3,25.3,23.8,18.9,0.092,0.143,0.22,0.338,1,3600.0,763.5,669.6,93.9,892.1,763.5,1001.0,813.0,713.0,100.0,892.1,813.0,1065.8,,,,,,,,,,,,,,,,,,,,,,,,,,,,,,,,,,,,,,,,,,,,,,,,,,,,,,,Eucalyptus L'Hér.; Pinus pinaster Aiton; Tracheophyta; Magnoliopsida; Pinales; Vitis vinifera L.
2010,2010-09-01,Viana do Castelo,Melgaço,Cristoval,CEVIDE - CRISTOVAL (Cevide),42.1523435,-8.1976545,Natural,79.0,2010-09-01T11:00,27.4,54,17.1,29.0,0.0,0.0,0.0,0.0,0,1010.0,1001.0,3,3,1,0,0.44,1.69,8.1,10.0,225,221,24.5,30.5,25.3,23.1,19.1,0.21,0.278,0.303,0.419,1,3600.0,642.9,471.8,171.1,612.7,642.9,1034.3,605.0,444.0,161.0,612.7,605.0,973.3,,,,,,,,,,,,,,,,,,,,,,,,,,,,,,,,,,,,,,,,,,,,,,,,,,,,,,,Quercus L.; Magnoliopsida
2010,2010-08-15,Porto,Vila Nova de Gaia,Seixezelo,LOMBA (Largo de Miguel bombarda),41.0340746,-8.5534641,NC,192.0,2010-08-15T15:00,30.1,26,8.6,29.6,0.0,0.0,0.0,0.0,0,1014.4,992.7,0,0,0,0,0.64,3.14,11.2,13.3,320,322,20.5,35.8,26.1,24.0,19.4,0.106,0.137,0.197,0.334,1,3600.0,765.0,671.0,94.0,888.6,765.0,1007.0,814.0,714.0,100.0,888.6,814.0,1071.6,,,,,,,,,,,,,,,,,,,,,,,,,,,,,,,,,,,,,,,,,,,,,,,,,,,,,,,Magnoliopsida; Eucalyptus L'Hér.; Tracheophyta; Vitis vinifera L.
2010,2010-09-01,Aveiro,Vale de Cambra,Arões,Agualva,40.800236,-8.298029,Desconhecida,488.0,2010-09-01T13:00,25.7,46,13.2,26.9,0.0,0.0,0.0,0.0,0,1009.6,955.1,0,0,0,0,0.58,1.79,9.7,11.6,266,265,29.5,32.7,25.7,23.2,19.8,0.101,0.136,0.199,0.324,1,3600.0,825.1,720.5,104.6,860.6,825.1,1124.5,828.0,723.0,105.0,860.6,828.0,1128.4,,,,,,,,,,,,,,,,,,,,,,,,,,,,,,,,,,,,,,,,,,,,,,,,,,,,,,,Magnoliopsida; Pinus pinaster Aiton; Tracheophyta; Eucalyptus L'Hér.; Vitis vinifera L.
2010,2010-08-02,Braga,Braga,Adaúfe,L. DE MONTESINHOS (CRESPOS),41.5852662,-8.3947217,NC,117.0,2010-08-02T15:00,29.1,34,11.7,29.0,0.0,0.0,0.0,0.0,0,1015.6,1002.3,0,0,0,0,0.66,2.66,15.5,20.0,347,352,36.0,34.0,25.9,23.2,17.9,0.097,0.15,0.237,0.347,1,3600.0,795.8,693.9,102.0,883.5,795.8,1043.0,843.0,735.0,108.0,883.5,843.0,1104.8,,,,,,,,,,,,,,,,,,,,,,,,,,,,,,,,,,,,,,,,,,,,,,,,,,,,,,,Tracheophyta; Magnoliopsida; Pinus pinaster Aiton
2010,2010-08-04,Porto,Felgueiras,Santão,VENTOZELA (PINHEIRO),41.3095202,-8.1770057,NC,375.0,2010-08-04T22:00,21.0,66,14.4,21.3,0.0,0.0,0.0,0.0,1,1015.2,972.1,22,0,0,75,0.02,0.84,7.1,11.4,319,347,15.8,24.3,26.4,22.4,17.0,0.09,0.148,0.233,0.345,0,0.0,0.0,0.0,0.0,0.0,0.0,0.0,0.0,0.0,0.0,0.0,0.0,0.0,,,,,,,,,,,,,,,,,,,,,,,,,,,,,,,,,,,,,,,,,,,,,,,,,,,,,,,Magnoliopsida; Tracheophyta; Vitis vinifera L.
2010,2010-08-02,Aveiro,Vale de Cambra,Macieira de Cambra,Porto Novo,40.8480592,-8.3880687,Desconhecida,278.0,2010-08-02T16:00,28.8,41,14.1,27.8,0.0,0.0,0.0,0.0,0,1015.3,984.0,0,0,0,0,0.58,2.34,21.1,27.9,330,333,45.4,33.8,26.2,23.3,18.3,0.098,0.146,0.23,0.344,1,3600.0,647.8,557.0,90.9,841.6,647.8,878.9,713.0,613.0,100.0,841.6,713.0,967.3,,,,,,,,,,,,,,,,,,,,,,,,,,,,,,,,,,,,,,,,,,,,,,,,,,,,,,,Tracheophyta; Pinus pinaster Aiton; Eucalyptus L'Hér.
2010,2010-07-31,Aveiro,Mealhada,Casal Comba,Entre o Lugar de Lendiosa (Casal Comba),40.3658562,-8.463164068080825,Desconhecida,58.0,2010-07-31T20:00,23.2,68,17.0,24.6,0.0,0.0,0.0,0.0,0,1013.4,1006.7,0,0,0,0,0.04,0.9,7.1,10.6,294,298,20.2,27.6,27.6,23.1,18.7,0.061,0.078,0.12,0.24,0,770.31,0.0,0.0,0.0,0.0,0.0,0.0,28.0,14.0,14.0,132.0,28.0,82.3,,,,,,,,,,,,,,,,,,,,,,,,,,,,,,,,,,,,,,,,,,,,,,,,,,,,,,,Vitis vinifera L.; Tracheophyta; Magnoliopsida; Olea europaea L.; Pinus pinaster Aiton
2010,2010-08-24,Portalegre,Marvão,Santa Maria de Marvão,FRONTEIRA DE GALEGOS - EN 246-1,39.3813644,-7.33908573003124,Desconhecida,526.0,2010-08-24T02:00,19.0,87,16.8,19.7,0.0,0.0,0.0,0.0,0,1016.3,956.0,19,21,0,0,0.0,0.28,11.3,19.3,277,279,20.9,22.1,26.7,26.0,21.8,0.116,0.156,0.208,0.319,0,0.0,0.0,0.0,0.0,0.0,0.0,0.0,0.0,0.0,0.0,0.0,0.0,0.0,,,,,,,,,,,,,,,,,,,,,,,,,,,,,,,,,,,,,,,,,,,,,,,,,,,,,,,Quercus L.; Magnoliopsida; Quercus suber L.; Quercus rotundifolia Lam.; Olea europaea L.; Tracheophyta
2010,2010-08-02,Porto,Paredes,Lordelo,Agrelo,41.2364966,-8.415551743176014,Desconhecida,210.0,2010-08-02T18:00,27.9,37,11.9,25.6,0.0,0.0,0.0,0.0,0,1014.8,991.0,0,0,0,0,0.37,2.37,20.2,29.7,338,341,36.7,31.3,26.3,22.8,17.7,0.12,0.137,0.204,0.349,1,3600.0,285.2,227.4,57.8,703.0,285.2,429.6,365.0,291.0,74.0,703.0,365.0,549.8,,,,,,,,,,,,,,,,,,,,,,,,,,,,,,,,,,,,,,,,,,,,,,,,,,,,,,,Magnoliopsida; Pinus pinaster Aiton; Eucalyptus L'Hér.; Tracheophyta; Vitis vinifera L.
2010,2010-09-22,Porto,Paços de Ferreira,Frazão,RUA DE SOUTO,41.2615463,-8.4087418,NC,298.0,2010-09-22T03:00,14.1,91,12.7,14.2,0.0,0.0,0.0,0.0,2,1017.0,981.7,56,20,14,98,0.0,0.14,5.4,7.1,94,75,7.9,15.6,20.5,21.1,20.2,0.11,0.145,0.195,0.317,0,0.0,0.0,0.0,0.0,0.0,0.0,0.0,0.0,0.0,0.0,0.0,0.0,0.0,,,,,,,,,,,,,,,,,,,,,,,,,,,,,,,,,,,,,,,,,,,,,,,,,,,,,,,Eucalyptus L'Hér.; Tracheophyta; Magnoliopsida; Vitis vinifera L.; 
2010,2010-08-15,Porto,Felgueiras,Vila Fria,QUINTA (Quinta da Adega),41.3869662,-8.241882,NC,192.0,2010-08-15T17:00,29.8,29,10.0,28.3,0.0,0.0,0.0,0.0,0,1014.0,992.3,0,0,0,0,0.43,2.97,10.2,13.0,321,326,24.1,35.0,26.6,24.0,19.2,0.094,0.138,0.21,0.332,1,3600.0,437.5,365.4,72.1,791.9,437.5,615.4,516.0,431.0,85.0,791.9,516.0,725.8,,,,,,,,,,,,,,,,,,,,,,,,,,,,,,,,,,,,,,,,,,,,,,,,,,,,,,,Tracheophyta; Pinus pinaster Aiton; Magnoliopsida; Eucalyptus L'Hér.
2010,2010-07-31,Porto,Penafiel,Abragão,Vale,41.1583743,-8.2247687,NC,203.0,2010-07-31T21:00,24.2,69,18.2,26.5,0.0,0.0,0.0,0.0,0,1013.5,990.2,0,0,0,0,0.01,0.93,4.8,8.2,228,232,11.9,27.4,28.0,22.7,17.5,0.102,0.154,0.24,0.349,0,0.0,0.0,0.0,0.0,0.0,0.0,0.0,0.0,0.0,0.0,0.0,0.0,0.0,,,,,,,,,,,,,,,,,,,,,,,,,,,,,,,,,,,,,,,,,,,,,,,,,,,,,,,Eucalyptus L'Hér.; Tracheophyta; Magnoliopsida
2010,2010-07-23,Vila Real,Boticas,Cerdedo,DORNELAS,41.6585005,-7.8799353,NC,834.0,2010-07-23T19:00,23.1,45,10.5,22.0,0.0,0.0,0.0,0.0,0,1021.8,928.9,1,0,0,3,0.16,1.55,8.0,15.1,8,12,25.6,24.6,20.9,18.2,14.2,0.138,0.217,0.295,0.371,1,3600.0,127.9,92.2,35.6,575.1,127.9,212.5,201.0,145.0,56.0,575.1,201.0,334.1,,,,,,,,,,,,,,,,,,,,,,,,,,,,,,,,,,,,,,,,,,,,,,,,,,,,,,,Tracheophyta; Pinus pinaster Aiton; Magnoliopsida
2010,2010-08-16,Porto,Marco de Canaveses,Tuias,Estrada Larga,41.17549355,-8.16457827943076,Desconhecida,213.0,2010-08-16T10:00,24.1,39,9.4,21.8,0.0,0.0,0.0,0.0,0,1017.1,992.6,0,0,0,0,0.47,1.82,17.7,23.8,95,94,46.8,25.6,24.0,23.5,18.9,0.102,0.142,0.218,0.337,1,3600.0,708.5,608.3,100.3,842.7,708.5,962.9,643.0,552.0,91.0,842.7,643.0,873.8,,,,,,,,,,,,,,,,,,,,,,,,,,,,,,,,,,,,,,,,,,,,,,,,,,,,,,,Tracheophyta; Magnoliopsida; Pinus pinaster Aiton; Vitis vinifera L.
2010,2010-07-31,Porto,Santo Tirso,Aves,Sobrado,41.3752209,-8.3935349,NC,158.0,2010-07-31T23:00,22.7,73,17.7,25.2,0.0,0.0,0.0,0.0,0,1013.4,995.1,0,0,0,0,0.0,0.73,1.5,2.7,256,337,10.4,24.6,27.5,23.0,17.7,0.103,0.153,0.238,0.347,0,0.0,0.0,0.0,0.0,0.0,0.0,0.0,0.0,0.0,0.0,0.0,0.0,0.0,,,,,,,,,,,,,,,,,,,,,,,,,,,,,,,,,,,,,,,,,,,,,,,,,,,,,,,Magnoliopsida; Tracheophyta; Pinus pinaster Aiton; Eucalyptus L'Hér.; Vitis vinifera L.; Pinales; Acacia Mill.; 
2010,2010-08-15,Aveiro,Vale de Cambra,Macieira de Cambra,Malhundes,40.8735252,-8.3675252,Desconhecida,295.0,2010-08-15T18:00,27.2,35,10.5,25.7,0.0,0.0,0.0,0.0,0,1013.6,980.3,0,0,0,0,0.29,2.34,11.4,15.8,294,297,28.4,31.8,26.4,23.8,19.2,0.098,0.14,0.215,0.336,1,3600.0,241.7,191.4,50.3,685.1,241.7,372.6,322.0,255.0,67.0,685.1,322.0,496.4,,,,,,,,,,,,,,,,,,,,,,,,,,,,,,,,,,,,,,,,,,,,,,,,,,,,,,,Eucalyptus L'Hér.; Vitis vinifera L.; Tracheophyta; Pinus pinaster Aiton
2010,2010-09-01,Porto,Gondomar,Jovim,RUA PAREDES NOVA (SÃO PEDRO DA COVA),41.1346344,-8.5168448,NC,169.0,2010-09-01T16:00,23.1,59,14.7,22.4,0.0,0.0,0.0,0.0,0,1010.0,990.5,5,3,3,2,0.33,1.15,15.3,19.1,309,311,33.5,30.7,26.6,23.5,20.3,0.121,0.134,0.179,0.332,1,3600.0,415.3,272.4,142.9,489.1,415.3,748.3,468.0,307.0,161.0,489.1,468.0,843.2,,,,,,,,,,,,,,,,,,,,,,,,,,,,,,,,,,,,,,,,,,,,,,,,,,,,,,,Pinus pinaster Aiton; Eucalyptus L'Hér.; Vitis vinifera L.; Tracheophyta; Magnoliopsida
2010,2010-08-22,Aveiro,Oliveira de Azeméis,Carregosa,Borralhais,40.8803203,-8.4083985,Desconhecida,363.0,2010-08-22T12:00,24.0,60,15.6,26.1,0.0,0.0,0.0,0.0,1,1020.5,978.9,29,2,0,91,0.54,1.2,9.3,11.4,286,288,28.8,29.7,24.2,22.9,19.2,0.1,0.139,0.21,0.332,1,3600.0,850.3,685.8,164.5,793.9,850.3,1155.0,827.0,667.0,160.0,793.9,827.0,1123.4,,,,,,,,,,,,,,,,,,,,,,,,,,,,,,,,,,,,,,,,,,,,,,,,,,,,,,,Eucalyptus L'Hér.; Pinus pinaster Aiton; Tracheophyta; Magnoliopsida
2010,2010-08-15,Porto,Maia,Avioso (São Pedro),Rua Central,41.2804829,-8.617525352246904,NC,114.0,2010-08-15T14:00,29.3,29,9.3,30.5,0.0,0.0,0.0,0.0,0,1014.8,1001.8,0,0,0,0,0.64,2.9,5.2,5.5,326,337,15.8,34.9,25.4,23.7,19.4,0.103,0.139,0.206,0.337,1,3600.0,863.4,763.4,100.0,905.1,863.4,1124.7,889.0,786.0,103.0,905.1,889.0,1158.1,,,,,,,,,,,,,,,,,,,,,,,,,,,,,,,,,,,,,,,,,,,,,,,,,,,,,,,Magnoliopsida; Eucalyptus L'Hér.; Tracheophyta; Vitis vinifera L.
2010,2010-08-02,Aveiro,Albergaria-a-Velha,Albergaria-a-Velha,Srª do Socorro (SENHORA DO SOCORRO),40.690328,-8.479538190307041,Desconhecida,121.0,2010-08-02T18:00,26.4,47,14.0,24.6,0.0,0.0,0.0,0.0,0,1014.7,1000.8,0,0,0,0,0.34,1.83,21.0,29.3,325,328,44.3,31.5,26.2,23.2,18.7,0.065,0.09,0.138,0.258,1,3600.0,279.9,221.4,58.5,686.1,279.9,428.6,359.0,284.0,75.0,686.1,359.0,549.7,,,,,,,,,,,,,,,,,,,,,,,,,,,,,,,,,,,,,,,,,,,,,,,,,,,,,,,Tracheophyta; Eucalyptus L'Hér.
2010,2010-08-30,Braga,Póvoa de Lanhoso,Brunhais,ALTO (BRUNHAIS) (Alto da Paixão),41.5738004,-8.1827097,NC,243.0,2010-08-30T13:00,33.1,25,10.7,34.3,0.0,0.0,0.0,0.0,0,1014.3,987.2,0,0,0,0,0.68,3.78,6.8,8.3,108,108,23.0,33.5,24.4,22.6,19.8,0.122,0.137,0.199,0.323,1,3600.0,863.3,763.6,99.7,912.4,863.3,1123.1,866.0,766.0,100.0,912.4,866.0,1126.6,,,,,,,,,,,,,,,,,,,,,,,,,,,,,,,,,,,,,,,,,,,,,,,,,,,,,,,Tracheophyta; Magnoliopsida
2010,2010-08-22,Castelo Branco,Fundão,Telhado,TELHADO,40.16234845,-7.559443554373232,Desconhecida,450.0,2010-08-22T13:00,32.1,30,12.6,32.9,0.0,0.0,0.0,0.0,1,1018.2,968.4,28,0,0,92,0.73,3.31,12.9,16.6,257,257,32.8,39.2,28.9,26.0,21.6,0.093,0.154,0.208,0.339,1,3600.0,890.8,775.2,115.6,887.2,890.8,1168.4,894.0,778.0,116.0,887.2,894.0,1172.5,,,,,,,,,,,,,,,,,,,,,,,,,,,,,,,,,,,,,,,,,,,,,,,,,,,,,,,Olea europaea L.; Vitis vinifera L.; Pinus pinaster Aiton; Tracheophyta; Magnoliopsida; 
2010,2010-07-23,Bragança,Mogadouro,Bemposta,BEMPOSTA - PNDI (BEMPOSTA),41.3143431,-6.5012976,NC,700.0,2010-07-23T20:00,24.6,25,3.1,21.7,0.0,0.0,0.0,0.0,0,1020.4,942.2,0,0,0,0,0.11,2.34,9.3,18.4,36,42,16.6,25.7,24.3,21.0,15.8,0.149,0.203,0.255,0.361,0,1111.45,0.0,0.0,0.0,0.0,0.0,0.0,32.0,17.0,15.0,159.8,32.0,82.4,,,,,,,,,,,,,,,,,,,,,,,,,,,,,,,,,,,,,,,,,,,,,,,,,,,,,,,Magnoliopsida; Olea europaea L.; Tracheophyta; Vitis vinifera L.; Quercus suber L.; Quercus L.
2010,2010-08-22,Porto,Paços de Ferreira,Carvalhosa,SAO DOMINGOS (São Domingos),41.2846631,-8.35914,NC,338.0,2010-08-22T00:00,18.1,91,16.6,19.8,0.0,0.0,0.0,0.0,1,1021.3,981.7,22,25,0,0,0.0,0.19,3.5,7.0,246,258,10.1,21.4,24.9,22.5,18.7,0.094,0.139,0.209,0.331,0,0.0,0.0,0.0,0.0,0.0,0.0,0.0,0.0,0.0,0.0,0.0,0.0,0.0,,,,,,,,,,,,,,,,,,,,,,,,,,,,,,,,,,,,,,,,,,,,,,,,,,,,,,,Tracheophyta; Eucalyptus L'Hér.; Pinus pinaster Aiton; Magnoliopsida; Vitis vinifera L.; Quercus L.; 
2010,2010-08-02,Aveiro,Albergaria-a-Velha,Albergaria-a-Velha,I.C. 2 - Portopal (RIBEIRA DE FRÁGOAS),40.690328,-8.479538190307041,Desconhecida,121.0,2010-08-02T18:00,26.4,47,14.0,24.6,0.0,0.0,0.0,0.0,0,1014.7,1000.8,0,0,0,0,0.34,1.83,21.0,29.3,325,328,44.3,31.5,26.2,23.2,18.7,0.065,0.09,0.138,0.258,1,3600.0,279.9,221.4,58.5,686.1,279.9,428.6,359.0,284.0,75.0,686.1,359.0,549.7,,,,,,,,,,,,,,,,,,,,,,,,,,,,,,,,,,,,,,,,,,,,,,,,,,,,,,,Tracheophyta; Eucalyptus L'Hér.
2010,2010-08-22,Aveiro,Oliveira de Azeméis,Pinheiro da Bemposta,Lugar da Bemposta (Cimo do Lugar),40.7845673,-8.4822234,Desconhecida,175.0,2010-08-22T02:00,17.7,98,17.3,19.2,0.0,0.0,0.0,0.0,2,1020.7,1000.0,65,72,0,0,0.0,0.05,7.6,11.3,335,343,14.8,20.7,25.3,23.6,20.0,0.092,0.127,0.186,0.311,0,0.0,0.0,0.0,0.0,0.0,0.0,0.0,0.0,0.0,0.0,0.0,0.0,0.0,,,,,,,,,,,,,,,,,,,,,,,,,,,,,,,,,,,,,,,,,,,,,,,,,,,,,,,Tracheophyta; Magnoliopsida; Eucalyptus L'Hér.
2010,2010-09-09,Faro,Olhão,Moncarapacho,Maragota EN125 (Maragota),37.0842331,-7.754105798726036,NC,27.0,2010-09-09T11:00,26.1,38,10.7,25.4,0.0,0.0,0.0,0.0,0,1020.1,1017.0,0,0,0,0,0.55,2.09,14.0,18.4,23,23,31.7,27.9,25.4,26.7,24.3,0.105,0.149,0.211,0.297,1,3600.0,801.9,691.3,110.6,873.3,801.9,1067.4,754.0,650.0,104.0,873.3,754.0,1003.7,,,,,,,,,,,,,,,,,,,,,,,,,,,,,,,,,,,,,,,,,,,,,,,,,,,,,,,Magnoliopsida; Vitis vinifera L.; Tracheophyta; Ceratonia siliqua L.; Olea europaea L.; 
2010,2010-09-01,Porto,Vila Nova de Gaia,Pedroso,RUA ALHEIRA BAIXO (Rampa da Alheira d'Aquem),41.064143,-8.5572235,NC,131.0,2010-09-01T15:00,23.6,57,14.6,23.3,0.0,0.0,0.0,0.0,0,1009.5,994.4,7,0,12,0,0.44,1.25,16.5,20.7,290,290,34.2,30.9,26.1,23.3,20.4,0.119,0.136,0.197,0.337,1,3600.0,610.3,495.7,114.6,714.5,610.3,932.0,655.0,532.0,123.0,714.5,655.0,1000.2,,,,,,,,,,,,,,,,,,,,,,,,,,,,,,,,,,,,,,,,,,,,,,,,,,,,,,,Magnoliopsida; Eucalyptus L'Hér.; Tracheophyta
2010,2010-08-22,Braga,Barcelos,Remelhe,L.IGREJA (REMELHE) (POUSA),41.4932801,-8.60682282580473,NC,154.0,2010-08-22T03:00,16.9,98,16.5,18.5,0.0,0.0,0.0,0.0,2,1019.9,1001.6,55,61,0,0,0.0,0.04,4.7,7.2,302,323,10.1,19.5,23.9,22.8,19.4,0.099,0.138,0.204,0.327,0,0.0,0.0,0.0,0.0,0.0,0.0,0.0,0.0,0.0,0.0,0.0,0.0,0.0,,,,,,,,,,,,,,,,,,,,,,,,,,,,,,,,,,,,,,,,,,,,,,,,,,,,,,,Vitis vinifera L.; Eucalyptus L'Hér.; Pinus pinaster Aiton; Magnoliopsida; Tracheophyta
2010,2010-08-02,Porto,Maia,Pedrouços,LG. Sº GEMIL (Pedrouços),41.1886111,-8.58775,NC,141.0,2010-08-02T19:00,24.8,50,13.8,23.2,0.0,0.0,0.0,0.0,0,1015.0,998.7,0,0,0,0,0.21,1.55,19.0,30.8,341,346,36.0,28.0,25.6,22.9,18.1,0.114,0.144,0.222,0.35,1,3600.0,104.6,73.5,31.1,528.2,104.6,184.8,175.0,123.0,52.0,528.2,175.0,309.3,,,,,,,,,,,,,,,,,,,,,,,,,,,,,,,,,,,,,,,,,,,,,,,,,,,,,,,Tracheophyta; Magnoliopsida; 
2010,2010-08-04,Braga,Guimarães,Infantas,R. 5 DE OUTUBRO (INFANTAS) (CASTELÕES),41.42267,-8.2424567,NC,284.0,2010-08-04T23:00,20.4,66,13.8,20.3,0.0,0.0,0.0,0.0,0,1015.5,982.6,5,0,0,16,0.04,0.83,9.4,18.4,360,11,19.8,23.7,27.0,23.0,17.6,0.097,0.144,0.225,0.341,0,0.0,0.0,0.0,0.0,0.0,0.0,0.0,0.0,0.0,0.0,0.0,0.0,0.0,,,,,,,,,,,,,,,,,,,,,,,,,,,,,,,,,,,,,,,,,,,,,,,,,,,,,,,Magnoliopsida; Tracheophyta; Vitis vinifera L.; Eucalyptus L'Hér.
2010,2010-07-25,Vila Real,Mesão frio,Cidadelhe,S. Gonçalo (São Gonçalo),41.1768622,-7.844900778504673,NC,400.0,2010-07-25T22:00,25.3,43,11.9,24.7,0.0,0.0,0.0,0.0,0,1015.7,970.4,0,0,0,0,0.07,1.83,8.2,13.5,49,42,19.8,25.2,26.3,21.4,16.6,0.133,0.15,0.2,0.353,0,0.0,0.0,0.0,0.0,0.0,0.0,0.0,0.0,0.0,0.0,0.0,0.0,0.0,,,,,,,,,,,,,,,,,,,,,,,,,,,,,,,,,,,,,,,,,,,,,,,,,,,,,,,Magnoliopsida; Vitis vinifera L.; Pinus pinaster Aiton; Quercus L.; Tracheophyta
2010,2010-09-05,Braga,Celorico de Basto,Britelo,L. BOQUEIRO(BRITELO) M2 (São Clemente),41.3878479,-7.98631663297138,NC,241.0,2010-09-05T17:00,25.3,52,14.8,25.1,0.0,0.0,0.0,0.0,0,1014.5,987.0,0,0,0,0,0.31,1.55,12.7,16.9,295,297,29.2,31.0,25.3,23.3,20.4,0.097,0.138,0.204,0.325,1,3600.0,333.5,271.2,62.3,741.1,333.5,492.4,412.0,335.0,77.0,741.1,412.0,608.4,,,,,,,,,,,,,,,,,,,,,,,,,,,,,,,,,,,,,,,,,,,,,,,,,,,,,,,Eucalyptus L'Hér.; Pinus pinaster Aiton; Tracheophyta; Magnoliopsida; Pinales; Vitis vinifera L.
2010,2010-07-20,Santarém,Mação,Aboboreira,Chão de Codes,39.6157673,-8.0506633,NC,342.0,2010-07-20T23:00,18.5,86,16.0,18.2,0.0,0.0,0.0,0.0,1,1013.5,973.8,24,27,0,0,0.02,0.31,16.4,26.0,310,313,35.3,21.8,25.4,23.0,18.1,0.094,0.137,0.19,0.314,0,0.0,0.0,0.0,0.0,0.0,0.0,0.0,0.0,0.0,0.0,0.0,0.0,0.0,,,,,,,,,,,,,,,,,,,,,,,,,,,,,,,,,,,,,,,,,,,,,,,,,,,,,,,Eucalyptus L'Hér.; Magnoliopsida; Tracheophyta; Pinus pinaster Aiton; Olea europaea L.
2010,2010-08-15,Porto,Amarante,Mancelos,Nogueira,41.2894833,-8.155317,NC,471.0,2010-08-15T17:00,27.7,29,8.2,26.8,0.0,0.0,0.0,0.0,0,1014.3,961.7,0,0,0,0,0.35,2.63,3.4,4.0,342,350,15.1,33.2,24.7,22.4,17.5,0.094,0.139,0.21,0.333,1,3600.0,432.3,362.1,70.2,792.4,432.3,609.4,511.0,428.0,83.0,792.4,511.0,720.3,,,,,,,,,,,,,,,,,,,,,,,,,,,,,,,,,,,,,,,,,,,,,,,,,,,,,,,Tracheophyta; Magnoliopsida; Eucalyptus L'Hér.; Pinus pinaster Aiton; Vitis vinifera L.; 
2010,2010-08-02,Aveiro,Águeda,Macinhata do Vouga,Serém de Baixo,40.65467,-8.470084,Desconhecida,96.0,2010-08-02T20:00,23.6,56,14.4,23.1,0.0,0.0,0.0,0.0,0,1014.9,1003.8,0,0,0,0,0.1,1.27,13.5,25.3,331,337,31.7,27.1,26.4,23.4,18.9,0.065,0.09,0.138,0.258,0,645.89,0.0,0.0,0.0,0.0,0.0,0.0,26.0,13.0,13.0,125.9,26.0,78.6,,,,,,,,,,,,,,,,,,,,,,,,,,,,,,,,,,,,,,,,,,,,,,,,,,,,,,,Magnoliopsida; Tracheophyta; Eucalyptus L'Hér.
2010,2010-09-01,Porto,Vila do Conde,Labruge,SAMPAIO (SÃO PAIO),41.2803809,-8.7295317,NC,8.0,2010-09-01T18:00,22.0,66,15.4,21.6,0.0,0.0,0.0,0.0,0,1010.5,1009.6,2,2,0,0,0.16,0.9,15.8,20.8,319,323,29.5,27.7,26.5,23.8,21.0,0.093,0.139,0.208,0.327,1,3600.0,129.4,77.3,52.0,377.6,129.4,275.1,189.0,113.0,76.0,377.6,189.0,402.0,,,,,,,,,,,,,,,,,,,,,,,,,,,,,,,,,,,,,,,,,,,,,,,,,,,,,,,Magnoliopsida; Eucalyptus L'Hér.; Tracheophyta
2010,2010-08-16,Porto,Paredes,Vilela,TV PINTA (LORDELO),41.2434728,-8.3802017,Desconhecida,305.0,2010-08-16T21:00,23.8,47,11.8,23.4,0.0,0.0,0.0,0.0,0,1016.8,981.9,0,0,0,0,0.05,1.57,6.5,10.2,341,352,16.9,25.8,26.0,22.9,18.4,0.118,0.134,0.183,0.339,0,0.0,0.0,0.0,0.0,0.0,0.0,0.0,0.0,0.0,0.0,0.0,0.0,0.0,,,,,,,,,,,,,,,,,,,,,,,,,,,,,,,,,,,,,,,,,,,,,,,,,,,,,,,Magnoliopsida; Pinus pinaster Aiton; Eucalyptus L'Hér.; Tracheophyta; Vitis vinifera L.
2010,2010-08-15,Porto,TROFA,Covelas,Vilar,41.3008521,-8.5349796,NC,115.0,2010-08-15T15:00,29.8,28,9.1,29.9,0.0,0.0,0.0,0.0,0,1014.3,1001.2,0,0,0,0,0.62,3.04,8.8,10.2,325,328,17.6,35.2,26.0,24.0,19.4,0.116,0.135,0.191,0.338,1,3600.0,762.3,668.3,94.0,886.6,762.3,1005.3,811.0,711.0,100.0,886.6,811.0,1069.5,,,,,,,,,,,,,,,,,,,,,,,,,,,,,,,,,,,,,,,,,,,,,,,,,,,,,,,Magnoliopsida; Pinus pinaster Aiton; Vitis vinifera L.; Quercus L.; Tracheophyta; Eucalyptus L'Hér.; Olea europaea L.; ; Pinales
2010,2010-08-22,Braga,Celorico de Basto,Britelo,AGRA(BRITELO)M3 (Agra),41.3878479,-7.98631663297138,NC,241.0,2010-08-22T15:00,26.1,52,15.6,27.3,0.0,0.0,0.0,0.0,1,1018.9,991.3,30,0,0,99,0.51,1.61,12.0,15.3,279,278,32.0,33.3,26.1,23.5,19.5,0.093,0.14,0.214,0.333,1,3600.0,676.8,479.3,197.5,659.0,676.8,972.5,723.0,512.0,211.0,659.0,723.0,1038.9,,,,,,,,,,,,,,,,,,,,,,,,,,,,,,,,,,,,,,,,,,,,,,,,,,,,,,,Eucalyptus L'Hér.; Pinus pinaster Aiton; Tracheophyta; Magnoliopsida; Pinales; Vitis vinifera L.
2010,2010-09-01,Leiria,Ansião,Pousaflores,MOUTA REDONDA (Cabeço das Moutas),39.9113771,-8.4359857,NC,207.0,2010-09-01T19:00,21.2,68,14.9,20.4,0.0,0.0,0.0,0.0,0,1010.8,986.9,2,2,0,0,0.09,0.82,16.5,23.8,324,325,38.2,27.7,28.1,24.9,21.2,0.097,0.133,0.173,0.296,1,2363.98,2.7,1.5,1.1,17.7,2.0,6.1,61.0,35.0,26.0,253.9,61.0,139.4,,,,,,,,,,,,,,,,,,,,,,,,,,,,,,,,,,,,,,,,,,,,,,,,,,,,,,,Tracheophyta; Pinus pinaster Aiton; Quercus L.; Magnoliopsida
2010,2010-07-28,Braga,Vieira do Minho,Cantelães,BERREDO(CANTELAES) (Berredo),41.659275,-8.1401276,NC,834.0,2010-07-28T15:00,32.2,25,9.4,32.4,0.0,0.0,0.0,0.0,0,1017.0,927.2,0,0,0,0,0.68,3.63,9.6,12.3,290,291,28.8,34.0,24.1,18.8,14.2,0.116,0.191,0.277,0.364,1,3600.0,802.8,708.3,94.4,894.1,802.8,1050.9,850.0,750.0,100.0,894.1,850.0,1112.7,,,,,,,,,,,,,,,,,,,,,,,,,,,,,,,,,,,,,,,,,,,,,,,,,,,,,,,Tracheophyta; Magnoliopsida; Pinus pinaster Aiton; Quercus L.
2010,2010-08-02,Lisboa,Sintra,Algueirão-Mem Martins,Bairro de São Carlos,38.7999099,-9.3397834,Desconhecida,166.0,2010-08-02T14:00,22.5,58,13.8,20.7,0.0,0.0,0.0,0.0,0,1016.8,997.5,0,0,0,0,0.54,1.14,32.1,42.6,342,344,54.4,26.5,22.4,21.9,18.6,0.121,0.174,0.24,0.338,1,3600.0,914.7,803.7,111.1,900.8,914.7,1184.8,939.0,825.0,114.0,900.8,939.0,1216.2,,,,,,,,,,,,,,,,,,,,,,,,,,,,,,,,,,,,,,,,,,,,,,,,,,,,,,,Tracheophyta; Magnoliopsida; Pinales; 
2010,2010-08-31,Porto,Vila Nova de Gaia,Avintes,Rua dos Fogueteiros,41.1102635,-8.5442253,NC,65.0,2010-08-31T09:00,27.9,30,8.8,25.9,0.0,0.0,0.0,0.0,0,1008.3,1000.9,5,0,0,18,0.34,2.64,11.5,17.0,110,111,18.7,27.3,26.5,23.9,20.9,0.123,0.134,0.18,0.333,1,3600.0,437.1,294.2,143.0,543.9,437.1,726.1,370.0,249.0,121.0,543.9,370.0,614.6,,,,,,,,,,,,,,,,,,,,,,,,,,,,,,,,,,,,,,,,,,,,,,,,,,,,,,,Magnoliopsida; Tracheophyta; Pinales; Pinus pinea L.
2010,2010-08-31,Porto,Felgueiras,Sendim,Cabeça de Porca,41.38367325,-8.1645395125,NC,473.0,2010-08-31T11:00,27.5,29,7.9,25.3,0.0,0.0,0.0,0.0,0,1010.6,958.0,11,0,0,38,0.53,2.61,15.1,20.5,89,89,40.0,27.7,23.6,21.8,18.7,0.107,0.137,0.201,0.325,1,3600.0,687.2,450.3,236.8,576.5,687.2,1048.7,647.0,424.0,223.0,576.5,647.0,987.4,,,,,,,,,,,,,,,,,,,,,,,,,,,,,,,,,,,,,,,,,,,,,,,,,,,,,,,Vitis vinifera L.; Pinus pinaster Aiton; Eucalyptus L'Hér.; Tracheophyta; Magnoliopsida
2010,2010-08-22,Porto,Lousada,Lustosa,Ermida,41.3321025,-8.3085374,NC,411.0,2010-08-22T11:00,22.7,66,16.0,24.3,0.0,0.0,0.0,0.0,1,1020.9,973.8,39,15,0,86,0.44,0.94,8.7,10.5,287,286,27.4,27.8,23.8,22.4,18.4,0.098,0.137,0.202,0.327,1,3600.0,731.0,568.7,162.3,704.8,731.0,1078.9,689.0,536.0,153.0,704.8,689.0,1016.9,,,,,,,,,,,,,,,,,,,,,,,,,,,,,,,,,,,,,,,,,,,,,,,,,,,,,,,Vitis vinifera L.; Eucalyptus L'Hér.; Tracheophyta; Magnoliopsida
2010,2010-08-15,Viana do Castelo,Caminha,Arga de Baixo,ARGA DE BAIXO,41.8450101,-8.714315952573498,Desconhecida,477.0,2010-08-15T15:00,26.8,31,8.1,25.7,0.0,0.0,0.0,0.0,0,1015.7,962.3,0,0,0,0,0.6,2.43,13.6,17.4,22,27,36.4,31.7,22.8,21.5,17.2,0.097,0.138,0.21,0.333,1,3600.0,762.7,667.7,95.0,888.9,762.7,1001.7,811.0,710.0,101.0,888.9,811.0,1065.2,,,,,,,,,,,,,,,,,,,,,,,,,,,,,,,,,,,,,,,,,,,,,,,,,,,,,,,Magnoliopsida
2010,2010-08-30,Leiria,Caldas da Rainha,Alvorninha,Casal do Freixo,39.382131650000005,-9.026279900000008,Desconhecida,96.0,2010-08-30T16:00,35.0,27,13.4,34.0,0.0,0.0,0.0,0.0,0,1010.6,999.9,0,0,0,0,0.62,4.09,17.0,21.9,343,346,33.5,39.6,28.2,24.2,21.5,0.093,0.155,0.209,0.315,1,3600.0,566.3,485.2,81.0,835.9,566.3,779.0,636.0,545.0,91.0,835.9,636.0,874.9,,,,,,,,,,,,,,,,,,,,,,,,,,,,,,,,,,,,,,,,,,,,,,,,,,,,,,,Tracheophyta; Eucalyptus L'Hér.; Magnoliopsida; Vitis vinifera L.; Olea europaea L.
2010,2010-08-20,Vila Real,Boticas,Vilar,VILAR,41.6808571,-7.7132231,NC,729.0,2010-08-20T08:00,20.0,69,14.0,21.1,0.0,0.0,0.0,0.0,0,1020.1,937.6,0,0,0,0,0.15,0.73,1.3,2.6,34,56,10.8,20.0,21.0,20.7,16.9,0.113,0.161,0.244,0.349,1,3600.0,347.9,269.3,78.6,658.8,347.9,546.0,270.0,209.0,61.0,658.8,270.0,423.8,,,,,,,,,,,,,,,,,,,,,,,,,,,,,,,,,,,,,,,,,,,,,,,,,,,,,,,Magnoliopsida; Pinus pinaster Aiton; Tracheophyta; Castanea sativa Mill.; Eucalyptus L'Hér.; 
2010,2010-07-23,Porto,Paredes,Madalena,RUA AGRELA (SOBROSA),41.2038602,-8.324328159111156,NC,149.0,2010-07-23T23:00,20.9,58,12.4,20.5,0.0,0.0,0.0,0.0,0,1021.3,1003.8,3,0,0,9,0.04,1.03,8.2,20.9,29,41,21.6,21.8,24.0,21.1,17.2,0.118,0.159,0.244,0.356,0,0.0,0.0,0.0,0.0,0.0,0.0,0.0,0.0,0.0,0.0,0.0,0.0,0.0,,,,,,,,,,,,,,,,,,,,,,,,,,,,,,,,,,,,,,,,,,,,,,,,,,,,,,,Magnoliopsida; Pinus pinaster Aiton; Eucalyptus L'Hér.; Tracheophyta; Vitis vinifera L.
2010,2010-09-05,Viseu,Lamego,Magueija,SANTIAGO,41.0527673,-7.8755334,Desconhecida,860.0,2010-09-05T20:00,18.7,72,13.4,18.7,0.0,0.0,0.0,0.0,0,1014.8,918.5,0,0,0,0,0.01,0.61,7.0,14.3,282,288,22.3,23.2,23.8,21.5,18.1,0.115,0.137,0.196,0.329,0,0.0,0.0,0.0,0.0,0.0,0.0,0.0,0.0,0.0,0.0,0.0,0.0,0.0,,,,,,,,,,,,,,,,,,,,,,,,,,,,,,,,,,,,,,,,,,,,,,,,,,,,,,,Tracheophyta; Magnoliopsida; Pinus pinaster Aiton; Pinales; Castanea sativa Mill.; 
2010,2010-09-01,Braga,Celorico de Basto,Arnóia,STº.TIRSO(ARNÓIA) (São Clemente),41.3728475,-8.0107928,NC,344.0,2010-09-01T20:00,20.2,67,13.9,20.6,0.0,0.0,0.0,0.0,0,1011.1,971.5,15,14,4,0,0.01,0.77,5.4,10.5,278,292,16.6,24.0,25.6,22.7,19.5,0.11,0.139,0.207,0.327,0,0.0,0.0,0.0,0.0,0.0,0.0,0.0,0.0,0.0,0.0,0.0,0.0,0.0,,,,,,,,,,,,,,,,,,,,,,,,,,,,,,,,,,,,,,,,,,,,,,,,,,,,,,,Pinus pinaster Aiton; Tracheophyta; Magnoliopsida; Vitis vinifera L.
2010,2010-08-22,Porto,Lousada,Torno,QUINTA DO TORNO (Quinta),41.2767321,-8.2217002,NC,279.0,2010-08-22T15:00,25.4,54,15.6,26.5,0.0,0.0,0.0,0.0,1,1018.9,987.0,30,0,0,99,0.5,1.48,12.0,15.3,279,278,32.0,32.8,25.5,23.1,19.2,0.091,0.139,0.211,0.331,1,3600.0,677.0,479.4,197.6,657.9,677.0,974.3,723.0,512.0,211.0,657.9,723.0,1040.6,,,,,,,,,,,,,,,,,,,,,,,,,,,,,,,,,,,,,,,,,,,,,,,,,,,,,,,Eucalyptus L'Hér.; Tracheophyta; Vitis vinifera L.; Magnoliopsida; Pinus pinaster Aiton
2010,2010-08-16,Porto,Marco de Canaveses,Sande,SANTIAGO,41.1044716,-8.1815849,NC,279.0,2010-08-16T13:00,29.2,30,9.9,30.1,0.0,0.0,0.0,0.0,0,1016.3,984.9,0,0,0,0,0.68,2.84,8.3,10.9,95,98,33.8,32.6,24.7,23.5,18.9,0.099,0.141,0.217,0.339,1,3600.0,911.8,806.9,104.9,912.8,911.8,1179.3,913.0,808.0,105.0,912.8,913.0,1180.9,,,,,,,,,,,,,,,,,,,,,,,,,,,,,,,,,,,,,,,,,,,,,,,,,,,,,,,Tracheophyta; Pinus pinaster Aiton; Vitis vinifera L.; Eucalyptus L'Hér.; Castanea sativa Mill.; Magnoliopsida; 
2010,2010-09-01,Braga,Esposende,Belinho,OUTEIRO (BELINHO) (Outeiro),41.59175425,-8.790686776553564,NC,20.0,2010-09-01T19:00,20.9,72,15.7,20.7,0.0,0.0,0.0,0.0,0,1011.0,1008.7,4,4,1,0,0.08,0.68,14.8,21.7,319,324,27.4,25.4,25.8,23.2,20.6,0.11,0.138,0.202,0.324,1,2470.41,7.3,4.1,3.2,46.8,5.7,16.1,66.0,37.0,29.0,266.0,66.0,146.0,,,,,,,,,,,,,,,,,,,,,,,,,,,,,,,,,,,,,,,,,,,,,,,,,,,,,,,Tracheophyta
2010,2010-08-02,Vila Real,Vila Pouca de Aguiar,Tresminas,Vilarelho,41.5045841,-7.5436486,Desconhecida,838.0,2010-08-02T15:00,27.3,30,8.4,26.5,0.0,0.0,0.0,0.0,0,1016.9,925.3,0,0,0,0,0.63,2.52,13.7,18.1,5,7,38.2,32.2,24.2,20.9,15.1,0.124,0.148,0.223,0.352,1,3600.0,793.2,694.3,98.9,891.2,793.2,1034.6,842.0,737.0,105.0,891.2,842.0,1098.2,,,,,,,,,,,,,,,,,,,,,,,,,,,,,,,,,,,,,,,,,,,,,,,,,,,,,,,Pinus pinaster Aiton; Magnoliopsida; Tracheophyta
2010,2010-08-16,Porto,Valongo,Campo,RUA CENTRAL RIBEIRA (Ribeira),41.1773425,-8.4625916,NC,117.0,2010-08-16T10:00,25.0,38,9.6,23.2,0.0,0.0,0.0,0.0,0,1016.7,1003.2,0,0,0,0,0.47,1.97,15.2,20.2,86,88,38.9,26.9,25.1,24.1,19.6,0.103,0.137,0.2,0.336,1,3600.0,701.4,602.1,99.2,836.6,701.4,960.1,636.0,546.0,90.0,836.6,636.0,870.6,,,,,,,,,,,,,,,,,,,,,,,,,,,,,,,,,,,,,,,,,,,,,,,,,,,,,,,Magnoliopsida; Tracheophyta; Quercus suber L.; Vitis vinifera L.
2010,2010-08-30,Porto,Paredes,Lordelo,Penhas Altas,41.2364966,-8.415551743176014,Desconhecida,210.0,2010-08-30T16:00,34.9,21,9.6,34.3,0.0,0.0,0.0,0.0,0,1011.8,988.6,0,0,0,0,0.51,4.41,6.5,7.6,357,3,12.6,36.0,26.2,22.8,19.8,0.132,0.134,0.176,0.331,1,3600.0,551.2,473.0,78.2,838.1,551.2,757.3,620.0,532.0,88.0,838.1,620.0,851.8,,,,,,,,,,,,,,,,,,,,,,,,,,,,,,,,,,,,,,,,,,,,,,,,,,,,,,,Magnoliopsida; Pinus pinaster Aiton; Eucalyptus L'Hér.; Tracheophyta; Vitis vinifera L.
2010,2010-08-16,Porto,Felgueiras,Vila Verde,Serrinha,41.3078344,-8.191624524696973,Desconhecida,290.0,2010-08-16T14:00,29.3,28,8.7,30.2,0.0,0.0,0.0,0.0,0,1016.1,983.5,0,0,0,0,0.65,2.94,5.8,7.2,68,72,26.3,34.1,25.0,23.4,18.7,0.09,0.14,0.216,0.335,1,3600.0,863.3,762.4,100.9,909.4,863.3,1118.3,890.0,786.0,104.0,909.4,890.0,1153.0,,,,,,,,,,,,,,,,,,,,,,,,,,,,,,,,,,,,,,,,,,,,,,,,,,,,,,,Magnoliopsida; Vitis vinifera L.; Tracheophyta; Eucalyptus L'Hér.
2010,2010-09-01,Porto,Baião,Valadares,Cruzeiro,41.14829735,-8.008373641308012,NC,748.0,2010-09-01T21:00,17.7,72,12.7,17.8,0.0,0.0,0.0,0.0,0,1011.8,927.4,7,7,1,0,0.0,0.56,5.0,7.4,291,317,15.1,21.8,24.8,22.2,18.6,0.112,0.139,0.208,0.329,0,0.0,0.0,0.0,0.0,0.0,0.0,0.0,0.0,0.0,0.0,0.0,0.0,0.0,,,,,,,,,,,,,,,,,,,,,,,,,,,,,,,,,,,,,,,,,,,,,,,,,,,,,,,Magnoliopsida; Pinus pinaster Aiton; Tracheophyta; Eucalyptus L'Hér.; Vitis vinifera L.; Pinales; Quercus L.; 
2010,2010-08-22,Porto,Valongo,Campo,ALTO DA MINA (Alto da Fonte),41.1773425,-8.4625916,NC,117.0,2010-08-22T16:00,24.2,63,16.6,25.0,0.0,0.0,0.0,0.0,1,1018.7,1005.1,30,0,0,99,0.4,1.12,12.5,15.3,288,289,29.9,31.2,25.4,23.7,20.1,0.105,0.136,0.195,0.332,1,3600.0,552.3,405.3,147.1,676.4,552.3,801.2,616.0,452.0,164.0,676.4,616.0,893.6,,,,,,,,,,,,,,,,,,,,,,,,,,,,,,,,,,,,,,,,,,,,,,,,,,,,,,,Magnoliopsida; Tracheophyta; Quercus suber L.; Vitis vinifera L.
2010,2010-08-16,Porto,Vila Nova de Gaia,Vilar de Andorinho,R. FERNANDO PINTO (Rua de Fernando Pinto Lourenço),41.1024573,-8.5791397,NC,164.0,2010-08-16T14:00,30.0,28,9.7,31.0,0.0,0.0,0.0,0.0,0,1015.8,997.2,0,0,0,0,0.66,3.03,6.6,7.6,351,360,22.0,34.6,25.6,23.5,19.2,0.113,0.138,0.207,0.345,1,3600.0,860.0,760.0,100.0,903.2,860.0,1122.5,886.0,783.0,103.0,903.2,886.0,1156.5,,,,,,,,,,,,,,,,,,,,,,,,,,,,,,,,,,,,,,,,,,,,,,,,,,,,,,,Tracheophyta; Magnoliopsida
2010,2010-08-07,Porto,Amarante,Real,CRUZES (Cruzeiro),41.2668833,-8.072193852545904,NC,87.0,2010-08-07T03:00,18.9,45,6.7,16.8,0.0,0.0,0.0,0.0,0,1013.1,1002.9,0,0,0,0,0.06,1.21,8.6,15.9,90,77,19.1,20.8,26.4,23.9,18.8,0.102,0.148,0.231,0.344,0,0.0,0.0,0.0,0.0,0.0,0.0,0.0,0.0,0.0,0.0,0.0,0.0,0.0,,,,,,,,,,,,,,,,,,,,,,,,,,,,,,,,,,,,,,,,,,,,,,,,,,,,,,,Magnoliopsida; Tracheophyta; Eucalyptus L'Hér.; Vitis vinifera L.; Pinus pinaster Aiton
2010,2010-08-07,Vila Real,Vila Pouca de Aguiar,Telões,Soutelinho DO MESIO,41.4556414,-7.6883549,Desconhecida,719.0,2010-08-07T04:00,17.4,42,4.2,14.8,0.0,0.0,0.0,0.0,0,1015.8,934.1,0,0,0,0,0.06,1.16,8.2,13.8,52,81,23.0,17.9,24.0,22.0,16.5,0.099,0.154,0.24,0.35,0,0.0,0.0,0.0,0.0,0.0,0.0,0.0,0.0,0.0,0.0,0.0,0.0,0.0,,,,,,,,,,,,,,,,,,,,,,,,,,,,,,,,,,,,,,,,,,,,,,,,,,,,,,,Pinus pinaster Aiton; Quercus L.; Tracheophyta; Magnoliopsida
2010,2010-08-16,Porto,Felgueiras,Caramos,Santa Marta,41.3485398,-8.1655784,NC,415.0,2010-08-16T14:00,28.4,27,7.9,29.4,0.0,0.0,0.0,0.0,0,1016.1,969.6,0,0,0,0,0.64,2.81,4.8,5.9,77,79,26.3,33.2,24.1,22.5,17.8,0.09,0.14,0.216,0.335,1,3600.0,863.3,763.4,99.9,911.1,863.3,1117.7,890.0,787.0,103.0,911.1,890.0,1152.3,,,,,,,,,,,,,,,,,,,,,,,,,,,,,,,,,,,,,,,,,,,,,,,,,,,,,,,Tracheophyta; Pinus pinaster Aiton; Magnoliopsida; Eucalyptus L'Hér.; Vitis vinifera L.
2010,2010-08-29,Guarda,Aguiar da Beira,Aguiar da Beira,LAJE GRANDE,40.81739785,-7.554092011056806,Desconhecida,784.0,2010-08-29T07:00,16.9,54,7.5,14.4,0.0,0.0,0.0,0.0,0,1018.7,929.6,0,0,0,0,0.08,0.89,12.4,21.2,30,40,26.3,18.5,22.8,21.9,18.1,0.109,0.139,0.197,0.326,1,2349.9,132.7,83.9,48.8,419.4,99.7,268.3,68.0,43.0,25.0,315.2,68.0,137.5,,,,,,,,,,,,,,,,,,,,,,,,,,,,,,,,,,,,,,,,,,,,,,,,,,,,,,,Tracheophyta; Pinus pinaster Aiton; Magnoliopsida
2010,2010-08-17,Porto,Paços de Ferreira,Carvalhosa,R.Nª Sª ROSARIO (MEIXOMIL),41.2825312,-8.3816287,NC,292.0,2010-08-17T00:00,20.5,58,12.0,20.2,0.0,0.0,0.0,0.0,0,1017.2,983.3,0,0,0,0,0.03,1.01,6.6,7.6,99,87,11.5,22.0,25.7,23.2,18.6,0.093,0.14,0.213,0.334,0,0.0,0.0,0.0,0.0,0.0,0.0,0.0,0.0,0.0,0.0,0.0,0.0,0.0,,,,,,,,,,,,,,,,,,,,,,,,,,,,,,,,,,,,,,,,,,,,,,,,,,,,,,,Tracheophyta; Eucalyptus L'Hér.; Pinus pinaster Aiton; Magnoliopsida; Vitis vinifera L.; Quercus L.; 
2010,2010-08-29,Porto,Vila Nova de Gaia,Crestuma,Alto da Cimalha,41.0573536,-8.5157405,NC,247.0,2010-08-29T10:00,27.9,34,10.7,26.5,0.0,0.0,0.0,0.0,0,1017.1,989.1,0,0,0,0,0.47,2.47,12.6,17.0,85,86,27.4,27.1,23.4,22.9,20.0,0.117,0.137,0.198,0.327,1,3600.0,657.0,560.6,96.4,815.3,657.0,922.3,593.0,506.0,87.0,815.3,593.0,832.4,,,,,,,,,,,,,,,,,,,,,,,,,,,,,,,,,,,,,,,,,,,,,,,,,,,,,,,Magnoliopsida; Eucalyptus L'Hér.; Tracheophyta
2010,2010-08-16,Porto,Penafiel,Santiago de Subarrifana,FORNELO (Forno de Baixo),41.2176556,-8.2949441,Desconhecida,154.0,2010-08-16T16:00,31.1,26,9.3,30.3,0.0,0.0,0.0,0.0,0,1015.9,998.5,0,0,0,0,0.54,3.35,9.1,11.8,326,333,22.7,34.9,26.2,23.9,19.3,0.109,0.138,0.202,0.337,1,3600.0,606.3,517.1,89.2,834.4,606.3,826.8,673.0,574.0,99.0,834.4,673.0,917.7,,,,,,,,,,,,,,,,,,,,,,,,,,,,,,,,,,,,,,,,,,,,,,,,,,,,,,,Tracheophyta; Eucalyptus L'Hér.; Vitis vinifera L.
2010,2010-09-05,Faro,Monchique,Monchique,PESO,37.3306347,-8.5577748,Desconhecida,540.0,2010-09-05T18:00,23.9,45,11.2,21.9,0.0,0.0,0.0,0.0,0,1012.9,952.3,0,0,0,0,0.23,1.64,16.1,22.7,312,313,37.4,29.2,26.3,23.8,20.7,0.116,0.15,0.17,0.244,1,3600.0,144.9,106.8,38.2,580.2,144.9,247.6,224.0,165.0,59.0,580.2,224.0,382.7,,,,,,,,,,,,,,,,,,,,,,,,,,,,,,,,,,,,,,,,,,,,,,,,,,,,,,,Quercus suber L.; ; Tracheophyta; Eucalyptus L'Hér.; Magnoliopsida; Pinus pinaster Aiton; Quercus rotundifolia Lam.
2010,2010-08-07,Coimbra,Miranda do Corvo,Miranda do Corvo,Espinho,40.10657415,-8.33735151567626,Desconhecida,234.0,2010-08-07T12:00,36.1,21,10.0,37.6,0.0,0.0,0.0,0.0,0,1013.7,987.9,0,0,0,0,0.71,4.75,4.7,5.2,293,295,18.4,40.1,26.9,23.3,18.8,0.067,0.093,0.134,0.257,1,3600.0,920.0,811.1,109.0,896.8,920.0,1202.8,895.0,789.0,106.0,896.8,895.0,1170.0,,,,,,,,,,,,,,,,,,,,,,,,,,,,,,,,,,,,,,,,,,,,,,,,,,,,,,,Eucalyptus L'Hér.; Pinus pinaster Aiton; Tracheophyta
2010,2010-08-16,Braga,Vieira do Minho,Tabuaças,POUSADOURO(TABUAÇAS)M.3 (EN103 (EN103) Km 69),41.63730535,-8.169583093725674,Desconhecida,514.0,2010-08-16T23:00,20.1,56,11.1,19.0,0.0,0.0,0.0,0.0,0,1018.6,959.7,0,0,0,0,0.05,1.03,10.2,13.9,58,59,20.9,21.9,24.9,22.2,17.6,0.098,0.142,0.22,0.338,0,0.0,0.0,0.0,0.0,0.0,0.0,0.0,0.0,0.0,0.0,0.0,0.0,0.0,,,,,,,,,,,,,,,,,,,,,,,,,,,,,,,,,,,,,,,,,,,,,,,,,,,,,,,Quercus L.; Magnoliopsida; Pinus pinaster Aiton; Tracheophyta; Eucalyptus L'Hér.
2010,2010-08-11,Porto,Paredes,Sobreira,LG CASCONHA (CETE),41.1464669,-8.388977,Desconhecida,104.0,2010-08-11T15:00,31.5,21,6.9,29.4,0.0,0.0,0.0,0.0,0,1018.5,1006.7,0,0,0,0,0.73,3.64,19.1,24.5,317,319,33.1,36.5,27.9,24.5,19.3,0.108,0.139,0.208,0.341,1,3600.0,785.7,692.6,93.2,905.4,785.7,1018.7,835.0,736.0,99.0,905.4,835.0,1082.5,,,,,,,,,,,,,,,,,,,,,,,,,,,,,,,,,,,,,,,,,,,,,,,,,,,,,,,Magnoliopsida; Pinus pinaster Aiton; Eucalyptus L'Hér.; Tracheophyta; Vitis vinifera L.
2010,2010-08-16,Aveiro,Santa Maria da Feira,Argoncilhe,Rua da Lomba (Rua Nova da Lomba),41.0253824,-8.552411,Desconhecida,244.0,2010-08-16T15:00,30.2,27,9.4,30.0,0.0,0.0,0.0,0.0,0,1015.7,988.2,0,0,0,0,0.63,3.12,10.8,12.8,345,349,23.4,35.6,25.8,23.6,19.1,0.106,0.136,0.196,0.333,1,3600.0,757.1,663.2,93.9,881.8,757.1,1003.3,806.0,706.0,100.0,881.8,806.0,1068.1,,,,,,,,,,,,,,,,,,,,,,,,,,,,,,,,,,,,,,,,,,,,,,,,,,,,,,,Tracheophyta; Magnoliopsida
2010,2010-08-31,Coimbra,Pampilhosa da Serra,Portela do Fojo,Padrões,39.94905915,-8.092951750000001,Natural,394.0,2010-08-31T13:00,33.9,23,10.0,32.6,0.0,0.0,0.0,0.0,1,1008.7,965.6,32,0,9,89,0.75,4.05,18.1,23.9,157,157,43.6,37.1,28.8,25.5,21.6,0.108,0.149,0.174,0.306,1,3600.0,811.1,640.7,170.4,755.4,811.1,1138.7,814.0,643.0,171.0,755.4,814.0,1142.8,,,,,,,,,,,,,,,,,,,,,,,,,,,,,,,,,,,,,,,,,,,,,,,,,,,,,,,Pinus pinaster Aiton; Olea europaea L.; Magnoliopsida; Eucalyptus L'Hér.
2010,2010-08-04,Aveiro,Albergaria-a-Velha,Frossos,Nossa Senhora das Necessidades (Nossa Senhora do Bom Sucesso),40.6593513,-8.5359631,Desconhecida,30.0,2010-08-04T16:00,31.5,39,16.1,29.3,0.0,0.0,0.0,0.0,0,1014.3,1010.9,9,0,0,30,0.67,2.8,33.9,46.2,338,340,58.0,37.9,27.8,23.9,19.5,0.065,0.089,0.136,0.256,1,3600.0,649.1,560.1,89.0,850.6,649.1,875.0,715.0,617.0,98.0,850.6,715.0,963.9,,,,,,,,,,,,,,,,,,,,,,,,,,,,,,,,,,,,,,,,,,,,,,,,,,,,,,,Eucalyptus L'Hér.; Magnoliopsida; Tracheophyta; Pinus pinaster Aiton; Acacia Mill.; 
