year,date,district,municipality,parish,local,latitude,longitude,cause,elevation,hourly.time,hourly.temperature_2m,hourly.relative_humidity_2m,hourly.dew_point_2m,hourly.apparent_temperature,hourly.precipitation,hourly.rain,hourly.snowfall,hourly.snow_depth,hourly.weather_code,hourly.pressure_msl,hourly.surface_pressure,hourly.cloud_cover,hourly.cloud_cover_low,hourly.cloud_cover_mid,hourly.cloud_cover_high,hourly.et0_fao_evapotranspiration,hourly.vapour_pressure_deficit,hourly.wind_speed_10m,hourly.wind_speed_100m,hourly.wind_direction_10m,hourly.wind_direction_100m,hourly.wind_gusts_10m,hourly.soil_temperature_0_to_7cm,hourly.soil_temperature_7_to_28cm,hourly.soil_temperature_28_to_100cm,hourly.soil_temperature_100_to_255cm,hourly.soil_moisture_0_to_7cm,hourly.soil_moisture_7_to_28cm,hourly.soil_moisture_28_to_100cm,hourly.soil_moisture_100_to_255cm,hourly.is_day,hourly.sunshine_duration,hourly.shortwave_radiation_instant,hourly.direct_radiation_instant,hourly.diffuse_radiation_instant,hourly.direct_normal_irradiance_instant,hourly.global_tilted_irradiance_instant,hourly.terrestrial_radiation_instant,hourly.shortwave_radiation,hourly.direct_radiation,hourly.diffuse_radiation,hourly.direct_normal_irradiance,hourly.global_tilted_irradiance,hourly.terrestrial_radiation2010,2010-02-14,Porto,Vila Nova de Gaia,Oliveira do Douro,Monte da Virgem,41.11258085,-8.597501604999291,NC,206.0,2010-02-14T17:00,8.1,49,-2.0,3.8,0.0,0.0.1,0.0.2,0.0.3,3,1004.1,979.3,85,0,92,100,0.11,0.55,12.6,21.6,87,93,31.7,7.4,5.6,8.5,11.5,0.371,0.382,0.389,0.411,1,3600.0,128.9,47.4,81.6,253.2,128.9.1,262.6,185.0,68.0,117.0,253.2.1,185.0.1,376.8,scientificNames
2010,2010-07-09,Porto,Paços de Ferreira,Codessos,Barreiras,41.33032075,-8.34477534087602,NC,421.0,2010-07-09T08:00,18.2,88,16.2,19.7,0.0,0.0,0.0,0.0,3,1020.9,972.0,90,100,0,0,0.1,0.25,4.8,5.9,318,317,16.2,21.3,22.8,20.1,14.2,0.169,0.188,0.276,0.363,1,1374.65,210.2,52.3,158.0,105.8,210.2,653.4,173.0,43.0,130.0,105.8,173.0,537.7,,,,,,,,,,,,,,,,,,,,,,,,,,,,,,,,,,,,,,,,,,,,,,,,,,,,,,,Magnoliopsida; Eucalyptus L'Hér.; Pinus pinaster Aiton; Tracheophyta; Quercus suber L.; ; Quercus L.; Acacia Mill.
2010,2010-07-29,Porto,Gondomar,Foz do Sousa,LG. EXPOSADOS (VALBOM),41.119341,-8.50547,NC,95.0,2010-07-29T07:00,23.1,73,17.9,25.5,0.0,0.0,0.0,0.0,0,1014.9,1003.9,4,0,0,15,0.07,0.77,3.6,5.4,53,70,10.8,22.3,26.2,22.8,18.2,0.115,0.141,0.217,0.354,1,3600.0,191.6,124.7,66.9,457.9,191.6,361.3,126.0,82.0,44.0,457.9,126.0,237.6,,,,,,,,,,,,,,,,,,,,,,,,,,,,,,,,,,,,,,,,,,,,,,,,,,,,,,,Pinus pinaster Aiton; Eucalyptus L'Hér.; Tracheophyta; Magnoliopsida
2010,2010-07-11,Braga,Póvoa de Lanhoso,Brunhais,L. ESTRADA MURTEIRA (BRUNHAIS) (FRIANDE),41.5738004,-8.1827097,NC,243.0,2010-07-11T14:00,26.1,53,15.7,28.8,0.0,0.0,0.0,0.0,1,1017.9,990.1,27,0,0,89,0.64,1.6,10.2,12.3,262,263,28.1,31.0,23.4,21.3,15.5,0.13,0.183,0.274,0.362,1,3600.0,914.7,799.7,114.9,889.2,914.7,1190.2,939.0,821.0,118.0,889.2,939.0,1221.9,,,,,,,,,,,,,,,,,,,,,,,,,,,,,,,,,,,,,,,,,,,,,,,,,,,,,,,Tracheophyta; Magnoliopsida
2010,2010-06-24,Aveiro,Ovar,Ovar,Rua. Pº Rogério de brito (ARADA),40.8640206,-8.6166635,Desconhecida,18.0,2010-06-24T18:00,24.1,59,15.5,24.6,0.0,0.0,0.0,0.0,0,1013.5,1011.4,1,0,1,0,0.27,1.24,10.0,11.1,283,283,21.2,28.2,23.6,19.3,16.0,0.129,0.174,0.219,0.329,1,3600.0,318.5,250.6,67.9,676.0,318.5,490.7,394.0,310.0,84.0,676.0,394.0,607.1,,,,,,,,,,,,,,,,,,,,,,,,,,,,,,,,,,,,,,,,,,,,,,,,,,,,,,,Tracheophyta; Magnoliopsida; Eucalyptus L'Hér.
2010,2010-07-25,Porto,Santo Tirso,Rebordões,LG. ROSADOURO (SEQUEIRO),41.3524388,-8.4295071,NC,114.0,2010-07-25T09:00,26.6,41,12.3,25.5,0.0,0.0,0.0,0.0,0,1017.8,1004.7,0,0,0,0,0.4,2.06,13.0,17.5,76,81,24.8,25.4,23.3,21.1,17.2,0.102,0.159,0.246,0.35,1,3600.0,586.0,489.7,96.3,782.4,586.0,829.6,511.0,427.0,84.0,782.4,511.0,723.5,,,,,,,,,,,,,,,,,,,,,,,,,,,,,,,,,,,,,,,,,,,,,,,,,,,,,,,Tracheophyta; Pinus pinaster Aiton; Eucalyptus L'Hér.; Magnoliopsida; Vitis vinifera L.
2010,2010-07-27,Aveiro,Santa Maria da Feira,Lobão,Tugilde (Togilde),40.98260465,-8.4900676884166,Desconhecida,179.0,2010-07-27T23:00,25.7,55,16.0,26.6,0.0,0.0,0.0,0.0,0,1014.6,994.1,0,0,0,0,0.05,1.48,7.3,14.0,57,42,14.8,26.4,28.2,22.0,17.7,0.106,0.121,0.183,0.324,0,0.0,0.0,0.0,0.0,0.0,0.0,0.0,0.0,0.0,0.0,0.0,0.0,0.0,,,,,,,,,,,,,,,,,,,,,,,,,,,,,,,,,,,,,,,,,,,,,,,,,,,,,,,Eucalyptus L'Hér.; Tracheophyta
2010,2010-06-24,Faro,Portimão,Portimão,Porto Lagos (Porto de Lagos),37.1446488,-8.5374891,NC,4.0,2010-06-24T13:00,28.3,39,13.2,29.2,0.0,0.0,0.0,0.0,0,1014.8,1014.3,3,3,0,0,0.72,2.33,16.3,18.3,301,302,31.0,36.0,25.2,21.9,18.5,0.089,0.186,0.265,0.314,1,3600.0,976.6,852.8,123.8,881.4,976.6,1280.9,978.0,854.0,124.0,881.4,978.0,1282.7,,,,,,,,,,,,,,,,,,,,,,,,,,,,,,,,,,,,,,,,,,,,,,,,,,,,,,,Tracheophyta; Magnoliopsida
2010,2010-06-24,Lisboa,ODIVELAS,Odivelas,ODIVELASPARQUE (ADOUFE),38.7932694,-9.172982,Desconhecida,33.0,2010-06-24T15:00,23.8,54,13.8,24.6,0.0,0.0,0.0,0.0,0,1014.5,1010.7,0,0,0,0,0.57,1.37,14.9,18.6,278,279,27.7,28.7,22.1,19.6,17.2,0.141,0.213,0.277,0.347,1,3600.0,838.7,731.7,107.0,877.9,838.7,1103.4,886.0,773.0,113.0,877.9,886.0,1165.6,,,,,,,,,,,,,,,,,,,,,,,,,,,,,,,,,,,,,,,,,,,,,,,,,,,,,,,Tracheophyta; Magnoliopsida
2010,2010-07-25,Viana do Castelo,Viana do Castelo,Mujães,Mamua,41.6587624,-8.7124886,Desconhecida,74.0,2010-07-25T10:00,27.2,43,13.7,27.9,0.0,0.0,0.0,0.0,0,1018.1,1009.6,0,0,0,0,0.49,2.05,8.8,11.6,19,36,21.2,27.5,23.1,21.2,17.6,0.105,0.162,0.251,0.351,1,3600.0,741.9,636.8,105.0,838.3,741.9,1007.0,678.0,582.0,96.0,838.3,678.0,920.3,,,,,,,,,,,,,,,,,,,,,,,,,,,,,,,,,,,,,,,,,,,,,,,,,,,,,,,Magnoliopsida; Tracheophyta; Eucalyptus L'Hér.
2010,2010-07-29,Porto,Felgueiras,Moure,Quintã,41.3528045,-8.1754517,NC,306.0,2010-07-29T10:00,29.5,41,14.8,31.3,0.0,0.0,0.0,0.0,0,1015.2,980.8,4,0,0,13,0.49,2.45,4.2,5.5,121,122,16.6,30.4,25.4,21.8,16.8,0.098,0.151,0.238,0.347,1,3600.0,743.0,639.1,104.0,842.5,743.0,1006.4,679.0,584.0,95.0,842.5,679.0,919.6,,,,,,,,,,,,,,,,,,,,,,,,,,,,,,,,,,,,,,,,,,,,,,,,,,,,,,,Magnoliopsida; Tracheophyta; Pinus pinaster Aiton; Eucalyptus L'Hér.; Vitis vinifera L.
2010,2010-06-27,Braga,Vila Verde,Cabanelas,R. S. JOAO(CABANELAS) (ABOIM DA NOBREGA),41.56984255,-8.492438172472617,NC,21.0,2010-06-27T12:00,27.3,62,19.5,31.6,0.0,0.0,0.0,0.0,0,1015.9,1013.5,1,1,0,0,0.62,1.36,9.5,9.4,307,317,23.4,29.7,22.3,19.3,15.5,0.146,0.228,0.292,0.369,1,3600.0,923.8,790.7,133.1,840.7,923.8,1244.7,902.0,772.0,130.0,840.7,902.0,1215.3,,,,,,,,,,,,,,,,,,,,,,,,,,,,,,,,,,,,,,,,,,,,,,,,,,,,,,,Tracheophyta; Eucalyptus L'Hér.; Vitis vinifera L.; Magnoliopsida; Pinus pinaster Aiton
2010,2010-06-24,Braga,Fafe,São Gens,Paredes,41.4469401,-8.1345773,NC,429.0,2010-06-24T21:00,20.1,81,16.8,21.5,0.0,0.0,0.0,0.0,0,1014.7,965.5,11,0,4,28,0.0,0.45,6.8,8.3,267,272,13.7,21.8,21.7,16.4,12.8,0.165,0.252,0.307,0.374,0,0.0,0.0,0.0,0.0,0.0,0.0,0.0,0.0,0.0,0.0,0.0,0.0,0.0,,,,,,,,,,,,,,,,,,,,,,,,,,,,,,,,,,,,,,,,,,,,,,,,,,,,,,,Tracheophyta; Eucalyptus L'Hér.; Magnoliopsida; Pinales
2010,2010-07-28,Porto,Lousada,Lustosa,CRISTELO (Cristelos),41.3321025,-8.3085374,NC,411.0,2010-07-28T00:00,23.1,56,13.9,23.3,0.0,0.0,0.0,0.0,0,1015.2,968.4,0,0,0,0,0.04,1.24,7.2,8.4,93,59,14.4,23.3,26.1,20.8,16.0,0.098,0.153,0.241,0.348,0,0.0,0.0,0.0,0.0,0.0,0.0,0.0,0.0,0.0,0.0,0.0,0.0,0.0,,,,,,,,,,,,,,,,,,,,,,,,,,,,,,,,,,,,,,,,,,,,,,,,,,,,,,,Vitis vinifera L.; Eucalyptus L'Hér.; Tracheophyta; Magnoliopsida
2010,2010-07-11,Porto,Gondomar,Lomba,LABERCOS (Lavercos),41.0617409,-8.4108172,NC,76.0,2010-07-11T17:00,23.7,63,16.2,23.1,0.0,0.0,0.0,0.0,1,1018.2,1009.3,29,0,0,97,0.37,1.09,19.3,23.9,315,316,34.9,29.9,24.9,22.2,16.9,0.135,0.176,0.264,0.365,1,3600.0,491.7,388.8,102.9,721.5,491.7,713.1,564.0,446.0,118.0,721.5,564.0,818.0,,,,,,,,,,,,,,,,,,,,,,,,,,,,,,,,,,,,,,,,,,,,,,,,,,,,,,,Magnoliopsida; Eucalyptus L'Hér.; Vitis vinifera L.; Pinus pinaster Aiton; Tracheophyta; 
2010,2010-07-09,Faro,Silves,São Bartolomeu de Messines,Marreiros,37.2560769,-8.2869009,Desconhecida,132.0,2010-07-09T13:00,34.7,25,12.0,36.9,0.0,0.0,0.0,0.0,0,1018.2,1003.4,0,0,0,0,0.78,4.14,7.2,8.9,333,339,19.8,40.4,28.7,25.3,19.4,0.119,0.152,0.19,0.281,1,3600.0,979.4,858.5,120.9,891.3,979.4,1274.5,980.0,859.0,121.0,891.3,980.0,1275.3,,,,,,,,,,,,,,,,,,,,,,,,,,,,,,,,,,,,,,,,,,,,,,,,,,,,,,,Magnoliopsida; Quercus rotundifolia Lam.; Tracheophyta; Quercus suber L.; Pinus pinea L.; Olea europaea L.; Eucalyptus L'Hér.; Ceratonia siliqua L.; Vitis vinifera L.; Pinus pinaster Aiton; 
2010,2010-07-05,Porto,Vila do Conde,Guilhabreu,RUA DA MECA (Rua de Quires),41.2945953,-8.6382243,NC,112.0,2010-07-05T14:00,33.9,41,18.7,37.5,0.0,0.0,0.0,0.0,0,1018.4,1005.8,0,0,0,0,0.75,3.12,11.6,14.3,344,348,19.4,35.2,25.2,20.5,15.9,0.114,0.188,0.27,0.366,1,3600.0,900.4,790.3,110.1,872.8,900.4,1198.0,924.0,811.0,113.0,872.8,924.0,1229.4,,,,,,,,,,,,,,,,,,,,,,,,,,,,,,,,,,,,,,,,,,,,,,,,,,,,,,,Tracheophyta; Eucalyptus L'Hér.; Magnoliopsida
2010,2010-07-10,Porto,Santo Tirso,Rebordões,Sª. JOÃO DO CARVALHINHO (São João de Carvalhido),41.3524388,-8.4295071,NC,114.0,2010-07-10T17:00,25.0,53,14.9,24.3,0.0,0.0,0.0,0.0,0,1019.5,1006.3,0,0,0,1,0.42,1.48,17.6,22.8,319,321,32.8,29.7,24.7,21.6,16.0,0.124,0.181,0.269,0.361,1,3600.0,510.8,427.8,82.9,789.7,510.8,716.9,585.0,490.0,95.0,789.7,585.0,821.1,,,,,,,,,,,,,,,,,,,,,,,,,,,,,,,,,,,,,,,,,,,,,,,,,,,,,,,Tracheophyta; Pinus pinaster Aiton; Eucalyptus L'Hér.; Magnoliopsida; Vitis vinifera L.
2010,2010-07-09,Porto,Amarante,Louredo,Feitoria,41.2538153,-8.117058,Desconhecida,294.0,2010-07-09T18:00,25.9,61,17.8,27.0,0.0,0.0,0.0,0.0,0,1020.2,986.6,0,0,0,0,0.29,1.3,12.1,16.1,300,304,30.2,29.3,25.2,21.0,15.0,0.149,0.196,0.28,0.366,1,3600.0,325.3,260.9,64.4,716.7,325.3,481.7,404.0,324.0,80.0,716.7,404.0,598.2,,,,,,,,,,,,,,,,,,,,,,,,,,,,,,,,,,,,,,,,,,,,,,,,,,,,,,,Tracheophyta; Magnoliopsida; Eucalyptus L'Hér.; Pinus pinaster Aiton; Vitis vinifera L.; 
2010,2010-07-09,Porto,Gondomar,Lomba,LABERCOS (Lavercos),41.0617409,-8.4108172,NC,76.0,2010-07-09T21:00,20.1,80,16.6,19.6,0.0,0.0,0.0,0.0,0,1021.3,1012.3,0,0,0,0,0.04,0.47,19.0,27.9,341,345,32.0,24.2,25.9,22.3,16.7,0.15,0.181,0.268,0.366,0,0.0,0.0,0.0,0.0,0.0,0.0,0.0,0.0,0.0,0.0,0.0,0.0,0.0,,,,,,,,,,,,,,,,,,,,,,,,,,,,,,,,,,,,,,,,,,,,,,,,,,,,,,,Magnoliopsida; Eucalyptus L'Hér.; Vitis vinifera L.; Pinus pinaster Aiton; Tracheophyta; 
2010,2010-07-10,Faro,Alcoutim,Pereiro,Fonte Zambujo,37.4237153,-7.578783,NC,241.0,2010-07-10T02:00,23.0,54,13.1,22.0,0.0,0.0,0.0,0.0,0,1017.6,989.8,0,0,0,0,0.09,1.29,13.6,24.5,328,332,26.6,25.8,29.0,25.1,19.2,0.145,0.207,0.274,0.345,0,0.0,0.0,0.0,0.0,0.0,0.0,0.0,0.0,0.0,0.0,0.0,0.0,0.0,,,,,,,,,,,,,,,,,,,,,,,,,,,,,,,,,,,,,,,,,,,,,,,,,,,,,,,Tracheophyta; Magnoliopsida; Quercus rotundifolia Lam.; Pinus pinea L.
2010,2010-06-24,Porto,Gondomar,Valbom,R. CENTRO REPUBLICANO PAVOA CORREIA (VALBOM),41.13757565,-8.562041548825437,NC,77.0,2010-06-24T22:00,19.0,84,16.1,20.7,0.0,0.0,0.0,0.0,0,1014.7,1005.6,1,0,1,0,0.0,0.36,2.7,1.8,293,270,11.9,21.1,22.5,18.7,15.4,0.176,0.237,0.292,0.377,0,0.0,0.0,0.0,0.0,0.0,0.0,0.0,0.0,0.0,0.0,0.0,0.0,0.0,,,,,,,,,,,,,,,,,,,,,,,,,,,,,,,,,,,,,,,,,,,,,,,,,,,,,,,Tracheophyta; Magnoliopsida; Pinus pinaster Aiton; Eucalyptus L'Hér.
2010,2010-07-29,Aveiro,Aveiro,Nossa Senhora de Fátima,Rua do Barreiro - Póvoa do Valado,40.5713841,-8.574449,Desconhecida,42.0,2010-07-29T10:00,28.2,49,16.5,30.4,0.0,0.0,0.0,0.0,0,1014.9,1010.1,0,0,0,0,0.48,1.94,5.3,6.0,298,303,18.4,33.0,26.9,23.3,19.2,0.045,0.069,0.112,0.226,1,3600.0,735.6,630.3,105.2,830.8,735.6,1006.5,671.0,575.0,96.0,830.8,671.0,918.2,,,,,,,,,,,,,,,,,,,,,,,,,,,,,,,,,,,,,,,,,,,,,,,,,,,,,,,Tracheophyta; Magnoliopsida; Pinus pinaster Aiton; Eucalyptus L'Hér.
2010,2010-07-29,Porto,Santo Tirso,Aves,L.MONTE CARAMULO (AVES),41.361773,-8.410822947653934,NC,130.0,2010-07-29T12:00,32.5,37,16.1,35.6,0.0,0.0,0.0,0.0,0,1014.4,999.8,10,0,0,35,0.7,3.07,7.7,8.7,311,315,17.6,35.4,26.6,22.5,17.6,0.103,0.157,0.243,0.349,1,3600.0,927.5,816.5,110.9,895.4,927.5,1209.9,903.0,795.0,108.0,895.4,903.0,1178.0,,,,,,,,,,,,,,,,,,,,,,,,,,,,,,,,,,,,,,,,,,,,,,,,,,,,,,,Magnoliopsida; Tracheophyta; Pinus pinaster Aiton; Eucalyptus L'Hér.; Vitis vinifera L.; Pinales; Acacia Mill.; 
2010,2010-07-06,Braga,Braga,Espinho,SAMEIRO(ESPINHO) (Sameiro),41.5461302,-8.3631807,NC,479.0,2010-07-06T14:00,31.8,33,13.5,34.6,0.0,0.0,0.0,0.0,0,1017.9,965.0,0,0,0,0,0.71,3.16,5.6,7.1,117,120,25.6,32.8,23.8,18.6,13.4,0.119,0.209,0.297,0.37,1,3600.0,913.3,805.3,108.1,892.8,913.3,1193.4,938.0,827.0,111.0,892.8,938.0,1225.6,,,,,,,,,,,,,,,,,,,,,,,,,,,,,,,,,,,,,,,,,,,,,,,,,,,,,,,Magnoliopsida; Tracheophyta; Pinus pinaster Aiton; Eucalyptus L'Hér.; Pinales
2010,2010-06-24,Porto,Vila Nova de Gaia,Pedroso,TRAVESSA DE BURRELOS (Travessa  das Ameixoeiras),41.064143,-8.5572235,NC,131.0,2010-06-24T20:00,20.7,69,14.8,21.6,0.0,0.0,0.0,0.0,0,1014.1,998.8,1,0,2,0,0.04,0.75,4.8,4.9,297,306,13.0,23.2,22.4,18.4,15.1,0.176,0.237,0.292,0.377,1,2405.54,8.4,4.4,4.0,50.7,6.5,20.7,55.0,29.0,26.0,220.2,55.0,135.8,,,,,,,,,,,,,,,,,,,,,,,,,,,,,,,,,,,,,,,,,,,,,,,,,,,,,,,Magnoliopsida; Eucalyptus L'Hér.; Tracheophyta
2010,2010-07-05,Porto,Paredes,Castelões de Cepeda,RUA DA SAUDADE (SOBROSA),41.2061219,-8.3306278725203,NC,174.0,2010-07-05T15:00,35.0,35,17.0,37.8,0.0,0.0,0.0,0.0,0,1018.2,998.8,0,0,0,0,0.71,3.67,9.7,12.0,345,351,22.0,34.9,25.3,20.2,15.3,0.13,0.196,0.277,0.368,1,3600.0,808.7,703.6,105.1,858.3,808.7,1084.6,854.0,743.0,111.0,858.3,854.0,1145.4,,,,,,,,,,,,,,,,,,,,,,,,,,,,,,,,,,,,,,,,,,,,,,,,,,,,,,,Magnoliopsida; Pinus pinaster Aiton; Eucalyptus L'Hér.; Tracheophyta; Vitis vinifera L.
2010,2010-07-05,Coimbra,Condeixa-a-Nova,Furadouro,CASMILO,40.0689654,-8.4967563,NC,196.0,2010-07-05T15:00,35.9,31,16.1,37.2,0.0,0.0,0.0,0.0,0,1017.1,995.3,0,0,0,0,0.77,4.07,16.3,21.0,335,338,34.9,41.7,26.3,20.4,16.0,0.049,0.071,0.11,0.23,1,3600.0,816.0,711.8,104.1,862.8,816.0,1091.7,862.0,752.0,110.0,862.8,862.0,1153.2,,,,,,,,,,,,,,,,,,,,,,,,,,,,,,,,,,,,,,,,,,,,,,,,,,,,,,,Magnoliopsida; Olea europaea L.; Quercus L.; Tracheophyta
2010,2010-07-29,Lisboa,Sintra,Algueirão-Mem Martins,Raposeiras,38.7999099,-9.3397834,Desconhecida,166.0,2010-07-29T13:00,26.7,50,15.5,28.1,0.0,0.0,0.0,0.0,0,1014.6,995.6,0,0,0,0,0.65,1.74,16.9,20.9,320,328,30.2,31.3,24.8,21.8,18.3,0.121,0.177,0.243,0.339,1,3600.0,946.6,808.4,138.2,862.3,946.6,1243.7,945.0,807.0,138.0,862.3,945.0,1241.6,,,,,,,,,,,,,,,,,,,,,,,,,,,,,,,,,,,,,,,,,,,,,,,,,,,,,,,Tracheophyta; Magnoliopsida; Pinales; 
2010,2010-06-28,Viana do Castelo,Caminha,Dem,SRª DAS NEVES (Senhora das Neves),41.8420873,-8.7896148,Desconhecida,343.0,2010-06-28T15:00,24.5,66,17.6,26.9,0.0,0.0,0.0,0.0,0,1019.0,979.8,7,0,12,0,0.47,1.05,8.4,10.5,317,322,25.6,28.6,21.9,17.7,13.7,0.14,0.227,0.298,0.372,1,3600.0,658.5,524.0,134.5,638.9,658.5,1085.4,695.0,553.0,142.0,638.9,695.0,1145.5,,,,,,,,,,,,,,,,,,,,,,,,,,,,,,,,,,,,,,,,,,,,,,,,,,,,,,,Magnoliopsida; Pinus pinaster Aiton; Tracheophyta; Quercus L.; Eucalyptus L'Hér.
2010,2010-06-26,Aveiro,Santa Maria da Feira,Caldas de São Jorge,"Rua da Fonte do Souto ,Rua do Engenho, Azevedo",40.9663636,-8.5044593,Desconhecida,186.0,2010-06-26T17:00,24.5,65,17.4,24.8,0.0,0.0,0.0,0.0,0,1013.5,992.1,3,1,2,2,0.35,1.09,16.5,21.4,328,331,31.0,28.3,22.9,18.8,15.1,0.15,0.191,0.244,0.345,1,3600.0,447.0,353.6,93.4,650.3,447.0,719.6,512.0,405.0,107.0,650.3,512.0,824.3,,,,,,,,,,,,,,,,,,,,,,,,,,,,,,,,,,,,,,,,,,,,,,,,,,,,,,,Tracheophyta; Eucalyptus L'Hér.; Pinales; Magnoliopsida
2010,2010-07-12,Braga,Vila Verde,Valdreu,L. DE S.CRISTOVÃO - VALDREU. (CAMPO DO GERÊS),41.7293131,-8.314175,NC,254.0,2010-07-12T20:00,18.2,81,14.8,18.7,0.0,0.0,0.0,0.0,3,1018.5,988.7,90,100,0,0,0.04,0.4,7.9,10.6,286,288,26.3,22.2,22.7,20.8,15.5,0.149,0.206,0.294,0.369,1,0.0,2.6,0.5,2.1,6.0,1.9,11.0,30.0,6.0,24.0,46.7,30.0,126.5,,,,,,,,,,,,,,,,,,,,,,,,,,,,,,,,,,,,,,,,,,,,,,,,,,,,,,,Tracheophyta; Magnoliopsida; Eucalyptus L'Hér.
2010,2010-07-10,Faro,Portimão,Portimão,Coca Maravilhas,37.1505408,-8.5469717,NC,38.0,2010-07-10T10:00,28.3,43,14.6,28.4,0.0,0.0,0.0,0.0,0,1018.8,1014.4,0,0,0,0,0.55,2.18,15.4,19.2,349,355,30.2,31.6,27.4,25.7,20.1,0.083,0.171,0.242,0.316,1,3600.0,785.2,672.6,112.6,846.6,785.2,1051.3,718.0,615.0,103.0,846.6,718.0,961.3,,,,,,,,,,,,,,,,,,,,,,,,,,,,,,,,,,,,,,,,,,,,,,,,,,,,,,,Magnoliopsida; Tracheophyta
2010,2010-07-01,Lisboa,Loures,Prior Velho,Rua Padre Cruz,38.7915641,-9.121544,Desconhecida,89.0,2010-07-01T12:00,26.6,47,14.4,27.8,0.0,0.0,0.0,0.0,0,1015.4,1005.2,0,0,0,0,0.64,1.84,15.2,19.2,329,332,33.1,28.3,24.7,23.3,21.3,0.239,0.289,0.33,0.369,1,3600.0,951.5,819.1,132.4,860.9,951.5,1259.0,927.0,798.0,129.0,860.9,927.0,1226.5,,,,,,,,,,,,,,,,,,,,,,,,,,,,,,,,,,,,,,,,,,,,,,,,,,,,,,,Tracheophyta; Olea europaea L.; 
2010,2010-06-07,Lisboa,Sintra,São João das Lampas,Areias,38.8815463,-9.405697273499548,Desconhecida,122.0,2010-06-07T23:00,16.7,90,15.1,16.4,0.0,0.0,0.0,0.0,2,1016.0,1001.5,72,80,0,0,0.0,0.18,13.5,20.7,299,301,21.6,18.8,22.0,19.5,15.9,0.077,0.201,0.276,0.378,0,0.0,0.0,0.0,0.0,0.0,0.0,0.0,0.0,0.0,0.0,0.0,0.0,0.0,,,,,,,,,,,,,,,,,,,,,,,,,,,,,,,,,,,,,,,,,,,,,,,,,,,,,,,Tracheophyta; Magnoliopsida; Pinus pinaster Aiton; Pinus pinea L.; Vitis vinifera L.; Pinales; Olea europaea L.; 
2010,2010-07-06,Setúbal,Almada,Feijó,"ACESSO A CENTRO SUL, (CACILHAS)",38.66001545,-9.17518149201292,NC,49.0,2010-07-06T16:00,28.4,46,15.7,28.6,0.0,0.0,0.0,0.0,0,1015.7,1010.1,0,0,0,0,0.57,2.08,18.6,24.2,314,317,30.6,33.6,27.2,21.6,17.8,0.143,0.192,0.261,0.354,1,3600.0,681.3,574.3,107.0,811.8,681.3,936.0,745.0,628.0,117.0,811.8,745.0,1023.5,,,,,,,,,,,,,,,,,,,,,,,,,,,,,,,,,,,,,,,,,,,,,,,,,,,,,,,Tracheophyta; Pinus pinea L.; Magnoliopsida
2010,2010-06-26,Setúbal,Moita,Baixa da Banheira,BX DA BANHEIRA JT TELEPIZZA (BAIXA DA BANHEIRA),38.6594667,-9.0439292,NC,9.0,2010-06-26T19:00,23.8,64,16.6,23.4,0.0,0.0,0.0,0.0,0,1012.7,1011.7,2,1,2,0,0.18,1.07,18.4,26.7,329,333,36.0,28.0,25.8,23.3,21.6,0.184,0.195,0.234,0.283,1,3600.0,125.4,85.2,40.3,467.8,125.4,241.0,190.0,129.0,61.0,467.8,190.0,365.0,,,,,,,,,,,,,,,,,,,,,,,,,,,,,,,,,,,,,,,,,,,,,,,,,,,,,,,Tracheophyta; Magnoliopsida
2010,2010-06-17,Lisboa,Sintra,Algueirão-Mem Martins,TAPADA DAS MERCES FRT MODELO (Casal da Tapada),38.7999099,-9.3397834,Desconhecida,166.0,2010-06-17T13:00,19.5,59,11.4,18.7,0.0,0.0,0.0,0.0,0,1015.0,995.6,0,0,0,0,0.52,0.92,22.9,28.0,334,336,38.2,23.0,18.9,17.9,16.0,0.193,0.234,0.286,0.353,1,3600.0,986.2,864.3,121.9,899.5,986.2,1273.4,987.0,865.0,122.0,899.5,987.0,1274.4,,,,,,,,,,,,,,,,,,,,,,,,,,,,,,,,,,,,,,,,,,,,,,,,,,,,,,,Tracheophyta; Magnoliopsida; Pinales; 
2010,2010-07-10,Lisboa,Arruda dos Vinhos,Arranhó,A dos Arcos,38.95337155,-9.134980363016528,Desconhecida,239.0,2010-07-10T13:00,28.3,38,12.4,28.0,0.0,0.0,0.0,0.0,0,1018.9,991.7,0,0,0,0,0.74,2.4,21.9,28.8,343,344,43.9,34.4,24.8,22.8,17.5,0.083,0.174,0.252,0.331,1,3600.0,985.8,868.7,117.1,909.4,985.8,1263.9,985.0,868.0,117.0,909.4,985.0,1263.0,,,,,,,,,,,,,,,,,,,,,,,,,,,,,,,,,,,,,,,,,,,,,,,,,,,,,,,Tracheophyta; Magnoliopsida
2010,2010-06-26,Porto,Gondomar,São Pedro da Cova,LARGO DO PASSAL (SÃO PEDRO DA COVA),41.146305850000005,-8.513812231973976,NC,128.0,2010-06-26T04:00,16.1,99,15.9,17.5,0.0,0.0,0.0,0.0,3,1013.9,998.7,93,100,0,10,0.0,0.02,4.9,5.9,54,43,13.0,18.1,21.3,18.8,15.2,0.171,0.225,0.284,0.375,0,0.0,0.0,0.0,0.0,0.0,0.0,0.0,0.0,0.0,0.0,0.0,0.0,0.0,,,,,,,,,,,,,,,,,,,,,,,,,,,,,,,,,,,,,,,,,,,,,,,,,,,,,,,Magnoliopsida; Eucalyptus L'Hér.; Tracheophyta; Vitis vinifera L.; Pinus pinaster Aiton
2010,2010-07-06,Braga,Póvoa de Lanhoso,Geraz do Minho,L. MONTE - GERAZ MINHO (FRIANDE),41.58693225,-8.281469795038168,NC,354.0,2010-07-06T20:00,29.6,52,18.9,32.3,0.0,0.0,0.0,0.0,0,1015.5,975.9,8,0,0,26,0.06,1.97,4.3,4.7,294,302,8.3,28.8,25.9,19.5,14.2,0.116,0.207,0.296,0.369,1,2365.36,7.8,4.2,3.5,48.4,6.0,18.1,57.0,31.0,26.0,237.2,57.0,133.1,,,,,,,,,,,,,,,,,,,,,,,,,,,,,,,,,,,,,,,,,,,,,,,,,,,,,,,Vitis vinifera L.; Eucalyptus L'Hér.; Tracheophyta; Pinus pinaster Aiton; Magnoliopsida
2010,2010-07-07,Braga,Celorico de Basto,Veade,STA. CRISTINA (VEADE) (Santa Cristina),41.41462535,-7.974960980903772,NC,198.0,2010-07-07T12:00,34.1,38,17.9,38.3,0.0,0.0,0.0,0.0,0,1014.7,992.6,10,0,0,34,0.71,3.29,5.8,7.2,187,183,18.7,34.7,25.8,21.1,15.4,0.105,0.201,0.284,0.367,1,3600.0,927.2,802.2,125.0,856.2,927.2,1239.7,905.0,783.0,122.0,856.2,905.0,1210.0,,,,,,,,,,,,,,,,,,,,,,,,,,,,,,,,,,,,,,,,,,,,,,,,,,,,,,,Magnoliopsida; Pinus pinaster Aiton; Vitis vinifera L.; Tracheophyta
2010,2010-07-07,Setúbal,Seixal,Fernão Ferro,AV. DO SEIXAL (CORROIOS),38.5730422,-9.0823756,NC,62.0,2010-07-07T14:00,29.1,46,16.2,29.5,0.0,0.0,0.0,0.0,1,1014.7,1007.6,27,9,8,47,0.55,2.18,16.5,20.4,286,287,27.7,36.0,26.7,22.3,18.2,0.053,0.079,0.132,0.235,1,3600.0,664.6,286.5,378.1,311.8,664.6,1215.7,682.0,294.0,388.0,311.8,682.0,1247.5,,,,,,,,,,,,,,,,,,,,,,,,,,,,,,,,,,,,,,,,,,,,,,,,,,,,,,,Tracheophyta
2010,2010-07-10,Leiria,Caldas da Rainha,Nadadouro,NADADOURO,39.4328745,-9.1765706,Desconhecida,43.0,2010-07-10T15:00,23.4,58,14.7,22.7,0.0,0.0,0.0,0.0,0,1019.7,1014.7,0,0,0,0,0.54,1.2,26.2,33.4,344,346,45.4,34.0,24.4,22.2,18.2,0.045,0.093,0.139,0.239,1,3600.0,840.4,733.3,107.1,884.0,840.4,1097.8,887.0,774.0,113.0,884.0,887.0,1158.6,,,,,,,,,,,,,,,,,,,,,,,,,,,,,,,,,,,,,,,,,,,,,,,,,,,,,,,Eucalyptus L'Hér.; Pinus pinaster Aiton
2010,2010-07-25,Braga,Barcelos,Carapeços,ARIEIRA (CARAPEÇOS) (Arieira),41.5800887,-8.6335013,NC,99.0,2010-07-25T17:00,32.1,33,14.0,30.6,0.0,0.0,0.0,0.0,0,1014.8,1003.6,0,0,0,0,0.55,3.19,20.3,28.1,337,344,34.6,34.7,25.8,21.3,17.4,0.098,0.155,0.243,0.349,1,3600.0,495.5,417.4,78.1,799.0,495.5,692.6,571.0,481.0,90.0,799.0,571.0,798.1,,,,,,,,,,,,,,,,,,,,,,,,,,,,,,,,,,,,,,,,,,,,,,,,,,,,,,,Vitis vinifera L.; Eucalyptus L'Hér.; Tracheophyta
2010,2010-07-27,Leiria,Alvaiázere,Almoster,Murtal,39.8433694,-8.4503903,NC,185.0,2010-07-27T12:00,36.3,21,10.4,36.2,0.0,0.0,0.0,0.0,0,1013.0,992.6,0,0,0,0,0.83,4.79,15.1,19.3,128,127,37.1,37.0,27.8,22.9,18.5,0.096,0.139,0.209,0.321,1,3600.0,944.1,833.1,110.9,901.0,944.1,1226.3,919.0,811.0,108.0,901.0,919.0,1193.7,,,,,,,,,,,,,,,,,,,,,,,,,,,,,,,,,,,,,,,,,,,,,,,,,,,,,,,Pinus pinaster Aiton; Olea europaea L.; Quercus L.; Tracheophyta
2010,2010-07-08,Porto,Vila Nova de Gaia,Grijó,mae d´agua (GRIJÓ),41.02873285,-8.579455429276116,NC,125.0,2010-07-08T05:00,20.8,92,19.5,24.0,0.0,0.0,0.0,0.0,0,1012.7,998.1,19,1,3,55,0.0,0.19,2.3,5.1,231,188,21.6,22.6,26.3,21.7,16.4,0.11,0.148,0.223,0.336,0,0.0,0.0,0.0,0.0,0.0,0.0,0.0,0.0,0.0,0.0,0.0,0.0,0.0,,,,,,,,,,,,,,,,,,,,,,,,,,,,,,,,,,,,,,,,,,,,,,,,,,,,,,,Eucalyptus L'Hér.; Tracheophyta; Magnoliopsida
2010,2010-07-12,Porto,Marco de Canaveses,Vila Boa do Bispo,RUA CARCAVELOS (BANHO E CARVALHOSA),41.1332787,-8.2097194,NC,208.0,2010-07-12T05:00,14.8,93,13.6,15.3,0.0,0.0,0.0,0.0,3,1018.9,994.1,92,96,0,18,0.0,0.13,4.5,6.1,299,298,10.8,18.4,22.7,21.6,16.1,0.13,0.193,0.281,0.367,0,0.0,0.0,0.0,0.0,0.0,0.0,0.0,0.0,0.0,0.0,0.0,0.0,0.0,,,,,,,,,,,,,,,,,,,,,,,,,,,,,,,,,,,,,,,,,,,,,,,,,,,,,,,Tracheophyta; Pinus pinaster Aiton; Vitis vinifera L.; Quercus L.; Eucalyptus L'Hér.; Magnoliopsida; Acacia Mill.; 
2010,2010-06-08,Castelo Branco,Covilhã,Barco,Serra Argemela (Casal da Serra),40.1741274,-7.610665,Desconhecida,412.0,2010-06-08T14:00,18.8,56,9.8,16.1,0.0,0.0,0.0,0.0,3,1009.9,962.6,100,100,91,53,0.34,0.96,17.9,25.0,255,255,37.1,22.9,20.9,19.3,13.7,0.116,0.218,0.289,0.384,1,3600.0,499.4,240.5,258.9,267.3,499.4,1194.7,515.0,248.0,267.0,267.3,515.0,1232.0,,,,,,,,,,,,,,,,,,,,,,,,,,,,,,,,,,,,,,,,,,,,,,,,,,,,,,,Pinus pinaster Aiton; Olea europaea L.; Tracheophyta; Quercus L.
2010,2010-06-24,Lisboa,Loures,Camarate,Bº DA TORRE (Apelação),38.815391000000005,-9.133030263713584,Desconhecida,100.0,2010-06-24T15:00,24.1,49,12.9,24.6,0.0,0.0,0.0,0.0,0,1014.5,1002.9,0,0,0,0,0.58,1.52,14.9,18.6,278,279,27.7,28.7,24.2,22.6,21.2,0.242,0.294,0.333,0.371,1,3600.0,838.5,731.6,106.9,878.8,838.5,1102.1,886.0,773.0,113.0,878.8,886.0,1164.5,,,,,,,,,,,,,,,,,,,,,,,,,,,,,,,,,,,,,,,,,,,,,,,,,,,,,,,Tracheophyta; Olea europaea L.; Magnoliopsida; 
2010,2010-07-05,Porto,Maia,Águas Santas,MONTE DA CAVERNEIRA (Aldeia do Monte),41.2077591,-8.5727501,NC,123.0,2010-07-05T18:00,31.2,53,20.4,33.2,0.0,0.0,0.0,0.0,0,1017.0,1003.1,0,0,0,0,0.36,2.15,14.4,21.8,338,344,23.8,32.4,26.2,20.4,16.0,0.129,0.188,0.269,0.368,1,3600.0,321.2,257.2,63.9,693.0,321.2,491.1,397.0,318.0,79.0,693.0,397.0,607.1,,,,,,,,,,,,,,,,,,,,,,,,,,,,,,,,,,,,,,,,,,,,,,,,,,,,,,,Tracheophyta; Pinus pinaster Aiton; Magnoliopsida; Eucalyptus L'Hér.; 
2010,2010-06-15,Porto,Paços de Ferreira,Meixomil,LUGAR DA LAMEIRA (Lugar de Vila),41.2842631,-8.3921962,NC,286.0,2010-06-15T13:00,20.1,43,7.1,17.1,0.0,0.0,0.0,0.0,2,1017.4,984.2,51,4,79,0,0.44,1.34,18.8,25.9,29,29,45.0,20.1,16.6,16.0,13.2,0.295,0.331,0.313,0.379,1,3600.0,651.4,297.3,354.1,314.0,651.4,1255.0,653.0,298.0,355.0,314.0,653.0,1258.1,,,,,,,,,,,,,,,,,,,,,,,,,,,,,,,,,,,,,,,,,,,,,,,,,,,,,,,Eucalyptus L'Hér.; Quercus L.; Tracheophyta; Magnoliopsida; Pinus pinaster Aiton; 
2010,2010-07-25,Porto,Paredes,Duas Igrejas,SANTO ANTONIO (LORDELO),41.230974,-8.3772602,NC,332.0,2010-07-25T18:00,31.3,29,11.0,30.6,0.0,0.0,0.0,0.0,0,1014.9,977.9,0,0,0,0,0.32,3.26,7.1,9.9,330,341,15.8,33.2,25.1,20.5,16.3,0.093,0.16,0.249,0.352,1,3600.0,304.7,245.2,59.5,713.1,304.7,455.9,384.0,309.0,75.0,713.1,384.0,574.4,,,,,,,,,,,,,,,,,,,,,,,,,,,,,,,,,,,,,,,,,,,,,,,,,,,,,,,Magnoliopsida; Pinus pinaster Aiton; Eucalyptus L'Hér.; Tracheophyta; Vitis vinifera L.
2010,2010-07-12,Aveiro,Albergaria-a-Velha,Albergaria-a-Velha,Assilhó,40.690328,-8.479538190307041,Desconhecida,121.0,2010-07-12T09:00,18.4,67,12.2,17.3,0.0,0.0,0.0,0.0,2,1019.5,1005.2,62,62,0,20,0.24,0.69,12.0,15.2,327,329,26.6,21.9,22.7,22.0,17.1,0.069,0.107,0.166,0.276,1,3600.0,444.4,257.5,186.9,396.7,444.4,859.1,390.0,226.0,164.0,396.7,390.0,754.0,,,,,,,,,,,,,,,,,,,,,,,,,,,,,,,,,,,,,,,,,,,,,,,,,,,,,,,Tracheophyta; Eucalyptus L'Hér.
2010,2010-07-27,Porto,TROFA,Muro,LG. VILARES (Facho de Santana),41.3010941,-8.5941379,NC,119.0,2010-07-27T16:00,34.4,26,12.2,34.6,0.0,0.0,0.0,0.0,0,1013.1,999.8,0,0,0,0,0.62,4.02,10.2,12.6,321,323,17.6,37.6,27.7,21.9,17.7,0.105,0.15,0.233,0.351,1,3600.0,664.8,576.3,88.5,853.5,664.8,895.5,729.0,632.0,97.0,853.5,729.0,982.0,,,,,,,,,,,,,,,,,,,,,,,,,,,,,,,,,,,,,,,,,,,,,,,,,,,,,,,Tracheophyta; Eucalyptus L'Hér.; Magnoliopsida
2010,2010-07-06,Porto,Santo Tirso,Guimarei,LG. MONTE (Lugar do Monte),41.2999527,-8.4792107,NC,202.0,2010-07-06T04:00,23.1,63,15.6,23.6,0.0,0.0,0.0,0.0,0,1017.4,994.0,0,0,0,0,0.04,1.05,9.1,22.2,56,82,24.5,22.7,25.0,20.2,15.3,0.13,0.181,0.262,0.366,0,0.0,0.0,0.0,0.0,0.0,0.0,0.0,0.0,0.0,0.0,0.0,0.0,0.0,,,,,,,,,,,,,,,,,,,,,,,,,,,,,,,,,,,,,,,,,,,,,,,,,,,,,,,Pinus pinaster Aiton; Magnoliopsida; Eucalyptus L'Hér.; Vitis vinifera L.; Tracheophyta
2010,2010-07-11,Lisboa,ODIVELAS,Pontinha,URMEIRA (SAMORA CORREIA),38.7670657,-9.1996189,Desconhecida,96.0,2010-07-11T02:00,17.8,83,15.0,15.8,0.0,0.0,0.0,0.0,0,1018.4,1007.0,7,8,0,0,0.04,0.34,25.4,39.8,353,354,38.5,19.9,23.6,22.2,17.9,0.121,0.188,0.258,0.341,0,0.0,0.0,0.0,0.0,0.0,0.0,0.0,0.0,0.0,0.0,0.0,0.0,0.0,,,,,,,,,,,,,,,,,,,,,,,,,,,,,,,,,,,,,,,,,,,,,,,,,,,,,,,Pinus pinea L.; Olea europaea L.; Tracheophyta; Magnoliopsida; 
2010,2010-06-30,Viana do Castelo,Ponte da Barca,Touvedo (São Lourenço),Romão,41.8053823,-8.367698,Desconhecida,90.0,2010-06-30T13:00,29.9,47,17.4,33.8,0.0,0.0,0.0,0.0,0,1017.7,1007.4,0,0,0,0,0.69,2.23,7.5,8.7,287,287,23.4,31.1,23.2,19.6,15.0,0.148,0.228,0.306,0.371,1,3600.0,935.1,802.2,132.9,849.6,935.1,1249.5,936.0,803.0,133.0,849.6,936.0,1250.7,,,,,,,,,,,,,,,,,,,,,,,,,,,,,,,,,,,,,,,,,,,,,,,,,,,,,,,Eucalyptus L'Hér.; Pinus pinaster Aiton; Tracheophyta; Magnoliopsida; Vitis vinifera L.
2010,2010-06-16,Lisboa,Amadora,Falagueira,QUINTA LAGE (Avenida da Quinta Grande),38.7613137,-9.2259842,Desconhecida,127.0,2010-06-16T13:00,22.2,49,10.9,21.4,0.0,0.0,0.0,0.0,0,1017.4,1002.6,0,0,0,0,0.6,1.38,21.7,27.6,339,343,37.1,25.1,19.6,18.3,16.2,0.193,0.23,0.287,0.349,1,3600.0,982.0,861.1,120.9,896.4,982.0,1273.1,983.0,862.0,121.0,896.4,983.0,1274.5,,,,,,,,,,,,,,,,,,,,,,,,,,,,,,,,,,,,,,,,,,,,,,,,,,,,,,,Tracheophyta; 
2010,2010-06-17,Lisboa,Vila Franca de Xira,Vialonga,VARIANTE (JUNTO PINGO DOCE) (VIALONGA),38.8735511,-9.0785504,Desconhecida,60.0,2010-06-17T01:00,15.5,83,12.7,13.7,0.0,0.0,0.0,0.0,0,1015.8,1008.6,0,0,0,0,0.02,0.3,18.3,31.9,345,349,31.3,17.4,20.9,19.1,16.6,0.14,0.221,0.294,0.359,0,0.0,0.0,0.0,0.0,0.0,0.0,0.0,0.0,0.0,0.0,0.0,0.0,0.0,,,,,,,,,,,,,,,,,,,,,,,,,,,,,,,,,,,,,,,,,,,,,,,,,,,,,,,Tracheophyta; Magnoliopsida; Pinus pinea L.; Olea europaea L.; Pinus pinaster Aiton; Pinales; 
2010,2010-07-10,Castelo Branco,Belmonte,Caria,Ponte de Santa Ana (Ponte da Capinha),40.32660535,-7.35626122035179,Desconhecida,473.0,2010-07-10T18:00,32.6,28,12.0,31.0,0.0,0.0,0.0,0.0,0,1016.2,964.1,0,0,0,0,0.41,3.51,15.0,20.9,314,316,35.6,34.5,28.0,22.4,15.6,0.113,0.189,0.253,0.368,1,3600.0,310.6,248.5,62.1,708.5,310.6,464.1,390.0,312.0,78.0,708.5,390.0,582.7,,,,,,,,,,,,,,,,,,,,,,,,,,,,,,,,,,,,,,,,,,,,,,,,,,,,,,,Magnoliopsida; Tracheophyta; Olea europaea L.; Vitis vinifera L.; Quercus L.; Castanea sativa Mill.; Pinus pinaster Aiton; Acacia Mill.; Quercus suber L.; Pinales; Eucalyptus L'Hér.; 
2010,2010-06-26,Porto,Amarante,Gondar,Vila Seca,41.2490072,-8.0269415,NC,176.0,2010-06-26T10:00,24.8,70,19.0,28.4,0.0,0.0,0.0,0.0,1,1014.9,994.7,21,0,0,71,0.43,0.92,2.5,2.9,278,270,15.8,25.8,21.3,18.6,14.6,0.234,0.25,0.304,0.374,1,3600.0,693.2,497.9,195.3,623.1,693.2,1057.7,639.0,459.0,180.0,623.1,639.0,975.0,,,,,,,,,,,,,,,,,,,,,,,,,,,,,,,,,,,,,,,,,,,,,,,,,,,,,,,Magnoliopsida; Tracheophyta; Eucalyptus L'Hér.; Vitis vinifera L.; Quercus L.; Pinus pinaster Aiton; Pinus pinea L.; 
2010,2010-07-12,Aveiro,Santa Maria da Feira,Guisande,Vizo,40.9754617,-8.4845179,Desconhecida,218.0,2010-07-12T12:00,21.3,54,11.6,22.4,0.0,0.0,0.0,0.0,0,1019.7,994.3,7,1,0,19,0.56,1.17,10.5,12.5,311,314,27.0,27.8,22.3,21.3,16.3,0.119,0.136,0.211,0.335,1,3600.0,942.7,815.5,127.2,872.0,942.7,1237.5,919.0,795.0,124.0,872.0,919.0,1206.5,,,,,,,,,,,,,,,,,,,,,,,,,,,,,,,,,,,,,,,,,,,,,,,,,,,,,,,Eucalyptus L'Hér.; Tracheophyta; Pinales
2010,2010-07-18,Porto,Penafiel,Rio de Moinhos,Ribeiro,41.1118322,-8.2707967,Desconhecida,202.0,2010-07-18T03:00,16.8,80,13.4,16.9,0.0,0.0,0.0,0.0,0,1018.4,994.5,0,0,0,0,0.0,0.37,6.6,16.2,45,53,18.4,18.0,22.2,20.6,16.6,0.118,0.181,0.27,0.361,0,0.0,0.0,0.0,0.0,0.0,0.0,0.0,0.0,0.0,0.0,0.0,0.0,0.0,,,,,,,,,,,,,,,,,,,,,,,,,,,,,,,,,,,,,,,,,,,,,,,,,,,,,,,Eucalyptus L'Hér.; Tracheophyta; Magnoliopsida; Vitis vinifera L.
2010,2010-07-11,Setúbal,Montijo,Canha,FOROS DA ARRIÇA (Foros da Boa Vista),38.7535018,-8.6205179,NC,60.0,2010-07-11T13:00,32.7,27,11.2,33.2,0.0,0.0,0.0,0.0,0,1016.7,1009.9,0,0,0,0,0.82,3.62,15.5,19.7,329,332,38.5,39.0,26.8,24.6,19.1,0.045,0.071,0.131,0.207,1,3600.0,985.9,870.9,115.0,911.9,985.9,1263.8,986.0,871.0,115.0,911.9,986.0,1263.9,,,,,,,,,,,,,,,,,,,,,,,,,,,,,,,,,,,,,,,,,,,,,,,,,,,,,,,Quercus suber L.; Eucalyptus L'Hér.; Pinus pinea L.; Tracheophyta; Vitis vinifera L.; Magnoliopsida; Pinus pinaster Aiton; Olea europaea L.; 
2010,2010-07-11,Viana do Castelo,Caminha,Vile,Cruzeiro,41.812946,-8.8348599,Desconhecida,32.0,2010-07-11T09:00,20.3,79,16.6,21.4,0.0,0.0,0.0,0.0,0,1019.3,1015.5,16,18,0,0,0.27,0.49,8.2,10.3,322,331,18.0,23.9,22.6,21.8,17.0,0.087,0.191,0.279,0.364,1,3600.0,537.3,370.0,167.3,573.8,537.3,853.1,472.0,325.0,147.0,573.8,472.0,749.5,,,,,,,,,,,,,,,,,,,,,,,,,,,,,,,,,,,,,,,,,,,,,,,,,,,,,,,Tracheophyta; Magnoliopsida; Eucalyptus L'Hér.; Pinus pinaster Aiton
2010,2010-07-11,Porto,Paços de Ferreira,Ferreira,CRUZ FERREIRA (Cruz),41.3283171,-8.3485526,NC,386.0,2010-07-11T11:00,23.8,56,14.6,25.8,0.0,0.0,0.0,0.0,0,1018.9,974.8,0,0,0,0,0.55,1.28,8.2,10.0,308,308,25.2,27.3,21.7,20.4,14.6,0.126,0.184,0.273,0.363,1,3600.0,889.4,781.9,107.5,887.5,889.4,1165.8,844.0,742.0,102.0,887.5,844.0,1106.3,,,,,,,,,,,,,,,,,,,,,,,,,,,,,,,,,,,,,,,,,,,,,,,,,,,,,,,Eucalyptus L'Hér.; Tracheophyta; Magnoliopsida; Quercus L.; Pinus pinaster Aiton; ; Acacia Mill.; Quercus suber L.
2010,2010-07-25,Porto,Baião,Baião (santa Leocádia),Pedregal _ Mesquinhata,41.1164267,-8.0922211,Desconhecida,298.0,2010-07-25T19:00,30.7,34,13.2,30.9,0.0,0.0,0.0,0.0,0,1014.2,980.9,0,0,0,0,0.17,2.9,5.8,13.2,330,338,18.7,31.2,25.4,20.8,16.7,0.102,0.165,0.255,0.357,1,3600.0,121.1,87.2,33.9,558.0,121.1,207.2,193.0,139.0,54.0,558.0,193.0,330.2,,,,,,,,,,,,,,,,,,,,,,,,,,,,,,,,,,,,,,,,,,,,,,,,,,,,,,,Magnoliopsida; Tracheophyta; Vitis vinifera L.; Eucalyptus L'Hér.
2010,2010-06-26,Porto,Paços de Ferreira,Codessos,RUA DE PAREDES (Rua do Comércio),41.3299878,-8.3478794,NC,382.0,2010-06-26T11:00,23.8,67,17.2,27.1,0.0,0.0,0.0,0.0,1,1014.8,971.3,32,8,0,84,0.49,0.99,3.9,4.3,292,294,17.6,25.8,20.1,17.1,13.2,0.159,0.242,0.303,0.373,1,3600.0,782.3,545.7,236.6,611.9,782.3,1180.4,744.0,519.0,225.0,611.9,744.0,1122.6,,,,,,,,,,,,,,,,,,,,,,,,,,,,,,,,,,,,,,,,,,,,,,,,,,,,,,,Magnoliopsida; Eucalyptus L'Hér.; Pinus pinaster Aiton; Tracheophyta; Quercus suber L.; ; Quercus L.; Acacia Mill.
2010,2010-06-26,Porto,Gondomar,Baguim Do Monte (rio Tinto),RUA DA PRIMAVERA (Rua de João de Deus),41.18562705,-8.5415098,NC,122.0,2010-06-26T15:00,25.8,64,18.4,27.8,0.0,0.0,0.0,0.0,0,1013.6,999.6,18,0,0,59,0.49,1.21,14.0,17.5,305,307,25.9,29.3,22.6,18.9,15.1,0.146,0.22,0.284,0.372,1,3600.0,681.6,481.9,199.8,586.6,681.6,1087.3,720.0,509.0,211.0,586.6,720.0,1148.5,,,,,,,,,,,,,,,,,,,,,,,,,,,,,,,,,,,,,,,,,,,,,,,,,,,,,,,Magnoliopsida; Tracheophyta
2010,2010-07-08,Porto,Gondomar,Lomba,LOMBA,41.069751,-8.413069579777137,NC,12.0,2010-07-08T02:00,22.0,91,20.4,25.3,0.2,0.2,0.0,0.0,51,1013.3,1011.9,31,8,4,72,0.0,0.25,5.5,4.5,238,209,28.8,24.7,27.3,22.3,17.0,0.135,0.171,0.256,0.368,0,0.0,0.0,0.0,0.0,0.0,0.0,0.0,0.0,0.0,0.0,0.0,0.0,0.0,,,,,,,,,,,,,,,,,,,,,,,,,,,,,,,,,,,,,,,,,,,,,,,,,,,,,,,Magnoliopsida; Eucalyptus L'Hér.; Vitis vinifera L.; Pinus pinaster Aiton; Tracheophyta; 
2010,2010-06-27,Braga,Celorico de Basto,Codeçoso,ATERRO SANITÁRIO (CODEÇOSO) (São Clemente),41.34099565,-8.023161860676737,NC,275.0,2010-06-27T01:00,19.3,89,17.5,21.2,0.0,0.0,0.0,0.0,0,1014.3,982.3,0,0,0,0,0.0,0.24,5.8,5.7,112,108,8.6,18.7,21.6,18.2,14.0,0.223,0.247,0.303,0.374,0,0.0,0.0,0.0,0.0,0.0,0.0,0.0,0.0,0.0,0.0,0.0,0.0,0.0,,,,,,,,,,,,,,,,,,,,,,,,,,,,,,,,,,,,,,,,,,,,,,,,,,,,,,,Pinus pinaster Aiton; Eucalyptus L'Hér.; Magnoliopsida; Tracheophyta
2010,2010-07-11,Coimbra,Coimbra,Arzila,entre pereira e arzila (Entre vales),40.1835971,-8.5531446,Desconhecida,40.0,2010-07-11T16:00,25.9,51,15.1,25.7,0.0,0.0,0.0,0.0,1,1017.8,1013.2,26,0,0,88,0.52,1.63,19.7,25.5,310,312,38.2,34.2,24.6,21.9,17.4,0.048,0.065,0.106,0.225,1,3600.0,679.2,582.3,96.9,835.5,679.2,922.3,743.0,637.0,106.0,835.5,743.0,1008.9,,,,,,,,,,,,,,,,,,,,,,,,,,,,,,,,,,,,,,,,,,,,,,,,,,,,,,,Tracheophyta; Eucalyptus L'Hér.; Pinus pinaster Aiton; Magnoliopsida
2010,2010-07-25,Viana do Castelo,Viana do Castelo,Geraz Do Lima (santa Maria),SANTA BARBARA (Estrada de Santa Luzia),41.7071247,-8.680829,Desconhecida,35.0,2010-07-25T13:00,28.6,40,13.8,30.5,0.0,0.0,0.0,0.0,0,1017.0,1013.0,0,0,0,0,0.69,2.33,10.6,13.0,350,6,23.0,33.2,23.7,21.2,17.8,0.087,0.172,0.262,0.356,1,3600.0,943.8,835.7,108.1,904.2,943.8,1225.2,943.0,835.0,108.0,904.2,943.0,1224.2,,,,,,,,,,,,,,,,,,,,,,,,,,,,,,,,,,,,,,,,,,,,,,,,,,,,,,,Eucalyptus L'Hér.; Vitis vinifera L.; Pinus pinaster Aiton; Olea europaea L.; Tracheophyta
2010,2010-07-12,Lisboa,Mafra,Milharado,ROUSSADA,38.9127427,-9.1807023,Desconhecida,198.0,2010-07-12T15:00,23.8,48,12.1,23.4,0.0,0.0,0.0,0.0,0,1018.7,995.8,0,0,0,0,0.58,1.53,18.8,24.0,317,319,42.8,32.0,24.2,22.3,17.8,0.091,0.177,0.252,0.343,1,3600.0,839.2,731.3,108.0,880.7,839.2,1098.9,886.0,772.0,114.0,880.7,886.0,1160.1,,,,,,,,,,,,,,,,,,,,,,,,,,,,,,,,,,,,,,,,,,,,,,,,,,,,,,,Tracheophyta; Magnoliopsida; Pinus pinaster Aiton; Eucalyptus L'Hér.
2010,2010-07-12,Porto,Marco de Canaveses,Vila Boa do Bispo,Lamoso,41.1332787,-8.2097194,NC,208.0,2010-07-12T03:00,15.1,93,14.0,15.8,0.0,0.0,0.0,0.0,3,1019.0,994.2,100,100,0,55,0.0,0.11,4.2,5.8,290,292,13.7,18.9,23.1,21.6,16.1,0.13,0.193,0.281,0.367,0,0.0,0.0,0.0,0.0,0.0,0.0,0.0,0.0,0.0,0.0,0.0,0.0,0.0,,,,,,,,,,,,,,,,,,,,,,,,,,,,,,,,,,,,,,,,,,,,,,,,,,,,,,,Tracheophyta; Pinus pinaster Aiton; Vitis vinifera L.; Quercus L.; Eucalyptus L'Hér.; Magnoliopsida; Acacia Mill.; 
2010,2010-07-28,Braga,Vila Nova de Famalicão,Vale (são Martinho),MONTE DE SANTA CRISTINA (VALE S. MARTINHO) (Aldeia do Monte),41.4262929,-8.4816433,NC,136.0,2010-07-28T16:00,33.9,29,13.4,34.3,0.0,0.0,0.0,0.0,0,1015.2,1000.0,0,0,0,0,0.62,3.75,11.3,13.9,279,280,27.7,36.7,27.8,22.1,17.5,0.116,0.146,0.224,0.35,1,3600.0,663.3,574.9,88.4,857.1,663.3,889.6,728.0,631.0,97.0,857.1,728.0,976.5,,,,,,,,,,,,,,,,,,,,,,,,,,,,,,,,,,,,,,,,,,,,,,,,,,,,,,,Eucalyptus L'Hér.; Magnoliopsida; Tracheophyta; Pinus pinaster Aiton
2010,2010-07-26,Setúbal,Alcácer do Sal,Comporta,Comenda - Herdade da Comporta,38.3803765,-8.7859968,Desconhecida,8.0,2010-07-26T13:00,36.9,16,7.1,38.3,0.0,0.0,0.0,0.0,0,1010.8,1009.9,0,0,0,0,0.76,5.24,4.2,7.1,31,45,18.4,46.4,29.0,24.7,21.0,0.04,0.068,0.121,0.226,1,3600.0,973.7,861.6,112.1,913.3,973.7,1250.8,973.0,861.0,112.0,913.3,973.0,1249.9,,,,,,,,,,,,,,,,,,,,,,,,,,,,,,,,,,,,,,,,,,,,,,,,,,,,,,,Pinus pinaster Aiton; Pinus pinea L.; Eucalyptus L'Hér.; Magnoliopsida; Oryza sativa L.; Tracheophyta; Pinales; 
2010,2010-06-24,Porto,Gondomar,Jovim,LUGAR DAS QUINTAS (Lugar Cheio),41.1069301,-8.5093383,NC,165.0,2010-06-24T20:00,21.1,69,15.3,22.2,0.0,0.0,0.0,0.0,0,1014.1,994.9,1,0,2,0,0.04,0.77,4.8,4.9,297,306,13.0,23.6,22.7,18.3,14.8,0.171,0.23,0.285,0.376,1,2374.69,7.7,4.1,3.6,46.6,6.0,18.8,55.0,29.0,26.0,221.5,55.0,133.8,,,,,,,,,,,,,,,,,,,,,,,,,,,,,,,,,,,,,,,,,,,,,,,,,,,,,,,Eucalyptus L'Hér.; Vitis vinifera L.; Tracheophyta; Magnoliopsida
2010,2010-07-09,Santarém,Santarém,Almoster,QUINTA DA MATINHA - CASAL DA CHARNECA (Beco do Quintal D'El Rei),39.2406452,-8.7930064,NC,30.0,2010-07-09T18:00,25.7,51,14.7,23.9,0.0,0.0,0.0,0.0,0,1019.4,1015.9,0,0,0,0,0.35,1.62,23.0,31.6,331,333,45.7,31.4,27.7,23.9,18.2,0.099,0.172,0.247,0.327,1,3600.0,328.0,261.4,66.6,714.6,328.0,484.1,409.0,326.0,83.0,714.6,409.0,603.6,,,,,,,,,,,,,,,,,,,,,,,,,,,,,,,,,,,,,,,,,,,,,,,,,,,,,,,Olea europaea L.; Tracheophyta; Magnoliopsida
2010,2010-07-13,Setúbal,Seixal,Aldeia de Paio Pires,JTO ESTAÇAO COINA (CORROIOS),38.6119995,-9.07313725926883,NC,5.0,2010-07-13T15:00,24.6,59,16.0,25.4,0.0,0.0,0.0,0.0,0,1014.7,1014.1,7,8,0,0,0.55,1.28,19.6,25.3,283,287,36.4,32.9,24.6,22.9,19.1,0.053,0.075,0.126,0.232,1,3600.0,820.8,700.6,120.2,844.7,820.8,1097.7,867.0,740.0,127.0,844.7,867.0,1159.5,,,,,,,,,,,,,,,,,,,,,,,,,,,,,,,,,,,,,,,,,,,,,,,,,,,,,,,Tracheophyta; Magnoliopsida; Pinus pinaster Aiton
2010,2010-07-13,Porto,Felgueiras,Rande,Boavista,41.3308088,-8.2277133,NC,214.0,2010-07-13T20:00,18.0,71,12.8,17.6,0.0,0.0,0.0,0.0,0,1014.0,988.9,16,18,0,0,0.05,0.59,8.9,14.8,284,284,27.4,22.4,22.9,21.0,15.9,0.139,0.175,0.261,0.362,1,2149.26,1.4,0.8,0.6,8.8,1.0,3.2,52.0,29.0,23.0,230.0,52.0,119.6,,,,,,,,,,,,,,,,,,,,,,,,,,,,,,,,,,,,,,,,,,,,,,,,,,,,,,,Magnoliopsida; Tracheophyta; Eucalyptus L'Hér.; Vitis vinifera L.
2010,2010-07-13,Setúbal,Santiago do Cacém,Santo André,BAIRRO 400 FOGOS (Bairro Alto),38.0619858,-8.7855011,Desconhecida,21.0,2010-07-13T23:00,18.1,88,16.0,17.7,0.0,0.0,0.0,,0,1015.4,1012.9,2,2,0,0,0.01,0.26,16.6,25.3,318,320,28.4,19.9,23.6,22.6,19.9,0.04,0.061,0.101,0.17,0,0.0,0.0,0.0,0.0,0.0,0.0,0.0,0.0,0.0,0.0,0.0,0.0,0.0,,,,,,,,,,,,,,,,,,,,,,,,,,,,,,,,,,,,,,,,,,,,,,,,,,,,,,,Pinus pinea L.; Pinus pinaster Aiton; Magnoliopsida; Quercus suber L.; Tracheophyta; Oryza sativa L.; Eucalyptus L'Hér.; Vitis vinifera L.; 
2010,2010-07-18,Braga,Celorico de Basto,Gémeos,L. VILAR (GEMEOS) (Lugar de Vilar),41.388259,-8.000059,NC,226.0,2010-07-18T13:00,30.9,37,14.7,34.3,0.0,0.0,0.0,0.0,0,1018.5,993.0,0,0,0,0,0.72,2.8,5.2,6.1,245,242,15.8,33.5,23.1,20.7,16.4,0.105,0.179,0.267,0.36,1,3600.0,961.5,849.6,111.9,909.3,961.5,1237.1,962.0,850.0,112.0,909.3,962.0,1237.8,,,,,,,,,,,,,,,,,,,,,,,,,,,,,,,,,,,,,,,,,,,,,,,,,,,,,,,Tracheophyta; Pinus pinaster Aiton; Magnoliopsida; Pinales; Vitis vinifera L.
2010,2010-07-27,Braga,Celorico de Basto,Ourilhe,GUINBRA (OURILHE) (São Clemente),41.388259,-8.000059,NC,226.0,2010-07-27T21:00,30.3,35,13.2,30.7,0.0,0.0,0.0,0.0,0,1014.4,989.0,0,0,0,0,0.04,2.81,4.3,6.8,360,357,13.0,29.1,27.7,21.9,17.2,0.093,0.161,0.25,0.353,0,0.0,0.0,0.0,0.0,0.0,0.0,0.0,0.0,0.0,0.0,0.0,0.0,0.0,,,,,,,,,,,,,,,,,,,,,,,,,,,,,,,,,,,,,,,,,,,,,,,,,,,,,,,Tracheophyta; Pinus pinaster Aiton; Magnoliopsida; Pinales; Vitis vinifera L.
2010,2010-07-25,Porto,Maia,Milheirós,MONTE PENEDO,41.22856675,-8.577173703796115,NC,121.0,2010-07-25T13:00,32.2,26,10.5,33.8,0.0,0.0,0.0,0.0,0,1016.4,1002.8,0,0,0,0,0.73,3.55,7.0,9.2,55,59,18.4,33.4,24.3,21.2,17.6,0.12,0.154,0.238,0.356,1,3600.0,950.4,843.4,107.1,909.6,950.4,1229.1,950.0,843.0,107.0,909.6,950.0,1228.5,,,,,,,,,,,,,,,,,,,,,,,,,,,,,,,,,,,,,,,,,,,,,,,,,,,,,,,Tracheophyta; Magnoliopsida; Eucalyptus L'Hér.; 
2010,2010-07-27,Porto,Marco de Canaveses,Paredes de Viadores,LUG. CIMO DE VILA (Lança Vila),41.1349745,-8.1251255,NC,308.0,2010-07-27T21:00,30.2,35,12.9,30.5,0.0,0.0,0.0,0.0,0,1014.4,979.9,0,0,0,0,0.04,2.79,4.3,6.8,360,357,13.0,28.2,27.0,21.3,16.8,0.1,0.16,0.25,0.355,0,0.0,0.0,0.0,0.0,0.0,0.0,0.0,0.0,0.0,0.0,0.0,0.0,0.0,,,,,,,,,,,,,,,,,,,,,,,,,,,,,,,,,,,,,,,,,,,,,,,,,,,,,,,Magnoliopsida; Pinus pinaster Aiton; Eucalyptus L'Hér.; Tracheophyta; Vitis vinifera L.; 
2010,2010-06-27,Braga,Vila Verde,Cervães,ILHÔ (CERVAES) (Ilhô),41.594017750000006,-8.521835250843868,NC,92.0,2010-06-27T17:00,27.2,58,18.3,29.2,0.0,0.0,0.0,0.0,1,1015.4,1004.8,20,1,18,29,0.31,1.51,7.3,9.8,340,343,23.4,28.2,23.2,18.8,14.8,0.16,0.235,0.305,0.372,1,3600.0,350.7,231.8,118.9,424.7,350.7,722.2,401.0,265.0,136.0,424.7,401.0,825.8,,,,,,,,,,,,,,,,,,,,,,,,,,,,,,,,,,,,,,,,,,,,,,,,,,,,,,,Pinus pinaster Aiton; Eucalyptus L'Hér.; Magnoliopsida; Tracheophyta
2010,2010-07-18,Aveiro,Santa Maria da Feira,Romariz,Duas Igrejas,40.9556613,-8.4689201,Desconhecida,294.0,2010-07-18T15:00,30.2,40,14.9,31.6,0.0,0.0,0.0,0.0,0,1018.7,985.6,0,0,0,0,0.67,2.59,13.0,15.3,289,289,29.9,33.7,23.4,20.3,16.4,0.113,0.169,0.259,0.36,1,3600.0,817.6,715.4,102.2,880.8,817.6,1075.6,864.0,756.0,108.0,880.8,864.0,1136.6,,,,,,,,,,,,,,,,,,,,,,,,,,,,,,,,,,,,,,,,,,,,,,,,,,,,,,,Eucalyptus L'Hér.; Tracheophyta; Olea europaea L.; Pinales
2010,2010-06-24,Porto,Gondomar,São Pedro da Cova,LUGAR SERRA DE PIAS (Lugar Cheio),41.1473685,-8.5074154,NC,78.0,2010-06-24T22:00,19.4,85,16.8,21.4,0.0,0.0,0.0,0.0,0,1014.7,1005.5,1,0,1,0,0.0,0.35,2.7,1.8,293,270,11.9,21.6,23.0,18.9,15.4,0.171,0.23,0.285,0.376,0,0.0,0.0,0.0,0.0,0.0,0.0,0.0,0.0,0.0,0.0,0.0,0.0,0.0,,,,,,,,,,,,,,,,,,,,,,,,,,,,,,,,,,,,,,,,,,,,,,,,,,,,,,,Magnoliopsida; Eucalyptus L'Hér.; Tracheophyta; Vitis vinifera L.; Pinus pinaster Aiton
2010,2010-06-25,Viana do Castelo,Caminha,Moledo,Cruzinha,41.8471637,-8.8602371,Desconhecida,33.0,2010-06-25T13:00,23.3,67,16.8,26.0,0.0,0.0,0.0,0.0,0,1014.4,1010.6,19,6,10,25,0.55,0.94,11.1,12.2,234,223,19.1,28.9,21.7,18.5,15.3,0.136,0.245,0.305,0.373,1,3600.0,882.1,742.3,139.9,785.4,882.1,1251.1,883.0,743.0,140.0,785.4,883.0,1252.3,,,,,,,,,,,,,,,,,,,,,,,,,,,,,,,,,,,,,,,,,,,,,,,,,,,,,,,Pinus pinaster Aiton; Eucalyptus L'Hér.; Tracheophyta
2010,2010-07-26,Aveiro,Santa Maria da Feira,Santa Maria de Lamas,R. Relva da Mata (Relva da Mata),40.9794526,-8.5715712,Desconhecida,124.0,2010-07-26T00:00,25.1,54,15.0,25.2,0.0,0.0,0.0,0.0,0,1014.2,999.9,0,0,0,0,0.07,1.48,10.9,23.2,56,62,20.9,25.1,26.5,21.7,17.9,0.09,0.127,0.198,0.326,0,0.0,0.0,0.0,0.0,0.0,0.0,0.0,0.0,0.0,0.0,0.0,0.0,0.0,,,,,,,,,,,,,,,,,,,,,,,,,,,,,,,,,,,,,,,,,,,,,,,,,,,,,,,Eucalyptus L'Hér.; Magnoliopsida; Tracheophyta; Pinus pinaster Aiton
2010,2010-06-30,Guarda,Mêda,Prova,PROVA,40.9138687,-7.3420571,Natural,692.0,2010-06-30T14:00,29.6,31,10.9,30.2,0.0,0.0,0.0,0.0,0,1017.5,941.6,18,0,30,0,0.62,2.84,8.2,10.3,241,241,23.0,30.1,22.2,17.9,13.0,0.21,0.222,0.273,0.329,1,3600.0,778.4,596.7,181.7,660.9,778.4,1194.7,801.0,614.0,187.0,660.9,801.0,1229.4,,,,,,,,,,,,,,,,,,,,,,,,,,,,,,,,,,,,,,,,,,,,,,,,,,,,,,,Tracheophyta; Pinus pinaster Aiton; Quercus L.; Olea europaea L.; Castanea sativa Mill.; Magnoliopsida; Pinales; Vitis vinifera L.; 
2010,2010-07-27,Porto,Gondomar,Jovim,LG. FEITEIRA (FANZERES),41.119341,-8.50547,NC,95.0,2010-07-27T22:00,26.8,57,17.7,28.8,0.0,0.0,0.0,0.0,0,1014.5,1003.6,0,0,0,0,0.03,1.51,5.6,12.6,50,31,12.6,28.1,28.5,22.4,18.1,0.115,0.142,0.219,0.354,0,0.0,0.0,0.0,0.0,0.0,0.0,0.0,0.0,0.0,0.0,0.0,0.0,0.0,,,,,,,,,,,,,,,,,,,,,,,,,,,,,,,,,,,,,,,,,,,,,,,,,,,,,,,Pinus pinaster Aiton; Eucalyptus L'Hér.; Tracheophyta; Magnoliopsida
2010,2010-07-21,Braga,Fafe,Aboim,BARBEITA (ABOIM) (Barbeita de Baixo),41.5426227,-8.0873358,NC,685.0,2010-07-21T18:00,20.2,48,8.9,17.9,0.0,0.0,0.0,0.0,1,1011.7,934.7,29,0,0,95,0.26,1.22,13.2,18.7,317,320,34.6,25.0,21.9,18.7,14.4,0.125,0.197,0.283,0.366,1,3600.0,289.8,201.4,88.4,580.8,289.8,459.5,364.0,253.0,111.0,580.8,364.0,577.1,,,,,,,,,,,,,,,,,,,,,,,,,,,,,,,,,,,,,,,,,,,,,,,,,,,,,,,Magnoliopsida; Tracheophyta
2010,2010-07-15,Porto,Paços de Ferreira,Frazão,RUA DOS LOREIROS (Rua do Comércio),41.2615463,-8.4087418,NC,298.0,2010-07-15T13:00,21.7,48,10.3,22.7,0.0,0.0,0.0,0.0,0,1018.0,983.6,0,0,0,0,0.6,1.35,10.2,12.6,288,290,29.5,27.7,20.6,20.4,15.7,0.116,0.176,0.264,0.36,1,3600.0,962.8,847.8,115.0,903.5,962.8,1242.1,963.0,848.0,115.0,903.5,963.0,1242.4,,,,,,,,,,,,,,,,,,,,,,,,,,,,,,,,,,,,,,,,,,,,,,,,,,,,,,,Eucalyptus L'Hér.; Tracheophyta; Magnoliopsida; Vitis vinifera L.; 
2010,2010-07-15,Porto,Paredes,Cete,ALTO MONTE (Alto),41.1807678,-8.357963,Desconhecida,191.0,2010-07-15T14:00,22.4,47,10.5,23.2,0.0,0.0,0.0,0.0,0,1018.1,995.9,0,0,0,0,0.6,1.44,11.4,14.1,288,289,32.8,28.1,21.4,20.9,16.3,0.146,0.158,0.243,0.362,1,3600.0,920.5,811.4,109.1,902.9,920.5,1189.6,945.0,833.0,112.0,902.9,945.0,1221.3,,,,,,,,,,,,,,,,,,,,,,,,,,,,,,,,,,,,,,,,,,,,,,,,,,,,,,,Magnoliopsida; Pinus pinaster Aiton; Eucalyptus L'Hér.; Tracheophyta; Vitis vinifera L.
2010,2010-07-25,Setúbal,Seixal,Aldeia de Paio Pires,BRR DA CUCENA - QT GALEGA (CORROIOS),38.6119995,-9.07313725926883,NC,5.0,2010-07-25T14:00,34.2,22,9.5,34.9,0.0,0.0,0.0,0.0,0,1013.7,1013.1,0,0,0,0,0.79,4.21,10.8,12.0,300,316,20.9,41.2,26.3,22.7,19.9,0.053,0.07,0.118,0.228,1,3600.0,934.4,826.3,108.2,914.1,934.4,1198.3,959.0,848.0,111.0,914.1,959.0,1229.8,,,,,,,,,,,,,,,,,,,,,,,,,,,,,,,,,,,,,,,,,,,,,,,,,,,,,,,Tracheophyta; Magnoliopsida; Pinus pinaster Aiton
2010,2010-07-11,Viana do Castelo,Caminha,Vilarelho,Morno,41.8646734,-8.8307122,Desconhecida,26.0,2010-07-11T17:00,21.2,73,16.2,21.3,0.0,0.0,0.0,0.0,1,1018.2,1015.1,31,2,0,98,0.32,0.68,13.7,17.7,297,299,28.8,29.5,24.4,21.8,17.0,0.085,0.19,0.278,0.364,1,3600.0,469.6,317.4,152.2,584.0,469.6,719.3,537.0,363.0,174.0,584.0,537.0,822.5,,,,,,,,,,,,,,,,,,,,,,,,,,,,,,,,,,,,,,,,,,,,,,,,,,,,,,,Eucalyptus L'Hér.; Tracheophyta; Magnoliopsida; Pinus pinaster Aiton
2010,2010-07-31,Castelo Branco,Covilhã,São Jorge da Beira,SÃO JORGE DA BEIRA,40.16167,-7.796648,Desconhecida,884.0,2010-07-31T13:00,30.6,30,11.1,31.5,0.0,0.0,0.0,0.0,0,1012.6,917.6,0,0,0,0,0.74,3.08,11.8,14.5,230,228,34.2,36.4,26.5,22.1,16.2,0.094,0.157,0.243,0.351,1,3600.0,951.0,845.1,105.9,914.6,951.0,1226.5,952.0,846.0,106.0,914.6,952.0,1227.7,,,,,,,,,,,,,,,,,,,,,,,,,,,,,,,,,,,,,,,,,,,,,,,,,,,,,,,Magnoliopsida; Tracheophyta; Pinus pinaster Aiton
2010,2010-07-10,Setúbal,Palmela,Pinhal Novo,ESTRADA NACIONAL 252 - APÓS ACESSO A 12 (Estrada dos Espanhóis),38.630096,-8.9128319,NC,39.0,2010-07-10T12:00,29.9,37,13.8,30.2,0.0,0.0,0.0,0.0,0,1019.0,1014.5,0,0,0,0,0.74,2.64,19.5,25.5,344,347,37.8,33.9,25.2,22.7,18.4,0.056,0.061,0.102,0.212,1,3600.0,971.5,852.4,119.1,899.5,971.5,1254.0,946.0,830.0,116.0,899.5,946.0,1221.1,,,,,,,,,,,,,,,,,,,,,,,,,,,,,,,,,,,,,,,,,,,,,,,,,,,,,,,Vitis vinifera L.; Magnoliopsida; Olea europaea L.; Tracheophyta
2010,2010-07-10,Aveiro,Vale de Cambra,Vila Cova de Perrinho,Teamonde,40.870178,-8.399674,Desconhecida,288.0,2010-07-10T14:00,27.6,48,15.4,28.7,0.0,0.0,0.0,0.0,0,1019.9,987.2,0,0,0,0,0.67,1.93,18.3,23.2,317,318,41.4,31.7,24.1,21.5,16.0,0.127,0.192,0.282,0.366,1,3600.0,919.6,808.5,111.1,894.2,919.6,1196.4,944.0,830.0,114.0,894.2,944.0,1228.2,,,,,,,,,,,,,,,,,,,,,,,,,,,,,,,,,,,,,,,,,,,,,,,,,,,,,,,Eucalyptus L'Hér.; Pinus pinaster Aiton; Tracheophyta
2010,2010-07-11,Porto,Maia,Folgosa,R. DA PENA (Rua da Pena),41.2665781,-8.540036,NC,188.0,2010-07-11T00:00,16.8,91,15.3,17.4,0.0,0.0,0.0,0.0,0,1020.5,998.2,7,0,0,23,0.0,0.17,7.9,11.4,336,342,16.6,20.0,23.9,21.3,15.9,0.144,0.167,0.251,0.363,0,0.0,0.0,0.0,0.0,0.0,0.0,0.0,0.0,0.0,0.0,0.0,0.0,0.0,,,,,,,,,,,,,,,,,,,,,,,,,,,,,,,,,,,,,,,,,,,,,,,,,,,,,,,Magnoliopsida; Eucalyptus L'Hér.; Tracheophyta; Pinus pinaster Aiton; 
2010,2010-07-21,Vila Real,Valpaços,Santa Maria de Emeres,LUGAR DO SEIXO,41.5447948,-7.3809587,NC,566.0,2010-07-21T21:00,19.4,44,6.7,16.8,0.0,0.0,0.0,0.0,1,1013.1,948.7,29,0,0,97,0.09,1.27,12.2,21.9,341,346,30.6,22.7,24.1,20.5,15.3,0.143,0.167,0.227,0.358,0,0.0,0.0,0.0,0.0,0.0,0.0,0.0,0.0,0.0,0.0,0.0,0.0,0.0,,,,,,,,,,,,,,,,,,,,,,,,,,,,,,,,,,,,,,,,,,,,,,,,,,,,,,,Olea europaea L.; Magnoliopsida; Tracheophyta; Vitis vinifera L.
2010,2010-07-15,Aveiro,Santa Maria da Feira,Arrifana,Romariz - Calvalhal (ROMARIZ),40.91239985,-8.495619894173418,Desconhecida,257.0,2010-07-15T15:00,21.6,47,9.8,20.9,0.0,0.0,0.0,0.0,0,1018.3,988.5,0,0,0,0,0.54,1.37,15.9,19.5,303,304,34.9,28.0,21.5,20.8,16.4,0.124,0.165,0.252,0.36,1,3600.0,815.9,712.7,103.2,874.1,815.9,1079.4,862.0,753.0,109.0,874.1,862.0,1140.4,,,,,,,,,,,,,,,,,,,,,,,,,,,,,,,,,,,,,,,,,,,,,,,,,,,,,,,Tracheophyta; Eucalyptus L'Hér.
2010,2010-07-15,Setúbal,Grândola,Azinheira Dos Barros E São Mamede Do Sádão,MOITINHA - AZINHEIRA DE BARROS (Monte da Moitinha),38.0720293,-8.4186807,Desconhecida,87.0,2010-07-15T14:00,27.9,27,7.4,26.7,0.0,0.0,0.0,0.0,0,1016.8,1006.8,0,0,0,0,0.75,2.73,18.9,24.3,318,320,40.3,32.8,24.3,23.7,19.0,0.093,0.12,0.17,0.25,1,3600.0,959.9,844.1,115.9,923.5,959.9,1209.9,986.0,867.0,119.0,923.5,986.0,1242.8,,,,,,,,,,,,,,,,,,,,,,,,,,,,,,,,,,,,,,,,,,,,,,,,,,,,,,,Tracheophyta; Olea europaea L.; Quercus rotundifolia Lam.; Quercus suber L.; Magnoliopsida
2010,2010-07-27,Braga,Guimarães,Calvos,RUA DE SOBREIROS (CALVOS) (CASTELÕES),41.404291,-8.244651427697441,NC,316.0,2010-07-27T19:00,31.9,32,13.0,32.0,0.0,0.0,0.0,0.0,0,1013.9,978.8,0,0,0,0,0.17,3.24,5.6,11.8,285,293,19.1,33.0,27.2,21.3,16.6,0.098,0.153,0.241,0.348,1,3600.0,117.8,84.8,33.0,552.8,117.8,203.4,189.0,136.0,53.0,552.8,189.0,326.3,,,,,,,,,,,,,,,,,,,,,,,,,,,,,,,,,,,,,,,,,,,,,,,,,,,,,,,Vitis vinifera L.; Tracheophyta; Eucalyptus L'Hér.; Magnoliopsida
2010,2010-07-06,Porto,Paços de Ferreira,Meixomil,R. PARQUE (MEIXOMIL),41.29029805,-8.39087970179239,NC,287.0,2010-07-06T13:00,32.2,32,13.4,34.6,0.0,0.0,0.0,0.0,0,1017.5,985.4,0,0,0,0,0.75,3.28,7.9,9.9,120,123,28.4,34.1,25.1,20.0,14.7,0.1,0.193,0.278,0.366,1,3600.0,958.3,845.4,112.9,895.1,958.3,1249.6,959.0,846.0,113.0,895.1,959.0,1250.5,,,,,,,,,,,,,,,,,,,,,,,,,,,,,,,,,,,,,,,,,,,,,,,,,,,,,,,Eucalyptus L'Hér.; Quercus L.; Tracheophyta; Magnoliopsida; Pinus pinaster Aiton; 
2010,2010-07-06,Braga,Vila Nova de Famalicão,Vale (são Martinho),CRUZ DE PÊLO (VALE S. MARTINHO) (Cruz),41.4262929,-8.4816433,Desconhecida,136.0,2010-07-06T13:00,33.0,32,14.1,36.6,0.0,0.0,0.0,0.0,0,1017.3,1002.0,0,0,0,0,0.72,3.43,3.2,5.0,117,120,20.9,33.7,25.6,20.5,15.5,0.127,0.184,0.266,0.366,1,3600.0,954.4,840.4,113.9,890.6,954.4,1248.6,955.0,841.0,114.0,890.6,955.0,1249.5,,,,,,,,,,,,,,,,,,,,,,,,,,,,,,,,,,,,,,,,,,,,,,,,,,,,,,,Eucalyptus L'Hér.; Magnoliopsida; Tracheophyta; Pinus pinaster Aiton
2010,2010-08-01,Braga,Barcelos,Fragoso,COSTA(FRAGOSO) (Costa),41.61011045,-8.69673001318574,NC,90.0,2010-08-01T07:00,19.6,78,15.6,19.0,0.0,0.0,0.0,0.0,0,1014.1,1003.5,0,0,0,0,0.09,0.51,17.8,24.5,352,357,28.4,21.6,25.4,22.9,18.0,0.098,0.148,0.23,0.343,1,3600.0,176.0,111.1,64.8,421.2,176.0,350.3,114.0,72.0,42.0,421.2,114.0,227.0,,,,,,,,,,,,,,,,,,,,,,,,,,,,,,,,,,,,,,,,,,,,,,,,,,,,,,,Eucalyptus L'Hér.; Tracheophyta; Pinus pinaster Aiton; Vitis vinifera L.
2010,2010-07-22,Braga,Guimarães,Donim,L. OUTINHOS - DONIM (DONIM),41.5297033,-8.30506908988599,NC,150.0,2010-07-22T00:00,15.7,75,11.2,14.5,0.0,0.0,0.0,0.0,0,1014.4,996.6,0,0,0,0,0.02,0.45,11.0,20.4,337,351,24.8,18.6,22.7,20.8,16.7,0.114,0.172,0.263,0.357,0,0.0,0.0,0.0,0.0,0.0,0.0,0.0,0.0,0.0,0.0,0.0,0.0,0.0,,,,,,,,,,,,,,,,,,,,,,,,,,,,,,,,,,,,,,,,,,,,,,,,,,,,,,,Quercus L.; Eucalyptus L'Hér.; Pinus pinaster Aiton; Magnoliopsida; Tracheophyta; Pinales; Olea europaea L.
2010,2010-07-25,Porto,Penafiel,Duas Igrejas,RUA CENTRAL OUTEIRO (Rua Cerrado do Tanque),41.1864654,-8.2690378,NC,403.0,2010-07-25T16:00,31.8,26,9.7,31.8,0.0,0.0,0.0,0.0,0,1015.4,970.8,0,0,0,0,0.57,3.49,7.2,9.2,18,21,23.8,35.1,24.2,20.1,15.8,0.092,0.162,0.252,0.353,1,3600.0,669.6,581.2,88.4,862.3,669.6,893.6,735.0,638.0,97.0,862.3,735.0,980.8,,,,,,,,,,,,,,,,,,,,,,,,,,,,,,,,,,,,,,,,,,,,,,,,,,,,,,,Eucalyptus L'Hér.; Tracheophyta; Magnoliopsida
2010,2010-07-27,Porto,Valongo,Alfena,RUA LUIS DE CAMÕES (ALFENA),41.22144345,-8.47176603571262,Desconhecida,183.0,2010-07-27T09:00,27.2,38,11.7,24.7,0.0,0.0,0.0,0.0,0,1014.0,993.2,0,0,0,0,0.45,2.23,20.9,28.5,92,93,41.4,27.0,25.5,21.7,17.4,0.105,0.149,0.23,0.351,1,3600.0,582.2,485.8,96.5,780.0,582.2,825.8,507.0,423.0,84.0,780.0,507.0,719.1,,,,,,,,,,,,,,,,,,,,,,,,,,,,,,,,,,,,,,,,,,,,,,,,,,,,,,,Magnoliopsida; Eucalyptus L'Hér.; Tracheophyta; Pinus pinaster Aiton
2010,2010-06-04,Faro,Faro,Faro (são Pedro),Salgados (Salgados do Fialho),37.04770075,-7.945624738917282,Desconhecida,12.0,2010-06-04T19:00,26.4,52,15.8,26.2,0.0,0.0,0.0,0.0,0,1016.7,1015.3,14,0,0,47,0.19,1.64,15.0,21.2,316,318,30.2,28.3,25.8,21.5,17.6,0.132,0.227,0.301,0.321,1,3600.0,96.9,57.8,39.1,428.0,96.9,179.5,166.0,99.0,67.0,428.0,166.0,307.4,,,,,,,,,,,,,,,,,,,,,,,,,,,,,,,,,,,,,,,,,,,,,,,,,,,,,,,Magnoliopsida; Tracheophyta
2010,2010-07-12,Aveiro,Albergaria-a-Velha,Alquerubim,Frias (MACINHATA DO VOUGA),40.6211753,-8.5090385,NC,49.0,2010-07-12T13:00,23.4,47,11.5,24.1,0.0,0.0,0.0,0.0,0,1019.1,1013.4,0,0,0,0,0.62,1.53,13.8,16.8,311,313,33.5,31.1,23.6,22.3,17.4,0.061,0.095,0.148,0.259,1,3600.0,962.9,844.9,118.0,894.4,962.9,1250.1,963.0,845.0,118.0,894.4,963.0,1250.3,,,,,,,,,,,,,,,,,,,,,,,,,,,,,,,,,,,,,,,,,,,,,,,,,,,,,,,Magnoliopsida; Eucalyptus L'Hér.; Tracheophyta; Pinus pinaster Aiton; 
2010,2010-07-27,Lisboa,Sintra,Almargem do Bispo,Albogas,38.8535566,-9.2574424,Desconhecida,226.0,2010-07-27T20:00,23.1,62,15.5,22.6,0.0,0.0,0.0,0.0,0,1012.8,986.8,0,0,0,0,0.1,1.06,16.1,28.0,331,334,38.2,28.3,27.8,22.2,18.6,0.083,0.168,0.24,0.347,0,1249.99,0.0,0.0,0.0,0.0,0.0,0.0,33.0,18.0,15.0,160.4,33.0,90.3,,,,,,,,,,,,,,,,,,,,,,,,,,,,,,,,,,,,,,,,,,,,,,,,,,,,,,,Tracheophyta; Magnoliopsida; Pinus pinaster Aiton; Eucalyptus L'Hér.; Vitis vinifera L.; 
2010,2010-06-16,Porto,Marco de Canaveses,Paços de Gaiolo,QUINTA DO BUZIO (Quinta),41.0968094,-8.113062,NC,105.0,2010-06-16T16:00,22.8,49,11.6,21.3,0.0,0.0,0.0,0.0,0,1016.7,1004.5,4,0,0,12,0.39,1.41,13.6,18.4,12,12,30.6,22.1,18.3,17.0,14.3,0.299,0.33,0.321,0.379,1,3600.0,505.0,329.6,175.3,477.5,505.0,915.0,553.0,361.0,192.0,477.5,553.0,1002.0,,,,,,,,,,,,,,,,,,,,,,,,,,,,,,,,,,,,,,,,,,,,,,,,,,,,,,,Magnoliopsida; Pinus pinaster Aiton; Tracheophyta; Quercus suber L.; Vitis vinifera L.; Eucalyptus L'Hér.; Olea europaea L.; 
2010,2010-06-28,Aveiro,Albergaria-a-Velha,São João de Loure,Loure,40.6383223,-8.5480701,Desconhecida,16.0,2010-06-28T12:00,28.5,55,18.7,31.6,0.0,0.0,0.0,0.0,0,1018.9,1017.1,4,4,0,0,0.63,1.74,13.6,14.3,287,288,25.2,33.3,23.5,20.2,16.3,0.077,0.136,0.168,0.27,1,3600.0,912.8,746.8,166.0,790.4,912.8,1250.5,891.0,729.0,162.0,790.4,891.0,1220.6,,,,,,,,,,,,,,,,,,,,,,,,,,,,,,,,,,,,,,,,,,,,,,,,,,,,,,,Eucalyptus L'Hér.; Magnoliopsida; Tracheophyta; Pinus pinaster Aiton; Acacia Mill.; 
2010,2010-06-10,Setúbal,Montijo,Sarilhos Grandes,ESTRDA DO 4 MARCOS (MONTIJO),38.6765869,-8.9468708,NC,8.0,2010-06-10T20:00,16.7,61,9.2,14.8,0.0,0.0,0.0,0.0,1,1010.9,1009.9,33,23,20,1,0.07,0.74,11.2,18.5,291,294,26.3,18.4,20.1,19.7,16.7,0.157,0.086,0.149,0.219,0,1001.92,0.0,0.0,0.0,0.0,0.0,0.0,31.0,15.0,16.0,125.0,31.0,100.4,,,,,,,,,,,,,,,,,,,,,,,,,,,,,,,,,,,,,,,,,,,,,,,,,,,,,,,Magnoliopsida; Tracheophyta; ; Pinus pinea L.; Quercus suber L.
2010,2010-07-27,Braga,Vila Nova de Famalicão,Gavião,RUA DA CAL(GAVIÃO) (Rua da Cadeia),41.4155375,-8.5188293,NC,105.0,2010-07-27T19:00,31.1,39,15.5,31.9,0.0,0.0,0.0,0.0,0,1013.5,1001.6,0,0,0,0,0.19,2.76,7.4,14.5,313,316,21.2,32.9,28.2,22.0,17.6,0.117,0.147,0.226,0.351,1,3600.0,120.8,86.8,34.0,552.9,120.8,208.3,192.0,138.0,54.0,552.9,192.0,331.0,,,,,,,,,,,,,,,,,,,,,,,,,,,,,,,,,,,,,,,,,,,,,,,,,,,,,,,Tracheophyta
2010,2010-07-12,Porto,Lousada,Lustosa,R. ALDEIA NOVA (Rua Nova),41.3321025,-8.3085374,NC,411.0,2010-07-12T16:00,22.6,55,13.1,22.4,0.0,0.0,0.0,0.0,0,1018.4,971.4,0,0,0,0,0.46,1.23,14.0,18.1,305,305,35.6,28.3,22.5,20.2,14.6,0.124,0.179,0.269,0.36,1,3600.0,656.3,560.3,96.0,812.0,656.3,913.1,718.0,613.0,105.0,812.0,718.0,999.0,,,,,,,,,,,,,,,,,,,,,,,,,,,,,,,,,,,,,,,,,,,,,,,,,,,,,,,Vitis vinifera L.; Eucalyptus L'Hér.; Tracheophyta; Magnoliopsida
2010,2010-06-26,Porto,Valongo,Alfena,SERRA AMARELA (Serra de Pias),41.237635,-8.5277489,NC,91.0,2010-06-26T21:00,21.5,82,18.3,23.3,0.0,0.0,0.0,0.0,0,1014.0,1003.4,0,0,0,1,0.03,0.45,8.4,13.5,317,335,17.6,23.3,23.3,19.2,15.3,0.145,0.219,0.284,0.372,0,0.0,0.0,0.0,0.0,0.0,0.0,0.0,0.0,0.0,0.0,0.0,0.0,1.0,,,,,,,,,,,,,,,,,,,,,,,,,,,,,,,,,,,,,,,,,,,,,,,,,,,,,,,Tracheophyta; Eucalyptus L'Hér.; Pinus pinaster Aiton; Magnoliopsida
2010,2010-07-25,Viana do Castelo,Viana do Castelo,Freixieiro de Soutelo,FREIXIEIRO SOUTELO (FREIXEDO DE SOUTELO),41.7982074,-8.8156383,Desconhecida,53.0,2010-07-25T10:00,25.2,49,13.6,25.8,0.0,0.0,0.0,0.0,0,1018.1,1011.9,0,0,0,0,0.46,1.64,8.8,11.6,19,36,21.2,27.2,22.9,21.3,17.9,0.084,0.174,0.262,0.356,1,3600.0,742.1,637.0,105.1,840.5,742.1,1004.6,678.0,582.0,96.0,840.5,678.0,917.9,,,,,,,,,,,,,,,,,,,,,,,,,,,,,,,,,,,,,,,,,,,,,,,,,,,,,,,Magnoliopsida; Pinus pinaster Aiton; Tracheophyta; Pinales; Eucalyptus L'Hér.
2010,2010-08-01,Braga,Celorico de Basto,Arnóia,CHELO (ARNOIA) (Chelo),41.39054365,-8.006846020187858,NC,220.0,2010-08-01T17:00,29.7,45,16.5,29.9,0.0,0.0,0.0,0.0,0,1013.3,988.5,1,0,0,3,0.45,2.3,14.2,18.8,300,302,31.7,35.0,27.9,23.3,17.7,0.093,0.154,0.241,0.349,1,3600.0,472.7,392.6,80.1,782.2,472.7,666.4,549.0,456.0,93.0,782.2,549.0,774.0,,,,,,,,,,,,,,,,,,,,,,,,,,,,,,,,,,,,,,,,,,,,,,,,,,,,,,,Tracheophyta; Pinus pinaster Aiton; Magnoliopsida
2010,2010-07-07,Aveiro,Santa Maria da Feira,Argoncilhe,Travessa das Casinhas (Travessa da Póvoa),41.0183885,-8.5477254,Desconhecida,225.0,2010-07-07T15:00,30.1,53,19.6,32.5,0.0,0.0,0.0,0.0,1,1013.7,988.4,34,0,10,93,0.51,1.99,12.1,14.2,300,300,25.9,34.9,26.7,20.8,15.8,0.112,0.144,0.219,0.338,1,3600.0,601.3,369.3,232.0,450.2,601.3,1085.4,635.0,390.0,245.0,450.2,635.0,1146.2,,,,,,,,,,,,,,,,,,,,,,,,,,,,,,,,,,,,,,,,,,,,,,,,,,,,,,,Eucalyptus L'Hér.; Magnoliopsida; Tracheophyta; Quercus L.
2010,2010-08-01,Porto,Felgueiras,Friande,BACELO (JUGUEIROS),41.3700363,-8.1792832,NC,364.0,2010-08-01T23:00,19.5,69,13.6,19.7,0.0,0.0,0.0,0.0,0,1015.1,973.0,0,0,0,0,0.02,0.71,6.9,11.5,313,340,14.8,23.1,26.6,22.3,16.8,0.097,0.147,0.23,0.344,0,0.0,0.0,0.0,0.0,0.0,0.0,0.0,0.0,0.0,0.0,0.0,0.0,0.0,,,,,,,,,,,,,,,,,,,,,,,,,,,,,,,,,,,,,,,,,,,,,,,,,,,,,,,Vitis vinifera L.; Tracheophyta; Pinus pinaster Aiton; Eucalyptus L'Hér.; Magnoliopsida
2010,2010-06-28,Viseu,Viseu,Ribafeita,Seganhos,40.7442343,-7.9927486,Desconhecida,480.0,2010-06-28T15:00,27.5,45,14.7,29.2,0.0,0.0,0.0,0.0,0,1018.4,964.6,20,4,27,0,0.53,2.0,6.3,7.7,329,332,17.6,28.7,22.1,18.1,13.8,0.219,0.238,0.293,0.369,1,3600.0,684.7,532.5,152.3,649.4,684.7,1085.0,724.0,563.0,161.0,649.4,724.0,1147.3,,,,,,,,,,,,,,,,,,,,,,,,,,,,,,,,,,,,,,,,,,,,,,,,,,,,,,,Pinus pinaster Aiton; Magnoliopsida
2010,2010-07-25,Aveiro,Santa Maria da Feira,Louredo,São Vicente de Louredo (São Vicente),40.97748135,-8.458567940264139,Desconhecida,201.0,2010-07-25T17:00,32.3,30,12.5,30.8,0.0,0.0,0.0,0.0,0,1014.5,992.0,0,0,0,0,0.53,3.39,16.1,21.5,340,342,29.9,35.2,25.8,21.2,17.4,0.109,0.123,0.188,0.326,1,3600.0,494.7,418.4,76.2,802.6,494.7,691.1,571.0,483.0,88.0,802.6,571.0,797.8,,,,,,,,,,,,,,,,,,,,,,,,,,,,,,,,,,,,,,,,,,,,,,,,,,,,,,,Tracheophyta; Eucalyptus L'Hér.; Magnoliopsida; Quercus L.
2010,2010-07-16,Faro,Olhão,Pechão,Bela Mandil (Bela Curral),37.0442106,-7.8830686,NC,25.0,2010-07-16T15:00,29.7,44,16.0,30.5,0.0,0.0,0.0,0.0,0,1016.8,1013.9,0,0,0,0,0.67,2.34,19.7,25.5,339,341,41.0,34.9,26.7,25.0,20.5,0.106,0.174,0.249,0.311,1,3600.0,819.7,708.4,111.3,860.5,819.7,1089.8,869.0,751.0,118.0,860.5,869.0,1155.4,,,,,,,,,,,,,,,,,,,,,,,,,,,,,,,,,,,,,,,,,,,,,,,,,,,,,,,Magnoliopsida; Tracheophyta; Ceratonia siliqua L.; Pinus pinea L.; 
2010,2010-08-02,Porto,Lousada,Lustosa,Rego,41.3321025,-8.3085374,NC,411.0,2010-08-02T01:00,16.6,79,12.8,16.5,0.0,0.0,0.0,0.0,0,1015.8,968.0,1,1,0,0,0.0,0.41,6.5,9.4,326,342,14.4,20.4,25.7,22.0,16.5,0.097,0.147,0.23,0.344,0,0.0,0.0,0.0,0.0,0.0,0.0,0.0,0.0,0.0,0.0,0.0,0.0,0.0,,,,,,,,,,,,,,,,,,,,,,,,,,,,,,,,,,,,,,,,,,,,,,,,,,,,,,,Vitis vinifera L.; Eucalyptus L'Hér.; Tracheophyta; Magnoliopsida
2010,2010-08-02,Aveiro,Albergaria-a-Velha,Frossos,Frossos - Loure (FROSSOS),40.6594592,-8.53733805126788,Desconhecida,32.0,2010-08-02T03:00,17.7,86,15.3,15.9,0.0,0.0,0.0,0.0,0,1015.3,1011.5,0,0,0,0,0.03,0.29,24.9,37.1,346,348,39.2,19.7,26.1,23.8,19.2,0.065,0.09,0.139,0.258,0,0.0,0.0,0.0,0.0,0.0,0.0,0.0,0.0,0.0,0.0,0.0,0.0,0.0,,,,,,,,,,,,,,,,,,,,,,,,,,,,,,,,,,,,,,,,,,,,,,,,,,,,,,,Eucalyptus L'Hér.; Magnoliopsida; Tracheophyta; Pinus pinaster Aiton; Acacia Mill.; 
2010,2010-07-12,Porto,Vila Nova de Gaia,Grijó,R.MÃE DE ÁGUA (Rego de Água),41.030392250000006,-8.583434430828127,NC,110.0,2010-07-12T14:00,22.8,54,13.0,23.8,0.0,0.0,0.0,0.0,0,1019.0,1006.2,7,5,0,8,0.56,1.28,12.6,15.6,301,304,27.7,31.1,23.5,21.9,17.0,0.096,0.141,0.217,0.334,1,3600.0,869.2,751.3,117.9,832.2,869.2,1194.7,892.0,771.0,121.0,832.2,892.0,1226.1,,,,,,,,,,,,,,,,,,,,,,,,,,,,,,,,,,,,,,,,,,,,,,,,,,,,,,,Magnoliopsida; Tracheophyta; Eucalyptus L'Hér.
2010,2010-08-02,Braga,Fafe,Travassós,L.CHÃ DA SERRA - (TRAVASSOS) (ABOIM),41.4925764,-8.1962009,NC,327.0,2010-08-02T11:00,25.6,49,14.1,27.7,0.0,0.0,0.0,0.0,0,1016.5,979.3,1,1,0,0,0.54,1.68,5.4,7.0,8,12,22.7,29.7,24.7,22.7,17.2,0.096,0.148,0.233,0.345,1,3600.0,835.4,667.3,168.1,785.4,835.4,1128.3,790.0,631.0,159.0,785.4,790.0,1067.0,,,,,,,,,,,,,,,,,,,,,,,,,,,,,,,,,,,,,,,,,,,,,,,,,,,,,,,Tracheophyta; Magnoliopsida; Eucalyptus L'Hér.; Pinales
2010,2010-06-24,Viseu,Armamar,São Cosmado,Casais,41.0636512,-7.6445191,Desconhecida,763.0,2010-06-24T03:00,16.4,95,15.6,17.7,0.0,0.0,0.0,0.0,1,1013.7,927.1,33,23,0,41,0.0,0.09,4.0,7.4,360,23,10.4,16.8,19.5,15.6,12.1,0.199,0.24,0.289,0.376,0,0.0,0.0,0.0,0.0,0.0,0.0,0.0,0.0,0.0,0.0,0.0,0.0,0.0,,,,,,,,,,,,,,,,,,,,,,,,,,,,,,,,,,,,,,,,,,,,,,,,,,,,,,,Magnoliopsida; Vitis vinifera L.; Olea europaea L.; Tracheophyta
2010,2010-07-28,Coimbra,Soure,Samuel,Carcavelos,40.0866221,-8.6936751,Desconhecida,64.0,2010-07-28T07:00,20.6,69,14.6,20.5,0.0,0.0,0.0,0.0,0,1015.5,1008.0,0,0,0,0,0.09,0.76,11.5,19.2,148,154,18.0,20.1,26.1,21.8,18.3,0.049,0.061,0.096,0.215,1,3600.0,182.0,118.8,63.2,442.1,182.0,356.4,118.0,77.0,41.0,442.1,118.0,231.0,,,,,,,,,,,,,,,,,,,,,,,,,,,,,,,,,,,,,,,,,,,,,,,,,,,,,,,Eucalyptus L'Hér.; Magnoliopsida; Olea europaea L.; Pinus pinaster Aiton; Tracheophyta
2010,2010-07-28,Braga,Vieira do Minho,Campos,LAMA LONGA(CAMPOS) (Carvalhas das Lamas de Urzeira),41.67214825,-8.011234117428497,NC,801.0,2010-07-28T09:00,26.4,38,11.0,25.8,0.0,0.0,0.0,0.0,0,1018.9,930.7,0,0,0,0,0.37,2.12,6.0,8.0,107,108,18.7,25.2,22.4,19.2,14.6,0.119,0.197,0.282,0.366,1,3600.0,592.6,498.6,94.0,798.4,592.6,828.4,517.0,435.0,82.0,798.4,517.0,722.7,,,,,,,,,,,,,,,,,,,,,,,,,,,,,,,,,,,,,,,,,,,,,,,,,,,,,,,Magnoliopsida; Tracheophyta
2010,2010-07-22,Braga,Fafe,São Gens,PAREDES(S.GENS) (Paredes),41.4468161,-8.13452635762129,NC,429.0,2010-07-22T11:00,21.9,46,9.6,22.9,0.0,0.0,0.0,0.0,0,1015.5,966.5,13,7,0,21,0.54,1.44,5.5,6.8,11,18,21.2,26.1,20.7,19.9,15.4,0.101,0.166,0.256,0.355,1,3600.0,893.0,779.0,114.0,897.9,893.0,1149.4,846.0,738.0,108.0,897.9,846.0,1089.0,,,,,,,,,,,,,,,,,,,,,,,,,,,,,,,,,,,,,,,,,,,,,,,,,,,,,,,Tracheophyta; Eucalyptus L'Hér.; Magnoliopsida; Pinales
2010,2010-08-02,Braga,Guimarães,Barco,MONTE DA LAGOA (BARCO) (Bouça do Monte),41.4965449,-8.321232731687468,NC,114.0,2010-08-02T12:00,26.9,43,13.4,27.5,0.0,0.0,0.0,0.0,0,1016.4,1003.3,0,0,0,0,0.64,2.01,15.6,19.4,341,345,30.6,31.0,25.1,23.2,17.9,0.097,0.15,0.237,0.347,1,3600.0,916.4,804.4,112.0,889.7,916.4,1200.7,892.0,783.0,109.0,889.7,892.0,1168.7,,,,,,,,,,,,,,,,,,,,,,,,,,,,,,,,,,,,,,,,,,,,,,,,,,,,,,,Magnoliopsida; Pinus pinaster Aiton; Tracheophyta
2010,2010-07-27,Braga,Guimarães,Selho (são Jorge),RUA SOUTO CIMA (SELHO S. JORGE) (Selho (São Jorge)),41.43130945,-8.359123560362331,NC,215.0,2010-07-27T16:00,34.9,23,11.0,35.1,0.0,0.0,0.0,0.0,0,1013.3,989.5,0,0,0,0,0.6,4.27,8.0,10.0,306,311,21.2,37.3,27.0,21.4,16.9,0.103,0.159,0.246,0.351,1,3600.0,664.4,575.1,89.3,855.0,664.4,892.0,729.0,631.0,98.0,855.0,729.0,978.7,,,,,,,,,,,,,,,,,,,,,,,,,,,,,,,,,,,,,,,,,,,,,,,,,,,,,,,Tracheophyta; Eucalyptus L'Hér.; Magnoliopsida
2010,2010-07-27,Braga,Vila Nova de Famalicão,Fradelos,L. PINHEIRO MANSO(FRADELOS) (JOANE),41.3867182,-8.5872799,NC,111.0,2010-07-27T17:00,32.8,33,14.3,32.9,0.0,0.0,0.0,0.0,0,1013.0,1000.5,0,0,0,0,0.48,3.35,9.8,13.0,306,309,24.5,36.1,27.8,21.8,17.6,0.1,0.15,0.234,0.347,1,3600.0,491.1,414.9,76.2,800.8,491.1,687.0,567.0,479.0,88.0,800.8,567.0,793.2,,,,,,,,,,,,,,,,,,,,,,,,,,,,,,,,,,,,,,,,,,,,,,,,,,,,,,,Eucalyptus L'Hér.; Magnoliopsida; Pinus pinaster Aiton; Tracheophyta
2010,2010-07-11,Porto,Paredes,Rebordosa,LUGAR DO MONTE ALTO (Lugar),41.2202567,-8.4112601,NC,216.0,2010-07-11T23:00,16.4,90,14.7,16.7,0.0,0.0,0.0,0.0,2,1019.7,994.1,74,60,0,68,0.0,0.19,8.7,11.2,315,315,19.1,20.2,23.6,21.2,15.8,0.149,0.162,0.248,0.364,0,0.0,0.0,0.0,0.0,0.0,0.0,0.0,0.0,0.0,0.0,0.0,0.0,0.0,,,,,,,,,,,,,,,,,,,,,,,,,,,,,,,,,,,,,,,,,,,,,,,,,,,,,,,Magnoliopsida; Pinus pinaster Aiton; Eucalyptus L'Hér.; Tracheophyta; Vitis vinifera L.
2010,2010-07-22,Setúbal,Moita,Moita,"JUNTO MAXMAT, BREIJOEIRA (GAIO-ROSÁRIO)",38.6750518,-9.0064524,NC,6.0,2010-07-22T15:00,24.7,41,10.4,22.8,0.0,0.0,0.0,0.0,1,1015.2,1014.5,20,0,0,68,0.6,1.85,23.9,31.7,337,339,51.5,28.0,23.6,22.8,20.9,0.183,0.188,0.216,0.277,1,3600.0,816.2,635.6,180.6,775.0,816.2,1086.5,863.0,672.0,191.0,775.0,863.0,1148.8,,,,,,,,,,,,,,,,,,,,,,,,,,,,,,,,,,,,,,,,,,,,,,,,,,,,,,,Tracheophyta; Magnoliopsida
2010,2010-07-12,Porto,Amarante,Oliveira,Rua da Ponte,41.2577063,-8.2015419,Desconhecida,228.0,2010-07-12T15:00,23.1,54,13.3,23.9,0.0,0.0,0.0,0.0,0,1018.5,992.1,6,6,0,2,0.53,1.3,12.4,15.9,296,298,31.7,28.6,22.8,21.0,15.7,0.14,0.177,0.262,0.363,1,3600.0,785.6,653.1,132.5,801.2,785.6,1078.7,830.0,690.0,140.0,801.2,830.0,1139.7,,,,,,,,,,,,,,,,,,,,,,,,,,,,,,,,,,,,,,,,,,,,,,,,,,,,,,,Magnoliopsida; Eucalyptus L'Hér.; Tracheophyta
2010,2010-06-25,Aveiro,Albergaria-a-Velha,Albergaria-a-Velha,FRIAS,40.690328,-8.479538190307041,Desconhecida,121.0,2010-06-25T23:00,18.3,87,16.1,19.9,0.0,0.0,0.0,0.0,0,1014.4,1000.1,1,0,0,2,0.0,0.27,3.0,3.1,284,324,8.6,20.1,23.0,19.2,15.6,0.088,0.159,0.192,0.289,0,0.0,0.0,0.0,0.0,0.0,0.0,0.0,0.0,0.0,0.0,0.0,0.0,0.0,,,,,,,,,,,,,,,,,,,,,,,,,,,,,,,,,,,,,,,,,,,,,,,,,,,,,,,Tracheophyta; Eucalyptus L'Hér.
2010,2010-07-25,Braga,Vila Verde,Marrancos,ARRANHÓ (MARRANCOS) (Arranhó),41.66936215,-8.520924363445054,NC,202.0,2010-07-25T13:00,31.6,32,12.9,32.6,0.0,0.0,0.0,0.0,0,1017.4,994.7,0,0,0,0,0.75,3.16,14.1,18.2,6,18,29.9,33.9,23.6,20.5,16.6,0.101,0.162,0.253,0.353,1,3600.0,940.3,831.3,109.0,899.3,940.3,1225.4,940.0,831.0,109.0,899.3,940.0,1225.0,,,,,,,,,,,,,,,,,,,,,,,,,,,,,,,,,,,,,,,,,,,,,,,,,,,,,,,Eucalyptus L'Hér.; Magnoliopsida; Pinales; Pinus pinaster Aiton; Quercus L.
2010,2010-08-05,Porto,Baião,Mesquinhata,VALEÇAS (Ribas),41.1266006,-8.0914335,Desconhecida,375.0,2010-08-05T19:00,28.3,31,9.4,27.0,0.0,0.0,0.0,0.0,0,1012.2,970.2,0,0,0,0,0.17,2.66,7.9,16.0,330,337,28.1,31.0,26.9,22.9,17.7,0.116,0.138,0.206,0.349,1,3600.0,92.2,64.5,27.7,525.6,92.2,163.1,163.0,114.0,49.0,525.6,163.0,288.3,,,,,,,,,,,,,,,,,,,,,,,,,,,,,,,,,,,,,,,,,,,,,,,,,,,,,,,Magnoliopsida; Tracheophyta
2010,2010-07-27,Braga,Guimarães,Polvoreira,BERREGA (POLVOREIRA) (Berrega),41.4090203,-8.292317199999992,NC,282.0,2010-07-27T21:00,29.6,39,14.2,30.4,0.0,0.0,0.0,0.0,0,1014.6,982.9,0,0,0,0,0.04,2.52,4.2,6.2,340,339,12.6,28.6,27.4,21.4,16.7,0.097,0.154,0.242,0.349,0,0.0,0.0,0.0,0.0,0.0,0.0,0.0,0.0,0.0,0.0,0.0,0.0,0.0,,,,,,,,,,,,,,,,,,,,,,,,,,,,,,,,,,,,,,,,,,,,,,,,,,,,,,,Tracheophyta; Magnoliopsida; Vitis vinifera L.; Pinus pinaster Aiton; Eucalyptus L'Hér.
2010,2010-06-15,Porto,Vila Nova de Gaia,Gulpilhares,RUA PADRE CID (Recanto do Padre Cid),41.0777132,-8.6379721,NC,52.0,2010-06-15T22:00,16.7,68,10.7,12.8,0.0,0.0,0.0,0.0,0,1018.1,1011.9,0,0,0,0,0.09,0.62,28.9,44.3,356,359,47.2,18.1,19.3,17.7,15.1,0.275,0.305,0.306,0.382,0,0.0,0.0,0.0,0.0,0.0,0.0,0.0,0.0,0.0,0.0,0.0,0.0,0.0,,,,,,,,,,,,,,,,,,,,,,,,,,,,,,,,,,,,,,,,,,,,,,,,,,,,,,,Tracheophyta; Magnoliopsida; Eucalyptus L'Hér.
2010,2010-07-25,Braga,Braga,Cunha,L. (CUNHA) (CRESPOS),41.498127800000006,-8.51447295289708,NC,147.0,2010-07-25T15:00,33.0,29,12.3,34.8,0.0,0.0,0.0,0.0,0,1015.7,999.2,0,0,0,0,0.66,3.59,5.4,6.6,340,351,19.8,35.9,25.0,21.0,17.1,0.101,0.157,0.245,0.35,1,3600.0,810.7,711.3,99.3,887.6,810.7,1062.4,857.0,752.0,105.0,887.6,857.0,1123.2,,,,,,,,,,,,,,,,,,,,,,,,,,,,,,,,,,,,,,,,,,,,,,,,,,,,,,,Pinus pinaster Aiton; Eucalyptus L'Hér.; Tracheophyta; Magnoliopsida
2010,2010-07-27,Lisboa,Sintra,Sintra (são Pedro De Penaferrim),VALE FLORES - CASAL  S. JOSE (Azenha do Rio do Vale),38.7693037,-9.393216066576992,Desconhecida,238.0,2010-07-27T22:00,21.9,64,14.7,22.2,0.0,0.0,0.0,0.0,0,1014.5,987.0,1,0,2,0,0.03,0.95,7.9,17.7,330,343,19.1,25.1,27.4,22.2,18.6,0.083,0.168,0.24,0.347,0,0.0,0.0,0.0,0.0,0.0,0.0,0.0,0.0,0.0,0.0,0.0,0.0,0.0,,,,,,,,,,,,,,,,,,,,,,,,,,,,,,,,,,,,,,,,,,,,,,,,,,,,,,,Eucalyptus L'Hér.; Tracheophyta; Pinus pinaster Aiton; Pinales; Magnoliopsida
2010,2010-07-12,Porto,Baião,Gove,L.POUSADA (Pousada),41.1377486,-8.029933,NC,525.0,2010-07-12T11:00,19.6,58,11.2,20.4,0.0,0.0,0.0,0.0,1,1019.6,959.3,22,22,0,6,0.48,0.95,6.9,8.4,276,277,25.6,24.0,21.2,20.0,14.4,0.159,0.195,0.269,0.365,1,3600.0,841.7,662.6,179.1,751.2,841.7,1167.3,799.0,629.0,170.0,751.2,799.0,1108.1,,,,,,,,,,,,,,,,,,,,,,,,,,,,,,,,,,,,,,,,,,,,,,,,,,,,,,,Tracheophyta; Magnoliopsida; Pinales; Eucalyptus L'Hér.; Vitis vinifera L.; Quercus L.; Pinus pinaster Aiton; 
2010,2010-07-29,Braga,Guimarães,Polvoreira,ALIJÓ (POLVOREIRA) (CASTELÕES),41.4090203,-8.292317199999992,NC,282.0,2010-07-29T01:00,25.3,53,14.9,26.5,0.0,0.0,0.0,0.0,0,1016.1,983.9,0,0,0,0,0.01,1.52,2.8,4.4,140,215,5.0,22.8,27.0,21.8,16.8,0.097,0.153,0.24,0.348,0,0.0,0.0,0.0,0.0,0.0,0.0,0.0,0.0,0.0,0.0,0.0,0.0,0.0,,,,,,,,,,,,,,,,,,,,,,,,,,,,,,,,,,,,,,,,,,,,,,,,,,,,,,,Tracheophyta; Magnoliopsida; Vitis vinifera L.; Pinus pinaster Aiton; Eucalyptus L'Hér.
2010,2010-07-29,Porto,Lousada,Lustosa,SERRA DE CAMPELOS (Serra),41.3321025,-8.3085374,NC,411.0,2010-07-29T01:00,24.7,51,13.9,25.5,0.0,0.0,0.0,0.0,0,1016.3,969.7,0,0,0,0,0.01,1.51,3.1,3.2,159,243,8.3,22.2,26.3,21.1,16.1,0.098,0.151,0.238,0.347,0,0.0,0.0,0.0,0.0,0.0,0.0,0.0,0.0,0.0,0.0,0.0,0.0,0.0,,,,,,,,,,,,,,,,,,,,,,,,,,,,,,,,,,,,,,,,,,,,,,,,,,,,,,,Vitis vinifera L.; Eucalyptus L'Hér.; Tracheophyta; Magnoliopsida
2010,2010-07-22,Santarém,Almeirim,Fazendas de Almeirim,FAZENDAS DE ALMEIRIM,39.1760962,-8.5815395,NC,66.0,2010-07-22T17:00,25.2,39,10.3,21.6,0.0,0.0,0.0,0.0,0,1014.3,1006.7,14,0,0,46,0.47,1.95,25.8,34.1,327,329,51.1,30.0,24.4,22.7,18.6,0.168,0.186,0.212,0.331,1,3600.0,493.2,386.7,106.4,733.4,493.2,698.7,570.0,447.0,123.0,733.4,570.0,807.6,,,,,,,,,,,,,,,,,,,,,,,,,,,,,,,,,,,,,,,,,,,,,,,,,,,,,,,Tracheophyta; Vitis vinifera L.; Magnoliopsida
2010,2010-07-28,Porto,Lousada,Macieira,Cavadinha,41.2904579,-8.244309535049862,NC,224.0,2010-07-28T13:00,35.9,22,11.1,37.5,0.0,0.0,0.0,0.0,0,1016.1,991.3,0,0,0,0,0.78,4.59,7.6,9.0,270,272,20.9,36.8,26.1,21.6,17.0,0.111,0.151,0.233,0.352,1,3600.0,947.8,840.8,107.0,912.0,947.8,1222.9,948.0,841.0,107.0,912.0,948.0,1223.2,,,,,,,,,,,,,,,,,,,,,,,,,,,,,,,,,,,,,,,,,,,,,,,,,,,,,,,Vitis vinifera L.; Tracheophyta; Magnoliopsida
2010,2010-07-28,Aveiro,Oliveira de Azeméis,Macieira de Sarnes,Urb. Pedra Branca,40.905214,-8.4654957,Desconhecida,238.0,2010-07-28T13:00,34.1,27,12.4,35.7,0.0,0.0,0.0,0.0,0,1016.2,989.7,0,0,0,0,0.77,3.92,10.1,11.5,270,270,23.4,36.8,26.9,22.0,17.5,0.107,0.146,0.226,0.349,1,3600.0,943.1,836.1,107.0,904.0,943.1,1226.8,943.0,836.0,107.0,904.0,943.0,1226.7,,,,,,,,,,,,,,,,,,,,,,,,,,,,,,,,,,,,,,,,,,,,,,,,,,,,,,,Magnoliopsida; Eucalyptus L'Hér.; Pinus pinaster Aiton; Tracheophyta; Pinales
2010,2010-08-05,Porto,Felgueiras,Vila Cova Da Lixa,Torre,41.3341303,-8.1547431,NC,383.0,2010-08-05T20:00,25.6,34,8.6,23.9,0.0,0.0,0.0,0.0,0,1012.2,969.0,0,0,0,0,0.1,2.16,8.7,17.3,336,348,19.4,28.1,26.2,22.4,17.0,0.09,0.147,0.231,0.344,0,510.23,0.0,0.0,0.0,0.0,0.0,0.0,23.0,12.0,11.0,122.4,23.0,71.9,,,,,,,,,,,,,,,,,,,,,,,,,,,,,,,,,,,,,,,,,,,,,,,,,,,,,,,Pinus pinaster Aiton; Tracheophyta; Vitis vinifera L.; Magnoliopsida; Eucalyptus L'Hér.
2010,2010-07-28,Porto,Santo Tirso,Guimarei,LG DAS ESCOLAS (SANTO TIRSO),41.2999527,-8.4792107,NC,202.0,2010-07-28T14:00,34.3,27,12.5,35.6,0.0,0.0,0.0,0.0,0,1015.7,993.2,0,0,0,0,0.76,3.95,10.9,12.7,276,277,22.7,36.9,26.9,21.8,17.3,0.119,0.143,0.219,0.351,1,3600.0,899.7,796.5,103.2,902.6,899.7,1170.6,924.0,818.0,106.0,902.6,924.0,1202.1,,,,,,,,,,,,,,,,,,,,,,,,,,,,,,,,,,,,,,,,,,,,,,,,,,,,,,,Pinus pinaster Aiton; Magnoliopsida; Eucalyptus L'Hér.; Vitis vinifera L.; Tracheophyta
2010,2010-07-29,Aveiro,Ílhavo,Gafanha da Nazaré,Junto à rotunda do restaurante o Boi,40.6376106,-8.7136614,Desconhecida,4.0,2010-07-29T02:00,21.0,89,19.1,23.9,0.0,0.0,0.0,0.0,0,1015.2,1014.7,0,0,0,0,0.0,0.28,3.8,4.0,319,350,7.6,20.3,28.8,24.0,19.8,0.042,0.076,0.123,0.232,0,0.0,0.0,0.0,0.0,0.0,0.0,0.0,0.0,0.0,0.0,0.0,0.0,0.0,,,,,,,,,,,,,,,,,,,,,,,,,,,,,,,,,,,,,,,,,,,,,,,,,,,,,,,Tracheophyta
2010,2010-07-29,Braga,Fafe,Cepães,SANTIAGO (CEPÃES) (Santiago),41.4319767,-8.202369486699029,NC,311.0,2010-07-29T01:00,25.3,51,14.6,26.4,0.0,0.0,0.0,0.0,0,1016.1,980.7,0,0,0,0,0.01,1.57,2.8,4.4,140,215,5.0,22.9,27.0,21.8,16.7,0.098,0.151,0.238,0.347,0,0.0,0.0,0.0,0.0,0.0,0.0,0.0,0.0,0.0,0.0,0.0,0.0,0.0,,,,,,,,,,,,,,,,,,,,,,,,,,,,,,,,,,,,,,,,,,,,,,,,,,,,,,,Eucalyptus L'Hér.; Tracheophyta; Magnoliopsida; Pinus pinaster Aiton
2010,2010-07-29,Aveiro,Oliveira de Azeméis,Macieira de Sarnes,Urb. da Pedra Branca,40.905214,-8.4654957,Desconhecida,238.0,2010-07-29T11:00,30.6,40,15.5,33.1,0.0,0.0,0.0,0.0,0,1015.0,988.3,2,0,0,7,0.61,2.62,6.4,7.1,313,319,16.6,33.1,25.9,22.3,17.6,0.107,0.146,0.225,0.349,1,3600.0,856.8,747.8,108.9,870.8,856.8,1139.3,810.0,707.0,103.0,870.8,810.0,1077.1,,,,,,,,,,,,,,,,,,,,,,,,,,,,,,,,,,,,,,,,,,,,,,,,,,,,,,,Magnoliopsida; Eucalyptus L'Hér.; Pinus pinaster Aiton; Tracheophyta; Pinales
2010,2010-06-26,Porto,Paredes,Madalena,Bº O SONHO (SOBROSA),41.2038602,-8.324328159111156,Desconhecida,149.0,2010-06-26T22:00,21.7,81,18.3,24.4,0.0,0.0,0.0,0.0,0,1014.3,997.0,0,0,0,0,0.0,0.49,2.8,7.4,320,331,12.6,21.5,22.8,18.7,14.7,0.185,0.238,0.296,0.374,0,0.0,0.0,0.0,0.0,0.0,0.0,0.0,0.0,0.0,0.0,0.0,0.0,0.0,,,,,,,,,,,,,,,,,,,,,,,,,,,,,,,,,,,,,,,,,,,,,,,,,,,,,,,Magnoliopsida; Pinus pinaster Aiton; Eucalyptus L'Hér.; Tracheophyta; Vitis vinifera L.
2010,2010-07-12,Porto,Paços de Ferreira,Ferreira,FERREIRA,41.2663712,-8.3445627,NC,331.0,2010-07-12T12:00,21.2,56,12.2,22.8,0.0,0.0,0.0,0.0,0,1019.5,981.2,9,7,0,10,0.57,1.1,9.0,11.1,293,295,27.0,27.2,21.9,20.7,15.1,0.118,0.182,0.271,0.362,1,3600.0,952.7,832.7,120.0,892.2,952.7,1235.1,929.0,812.0,117.0,892.2,929.0,1204.4,,,,,,,,,,,,,,,,,,,,,,,,,,,,,,,,,,,,,,,,,,,,,,,,,,,,,,,Eucalyptus L'Hér.; Tracheophyta; Magnoliopsida; Quercus L.; Pinus pinaster Aiton; 
2010,2010-07-29,Porto,Marco de Canaveses,Banho e Carvalhosa,MONTE ALCINO QUEIROS (Água do Monte),41.2439665,-8.1556391,NC,277.0,2010-07-29T11:00,31.2,36,14.3,34.4,0.0,0.0,0.0,0.0,0,1015.0,984.0,8,0,0,28,0.58,2.92,0.5,1.0,135,135,16.2,32.6,25.3,21.6,16.8,0.103,0.159,0.246,0.351,1,3600.0,863.4,753.5,109.9,877.8,863.4,1138.9,817.0,713.0,104.0,877.8,817.0,1077.7,,,,,,,,,,,,,,,,,,,,,,,,,,,,,,,,,,,,,,,,,,,,,,,,,,,,,,,Tracheophyta; Pinus pinaster Aiton; Magnoliopsida; Vitis vinifera L.; Eucalyptus L'Hér.; 
2010,2010-07-29,Aveiro,Castelo de Paiva,Fornos,Casal,41.0548278,-8.2575092,Desconhecida,135.0,2010-07-29T08:00,27.1,48,15.1,28.5,0.0,0.0,0.0,0.0,0,1014.7,999.3,5,0,0,18,0.2,1.87,2.6,4.1,34,52,11.2,25.7,25.9,22.6,17.9,0.101,0.158,0.248,0.352,1,3600.0,385.1,300.4,84.7,659.1,385.1,604.5,309.0,241.0,68.0,659.1,309.0,485.1,,,,,,,,,,,,,,,,,,,,,,,,,,,,,,,,,,,,,,,,,,,,,,,,,,,,,,,Eucalyptus L'Hér.; Vitis vinifera L.; Pinus pinaster Aiton; Magnoliopsida; Tracheophyta
2010,2010-06-27,Porto,Gondomar,Valbom,RUA CENTRO REPUBLICANO PADUA CORREIA (VALBOM),41.13757565,-8.562041548825437,NC,77.0,2010-06-27T07:00,19.4,95,18.6,22.4,0.0,0.0,0.0,0.0,1,1015.0,1005.9,49,53,0,3,0.08,0.11,1.9,2.1,22,59,11.9,20.2,21.1,19.2,15.6,0.168,0.227,0.289,0.376,1,3600.0,224.5,141.9,82.6,430.2,224.5,436.4,163.0,103.0,60.0,430.2,163.0,316.9,,,,,,,,,,,,,,,,,,,,,,,,,,,,,,,,,,,,,,,,,,,,,,,,,,,,,,,Tracheophyta; Magnoliopsida; Pinus pinaster Aiton; Eucalyptus L'Hér.
2010,2010-06-27,Viseu,Viseu,Couto de Cima,Sequeiros,40.6744218,-8.0119608,Natural,456.0,2010-06-27T12:00,26.8,54,16.9,31.5,0.0,0.0,0.0,0.0,0,1016.0,964.8,10,6,1,13,0.63,1.6,0.8,1.0,297,315,16.9,28.0,21.3,18.0,13.9,0.23,0.243,0.295,0.37,1,3600.0,919.1,764.5,154.5,808.0,919.1,1252.4,898.0,747.0,151.0,808.0,898.0,1223.6,,,,,,,,,,,,,,,,,,,,,,,,,,,,,,,,,,,,,,,,,,,,,,,,,,,,,,,Pinus pinaster Aiton; Magnoliopsida; Tracheophyta; Eucalyptus L'Hér.
2010,2010-07-25,Viana do Castelo,Ponte de Lima,Labruja,Portelinha,42.0535105,-8.1711599,Desconhecida,1037.0,2010-07-25T21:00,18.8,61,11.0,17.9,0.0,0.0,0.0,0.0,0,1017.5,902.5,0,0,0,0,0.03,0.85,8.0,19.5,27,30,27.0,21.8,21.2,16.9,12.3,0.202,0.286,0.351,0.45,0,0.0,0.0,0.0,0.0,0.0,0.0,0.0,0.0,0.0,0.0,0.0,0.0,0.0,,,,,,,,,,,,,,,,,,,,,,,,,,,,,,,,,,,,,,,,,,,,,,,,,,,,,,,Magnoliopsida; Tracheophyta; Quercus L.
2010,2010-07-19,Porto,Valongo,Alfena,RUA DAO SEBASTIAO (Rua das Tulipas),41.237635,-8.5277489,NC,91.0,2010-07-19T14:00,28.6,51,17.5,30.6,0.0,0.0,0.0,0.0,0,1018.2,1007.8,0,0,0,0,0.67,1.91,18.2,23.2,309,313,34.6,33.0,24.5,21.5,17.4,0.112,0.158,0.244,0.357,1,3600.0,910.0,797.9,112.0,891.6,910.0,1185.2,934.0,819.0,115.0,891.6,934.0,1216.5,,,,,,,,,,,,,,,,,,,,,,,,,,,,,,,,,,,,,,,,,,,,,,,,,,,,,,,Tracheophyta; Eucalyptus L'Hér.; Pinus pinaster Aiton; Magnoliopsida
2010,2010-06-28,Porto,Vila do Conde,Guilhabreu,R. MECA (RIO MAU),41.2945953,-8.6382243,NC,112.0,2010-06-28T15:00,27.6,59,18.9,30.2,0.0,0.0,0.0,0.0,0,1018.2,1005.3,6,0,10,0,0.54,1.51,12.2,15.0,313,316,22.7,31.1,23.5,19.3,15.3,0.134,0.213,0.283,0.371,1,3600.0,714.2,575.9,138.3,700.4,714.2,1088.3,754.0,608.0,146.0,700.4,754.0,1148.9,,,,,,,,,,,,,,,,,,,,,,,,,,,,,,,,,,,,,,,,,,,,,,,,,,,,,,,Tracheophyta; Eucalyptus L'Hér.; Magnoliopsida
2010,2010-07-20,Porto,TROFA,Covelas,COVELAS (Covelos),41.3052617,-8.5315092,NC,152.0,2010-07-20T12:00,23.2,56,13.9,23.7,0.0,0.0,0.0,0.0,0,1016.6,999.0,4,0,0,12,0.55,1.26,17.7,22.5,308,310,36.0,27.6,22.9,21.0,16.9,0.127,0.153,0.236,0.357,1,3600.0,912.6,787.4,125.2,851.6,912.6,1224.6,889.0,767.0,122.0,851.6,889.0,1192.9,,,,,,,,,,,,,,,,,,,,,,,,,,,,,,,,,,,,,,,,,,,,,,,,,,,,,,,Magnoliopsida; Pinus pinaster Aiton; Vitis vinifera L.; Quercus L.; Tracheophyta; Eucalyptus L'Hér.; Olea europaea L.; ; Pinales
2010,2010-07-27,Porto,Amarante,Figueiró (Santa Cristina),L.LAMEIRINHAS (Lameirinhas),41.3017745,-8.1828825,NC,436.0,2010-07-27T23:00,25.6,47,13.4,25.7,0.0,0.0,0.0,0.0,0,1015.2,966.0,0,0,0,0,0.05,1.74,6.5,8.4,84,50,14.0,24.4,26.2,20.7,15.9,0.095,0.155,0.243,0.35,0,0.0,0.0,0.0,0.0,0.0,0.0,0.0,0.0,0.0,0.0,0.0,0.0,0.0,,,,,,,,,,,,,,,,,,,,,,,,,,,,,,,,,,,,,,,,,,,,,,,,,,,,,,,Magnoliopsida; Eucalyptus L'Hér.; Tracheophyta; Vitis vinifera L.
2010,2010-07-25,Porto,Paredes,Sobrosa,R. MONTE (Vinha do Monte),41.2497289,-8.3552315,Desconhecida,315.0,2010-07-25T19:00,29.4,37,13.2,29.6,0.0,0.0,0.0,0.0,0,1014.2,978.9,0,0,0,0,0.17,2.59,5.8,13.2,330,338,18.7,30.2,24.9,20.3,16.3,0.125,0.143,0.222,0.355,1,3600.0,122.0,87.8,34.1,552.6,122.0,210.7,193.0,139.0,54.0,552.6,193.0,333.5,,,,,,,,,,,,,,,,,,,,,,,,,,,,,,,,,,,,,,,,,,,,,,,,,,,,,,,Magnoliopsida; Pinus pinaster Aiton; Eucalyptus L'Hér.; Tracheophyta; Vitis vinifera L.
2010,2010-07-27,Lisboa,Vila Franca de Xira,Cachoeiras,"Rabasco Calçada, Loja Nova",38.9928763,-8.958712778426595,Desconhecida,3.0,2010-07-27T16:00,35.9,28,14.7,36.6,0.0,0.0,0.0,0.0,0,1012.2,1011.9,0,0,0,0,0.66,4.25,13.1,15.9,302,303,32.0,41.6,30.5,24.1,19.6,0.158,0.256,0.32,0.407,1,3600.0,664.8,571.9,92.9,835.6,664.8,907.7,730.0,628.0,102.0,835.6,730.0,996.7,,,,,,,,,,,,,,,,,,,,,,,,,,,,,,,,,,,,,,,,,,,,,,,,,,,,,,,Pinus pinea L.; Magnoliopsida; Tracheophyta; Vitis vinifera L.; Eucalyptus L'Hér.; Olea europaea L.; Pinus pinaster Aiton; 
2010,2010-07-12,Aveiro,Oliveira de Azeméis,Vila de Cucujães,Faria de Cima,40.8768849,-8.5022396,NC,216.0,2010-07-12T14:00,22.8,51,12.2,23.4,0.0,0.0,0.0,0.0,0,1019.2,994.2,1,1,0,1,0.57,1.35,13.6,16.8,310,312,32.0,29.1,22.8,21.5,16.4,0.118,0.169,0.256,0.362,1,3600.0,872.8,763.7,109.1,845.9,872.8,1194.8,896.0,784.0,112.0,845.9,896.0,1226.5,,,,,,,,,,,,,,,,,,,,,,,,,,,,,,,,,,,,,,,,,,,,,,,,,,,,,,,Magnoliopsida; Tracheophyta
2010,2010-07-25,Porto,Vila do Conde,Bagunte,PONTE DAVE (Ponte de Arcos),41.3667967,-8.6601208,NC,95.0,2010-07-25T20:00,27.6,46,15.0,26.5,0.0,0.0,0.0,0.0,0,1014.2,1003.3,0,0,0,0,0.18,2.0,19.1,33.8,360,8,32.8,28.9,25.9,21.2,17.5,0.096,0.153,0.239,0.347,0,1778.52,0.0,0.0,0.0,0.0,0.0,0.0,43.0,25.0,18.0,212.4,43.0,97.4,,,,,,,,,,,,,,,,,,,,,,,,,,,,,,,,,,,,,,,,,,,,,,,,,,,,,,,Eucalyptus L'Hér.; Tracheophyta
2010,2010-06-26,Guarda,Sabugal,Nave,Aldeia da Dona - Marco Geodésico Velho,40.3939769,-6.973551,Natural,815.0,2010-06-26T16:00,25.1,51,14.1,25.3,0.0,0.0,0.0,0.0,1,1013.6,924.0,31,2,21,55,0.39,1.57,7.6,10.2,275,278,20.2,28.4,21.9,17.2,12.7,0.138,0.228,0.3,0.376,1,3600.0,489.0,327.8,161.2,479.1,489.0,905.7,537.0,360.0,177.0,479.1,537.0,994.6,,,,,,,,,,,,,,,,,,,,,,,,,,,,,,,,,,,,,,,,,,,,,,,,,,,,,,,Tracheophyta; Pinus pinaster Aiton; Magnoliopsida; Quercus L.; Vitis vinifera L.; Castanea sativa Mill.; Eucalyptus L'Hér.; Olea europaea L.; Pinales; 
2010,2010-07-05,Setúbal,Seixal,Fernão Ferro,Casal do Sapo,38.554815,-9.0722366,NC,65.0,2010-07-05T09:00,27.9,55,18.1,28.9,0.0,0.0,0.0,0.0,0,1017.5,1010.0,1,1,0,0,0.39,1.69,13.4,17.2,5,16,20.9,29.0,24.9,21.5,18.1,0.053,0.082,0.135,0.236,1,3600.0,588.7,483.5,105.2,740.5,588.7,863.9,515.0,423.0,92.0,740.5,515.0,755.8,,,,,,,,,,,,,,,,,,,,,,,,,,,,,,,,,,,,,,,,,,,,,,,,,,,,,,,Tracheophyta; Magnoliopsida; Pinales; Pinus pinaster Aiton
2010,2010-07-28,Aveiro,Santa Maria da Feira,Sanguedo,Rua Boa Nova (Rua da Espinheira),41.0083552,-8.5188259,Desconhecida,158.0,2010-07-28T00:00,25.0,56,15.7,25.8,0.0,0.0,0.0,0.0,0,1014.5,996.3,0,0,0,0,0.05,1.38,8.1,12.3,69,52,14.0,25.3,28.1,22.1,17.8,0.106,0.121,0.183,0.324,0,0.0,0.0,0.0,0.0,0.0,0.0,0.0,0.0,0.0,0.0,0.0,0.0,0.0,,,,,,,,,,,,,,,,,,,,,,,,,,,,,,,,,,,,,,,,,,,,,,,,,,,,,,,Tracheophyta; Magnoliopsida; Eucalyptus L'Hér.
2010,2010-07-29,Porto,Vila Nova de Gaia,Pedroso,R. RIO (Rua de Além do Rio),41.064143,-8.5572235,NC,131.0,2010-07-29T03:00,22.2,82,19.0,25.3,0.0,0.0,0.0,0.0,0,1015.1,999.9,0,0,0,0,0.0,0.47,2.0,1.0,135,135,7.6,21.5,26.7,22.4,17.9,0.114,0.15,0.233,0.357,0,0.0,0.0,0.0,0.0,0.0,0.0,0.0,0.0,0.0,0.0,0.0,0.0,0.0,,,,,,,,,,,,,,,,,,,,,,,,,,,,,,,,,,,,,,,,,,,,,,,,,,,,,,,Magnoliopsida; Eucalyptus L'Hér.; Tracheophyta
2010,2010-07-29,Aveiro,Aveiro,Eixo,Imediações do Campo de futebol do Azurva,40.6294024,-8.5655405,Desconhecida,14.0,2010-07-29T04:00,21.2,87,19.0,23.9,0.0,0.0,0.0,0.0,0,1014.7,1013.1,0,0,0,0,0.0,0.32,4.3,6.3,5,13,7.2,18.7,28.0,23.5,19.4,0.045,0.069,0.112,0.226,0,0.0,0.0,0.0,0.0,0.0,0.0,0.0,0.0,0.0,0.0,0.0,0.0,0.0,,,,,,,,,,,,,,,,,,,,,,,,,,,,,,,,,,,,,,,,,,,,,,,,,,,,,,,Tracheophyta; Eucalyptus L'Hér.
2010,2010-07-28,Aveiro,Vale de Cambra,Macieira de Cambra,Calvario,40.8592181,-8.3734869,Desconhecida,348.0,2010-07-28T00:00,24.0,55,14.3,24.2,0.0,0.0,0.0,0.0,0,1015.0,975.3,0,0,0,0,0.05,1.35,7.9,10.9,66,56,16.9,24.6,27.0,21.5,17.1,0.099,0.158,0.248,0.353,0,0.0,0.0,0.0,0.0,0.0,0.0,0.0,0.0,0.0,0.0,0.0,0.0,0.0,,,,,,,,,,,,,,,,,,,,,,,,,,,,,,,,,,,,,,,,,,,,,,,,,,,,,,,Eucalyptus L'Hér.; Tracheophyta; Pinus pinaster Aiton
2010,2010-07-25,Porto,Paredes,Vilela,RUA VALE CISAO (LORDELO),41.2434728,-8.3802017,NC,305.0,2010-07-25T22:00,25.3,48,13.6,25.1,0.0,0.0,0.0,0.0,0,1015.0,980.3,0,0,0,0,0.07,1.67,9.4,15.3,47,41,18.4,25.3,25.0,20.4,16.4,0.125,0.143,0.222,0.355,0,0.0,0.0,0.0,0.0,0.0,0.0,0.0,0.0,0.0,0.0,0.0,0.0,0.0,,,,,,,,,,,,,,,,,,,,,,,,,,,,,,,,,,,,,,,,,,,,,,,,,,,,,,,Magnoliopsida; Pinus pinaster Aiton; Eucalyptus L'Hér.; Tracheophyta; Vitis vinifera L.
2010,2010-06-24,Porto,Vila Nova de Gaia,São Félix Da Marinha,Rua das Catazendas,41.0357053,-8.609649,NC,99.0,2010-06-24T03:00,17.3,90,15.6,18.9,0.0,0.0,0.0,0.0,0,1013.5,1001.8,10,1,0,32,0.0,0.2,2.3,2.5,198,188,7.9,17.4,21.6,18.6,15.4,0.132,0.202,0.249,0.345,0,0.0,0.0,0.0,0.0,0.0,0.0,0.0,0.0,0.0,0.0,0.0,0.0,0.0,,,,,,,,,,,,,,,,,,,,,,,,,,,,,,,,,,,,,,,,,,,,,,,,,,,,,,,Tracheophyta; Eucalyptus L'Hér.; Magnoliopsida; Pinales
2010,2010-07-28,Aveiro,Vale de Cambra,Macieira de Cambra,Calvario,40.8592181,-8.3734869,Desconhecida,348.0,2010-07-28T16:00,33.4,30,13.6,33.7,0.0,0.0,0.0,0.0,0,1015.6,977.1,0,0,0,0,0.62,3.58,12.6,15.9,294,295,31.3,37.0,27.4,21.7,17.1,0.099,0.156,0.246,0.352,1,3600.0,662.0,574.6,87.4,854.4,662.0,892.1,727.0,631.0,96.0,854.4,727.0,979.6,,,,,,,,,,,,,,,,,,,,,,,,,,,,,,,,,,,,,,,,,,,,,,,,,,,,,,,Eucalyptus L'Hér.; Tracheophyta; Pinus pinaster Aiton
2010,2010-07-01,Braga,Celorico de Basto,Basto (Santa Tecla),LAMEIRINHOS (BASTO SANTA TECLA) (Lameirinho),41.3857262,-8.047076446852284,NC,300.0,2010-07-01T14:00,27.0,48,15.1,29.2,0.0,0.0,0.0,0.0,1,1014.8,980.8,27,0,0,91,0.64,1.84,10.3,12.5,282,282,28.1,30.3,22.6,19.0,14.2,0.145,0.227,0.296,0.371,1,3600.0,889.7,689.2,200.5,762.2,889.7,1196.4,914.0,708.0,206.0,762.2,914.0,1229.0,,,,,,,,,,,,,,,,,,,,,,,,,,,,,,,,,,,,,,,,,,,,,,,,,,,,,,,Olea europaea L.; Magnoliopsida; Tracheophyta; Pinus pinaster Aiton; Vitis vinifera L.
2010,2010-07-25,Braga,Celorico de Basto,Fervença,MOINHO VEDRO (FERVENÇA) (Alto do Moinho),41.35791315,-8.087527598506348,NC,430.0,2010-07-25T22:00,23.3,52,13.0,23.1,0.0,0.0,0.0,0.0,0,1015.7,966.8,0,0,0,0,0.05,1.37,8.2,13.5,49,42,19.8,24.7,25.0,20.2,15.7,0.096,0.158,0.248,0.352,0,0.0,0.0,0.0,0.0,0.0,0.0,0.0,0.0,0.0,0.0,0.0,0.0,0.0,,,,,,,,,,,,,,,,,,,,,,,,,,,,,,,,,,,,,,,,,,,,,,,,,,,,,,,Vitis vinifera L.; Magnoliopsida; Eucalyptus L'Hér.; Pinus pinaster Aiton; Tracheophyta; Olea europaea L.
2010,2010-07-29,Porto,Gondomar,São Pedro da Cova,LG LAMEIRA (SÃO PEDRO DA COVA),41.146305850000005,-8.513812231973976,NC,128.0,2010-07-29T04:00,23.2,71,17.5,25.4,0.0,0.0,0.0,0.0,0,1014.8,1000.0,0,0,0,1,0.0,0.84,3.2,4.6,117,135,9.0,21.3,26.8,22.6,18.0,0.115,0.141,0.217,0.354,0,0.0,0.0,0.0,0.0,0.0,0.0,0.0,0.0,0.0,0.0,0.0,0.0,0.0,,,,,,,,,,,,,,,,,,,,,,,,,,,,,,,,,,,,,,,,,,,,,,,,,,,,,,,Magnoliopsida; Eucalyptus L'Hér.; Tracheophyta; Vitis vinifera L.; Pinus pinaster Aiton
2010,2010-07-29,Vila Real,Vila Pouca de Aguiar,Tresminas,Vales,41.480132,-7.5179742,NC,719.0,2010-07-29T03:00,18.3,76,14.0,18.7,0.0,0.0,0.0,0.0,0,1016.8,935.2,0,0,0,1,0.01,0.51,6.1,8.0,332,5,13.7,21.3,25.5,20.7,15.5,0.126,0.154,0.231,0.355,0,0.0,0.0,0.0,0.0,0.0,0.0,0.0,0.0,0.0,0.0,0.0,0.0,0.0,,,,,,,,,,,,,,,,,,,,,,,,,,,,,,,,,,,,,,,,,,,,,,,,,,,,,,,Pinus pinaster Aiton; Magnoliopsida; Tracheophyta
2010,2010-07-28,Setúbal,Palmela,Quinta do Anjo,PINHAL DAS FORMAS - JUNTO A AMARSUL (Casal do Pinhal Basto),38.5674568,-8.9418673,NC,95.0,2010-07-28T01:00,23.1,65,16.3,24.4,0.0,0.0,0.0,0.0,0,1014.6,1003.6,19,0,32,0,0.02,0.98,5.8,11.7,270,304,16.2,24.7,28.7,22.9,19.2,0.055,0.059,0.086,0.205,0,0.0,0.0,0.0,0.0,0.0,0.0,0.0,0.0,0.0,0.0,0.0,0.0,0.0,,,,,,,,,,,,,,,,,,,,,,,,,,,,,,,,,,,,,,,,,,,,,,,,,,,,,,,Vitis vinifera L.; Tracheophyta; Olea europaea L.; Quercus suber L.
2010,2010-06-26,Porto,Paredes,Baltar,LG. CRUZEIRO (VILA COVA DE CARROS),41.1914064,-8.3792902,Desconhecida,288.0,2010-06-26T14:00,25.7,59,17.0,28.3,0.0,0.0,0.0,0.0,0,1013.9,981.2,16,0,0,54,0.53,1.37,7.8,9.3,283,283,24.5,27.9,21.3,17.8,13.9,0.181,0.226,0.283,0.374,1,3600.0,738.8,503.2,235.6,555.2,738.8,1199.8,759.0,517.0,242.0,555.2,759.0,1232.6,,,,,,,,,,,,,,,,,,,,,,,,,,,,,,,,,,,,,,,,,,,,,,,,,,,,,,,Magnoliopsida; Pinus pinaster Aiton; Eucalyptus L'Hér.; Tracheophyta; Vitis vinifera L.
2010,2010-07-26,Coimbra,Lousã,Casal de Ermio,CASAL DE ERMIO,40.16040375,-8.247300825958348,Desconhecida,146.0,2010-07-26T13:00,34.8,23,10.5,35.8,0.0,0.0,0.0,0.0,0,1012.9,996.7,0,0,0,0,0.79,4.29,10.2,12.7,58,61,28.8,38.6,26.4,22.1,18.1,0.069,0.095,0.144,0.264,1,3600.0,957.9,848.9,109.0,910.8,957.9,1235.9,958.0,849.0,109.0,910.8,958.0,1236.0,,,,,,,,,,,,,,,,,,,,,,,,,,,,,,,,,,,,,,,,,,,,,,,,,,,,,,,Pinus pinaster Aiton; Tracheophyta; Magnoliopsida; Eucalyptus L'Hér.; Pinales; Acacia Mill.; Quercus L.; Olea europaea L.; 
2010,2010-07-01,Porto,Santo Tirso,Roriz,CHÃOS (Chão de Porcos),41.3515405,-8.3829071,NC,220.0,2010-07-01T16:00,24.7,52,14.1,24.6,0.0,0.0,0.0,0.0,0,1015.2,990.0,8,0,0,25,0.49,1.51,16.2,20.3,302,303,31.0,28.8,23.0,19.2,14.5,0.134,0.218,0.291,0.369,1,3600.0,659.1,535.5,123.6,768.1,659.1,922.4,720.0,585.0,135.0,768.1,720.0,1007.7,,,,,,,,,,,,,,,,,,,,,,,,,,,,,,,,,,,,,,,,,,,,,,,,,,,,,,,Magnoliopsida; Tracheophyta; Vitis vinifera L.; Quercus suber L.
2010,2010-07-07,Braga,Póvoa de Lanhoso,Serzedelo,L.(SERZEDELO) (FRIANDE),41.6178987,-8.2223489,NC,505.0,2010-07-07T23:00,24.4,77,20.1,27.3,0.0,0.0,0.0,0.0,0,1014.2,957.4,10,0,13,8,0.01,0.7,7.2,9.5,96,81,19.8,24.1,25.1,19.5,13.8,0.123,0.212,0.298,0.371,0,0.0,0.0,0.0,0.0,0.0,0.0,0.0,0.0,0.0,0.0,0.0,0.0,0.0,,,,,,,,,,,,,,,,,,,,,,,,,,,,,,,,,,,,,,,,,,,,,,,,,,,,,,,Pinus pinaster Aiton; Magnoliopsida; Tracheophyta; Eucalyptus L'Hér.
2010,2010-07-28,Porto,Gondomar,Melres,LG. BRANZELO (MELRES),41.0678331,-8.4011959,NC,25.0,2010-07-28T01:00,25.1,61,17.1,26.3,0.0,0.0,0.0,0.0,0,1014.1,1011.2,0,0,0,0,0.05,1.24,8.7,12.7,24,35,15.5,25.0,28.4,23.0,18.6,0.115,0.142,0.219,0.354,0,0.0,0.0,0.0,0.0,0.0,0.0,0.0,0.0,0.0,0.0,0.0,0.0,0.0,,,,,,,,,,,,,,,,,,,,,,,,,,,,,,,,,,,,,,,,,,,,,,,,,,,,,,,Eucalyptus L'Hér.; Magnoliopsida; Tracheophyta
2010,2010-07-05,Portalegre,Alter do Chão,Alter do Chão,Serra do Papa Leite,39.2001177,-7.659037,Desconhecida,285.0,2010-07-05T15:00,38.5,18,10.1,38.6,0.0,0.0,0.0,0.0,0,1015.4,984.3,0,0,0,0,0.78,5.55,11.5,15.0,44,44,29.9,38.0,28.6,22.8,17.0,0.152,0.219,0.283,0.358,1,3600.0,817.9,712.1,105.8,867.0,817.9,1086.7,866.0,754.0,112.0,867.0,866.0,1150.6,,,,,,,,,,,,,,,,,,,,,,,,,,,,,,,,,,,,,,,,,,,,,,,,,,,,,,,Olea europaea L.; Tracheophyta
2010,2010-07-25,Setúbal,Setúbal,São Lourenço,R MARGARIDA CAINETA - BREJOS DE AZEITÃO (Gâmbia-Pontes-Alto da Guerra),38.5173977,-9.023164032092405,NC,90.0,2010-07-25T22:00,25.2,46,12.6,23.7,0.0,0.0,0.0,0.0,0,1013.4,1003.0,0,0,0,0,0.13,1.74,15.4,29.6,349,356,27.7,26.2,27.4,23.0,20.0,0.044,0.071,0.121,0.229,0,0.0,0.0,0.0,0.0,0.0,0.0,0.0,0.0,0.0,0.0,0.0,0.0,0.0,,,,,,,,,,,,,,,,,,,,,,,,,,,,,,,,,,,,,,,,,,,,,,,,,,,,,,,Magnoliopsida; Tracheophyta; Quercus suber L.; Pinus pinea L.; Pinus pinaster Aiton; Vitis vinifera L.
2010,2010-07-25,Braga,Braga,Cunha,CARVALHINHO(CUNHA) (Carvalhal),41.498127800000006,-8.51447295289708,NC,147.0,2010-07-25T22:00,25.9,47,13.6,25.7,0.0,0.0,0.0,0.0,0,1014.9,998.0,0,0,0,0,0.08,1.79,9.6,21.9,34,44,21.6,26.4,26.0,21.1,17.1,0.101,0.157,0.244,0.35,0,0.0,0.0,0.0,0.0,0.0,0.0,0.0,0.0,0.0,0.0,0.0,0.0,0.0,,,,,,,,,,,,,,,,,,,,,,,,,,,,,,,,,,,,,,,,,,,,,,,,,,,,,,,Pinus pinaster Aiton; Eucalyptus L'Hér.; Tracheophyta; Magnoliopsida
2010,2010-07-27,Porto,Penafiel,Galegos,Monte,41.1604125,-8.3114028,NC,229.0,2010-07-27T06:00,21.9,47,10.2,19.7,0.0,0.0,0.0,0.0,0,1014.6,988.1,0,0,0,0,0.13,1.38,15.8,32.4,90,90,38.9,21.7,24.7,21.2,16.9,0.113,0.154,0.237,0.353,1,41.78,31.1,14.3,16.7,153.6,14.6,123.8,13.0,6.0,7.0,72.3,13.0,51.8,,,,,,,,,,,,,,,,,,,,,,,,,,,,,,,,,,,,,,,,,,,,,,,,,,,,,,,Eucalyptus L'Hér.; Tracheophyta
2010,2010-07-27,Braga,Guimarães,Polvoreira,L. BERREGA (POLVOREIRA) (CASTELÕES),41.4090203,-8.292317199999992,NC,282.0,2010-07-27T17:00,34.6,24,10.8,34.1,0.0,0.0,0.0,0.0,0,1013.3,982.2,0,0,0,0,0.45,4.2,5.6,6.6,285,292,15.8,36.7,27.0,21.4,16.7,0.097,0.155,0.242,0.349,1,3600.0,489.8,414.5,75.3,804.4,489.8,683.3,566.0,479.0,87.0,804.4,566.0,789.7,,,,,,,,,,,,,,,,,,,,,,,,,,,,,,,,,,,,,,,,,,,,,,,,,,,,,,,Tracheophyta; Magnoliopsida; Vitis vinifera L.; Pinus pinaster Aiton; Eucalyptus L'Hér.
2010,2010-06-26,Aveiro,Santa Maria da Feira,Vale,Granja,40.9798669,-8.4432735,Desconhecida,216.0,2010-06-26T15:00,25.3,63,17.8,27.4,0.6,0.6,0.0,0.0,53,1013.9,989.2,18,3,1,49,0.51,1.19,13.6,16.9,307,310,29.9,28.9,22.4,18.6,14.8,0.177,0.241,0.303,0.375,1,3600.0,726.9,551.8,175.1,671.4,726.9,1087.9,768.0,583.0,185.0,671.4,768.0,1149.4,,,,,,,,,,,,,,,,,,,,,,,,,,,,,,,,,,,,,,,,,,,,,,,,,,,,,,,Magnoliopsida; Tracheophyta; Eucalyptus L'Hér.; Pinales
2010,2010-07-22,Aveiro,Espinho,Anta,Rua das Cassufas (Rua das Duas Freguesias),41.0084406,-8.6215403,Desconhecida,37.0,2010-07-22T23:00,18.6,64,11.8,15.5,0.0,0.0,0.0,0.0,0,1017.8,1013.4,0,0,0,0,0.1,0.77,25.7,40.0,355,358,46.1,20.8,23.8,22.0,18.3,0.095,0.13,0.204,0.328,0,0.0,0.0,0.0,0.0,0.0,0.0,0.0,0.0,0.0,0.0,0.0,0.0,0.0,,,,,,,,,,,,,,,,,,,,,,,,,,,,,,,,,,,,,,,,,,,,,,,,,,,,,,,Eucalyptus L'Hér.; Tracheophyta; Pinus pinaster Aiton; Magnoliopsida
