year,date,district,municipality,parish,local,latitude,longitude,cause,elevation,hourly.time,hourly.temperature_2m,hourly.relative_humidity_2m,hourly.dew_point_2m,hourly.apparent_temperature,hourly.precipitation,hourly.rain,hourly.snowfall,hourly.snow_depth,hourly.weather_code,hourly.pressure_msl,hourly.surface_pressure,hourly.cloud_cover,hourly.cloud_cover_low,hourly.cloud_cover_mid,hourly.cloud_cover_high,hourly.et0_fao_evapotranspiration,hourly.vapour_pressure_deficit,hourly.wind_speed_10m,hourly.wind_speed_100m,hourly.wind_direction_10m,hourly.wind_direction_100m,hourly.wind_gusts_10m,hourly.soil_temperature_0_to_7cm,hourly.soil_temperature_7_to_28cm,hourly.soil_temperature_28_to_100cm,hourly.soil_temperature_100_to_255cm,hourly.soil_moisture_0_to_7cm,hourly.soil_moisture_7_to_28cm,hourly.soil_moisture_28_to_100cm,hourly.soil_moisture_100_to_255cm,hourly.is_day,hourly.sunshine_duration,hourly.shortwave_radiation_instant,hourly.direct_radiation_instant,hourly.diffuse_radiation_instant,hourly.direct_normal_irradiance_instant,hourly.global_tilted_irradiance_instant,hourly.terrestrial_radiation_instant,hourly.shortwave_radiation,hourly.direct_radiation,hourly.diffuse_radiation,hourly.direct_normal_irradiance,hourly.global_tilted_irradiance,hourly.terrestrial_radiation2010,2010-02-14,Porto,Vila Nova de Gaia,Oliveira do Douro,Monte da Virgem,41.11258085,-8.597501604999291,NC,206.0,2010-02-14T17:00,8.1,49,-2.0,3.8,0.0,0.0.1,0.0.2,0.0.3,3,1004.1,979.3,85,0,92,100,0.11,0.55,12.6,21.6,87,93,31.7,7.4,5.6,8.5,11.5,0.371,0.382,0.389,0.411,1,3600.0,128.9,47.4,81.6,253.2,128.9.1,262.6,185.0,68.0,117.0,253.2.1,185.0.1,376.8,scientificNames
2010,2010-07-23,Viana do Castelo,Viana do Castelo,Deocriste,SRª CRASTO (Senhora do Crasto),41.6872738,-8.6939874,Desconhecida,236.0,2010-07-23T03:00,13.9,77,10.0,11.0,0.0,0.0,0.0,0.0,0,1021.0,992.8,0,0,0,0,0.04,0.36,19.6,30.4,20,27,40.7,16.3,20.6,20.1,16.4,0.116,0.166,0.255,0.353,0,0.0,0.0,0.0,0.0,0.0,0.0,0.0,0.0,0.0,0.0,0.0,0.0,0.0,,,,,,,,,,,,,,,,,,,,,,,,,,,,,,,,,,,,,,,,,,,,,,,,,,,,,,,Magnoliopsida; Eucalyptus L'Hér.; Pinus pinaster Aiton
2010,2010-07-31,Porto,Amarante,Freixo de Cima,Alto da Lixa,41.3116144,-8.1353228,NC,400.0,2010-07-31T23:00,21.2,80,17.7,23.3,0.0,0.0,0.0,0.0,0,1014.3,968.5,11,0,19,0,0.0,0.49,4.1,9.5,195,191,11.2,24.2,27.2,22.0,16.5,0.093,0.154,0.242,0.349,0,0.0,0.0,0.0,0.0,0.0,0.0,0.0,0.0,0.0,0.0,0.0,0.0,0.0,,,,,,,,,,,,,,,,,,,,,,,,,,,,,,,,,,,,,,,,,,,,,,,,,,,,,,,Eucalyptus L'Hér.; Tracheophyta; Pinus pinaster Aiton; Magnoliopsida; Vitis vinifera L.; 
2010,2010-07-26,Aveiro,Vale de Cambra,São Pedro de Castelões,Sr da Saude,40.8390621,-8.402303678879736,NC,216.0,2010-07-26T16:00,35.5,23,11.4,35.4,0.0,0.0,0.0,0.0,0,1012.4,988.5,0,0,0,0,0.64,4.44,10.5,14.0,41,48,26.6,37.5,27.1,22.0,17.9,0.096,0.148,0.233,0.345,1,3600.0,666.1,576.8,89.3,852.9,666.1,896.7,731.0,633.0,98.0,852.9,731.0,984.1,,,,,,,,,,,,,,,,,,,,,,,,,,,,,,,,,,,,,,,,,,,,,,,,,,,,,,,Tracheophyta; Eucalyptus L'Hér.
2010,2010-07-26,Porto,Marco de Canaveses,Vila Boa de Quires,LUG. PENA (BANHO E CARVALHOSA),41.2028475,-8.2047635,NC,275.0,2010-07-26T17:00,34.0,24,10.6,33.0,0.0,0.0,0.0,0.0,0,1012.4,982.0,0,0,0,0,0.49,4.05,8.9,11.9,58,61,24.5,34.5,25.6,20.7,16.6,0.104,0.163,0.251,0.353,1,3600.0,490.7,414.5,76.2,801.9,490.7,685.5,567.0,479.0,88.0,801.9,567.0,792.0,,,,,,,,,,,,,,,,,,,,,,,,,,,,,,,,,,,,,,,,,,,,,,,,,,,,,,,Pinus pinaster Aiton; Tracheophyta; Eucalyptus L'Hér.; Magnoliopsida; Vitis vinifera L.; Quercus L.; Pinales; 
2010,2010-07-29,Aveiro,Águeda,Valongo do Vouga,Covão,40.5985506,-8.447881782405853,Desconhecida,72.0,2010-07-29T16:00,33.2,36,16.2,33.8,0.0,0.0,0.0,0.0,0,1013.1,1005.0,0,0,0,0,0.64,3.24,16.7,21.2,307,310,36.0,37.8,29.0,23.7,18.8,0.098,0.144,0.223,0.34,1,3600.0,661.5,572.3,89.2,853.1,661.5,890.1,727.0,629.0,98.0,853.1,727.0,978.2,,,,,,,,,,,,,,,,,,,,,,,,,,,,,,,,,,,,,,,,,,,,,,,,,,,,,,,Eucalyptus L'Hér.; Vitis vinifera L.; Tracheophyta; Pinus pinaster Aiton
2010,2010-07-18,Porto,Santo Tirso,Sequeiró,RUA DA IGREJA (SEQUEIRO),41.365011,-8.45104189048443,NC,75.0,2010-07-18T20:00,23.7,66,17.0,24.9,0.0,0.0,0.0,0.0,0,1018.4,1009.7,0,0,0,0,0.06,1.0,8.9,12.3,297,310,21.2,26.8,25.1,21.1,17.1,0.128,0.16,0.244,0.358,1,2056.42,0.0,0.0,0.0,0.0,0.0,0.0,51.0,29.0,22.0,233.6,51.0,113.7,,,,,,,,,,,,,,,,,,,,,,,,,,,,,,,,,,,,,,,,,,,,,,,,,,,,,,,Magnoliopsida; Tracheophyta; Vitis vinifera L.
2010,2010-07-01,Aveiro,Santa Maria da Feira,Romariz,Reguengo,40.9432485,-8.4589611,Desconhecida,302.0,2010-07-01T17:00,22.5,55,13.0,21.2,0.0,0.0,0.0,0.0,0,1015.6,980.9,4,0,0,15,0.38,1.22,16.0,20.6,314,316,33.5,27.6,23.0,19.2,14.8,0.135,0.202,0.279,0.37,1,3600.0,505.6,398.2,107.4,731.5,505.6,720.3,579.0,456.0,123.0,731.5,579.0,824.9,,,,,,,,,,,,,,,,,,,,,,,,,,,,,,,,,,,,,,,,,,,,,,,,,,,,,,,Eucalyptus L'Hér.; Tracheophyta; Pinales; Magnoliopsida
2010,2010-08-09,Aveiro,Santa Maria da Feira,Mosteiró,Lugar do Monte,40.8968908,-8.529469,Desconhecida,151.0,2010-08-09T14:00,33.3,34,15.4,34.5,0.0,0.0,0.0,0.0,1,1015.8,998.9,23,0,12,54,0.63,3.37,11.3,13.0,297,298,26.6,37.2,27.9,24.1,19.2,0.107,0.138,0.205,0.339,1,3600.0,718.4,467.6,250.8,542.9,718.4,1146.2,739.0,481.0,258.0,542.9,739.0,1179.1,,,,,,,,,,,,,,,,,,,,,,,,,,,,,,,,,,,,,,,,,,,,,,,,,,,,,,,Magnoliopsida; Pinales; Eucalyptus L'Hér.; Tracheophyta; Pinus pinaster Aiton
2010,2010-08-09,Viseu,Viseu,Fragosela,Espadanal,40.6240423,-7.8685856,Desconhecida,434.0,2010-08-09T12:00,32.6,32,13.6,35.1,0.0,0.0,0.0,0.0,1,1016.4,968.5,49,0,34,94,0.57,3.37,0.8,1.3,27,34,16.6,36.6,27.4,24.0,18.3,0.093,0.16,0.242,0.348,1,3600.0,792.8,546.3,246.5,608.2,792.8,1195.2,772.0,532.0,240.0,608.2,772.0,1163.9,,,,,,,,,,,,,,,,,,,,,,,,,,,,,,,,,,,,,,,,,,,,,,,,,,,,,,,Vitis vinifera L.; Magnoliopsida; Acacia Mill.; Pinus pinaster Aiton; Tracheophyta
2010,2010-07-26,Braga,Vieira do Minho,Anjos,L. (ANJOS) (RUIVÃIS),41.5981299,-8.077904615482618,NC,609.0,2010-07-26T15:00,31.5,29,11.1,32.0,0.0,0.0,0.0,0.0,0,1014.7,948.1,0,0,0,0,0.68,3.3,10.9,14.6,81,80,32.8,33.7,23.9,19.5,15.2,0.104,0.175,0.266,0.359,1,3600.0,805.9,709.5,96.4,891.4,805.9,1055.3,853.0,751.0,102.0,891.4,853.0,1117.0,,,,,,,,,,,,,,,,,,,,,,,,,,,,,,,,,,,,,,,,,,,,,,,,,,,,,,,Quercus L.; Pinus pinaster Aiton; Tracheophyta; Olea europaea L.
2010,2010-07-23,Braga,Terras de Bouro,Cibões,PARREIRINHA(CIBÕES) (Parreirinha),41.7431682,-8.280114193907984,NC,382.0,2010-07-23T15:00,27.6,36,11.1,27.6,0.0,0.0,0.0,0.0,0,1021.7,978.5,1,0,0,4,0.65,2.38,14.0,18.5,23,27,38.9,30.7,21.4,19.5,15.7,0.115,0.181,0.273,0.362,1,3600.0,826.7,725.5,101.2,904.7,826.7,1062.6,874.0,767.0,107.0,904.7,874.0,1123.4,,,,,,,,,,,,,,,,,,,,,,,,,,,,,,,,,,,,,,,,,,,,,,,,,,,,,,,Quercus L.; Tracheophyta; Magnoliopsida; Pinus pinaster Aiton
2010,2010-07-26,Viana do Castelo,Viana do Castelo,Vila de Punhe,RUA DAS NEVES (Rua das Águas),41.6569172,-8.7352724,Desconhecida,109.0,2010-07-26T18:00,31.2,38,15.3,30.8,0.0,0.0,0.0,0.0,0,1012.4,1000.1,0,0,0,0,0.38,2.8,14.8,21.0,346,354,29.9,33.2,26.4,21.2,17.4,0.1,0.158,0.247,0.35,1,3600.0,304.1,244.4,59.7,704.8,304.1,459.7,382.0,307.0,75.0,704.8,382.0,577.5,,,,,,,,,,,,,,,,,,,,,,,,,,,,,,,,,,,,,,,,,,,,,,,,,,,,,,,Pinus pinaster Aiton; Tracheophyta; Magnoliopsida; Eucalyptus L'Hér.; Vitis vinifera L.
2010,2010-08-09,Braga,Celorico de Basto,Molares,FERMIL (MOLARES) (Fermil),41.42698715,-7.991702563475057,NC,191.0,2010-08-09T15:00,33.3,35,15.6,34.5,0.0,0.0,0.0,0.0,0,1015.4,994.1,6,0,5,10,0.6,3.35,10.6,13.2,288,287,28.8,37.9,28.3,24.1,18.7,0.093,0.146,0.228,0.342,1,3600.0,662.7,499.9,162.9,651.5,662.7,1021.0,704.0,531.0,173.0,651.5,704.0,1084.6,,,,,,,,,,,,,,,,,,,,,,,,,,,,,,,,,,,,,,,,,,,,,,,,,,,,,,,Pinus pinaster Aiton; Magnoliopsida; Tracheophyta; Vitis vinifera L.
2010,2010-07-31,Porto,Marco de Canaveses,Paços de Gaiolo,BEIRA RIO (Barca da Ribeira),41.1022563,-8.1114297,NC,213.0,2010-07-31T22:00,22.8,76,18.4,25.1,0.0,0.0,0.0,0.0,0,1013.8,989.2,14,0,24,0,0.01,0.67,5.4,10.6,200,198,11.2,25.9,27.8,22.7,17.4,0.102,0.154,0.24,0.349,0,0.0,0.0,0.0,0.0,0.0,0.0,0.0,0.0,0.0,0.0,0.0,0.0,0.0,,,,,,,,,,,,,,,,,,,,,,,,,,,,,,,,,,,,,,,,,,,,,,,,,,,,,,,Magnoliopsida; Pinus pinaster Aiton; Tracheophyta; Quercus suber L.; Vitis vinifera L.; Eucalyptus L'Hér.; Olea europaea L.; 
2010,2010-08-08,Porto,Gondomar,Gondomar (são Cosme),RUA PINHEIRO SAUDADE (FANZERES),41.1548538,-8.5535287,NC,55.0,2010-08-08T13:00,30.4,45,17.1,33.5,0.0,0.0,0.0,0.0,0,1014.7,1008.4,8,0,0,27,0.66,2.39,9.0,10.5,247,243,22.3,34.5,27.0,23.8,19.2,0.113,0.141,0.214,0.346,1,3600.0,874.0,692.0,182.0,766.5,874.0,1201.1,874.0,692.0,182.0,766.5,874.0,1201.0,,,,,,,,,,,,,,,,,,,,,,,,,,,,,,,,,,,,,,,,,,,,,,,,,,,,,,,Magnoliopsida; Tracheophyta; Eucalyptus L'Hér.
2010,2010-07-24,Porto,Gondomar,Lomba,AREIO (Areio da Lomba),41.0617409,-8.4108172,NC,76.0,2010-07-24T10:00,27.5,37,11.5,27.2,0.0,0.0,0.0,0.0,0,1020.6,1011.8,0,0,0,0,0.51,2.32,10.9,13.4,8,24,22.3,26.8,22.9,21.7,17.9,0.116,0.158,0.244,0.357,1,3600.0,754.5,648.4,106.1,846.2,754.5,1015.6,690.0,593.0,97.0,846.2,690.0,928.8,,,,,,,,,,,,,,,,,,,,,,,,,,,,,,,,,,,,,,,,,,,,,,,,,,,,,,,Magnoliopsida; Eucalyptus L'Hér.; Vitis vinifera L.; Pinus pinaster Aiton; Tracheophyta; 
2010,2010-07-26,Lisboa,Alenquer,Carnota,Gavinheira (Santana da Carnota),39.0377246,-9.06827966311609,Desconhecida,175.0,2010-07-26T19:00,32.1,30,12.2,30.3,0.0,0.0,0.0,0.0,0,1009.5,990.0,0,0,0,0,0.3,3.35,16.7,28.8,353,357,32.8,35.5,29.3,23.2,19.3,0.081,0.164,0.235,0.325,1,3600.0,116.8,83.6,33.2,547.0,116.8,202.7,190.0,136.0,54.0,547.0,190.0,329.7,,,,,,,,,,,,,,,,,,,,,,,,,,,,,,,,,,,,,,,,,,,,,,,,,,,,,,,Tracheophyta; Vitis vinifera L.; Eucalyptus L'Hér.; Magnoliopsida; Olea europaea L.
2010,2010-08-09,Aveiro,Mealhada,Barcouço,Areal,40.3326154,-8.493811687074054,Desconhecida,106.0,2010-08-09T13:00,34.7,33,16.1,36.7,0.0,0.0,0.0,0.0,1,1015.6,1003.7,34,0,19,77,0.56,3.71,5.9,6.9,317,321,19.4,41.5,28.0,23.6,19.3,0.046,0.059,0.083,0.203,1,3600.0,663.8,358.9,304.9,395.8,663.8,1206.6,664.0,359.0,305.0,395.8,664.0,1206.9,,,,,,,,,,,,,,,,,,,,,,,,,,,,,,,,,,,,,,,,,,,,,,,,,,,,,,,Eucalyptus L'Hér.; Pinus pinaster Aiton
2010,2010-07-18,Vila Real,Mesão frio,Cidadelhe,CIDADELHE,41.1697423,-7.842564943721893,NC,329.0,2010-07-18T12:00,29.3,39,13.9,32.5,0.0,0.0,0.0,0.0,0,1019.4,982.3,0,0,0,0,0.68,2.48,3.5,4.3,114,114,23.0,32.0,23.2,21.0,16.3,0.142,0.156,0.212,0.358,1,3600.0,954.3,842.5,111.7,906.5,954.3,1230.7,931.0,822.0,109.0,906.5,931.0,1200.7,,,,,,,,,,,,,,,,,,,,,,,,,,,,,,,,,,,,,,,,,,,,,,,,,,,,,,,Vitis vinifera L.; Pinus pinaster Aiton; Quercus L.; Tracheophyta; Magnoliopsida
2010,2010-08-01,Porto,Penafiel,Recezinhos (são Martinho),ÁGUA CÁI (Água Levada),41.2726266,-8.2833754,NC,290.0,2010-08-01T00:00,20.7,81,17.4,22.6,0.0,0.0,0.0,0.0,0,1013.5,980.0,4,0,6,0,0.0,0.45,5.1,10.6,188,190,11.5,23.2,27.2,22.6,17.1,0.092,0.15,0.237,0.347,0,0.0,0.0,0.0,0.0,0.0,0.0,0.0,0.0,0.0,0.0,0.0,0.0,0.0,,,,,,,,,,,,,,,,,,,,,,,,,,,,,,,,,,,,,,,,,,,,,,,,,,,,,,,Eucalyptus L'Hér.; Tracheophyta
2010,2010-08-09,Aveiro,Santa Maria da Feira,Romariz,Portela,40.9419902,-8.4542019,Desconhecida,263.0,2010-08-09T17:00,30.3,39,14.6,29.9,0.0,0.0,0.0,0.0,0,1014.9,985.4,8,0,12,2,0.41,2.65,12.9,16.2,324,328,28.4,34.1,27.9,23.4,18.4,0.108,0.138,0.205,0.339,1,3600.0,388.7,312.6,76.0,647.4,388.7,642.6,455.0,366.0,89.0,647.4,455.0,752.3,,,,,,,,,,,,,,,,,,,,,,,,,,,,,,,,,,,,,,,,,,,,,,,,,,,,,,,Tracheophyta; Eucalyptus L'Hér.; Magnoliopsida
2010,2010-08-06,Aveiro,Aveiro,Nossa Senhora de Fátima,Povoa do Valado (Póvoa do Valado),40.5799369,-8.5819463,Desconhecida,58.0,2010-08-06T17:00,32.5,28,11.4,30.6,0.0,0.0,0.0,0.0,0,1010.7,1004.2,0,0,0,0,0.52,3.55,15.8,20.8,339,342,33.8,39.8,27.7,23.8,19.7,0.043,0.065,0.105,0.22,1,3600.0,461.9,388.2,73.7,787.2,461.9,655.6,539.0,453.0,86.0,787.2,539.0,765.1,,,,,,,,,,,,,,,,,,,,,,,,,,,,,,,,,,,,,,,,,,,,,,,,,,,,,,,Eucalyptus L'Hér.; Tracheophyta
2010,2010-08-21,Lisboa,Sintra,Belas,Casal das Quintas - Casal Alentejano,38.7759197,-9.2639449,Desconhecida,147.0,2010-08-21T14:00,27.0,51,16.2,28.9,0.0,0.0,0.0,0.0,0,1020.4,1003.5,19,0,0,64,0.6,1.73,13.0,13.8,304,309,22.7,31.7,23.9,22.3,19.9,0.12,0.166,0.227,0.331,1,3600.0,824.9,661.8,163.0,781.4,824.9,1132.2,850.0,682.0,168.0,781.4,850.0,1166.7,,,,,,,,,,,,,,,,,,,,,,,,,,,,,,,,,,,,,,,,,,,,,,,,,,,,,,,Pinus pinaster Aiton; Tracheophyta; Pinales; Eucalyptus L'Hér.; Magnoliopsida; 
2010,2010-08-05,Porto,Penafiel,Boelhe,Passinhos,41.130499,-8.2408074,Desconhecida,219.0,2010-08-05T06:00,16.3,82,13.3,16.1,0.0,0.0,0.0,0.0,0,1014.9,989.1,13,0,0,44,0.03,0.33,8.7,16.6,60,60,18.4,18.4,25.1,23.4,18.2,0.099,0.15,0.235,0.348,1,0.0,15.2,5.1,10.2,58.3,5.9,93.6,6.0,2.0,4.0,28.0,6.0,36.9,,,,,,,,,,,,,,,,,,,,,,,,,,,,,,,,,,,,,,,,,,,,,,,,,,,,,,,Magnoliopsida; Tracheophyta; Vitis vinifera L.; Eucalyptus L'Hér.
2010,2010-08-01,Aveiro,Oliveira de Azeméis,Ossela,Ribeira de Baixo,40.8282452,-8.4356829,Desconhecida,241.0,2010-08-01T10:00,24.1,66,17.4,26.3,0.0,0.0,0.0,0.0,2,1015.5,987.8,53,59,0,0,0.39,1.02,4.6,5.0,252,249,20.2,28.5,25.5,23.4,18.2,0.096,0.143,0.222,0.339,1,3600.0,646.1,484.8,161.2,643.7,646.1,1000.0,589.0,442.0,147.0,643.7,589.0,911.7,,,,,,,,,,,,,,,,,,,,,,,,,,,,,,,,,,,,,,,,,,,,,,,,,,,,,,,Eucalyptus L'Hér.; Tracheophyta; Pinus pinaster Aiton; Magnoliopsida; Vitis vinifera L.
2010,2010-08-09,Porto,Amarante,Real,RUA DE S. SALVADOR,41.2668833,-8.072193852545904,NC,87.0,2010-08-09T14:00,34.7,33,16.2,36.7,0.0,0.0,0.0,0.0,0,1015.7,1005.9,12,0,5,31,0.67,3.68,10.5,13.0,276,276,27.0,38.1,28.1,24.2,19.1,0.102,0.146,0.227,0.342,1,3600.0,765.6,580.1,185.6,676.8,765.6,1140.6,788.0,597.0,191.0,676.8,788.0,1173.9,,,,,,,,,,,,,,,,,,,,,,,,,,,,,,,,,,,,,,,,,,,,,,,,,,,,,,,Magnoliopsida; Tracheophyta; Eucalyptus L'Hér.; Vitis vinifera L.; Pinus pinaster Aiton
2010,2010-08-09,Porto,Felgueiras,Borba de Godim,Vilar,41.3219949,-8.1424064,NC,386.0,2010-08-09T15:00,32.0,34,14.3,32.7,0.3,0.3,0.0,0.0,51,1015.7,972.9,16,0,7,40,0.56,3.14,10.0,12.3,291,291,29.9,36.6,27.0,22.8,17.4,0.093,0.146,0.228,0.342,1,3600.0,633.4,453.7,179.8,590.9,633.4,1021.8,673.0,482.0,191.0,590.9,673.0,1085.6,,,,,,,,,,,,,,,,,,,,,,,,,,,,,,,,,,,,,,,,,,,,,,,,,,,,,,,Vitis vinifera L.; Tracheophyta; Magnoliopsida
2010,2010-07-26,Setúbal,Seixal,Aldeia de Paio Pires,JT CAMPO BOLA (CORROIOS),38.6119995,-9.07313725926883,NC,5.0,2010-07-26T14:00,36.2,18,8.5,38.0,0.0,0.0,0.0,0.0,0,1010.4,1009.8,0,0,0,0,0.74,4.91,3.4,4.8,342,27,18.0,43.1,27.6,23.0,19.9,0.052,0.07,0.117,0.227,1,3600.0,929.5,821.3,108.1,909.9,929.5,1196.8,954.0,843.0,111.0,909.9,954.0,1228.4,,,,,,,,,,,,,,,,,,,,,,,,,,,,,,,,,,,,,,,,,,,,,,,,,,,,,,,Tracheophyta; Magnoliopsida; Pinus pinaster Aiton
2010,2010-07-29,Braga,Vieira do Minho,Soengas,L.(SOENGAS) (RUIVÃIS),41.6430457,-8.1952035,NC,433.0,2010-07-29T16:00,33.0,32,14.1,33.1,0.0,0.0,0.0,0.0,0,1014.1,966.5,0,0,0,0,0.63,3.43,14.9,20.3,15,20,40.0,37.0,26.9,21.3,16.3,0.099,0.162,0.253,0.354,1,3600.0,654.5,565.3,89.2,848.9,654.5,883.5,719.0,621.0,98.0,848.9,719.0,970.6,,,,,,,,,,,,,,,,,,,,,,,,,,,,,,,,,,,,,,,,,,,,,,,,,,,,,,,Quercus L.; Tracheophyta; Pinus pinaster Aiton; Magnoliopsida; Eucalyptus L'Hér.
2010,2010-08-06,Castelo Branco,Sertã,Cabeçudo,CABEÇUDO,39.8303567,-8.1432476,Desconhecida,397.0,2010-08-06T16:00,35.1,19,7.7,34.7,0.0,0.0,0.0,0.0,0,1010.7,967.4,0,0,0,0,0.55,4.59,5.1,5.9,4,11,18.7,41.2,29.6,25.3,19.7,0.102,0.152,0.193,0.33,1,3600.0,636.2,550.2,86.0,843.8,636.2,867.0,703.0,608.0,95.0,843.8,703.0,958.1,,,,,,,,,,,,,,,,,,,,,,,,,,,,,,,,,,,,,,,,,,,,,,,,,,,,,,,Eucalyptus L'Hér.; Tracheophyta; Pinus pinaster Aiton; Olea europaea L.; Magnoliopsida
2010,2010-08-01,Leiria,Marinha Grande,Marinha Grande,Albergaria,39.7460409,-8.8967323,Desconhecida,100.0,2010-08-01T01:00,17.3,96,16.6,17.8,0.0,0.0,0.0,0.0,2,1014.5,1002.6,64,71,0,0,0.0,0.08,12.6,18.1,336,339,16.2,18.9,24.4,21.9,18.5,0.049,0.062,0.104,0.218,0,0.0,0.0,0.0,0.0,0.0,0.0,0.0,0.0,0.0,0.0,0.0,0.0,0.0,,,,,,,,,,,,,,,,,,,,,,,,,,,,,,,,,,,,,,,,,,,,,,,,,,,,,,,Pinus pinaster Aiton; Tracheophyta; Eucalyptus L'Hér.
2010,2010-08-06,Porto,Penafiel,Pinheiro,STO.ANTÓNIO (Santo António),41.1193264,-8.3031666,Desconhecida,204.0,2010-08-06T16:00,33.4,20,7.4,31.9,0.0,0.0,0.0,0.0,0,1011.9,989.2,0,0,0,0,0.62,4.13,12.0,14.8,353,357,26.6,36.1,26.6,23.2,18.2,0.1,0.148,0.232,0.345,1,3600.0,642.8,557.6,85.2,857.6,642.8,864.5,709.0,615.0,94.0,857.6,709.0,953.5,,,,,,,,,,,,,,,,,,,,,,,,,,,,,,,,,,,,,,,,,,,,,,,,,,,,,,,Tracheophyta; Vitis vinifera L.; Eucalyptus L'Hér.
2010,2010-08-09,Porto,Marco de Canaveses,Avessadas,BEIRA RIO (Barca da Ribeira),41.1593952,-8.1791206,NC,239.0,2010-08-09T16:00,32.3,36,15.5,32.7,0.0,0.0,0.0,0.0,0,1015.2,988.5,0,0,0,0,0.44,3.08,10.5,13.2,297,296,28.8,35.5,27.7,23.2,18.1,0.102,0.146,0.226,0.342,1,3600.0,428.9,311.2,117.6,485.9,428.9,852.4,474.0,344.0,130.0,485.9,474.0,942.1,,,,,,,,,,,,,,,,,,,,,,,,,,,,,,,,,,,,,,,,,,,,,,,,,,,,,,,Magnoliopsida; Tracheophyta; Pinus pinaster Aiton; Eucalyptus L'Hér.; Vitis vinifera L.; Pinales; Acacia Mill.; 
2010,2010-08-08,Porto,Paços de Ferreira,Penamaior,RIBEIRA (Ribeirinha),41.2875406,-8.4127999,NC,362.0,2010-08-08T15:00,30.2,36,13.3,30.5,0.0,0.0,0.0,0.0,0,1015.0,974.6,8,0,0,26,0.61,2.77,13.2,16.7,244,245,33.1,35.6,26.5,22.6,17.4,0.093,0.144,0.223,0.341,1,3600.0,717.9,583.2,134.7,755.1,717.9,1027.4,762.0,619.0,143.0,755.1,762.0,1090.6,,,,,,,,,,,,,,,,,,,,,,,,,,,,,,,,,,,,,,,,,,,,,,,,,,,,,,,Magnoliopsida; Eucalyptus L'Hér.; Tracheophyta; Vitis vinifera L.; 
2010,2010-08-06,Porto,Paredes,Gondalães,BELMONTE (Belo Horizonte),41.2287102,-8.3319853,NC,155.0,2010-08-06T17:00,33.1,20,6.8,31.0,0.0,0.0,0.0,0.0,0,1012.0,994.7,0,0,0,0,0.47,4.08,8.9,11.8,333,337,25.6,35.3,27.0,23.4,18.3,0.109,0.143,0.216,0.344,1,3600.0,467.2,394.4,72.9,803.4,467.2,652.6,545.0,460.0,85.0,803.4,545.0,761.3,,,,,,,,,,,,,,,,,,,,,,,,,,,,,,,,,,,,,,,,,,,,,,,,,,,,,,,Magnoliopsida; Pinus pinaster Aiton; Eucalyptus L'Hér.; Tracheophyta; Vitis vinifera L.; Quercus L.
2010,2010-08-05,Castelo Branco,Covilhã,Teixoso,Urbanização das Nogueiras - Teixoso,40.3134342,-7.4580288,Desconhecida,564.0,2010-08-05T11:00,28.6,32,10.3,28.0,0.0,0.0,0.0,0.0,0,1014.5,952.1,0,0,0,0,0.63,2.67,14.3,18.7,51,52,39.2,32.8,26.8,24.9,18.7,0.092,0.16,0.224,0.352,1,3600.0,863.4,755.6,107.8,883.1,863.4,1137.2,817.0,715.0,102.0,883.1,817.0,1076.1,,,,,,,,,,,,,,,,,,,,,,,,,,,,,,,,,,,,,,,,,,,,,,,,,,,,,,,Tracheophyta; Olea europaea L.; Vitis vinifera L.; Pinus pinaster Aiton; Magnoliopsida
2010,2010-08-06,Porto,Lousada,Meinedo,Quinta,41.2498693,-8.2426301,NC,258.0,2010-08-06T15:00,32.7,19,6.3,32.2,0.0,0.0,0.0,0.0,0,1012.4,983.7,0,0,0,0,0.67,3.98,8.4,10.6,70,72,25.9,35.1,25.7,22.8,17.7,0.102,0.149,0.231,0.344,1,3600.0,792.5,697.4,95.2,897.9,792.5,1032.6,841.0,740.0,101.0,897.9,841.0,1095.7,,,,,,,,,,,,,,,,,,,,,,,,,,,,,,,,,,,,,,,,,,,,,,,,,,,,,,,Magnoliopsida; Eucalyptus L'Hér.; Tracheophyta; Vitis vinifera L.
2010,2010-08-01,Viseu,Castro Daire,Castro Daire,Folgosa,40.91465745,-7.920020147736607,Desconhecida,660.0,2010-08-01T00:00,20.1,81,16.8,21.8,0.0,0.0,0.0,0.0,1,1014.2,939.7,22,0,37,0,0.0,0.44,4.4,7.3,215,213,10.8,22.8,26.6,21.7,16.2,0.104,0.155,0.242,0.354,0,0.0,0.0,0.0,0.0,0.0,0.0,0.0,0.0,0.0,0.0,0.0,0.0,0.0,,,,,,,,,,,,,,,,,,,,,,,,,,,,,,,,,,,,,,,,,,,,,,,,,,,,,,,Pinus pinaster Aiton; Magnoliopsida; Pinales; Eucalyptus L'Hér.; Tracheophyta
2010,2010-08-08,Porto,Paredes,Rebordosa,Monte Alto,41.2166286,-8.4180379,Desconhecida,225.0,2010-08-08T17:00,30.4,35,13.4,30.1,0.0,0.0,0.0,0.0,0,1015.1,989.8,2,0,1,4,0.42,2.81,9.8,11.8,262,258,19.8,34.4,27.6,23.1,18.1,0.119,0.135,0.194,0.344,1,3600.0,434.5,339.6,94.9,700.4,434.5,645.0,508.0,397.0,111.0,700.4,508.0,754.0,,,,,,,,,,,,,,,,,,,,,,,,,,,,,,,,,,,,,,,,,,,,,,,,,,,,,,,Magnoliopsida; Pinus pinaster Aiton; Eucalyptus L'Hér.; Tracheophyta; Vitis vinifera L.
2010,2010-08-05,Viana do Castelo,Viana do Castelo,Carvoeiro,COSTEIRA - CARVOEIRO (Costeira),41.6509991,-8.6636379,Desconhecida,98.0,2010-08-05T11:00,25.2,46,12.8,24.6,0.0,0.0,0.0,0.0,0,1015.8,1004.5,0,0,0,0,0.56,1.73,18.8,25.0,4,12,36.7,28.1,24.1,22.9,18.4,0.097,0.147,0.23,0.342,1,3600.0,848.4,738.3,110.2,878.7,848.4,1116.7,801.0,697.0,104.0,878.7,801.0,1054.3,,,,,,,,,,,,,,,,,,,,,,,,,,,,,,,,,,,,,,,,,,,,,,,,,,,,,,,Tracheophyta; Eucalyptus L'Hér.; Vitis vinifera L.; Magnoliopsida; Pinus pinaster Aiton
2010,2010-08-05,Porto,Marco de Canaveses,Tuias,CIMO DE VILA,41.17549355,-8.16457827943076,NC,213.0,2010-08-05T11:00,27.2,38,11.8,27.9,0.0,0.0,0.0,0.0,0,1014.9,990.7,0,0,0,0,0.58,2.23,9.6,12.5,70,72,28.4,29.6,24.7,23.0,17.9,0.102,0.15,0.234,0.345,1,3600.0,858.4,749.3,109.0,886.0,858.4,1124.1,811.0,708.0,103.0,886.0,811.0,1062.1,,,,,,,,,,,,,,,,,,,,,,,,,,,,,,,,,,,,,,,,,,,,,,,,,,,,,,,Tracheophyta; Magnoliopsida; Pinus pinaster Aiton; Vitis vinifera L.
2010,2010-07-30,Braga,Fafe,Vinhós,CARVALHO (VINHÓS) (Carvalho),41.4831406,-8.1758748,NC,398.0,2010-07-30T09:00,25.4,44,12.3,24.0,0.0,0.0,0.0,0.0,0,1014.1,969.1,0,0,0,0,0.38,1.82,14.4,19.4,91,90,34.2,26.1,25.2,21.7,16.4,0.096,0.152,0.239,0.348,1,3600.0,575.4,478.9,96.5,772.6,575.4,822.6,501.0,417.0,84.0,772.6,501.0,716.2,,,,,,,,,,,,,,,,,,,,,,,,,,,,,,,,,,,,,,,,,,,,,,,,,,,,,,,Eucalyptus L'Hér.; Magnoliopsida; Pinales; Pinus pinaster Aiton; Vitis vinifera L.; Pinus pinea L.; Tracheophyta
2010,2010-07-25,Porto,Gondomar,Lomba,FONTONHA (Fontainhas),41.0617409,-8.4108172,NC,76.0,2010-07-25T17:00,33.4,29,13.0,30.7,0.0,0.0,0.0,0.0,0,1014.1,1005.6,0,0,0,0,0.62,3.65,25.5,34.8,337,342,42.1,35.2,26.2,21.9,18.0,0.112,0.154,0.239,0.355,1,3600.0,495.5,418.4,77.1,804.3,495.5,689.5,572.0,483.0,89.0,804.3,572.0,796.1,,,,,,,,,,,,,,,,,,,,,,,,,,,,,,,,,,,,,,,,,,,,,,,,,,,,,,,Magnoliopsida; Eucalyptus L'Hér.; Vitis vinifera L.; Pinus pinaster Aiton; Tracheophyta; 
2010,2010-08-05,Porto,Lousada,Cristelos,Varzielas,41.2745805,-8.2903482,NC,267.0,2010-08-05T12:00,28.1,34,10.7,29.2,0.0,0.0,0.0,0.0,0,1014.5,984.3,0,0,0,0,0.66,2.52,8.2,10.6,61,62,26.3,32.2,25.0,23.0,17.7,0.092,0.147,0.23,0.343,1,3600.0,928.7,818.7,109.9,909.3,928.7,1196.7,904.0,797.0,107.0,909.3,904.0,1164.9,,,,,,,,,,,,,,,,,,,,,,,,,,,,,,,,,,,,,,,,,,,,,,,,,,,,,,,Vitis vinifera L.; Tracheophyta; Eucalyptus L'Hér.; Magnoliopsida; Pinus pinaster Aiton
2010,2010-08-01,Porto,Póvoa de Varzim,Laundos,R. AZENHA (ESTELA),41.4388874,-8.7195676,NC,88.0,2010-08-01T02:00,19.8,85,17.3,20.3,0.0,0.0,0.0,0.0,0,1013.0,1002.7,0,0,0,0,0.02,0.34,14.5,23.5,346,354,20.9,22.0,26.4,23.0,18.0,0.094,0.145,0.227,0.341,0,0.0,0.0,0.0,0.0,0.0,0.0,0.0,0.0,0.0,0.0,0.0,0.0,0.0,,,,,,,,,,,,,,,,,,,,,,,,,,,,,,,,,,,,,,,,,,,,,,,,,,,,,,,Eucalyptus L'Hér.; Pinus pinaster Aiton; Tracheophyta
2010,2010-07-31,Braga,Celorico de Basto,Carvalho,COVAS (CARVALHO) (Covas),41.3794834,-8.071291706396416,Desconhecida,537.0,2010-07-31T14:00,31.4,37,15.0,33.5,0.0,0.0,0.0,0.0,0,1012.9,954.0,0,0,0,1,0.71,2.9,11.0,13.6,259,259,28.8,36.4,26.0,21.2,15.7,0.102,0.158,0.244,0.351,1,3600.0,884.0,780.0,104.1,891.7,884.0,1161.0,909.0,802.0,107.0,891.7,909.0,1193.8,,,,,,,,,,,,,,,,,,,,,,,,,,,,,,,,,,,,,,,,,,,,,,,,,,,,,,,Tracheophyta; Eucalyptus L'Hér.; Olea europaea L.; Pinus pinaster Aiton; Magnoliopsida
2010,2010-07-29,Aveiro,Estarreja,Beduído,Santiais,40.77887295,-8.542015290694803,Desconhecida,67.0,2010-07-29T08:00,25.5,54,15.6,26.6,0.0,0.0,0.0,0.0,0,1014.8,1007.1,0,0,0,1,0.21,1.48,5.1,6.6,315,331,12.2,25.7,26.6,22.9,18.4,0.099,0.109,0.159,0.306,1,3600.0,376.2,289.9,86.2,639.9,376.2,601.1,301.0,232.0,69.0,639.9,301.0,481.0,,,,,,,,,,,,,,,,,,,,,,,,,,,,,,,,,,,,,,,,,,,,,,,,,,,,,,,Pinus pinaster Aiton; Tracheophyta; Magnoliopsida; Eucalyptus L'Hér.
2010,2010-08-01,Bragança,Vinhais,Rebordelo,REBORDELO,41.7426065,-7.167418703191489,NC,501.0,2010-08-01T04:00,19.0,86,16.5,20.5,0.0,0.0,0.0,0.0,0,1013.6,956.2,4,5,0,0,0.0,0.31,5.1,10.1,352,358,11.9,22.1,27.2,22.7,16.6,0.11,0.138,0.206,0.341,0,0.0,0.0,0.0,0.0,0.0,0.0,0.0,0.0,0.0,0.0,0.0,0.0,0.0,,,,,,,,,,,,,,,,,,,,,,,,,,,,,,,,,,,,,,,,,,,,,,,,,,,,,,,Castanea sativa Mill.; Magnoliopsida; Tracheophyta; Olea europaea L.; Pinales
2010,2010-07-29,Porto,Gondomar,Jovim,RUA DA FEITEIRA (Rua de João de Deus),41.1396354,-8.5296284,NC,157.0,2010-07-29T11:00,30.8,42,16.5,34.1,0.0,0.0,0.0,0.0,0,1014.8,997.1,7,0,0,22,0.6,2.57,4.9,5.1,306,315,14.8,33.3,26.2,22.5,17.8,0.115,0.141,0.216,0.353,1,3600.0,857.8,748.8,108.9,873.9,857.8,1136.8,811.0,708.0,103.0,873.9,811.0,1074.8,,,,,,,,,,,,,,,,,,,,,,,,,,,,,,,,,,,,,,,,,,,,,,,,,,,,,,,Magnoliopsida; Tracheophyta; Eucalyptus L'Hér.
2010,2010-08-01,Castelo Branco,Oleiros,Orvalho,ORVALHO,40.0173362,-7.7891072,Desconhecida,476.0,2010-08-01T07:00,19.6,84,16.8,21.6,0.0,0.0,0.0,0.0,0,1014.2,959.7,0,0,0,0,0.06,0.37,2.8,3.6,310,315,9.7,22.0,26.9,24.7,18.5,0.118,0.155,0.206,0.341,1,3600.0,170.7,103.0,67.7,379.0,170.7,361.0,111.0,67.0,44.0,379.0,111.0,234.7,,,,,,,,,,,,,,,,,,,,,,,,,,,,,,,,,,,,,,,,,,,,,,,,,,,,,,,Pinus pinaster Aiton; Eucalyptus L'Hér.; Magnoliopsida; Olea europaea L.; Tracheophyta; 
2010,2010-07-18,Aveiro,Ovar,Ovar,Mata da Bicha,40.8456684,-8.64847761987809,Desconhecida,0.0,2010-07-18T16:00,29.2,45,16.1,30.1,0.0,0.0,0.0,0.0,0,1018.5,1018.5,0,0,0,1,0.57,2.21,15.3,17.9,304,310,31.0,34.8,25.2,22.0,18.2,0.094,0.15,0.231,0.336,1,3600.0,679.8,585.7,94.1,849.9,679.8,912.5,744.0,641.0,103.0,849.9,744.0,998.7,,,,,,,,,,,,,,,,,,,,,,,,,,,,,,,,,,,,,,,,,,,,,,,,,,,,,,,Magnoliopsida; Eucalyptus L'Hér.
2010,2010-08-08,Porto,Vila do Conde,Macieira da Maia,RUA NOVA FERREIROS (RIO MAU),41.3540398,-8.7435403,NC,17.0,2010-08-08T14:00,29.9,47,17.5,33.1,0.0,0.0,0.0,0.0,0,1014.6,1012.7,7,0,0,22,0.66,2.22,9.7,9.5,268,261,23.0,36.1,27.3,23.8,19.1,0.094,0.141,0.216,0.335,1,3600.0,866.6,743.0,123.5,863.3,866.6,1145.0,891.0,764.0,127.0,863.3,891.0,1177.3,,,,,,,,,,,,,,,,,,,,,,,,,,,,,,,,,,,,,,,,,,,,,,,,,,,,,,,Tracheophyta; Magnoliopsida
2010,2010-08-06,Aveiro,Santa Maria da Feira,Rio Meão,Valada (Valado),40.9581668,-8.5826133,NC,116.0,2010-08-06T16:00,33.0,24,9.6,32.3,0.0,0.0,0.0,0.0,0,1012.0,999.0,0,0,0,0,0.6,3.83,10.5,13.4,352,355,23.4,38.2,27.3,23.6,19.0,0.089,0.118,0.179,0.318,1,3600.0,644.1,558.8,85.3,855.9,644.1,868.1,710.0,616.0,94.0,855.9,710.0,956.9,,,,,,,,,,,,,,,,,,,,,,,,,,,,,,,,,,,,,,,,,,,,,,,,,,,,,,,Eucalyptus L'Hér.; Tracheophyta; Olea europaea L.; Magnoliopsida
2010,2010-08-06,Aveiro,Vale de Cambra,Macieira de Cambra,Porto Novo,40.8480592,-8.3880687,Desconhecida,278.0,2010-08-06T07:00,21.3,44,8.7,18.6,0.0,0.0,0.0,0.0,0,1012.9,980.8,0,0,0,0,0.15,1.41,15.7,28.5,79,81,33.1,21.7,25.3,23.6,18.6,0.097,0.143,0.224,0.341,1,3418.61,169.7,110.5,59.2,438.1,164.7,335.2,106.0,69.0,37.0,425.2,106.0,209.4,,,,,,,,,,,,,,,,,,,,,,,,,,,,,,,,,,,,,,,,,,,,,,,,,,,,,,,Tracheophyta; Pinus pinaster Aiton; Eucalyptus L'Hér.
2010,2010-08-08,Porto,Paredes,Rebordosa,AV.MONTE AZEVIDO (Azevido),41.2196367,-8.4086255,Desconhecida,207.0,2010-08-08T00:00,26.4,51,15.3,27.4,0.0,0.0,0.0,0.0,0,1013.9,990.3,0,0,0,0,0.03,1.7,5.1,6.8,45,65,11.5,24.0,27.3,23.2,18.2,0.119,0.135,0.195,0.345,0,0.0,0.0,0.0,0.0,0.0,0.0,0.0,0.0,0.0,0.0,0.0,0.0,0.0,,,,,,,,,,,,,,,,,,,,,,,,,,,,,,,,,,,,,,,,,,,,,,,,,,,,,,,Magnoliopsida; Pinus pinaster Aiton; Eucalyptus L'Hér.; Tracheophyta; Vitis vinifera L.
2010,2010-08-06,Lisboa,Vila Franca de Xira,Vialonga,Verdelha do Ruivo,38.8872167,-9.0744339,Desconhecida,174.0,2010-08-06T16:00,33.9,25,11.3,33.4,0.0,0.0,0.0,0.0,0,1010.1,990.8,0,0,0,0,0.63,3.95,12.5,15.6,327,331,33.8,39.7,27.2,23.8,19.8,0.098,0.173,0.24,0.342,1,3600.0,653.0,564.1,88.9,849.1,653.0,883.3,720.0,622.0,98.0,849.1,720.0,974.0,,,,,,,,,,,,,,,,,,,,,,,,,,,,,,,,,,,,,,,,,,,,,,,,,,,,,,,Tracheophyta; Magnoliopsida; Pinus pinea L.; Olea europaea L.; Pinus pinaster Aiton; Pinales; 
2010,2010-06-30,Porto,Paredes,Cete,Marco,41.1782871,-8.3649391,Desconhecida,151.0,2010-06-30T21:00,22.0,81,18.6,24.4,0.0,0.0,0.0,0.0,0,1017.3,999.7,1,1,0,0,0.0,0.51,5.4,10.4,323,346,13.7,24.3,24.6,19.8,15.2,0.152,0.2,0.273,0.371,0,0.0,0.0,0.0,0.0,0.0,0.0,0.0,0.0,0.0,0.0,0.0,0.0,0.0,,,,,,,,,,,,,,,,,,,,,,,,,,,,,,,,,,,,,,,,,,,,,,,,,,,,,,,Magnoliopsida; Pinus pinaster Aiton; Eucalyptus L'Hér.; Tracheophyta; Vitis vinifera L.
2010,2010-08-01,Porto,Santo Tirso,Lamelas,L.ALDEIA NOVA (Aldeia Nova),41.31869835,-8.509147938338778,NC,231.0,2010-08-01T13:00,27.9,51,16.8,30.0,0.0,0.0,0.0,0.0,2,1014.7,988.5,52,28,0,88,0.61,1.85,13.6,16.4,307,310,28.4,32.6,25.5,22.5,17.4,0.117,0.14,0.212,0.348,1,3600.0,848.1,627.1,221.0,684.9,848.1,1215.6,848.0,627.0,221.0,684.9,848.0,1215.4,,,,,,,,,,,,,,,,,,,,,,,,,,,,,,,,,,,,,,,,,,,,,,,,,,,,,,,Eucalyptus L'Hér.; Pinales; Magnoliopsida; Pinus pinaster Aiton
2010,2010-07-26,Faro,Vila Real de Santo António,Vila Nova de Cacela,Caliços (Caliço),37.1850059,-7.5477576,NC,63.0,2010-07-26T14:00,32.4,38,16.1,35.6,0.0,0.0,0.0,0.0,0,1011.3,1004.2,0,0,0,0,0.73,3.04,8.6,10.1,178,176,22.7,37.0,29.6,26.4,21.6,0.127,0.172,0.237,0.31,1,3600.0,911.1,798.4,112.7,883.7,911.1,1197.9,938.0,822.0,116.0,883.7,938.0,1233.3,,,,,,,,,,,,,,,,,,,,,,,,,,,,,,,,,,,,,,,,,,,,,,,,,,,,,,,Ceratonia siliqua L.; Magnoliopsida; Tracheophyta; Pinus pinea L.
2010,2010-08-01,Porto,Paredes,Parada de Todeia,Redondo,41.1684949,-8.3714303,NC,186.0,2010-08-01T05:00,20.1,87,17.8,22.1,0.0,0.0,0.0,0.0,0,1013.5,991.8,1,1,0,0,0.0,0.31,5.8,6.6,180,202,9.4,20.1,25.8,22.8,17.7,0.12,0.138,0.208,0.35,0,0.0,0.0,0.0,0.0,0.0,0.0,0.0,0.0,0.0,0.0,0.0,0.0,0.0,,,,,,,,,,,,,,,,,,,,,,,,,,,,,,,,,,,,,,,,,,,,,,,,,,,,,,,Magnoliopsida; Pinus pinaster Aiton; Eucalyptus L'Hér.; Tracheophyta; Vitis vinifera L.
2010,2010-08-01,Porto,Santo Tirso,Aves,Sobrado,41.3752209,-8.3935349,NC,158.0,2010-08-01T08:00,22.4,76,18.1,24.6,0.0,0.0,0.0,0.0,0,1014.4,996.1,0,0,0,0,0.18,0.64,5.4,7.2,360,6,18.0,24.5,25.3,23.0,17.7,0.103,0.153,0.238,0.347,1,3600.0,361.6,267.7,93.8,596.7,361.6,595.7,289.0,214.0,75.0,596.7,289.0,476.1,,,,,,,,,,,,,,,,,,,,,,,,,,,,,,,,,,,,,,,,,,,,,,,,,,,,,,,Magnoliopsida; Tracheophyta; Pinus pinaster Aiton; Eucalyptus L'Hér.; Vitis vinifera L.; Pinales; Acacia Mill.; 
2010,2010-08-01,Porto,Gondomar,Jovim,S.MIGUEL (São Miguel),41.1355984,-8.5468746,NC,91.0,2010-08-01T02:00,20.8,86,18.3,23.4,0.0,0.0,0.0,0.0,0,1013.0,1002.4,0,0,0,0,0.0,0.35,3.2,4.4,297,305,11.2,22.1,27.1,23.5,18.5,0.114,0.139,0.211,0.351,0,0.0,0.0,0.0,0.0,0.0,0.0,0.0,0.0,0.0,0.0,0.0,0.0,0.0,,,,,,,,,,,,,,,,,,,,,,,,,,,,,,,,,,,,,,,,,,,,,,,,,,,,,,,Tracheophyta; Pinus pinaster Aiton; Magnoliopsida; Eucalyptus L'Hér.
2010,2010-08-06,Braga,Cabeceiras de Basto,Pedraça,BOADELA(PEDRAÇA)M3 (Boadela),41.4973411,-7.958838298567013,NC,323.0,2010-08-06T18:00,31.7,19,5.4,30.3,0.0,0.0,0.0,0.0,0,1012.2,976.3,0,0,0,0,0.23,3.78,2.2,3.2,360,27,10.1,33.8,26.9,23.0,17.6,0.094,0.143,0.224,0.341,1,3600.0,274.8,220.8,54.0,718.2,274.8,408.8,356.0,286.0,70.0,718.2,356.0,529.5,,,,,,,,,,,,,,,,,,,,,,,,,,,,,,,,,,,,,,,,,,,,,,,,,,,,,,,Tracheophyta; Magnoliopsida; Pinus pinaster Aiton; Vitis vinifera L.; Eucalyptus L'Hér.
2010,2010-08-01,Porto,Póvoa de Varzim,Estela,ESTELA,41.4540003,-8.7779977,NC,0.0,2010-08-01T05:00,19.5,88,17.4,19.8,0.0,0.0,0.0,0.0,0,1013.4,1013.4,0,0,0,0,0.01,0.28,16.2,25.7,347,354,23.4,21.4,26.3,23.6,18.7,0.094,0.146,0.227,0.341,0,0.0,0.0,0.0,0.0,0.0,0.0,0.0,0.0,0.0,0.0,0.0,0.0,0.0,,,,,,,,,,,,,,,,,,,,,,,,,,,,,,,,,,,,,,,,,,,,,,,,,,,,,,,Tracheophyta; Pinus pinaster Aiton
2010,2010-08-01,Porto,Matosinhos,Lavra,R DO CORGO (Rua Central do Corgo),41.2594836,-8.7168977,NC,16.0,2010-08-01T07:00,19.9,85,17.3,19.9,0.0,0.0,0.0,0.0,0,1014.1,1012.2,0,0,0,0,0.07,0.35,17.8,24.5,352,357,28.4,21.5,25.7,23.7,18.7,0.091,0.152,0.238,0.347,1,3600.0,176.6,111.5,65.1,423.2,176.6,349.9,114.0,72.0,42.0,423.2,114.0,225.9,,,,,,,,,,,,,,,,,,,,,,,,,,,,,,,,,,,,,,,,,,,,,,,,,,,,,,,Magnoliopsida; Tracheophyta
2010,2010-08-07,Braga,Vila Verde,Rio Mau,ERMIDA (RIO MAU) (Ermida),41.70141495,-8.511219435979115,NC,388.0,2010-08-07T23:00,23.2,62,15.6,23.7,0.0,0.0,0.0,0.0,0,1014.9,970.7,0,0,0,0,0.04,1.07,9.4,16.6,43,56,20.9,24.7,26.5,22.0,17.1,0.097,0.148,0.235,0.347,0,0.0,0.0,0.0,0.0,0.0,0.0,0.0,0.0,0.0,0.0,0.0,0.0,0.0,,,,,,,,,,,,,,,,,,,,,,,,,,,,,,,,,,,,,,,,,,,,,,,,,,,,,,,Magnoliopsida; Pinus pinaster Aiton; Eucalyptus L'Hér.; Tracheophyta
2010,2010-07-02,Aveiro,Albergaria-a-Velha,Albergaria-a-Velha,FRIAS,40.690328,-8.479538190307041,Desconhecida,121.0,2010-07-02T11:00,21.3,67,15.0,21.9,0.0,0.0,0.0,0.0,1,1015.5,1001.4,49,1,73,15,0.31,0.83,7.5,8.7,325,330,23.0,24.6,21.9,20.5,16.1,0.077,0.132,0.182,0.284,1,3600.0,496.0,224.3,271.7,251.9,496.0,1178.2,471.0,213.0,258.0,251.9,471.0,1118.9,,,,,,,,,,,,,,,,,,,,,,,,,,,,,,,,,,,,,,,,,,,,,,,,,,,,,,,Tracheophyta; Eucalyptus L'Hér.
2010,2010-08-09,Aveiro,Arouca,Alvarenga,Noninha,40.9662166,-8.1727407,Desconhecida,338.0,2010-08-09T08:00,26.6,51,15.8,28.2,0.0,0.0,0.0,0.0,0,1016.8,978.5,14,0,17,12,0.16,1.69,2.3,4.1,129,135,10.8,25.4,25.8,23.3,18.2,0.101,0.145,0.228,0.343,1,3600.0,297.2,205.7,91.4,477.6,297.2,573.2,234.0,162.0,72.0,477.6,234.0,451.4,,,,,,,,,,,,,,,,,,,,,,,,,,,,,,,,,,,,,,,,,,,,,,,,,,,,,,,Tracheophyta; Magnoliopsida; Quercus L.; Eucalyptus L'Hér.; Castanea sativa Mill.; Pinus pinaster Aiton
2010,2010-07-21,Porto,Marco de Canaveses,Penha Longa,VINHÓS (Vinha),41.1077811,-8.160269,NC,344.0,2010-07-21T22:00,16.4,73,11.4,16.1,0.0,0.0,0.0,0.0,1,1014.6,974.4,27,0,0,91,0.0,0.51,5.1,10.9,309,326,22.0,20.0,22.8,20.3,16.1,0.112,0.174,0.264,0.36,0,0.0,0.0,0.0,0.0,0.0,0.0,0.0,0.0,0.0,0.0,0.0,0.0,0.0,,,,,,,,,,,,,,,,,,,,,,,,,,,,,,,,,,,,,,,,,,,,,,,,,,,,,,,Tracheophyta; Magnoliopsida; Pinus pinaster Aiton; Eucalyptus L'Hér.
2010,2010-08-06,Porto,Póvoa de Varzim,Estela,R. OUTEIRO (Rio Esteiro),41.450335,-8.7529154,NC,25.0,2010-08-06T16:00,31.4,32,12.8,30.6,0.0,0.0,0.0,0.0,0,1012.5,1009.7,0,0,0,0,0.61,3.11,17.2,22.4,334,341,31.7,35.6,26.6,23.5,18.9,0.094,0.142,0.218,0.337,1,3600.0,641.8,554.7,87.2,850.6,641.8,867.0,707.0,611.0,96.0,850.6,707.0,955.0,,,,,,,,,,,,,,,,,,,,,,,,,,,,,,,,,,,,,,,,,,,,,,,,,,,,,,,Tracheophyta
2010,2010-08-06,Aveiro,Oliveira de Azeméis,Vila de Cucujães,Monte,40.89011425,-8.514226222399532,Desconhecida,270.0,2010-08-06T22:00,25.1,41,10.7,23.9,0.0,0.0,0.0,0.0,0,1012.8,982.0,0,0,0,0,0.09,1.89,9.7,18.7,31,28,22.3,26.2,26.9,23.0,18.1,0.106,0.14,0.21,0.341,0,0.0,0.0,0.0,0.0,0.0,0.0,0.0,0.0,0.0,0.0,0.0,0.0,0.0,,,,,,,,,,,,,,,,,,,,,,,,,,,,,,,,,,,,,,,,,,,,,,,,,,,,,,,Tracheophyta; Pinus pinaster Aiton; Eucalyptus L'Hér.; Magnoliopsida
2010,2010-07-26,Aveiro,Sever do Vouga,Silva Escura,Lugar de Neblide (Dornelas),40.7578177,-8.391287453981723,Desconhecida,298.0,2010-07-26T22:00,27.4,39,12.0,26.6,0.0,0.0,0.0,0.0,0,1012.3,978.7,0,0,0,0,0.1,2.24,9.5,19.2,61,62,21.6,27.5,27.2,21.7,17.5,0.098,0.155,0.243,0.35,0,0.0,0.0,0.0,0.0,0.0,0.0,0.0,0.0,0.0,0.0,0.0,0.0,0.0,,,,,,,,,,,,,,,,,,,,,,,,,,,,,,,,,,,,,,,,,,,,,,,,,,,,,,,Magnoliopsida; Pinus pinaster Aiton; Eucalyptus L'Hér.; Vitis vinifera L.
2010,2010-07-26,Porto,Marco de Canaveses,Vila Boa de Quires,Boriz,41.2028475,-8.2047635,NC,275.0,2010-07-26T14:00,32.9,27,11.3,33.4,0.0,0.0,0.0,0.0,0,1014.1,983.5,0,0,0,0,0.77,3.66,13.2,17.2,79,79,34.6,34.1,24.6,20.7,16.6,0.105,0.164,0.251,0.353,1,3600.0,907.2,803.1,104.2,907.5,907.2,1173.2,932.0,825.0,107.0,907.5,932.0,1205.3,,,,,,,,,,,,,,,,,,,,,,,,,,,,,,,,,,,,,,,,,,,,,,,,,,,,,,,Pinus pinaster Aiton; Tracheophyta; Eucalyptus L'Hér.; Magnoliopsida; Vitis vinifera L.; Quercus L.; Pinales; 
2010,2010-08-01,Porto,Felgueiras,Macieira da Lixa,Maçorra,41.3496108,-8.1492033,NC,406.0,2010-08-01T13:00,28.3,51,17.1,31.3,0.0,0.0,0.0,0.0,1,1015.0,969.6,28,0,0,93,0.65,1.9,10.8,13.4,274,275,30.6,34.3,25.7,22.0,16.5,0.093,0.154,0.241,0.349,1,3600.0,899.6,730.6,168.9,798.8,899.6,1214.4,900.0,731.0,169.0,798.8,900.0,1215.0,,,,,,,,,,,,,,,,,,,,,,,,,,,,,,,,,,,,,,,,,,,,,,,,,,,,,,,Eucalyptus L'Hér.; Tracheophyta; Pinus pinaster Aiton; Magnoliopsida; Vitis vinifera L.
2010,2010-07-22,Viana do Castelo,Viana do Castelo,Outeiro,ALEM DO RIO (Largo Álvaro Salema),41.7617367,-8.78937,Desconhecida,167.0,2010-07-22T10:00,18.9,60,11.0,16.8,0.0,0.0,0.0,0.0,0,1017.3,997.7,0,0,0,0,0.38,0.87,21.3,27.0,358,2,43.2,22.2,20.5,20.6,17.0,0.096,0.178,0.266,0.358,1,3600.0,761.9,653.7,108.2,855.9,761.9,1011.8,697.0,598.0,99.0,855.9,697.0,925.6,,,,,,,,,,,,,,,,,,,,,,,,,,,,,,,,,,,,,,,,,,,,,,,,,,,,,,,Pinales; Magnoliopsida; Eucalyptus L'Hér.; Tracheophyta; Pinus pinaster Aiton; Quercus L.
2010,2010-07-20,Faro,Olhão,Moncarapacho,Quatrim do Sul,37.0842089,-7.7882465,NC,54.0,2010-07-20T08:00,21.2,61,13.5,19.0,0.0,0.0,0.0,0.0,0,1014.5,1008.2,1,1,0,0,0.24,0.97,22.6,32.0,338,337,45.7,23.7,26.8,25.2,20.6,0.106,0.171,0.245,0.31,1,3600.0,401.4,304.2,97.2,640.6,401.4,628.9,322.0,244.0,78.0,640.6,322.0,504.5,,,,,,,,,,,,,,,,,,,,,,,,,,,,,,,,,,,,,,,,,,,,,,,,,,,,,,,Magnoliopsida; Vitis vinifera L.; Tracheophyta; Ceratonia siliqua L.; Olea europaea L.; 
2010,2010-08-06,Porto,Maia,Gemunde,R. BAJOUCA (Rua da Bajouca),41.2705417,-8.6297098,NC,118.0,2010-08-06T17:00,30.5,35,13.5,29.8,0.0,0.0,0.0,0.0,0,1011.7,998.4,0,0,0,0,0.46,2.83,12.4,17.0,343,347,25.6,34.5,26.9,23.3,18.6,0.103,0.142,0.217,0.343,1,3600.0,467.9,394.9,73.0,799.6,467.9,656.7,545.0,460.0,85.0,799.6,545.0,764.9,,,,,,,,,,,,,,,,,,,,,,,,,,,,,,,,,,,,,,,,,,,,,,,,,,,,,,,Eucalyptus L'Hér.; Tracheophyta; Pinus pinaster Aiton; Magnoliopsida
2010,2010-08-01,Porto,Penafiel,Boelhe,SAMARDÃ (Samarda),41.130499,-8.2408074,Desconhecida,219.0,2010-08-01T15:00,29.4,50,17.9,31.9,0.0,0.0,0.0,0.0,0,1014.0,989.3,1,0,0,3,0.58,2.06,11.2,13.9,285,287,29.5,35.3,27.0,23.1,17.8,0.099,0.153,0.241,0.351,1,3600.0,729.4,504.9,224.6,640.6,729.4,1046.4,773.0,535.0,238.0,640.6,773.0,1108.9,,,,,,,,,,,,,,,,,,,,,,,,,,,,,,,,,,,,,,,,,,,,,,,,,,,,,,,Magnoliopsida; Tracheophyta; Vitis vinifera L.; Eucalyptus L'Hér.
2010,2010-07-17,Viana do Castelo,Viana do Castelo,Neiva,JUNTO MOSTEIRO (MONTARIA),41.6257946,-8.7726431,Desconhecida,44.0,2010-07-17T21:00,22.8,58,14.2,21.9,0.0,0.0,0.0,0.0,0,1019.1,1013.9,0,0,0,0,0.08,1.16,15.1,27.3,359,12,28.8,23.9,23.4,21.1,17.2,0.116,0.17,0.257,0.355,0,0.0,0.0,0.0,0.0,0.0,0.0,0.0,0.0,0.0,0.0,0.0,0.0,0.0,,,,,,,,,,,,,,,,,,,,,,,,,,,,,,,,,,,,,,,,,,,,,,,,,,,,,,,Tracheophyta; Eucalyptus L'Hér.; Pinus pinaster Aiton
2010,2010-08-07,Braga,Póvoa de Lanhoso,Lanhoso,MONTE DO PILAR (LANHOSO) (Belmonte),41.5774163,-8.2873121,NC,248.0,2010-08-07T22:00,25.7,56,16.2,27.0,0.0,0.0,0.0,0.0,0,1014.5,986.2,0,0,0,0,0.03,1.47,5.7,6.9,55,47,11.5,26.7,27.7,23.2,17.9,0.097,0.146,0.229,0.343,0,0.0,0.0,0.0,0.0,0.0,0.0,0.0,0.0,0.0,0.0,0.0,0.0,0.0,,,,,,,,,,,,,,,,,,,,,,,,,,,,,,,,,,,,,,,,,,,,,,,,,,,,,,,Eucalyptus L'Hér.; Pinus pinaster Aiton; Magnoliopsida; Tracheophyta; Quercus L.
2010,2010-08-06,Porto,TROFA,Covelas,COVELAS (Covelos),41.3052617,-8.5315092,NC,152.0,2010-08-06T15:00,32.8,22,8.2,32.8,0.0,0.0,0.0,0.0,0,1012.1,995.1,0,0,0,0,0.67,3.88,8.3,10.6,18,24,20.2,35.8,26.4,23.3,18.4,0.116,0.138,0.203,0.344,1,3600.0,788.3,694.0,94.3,891.8,788.3,1034.7,836.0,736.0,100.0,891.8,836.0,1097.2,,,,,,,,,,,,,,,,,,,,,,,,,,,,,,,,,,,,,,,,,,,,,,,,,,,,,,,Magnoliopsida; Pinus pinaster Aiton; Vitis vinifera L.; Quercus L.; Tracheophyta; Eucalyptus L'Hér.; Olea europaea L.; ; Pinales
2010,2010-07-26,Aveiro,Santa Maria da Feira,Gião,R.Outeiro (Alto do Outeiro),40.9953677,-8.4719624,Desconhecida,174.0,2010-07-26T12:00,32.1,27,11.0,32.1,0.0,0.0,0.0,0.0,0,1014.7,995.2,0,0,0,0,0.75,3.48,15.3,20.3,71,73,37.4,33.8,25.6,21.5,17.6,0.108,0.122,0.187,0.326,1,3600.0,936.7,827.8,108.9,901.2,936.7,1217.9,912.0,806.0,106.0,901.2,912.0,1185.8,,,,,,,,,,,,,,,,,,,,,,,,,,,,,,,,,,,,,,,,,,,,,,,,,,,,,,,Tracheophyta; Pinus pinaster Aiton; Eucalyptus L'Hér.; Magnoliopsida
2010,2010-08-06,Braga,Vila Nova de Famalicão,Lousado,L. CARVALHOSA(LOUSADO) (JOANE),41.3570723,-8.5270427,NC,59.0,2010-08-06T22:00,25.1,48,13.3,24.9,0.0,0.0,0.0,0.0,0,1012.8,1006.0,0,0,0,0,0.07,1.67,8.9,16.6,27,22,18.0,26.6,27.7,23.8,18.8,0.114,0.14,0.208,0.343,0,0.0,0.0,0.0,0.0,0.0,0.0,0.0,0.0,0.0,0.0,0.0,0.0,0.0,,,,,,,,,,,,,,,,,,,,,,,,,,,,,,,,,,,,,,,,,,,,,,,,,,,,,,,Eucalyptus L'Hér.; Pinus pinaster Aiton; Vitis vinifera L.; Magnoliopsida; Tracheophyta
2010,2010-07-29,Braga,Braga,Gualtar,BELAVISTA(GUALTAR) (Bela Vista),41.5604916,-8.3939557,NC,198.0,2010-07-29T19:00,31.0,36,14.4,30.8,0.0,0.0,0.0,0.0,0,1012.1,989.9,0,0,0,0,0.22,2.86,11.1,20.5,331,338,27.0,32.8,27.9,22.0,17.0,0.097,0.154,0.244,0.35,1,3600.0,115.3,82.4,32.9,545.9,115.3,200.4,186.0,133.0,53.0,545.9,186.0,323.2,,,,,,,,,,,,,,,,,,,,,,,,,,,,,,,,,,,,,,,,,,,,,,,,,,,,,,,Tracheophyta; Pinales; Magnoliopsida
2010,2010-08-01,Viana do Castelo,Caminha,Âncora,Quinta da Trindade,41.7959527,-8.8510326,Desconhecida,48.0,2010-08-01T09:00,22.0,67,15.5,20.9,0.0,0.0,0.0,0.0,0,1015.0,1009.4,13,1,0,40,0.3,0.88,20.5,27.0,357,2,36.0,24.5,24.9,22.9,18.2,0.082,0.163,0.251,0.351,1,3600.0,544.1,433.4,110.7,712.7,544.1,807.4,472.0,376.0,96.0,712.7,472.0,700.4,,,,,,,,,,,,,,,,,,,,,,,,,,,,,,,,,,,,,,,,,,,,,,,,,,,,,,,Eucalyptus L'Hér.; Magnoliopsida; Tracheophyta; Pinus pinaster Aiton
2010,2010-08-06,Braga,Vila Verde,Barbudo,TRAV. RIBEIRAL(BARBUDO) (ABOIM DA NOBREGA),41.648453,-8.451759835957457,NC,138.0,2010-08-06T23:00,22.8,54,13.1,21.7,0.0,0.0,0.0,0.0,0,1013.2,997.2,0,0,0,0,0.09,1.27,14.3,23.0,18,32,25.2,24.5,26.8,23.2,18.1,0.095,0.143,0.224,0.34,0,0.0,0.0,0.0,0.0,0.0,0.0,0.0,0.0,0.0,0.0,0.0,0.0,0.0,,,,,,,,,,,,,,,,,,,,,,,,,,,,,,,,,,,,,,,,,,,,,,,,,,,,,,,Vitis vinifera L.; Eucalyptus L'Hér.; Pinus pinaster Aiton; Magnoliopsida; Castanea sativa Mill.
2010,2010-08-06,Porto,Marco de Canaveses,Soalhães,LG. QUINTA (BANHO E CARVALHOSA),41.1603957,-8.0979057,NC,397.0,2010-08-06T23:00,23.1,33,5.8,20.8,0.0,0.0,0.0,0.0,0,1013.6,968.4,0,0,0,0,0.09,1.91,8.9,11.4,76,72,20.5,22.7,25.9,22.4,17.1,0.095,0.148,0.231,0.344,0,0.0,0.0,0.0,0.0,0.0,0.0,0.0,0.0,0.0,0.0,0.0,0.0,0.0,,,,,,,,,,,,,,,,,,,,,,,,,,,,,,,,,,,,,,,,,,,,,,,,,,,,,,,Magnoliopsida; Tracheophyta; Quercus L.; Eucalyptus L'Hér.; Pinus pinaster Aiton; Vitis vinifera L.; Castanea sativa Mill.; Pinales; 
2010,2010-07-20,Bragança,Mirandela,Torre de Dona Chama,TORRE DE DONA CHAMA,41.6564272,-7.1254633,NC,334.0,2010-07-20T13:00,29.3,29,9.4,29.0,0.0,0.0,0.0,0.0,0,1013.1,975.7,8,0,0,28,0.75,2.91,15.7,20.4,290,291,37.8,32.8,25.3,21.5,16.3,0.122,0.171,0.237,0.354,1,3600.0,957.9,847.2,110.8,911.8,957.9,1230.6,960.0,849.0,111.0,911.8,960.0,1233.3,,,,,,,,,,,,,,,,,,,,,,,,,,,,,,,,,,,,,,,,,,,,,,,,,,,,,,,Magnoliopsida; Pinales; Tracheophyta; Olea europaea L.
2010,2010-07-26,Coimbra,Cantanhede,Tocha,Pereiroes (Pereirães),40.3135812,-8.7522147,Desconhecida,65.0,2010-07-26T15:00,31.0,31,11.9,31.2,0.0,0.0,0.0,0.0,0,1011.8,1004.4,0,0,0,0,0.7,3.11,14.4,18.2,357,9,28.8,37.6,25.3,21.0,18.1,0.052,0.07,0.114,0.227,1,3600.0,816.0,715.8,100.2,887.5,816.0,1069.3,863.0,757.0,106.0,887.5,863.0,1130.9,,,,,,,,,,,,,,,,,,,,,,,,,,,,,,,,,,,,,,,,,,,,,,,,,,,,,,,Tracheophyta; Eucalyptus L'Hér.
2010,2010-08-01,Porto,Paredes,Bitarães,AV SAO TOME (SOBROSA),41.2244148,-8.3213483,NC,189.0,2010-08-01T17:00,28.8,47,16.3,28.9,0.0,0.0,0.0,0.0,0,1013.3,991.9,1,0,0,3,0.44,2.11,14.2,18.8,300,302,31.7,33.4,27.1,22.8,17.7,0.11,0.146,0.224,0.348,1,3600.0,473.1,392.9,80.1,778.6,473.1,670.1,549.0,456.0,93.0,778.6,549.0,777.6,,,,,,,,,,,,,,,,,,,,,,,,,,,,,,,,,,,,,,,,,,,,,,,,,,,,,,,Magnoliopsida; Pinus pinaster Aiton; Eucalyptus L'Hér.; Tracheophyta; Vitis vinifera L.; Quercus L.
2010,2010-07-26,Aveiro,Arouca,Alvarenga,Várzeas,40.9662166,-8.1727407,Desconhecida,338.0,2010-07-26T12:00,30.7,30,11.4,30.6,0.0,0.0,0.0,0.0,0,1015.3,977.6,0,0,0,0,0.74,3.08,16.7,22.5,83,83,47.2,31.8,24.4,21.0,16.9,0.101,0.164,0.256,0.356,1,3600.0,942.6,833.8,108.8,906.9,942.6,1218.9,918.0,812.0,106.0,906.9,918.0,1187.1,,,,,,,,,,,,,,,,,,,,,,,,,,,,,,,,,,,,,,,,,,,,,,,,,,,,,,,Tracheophyta; Magnoliopsida; Quercus L.; Eucalyptus L'Hér.; Castanea sativa Mill.; Pinus pinaster Aiton
2010,2010-07-26,Porto,TROFA,Bougado (santiago),LG. CIDAES (SAMORA CORREIA),41.3302367,-8.5724918,NC,31.0,2010-07-26T15:00,34.6,27,12.6,35.5,0.0,0.0,0.0,0.0,0,1013.4,1009.9,0,0,0,0,0.72,4.05,11.2,13.8,354,6,23.0,37.0,27.0,22.1,18.2,0.106,0.152,0.235,0.352,1,3600.0,802.1,703.7,98.4,878.0,802.1,1062.7,848.0,744.0,104.0,878.0,848.0,1123.5,,,,,,,,,,,,,,,,,,,,,,,,,,,,,,,,,,,,,,,,,,,,,,,,,,,,,,,Tracheophyta; Magnoliopsida; Pinales
2010,2010-08-01,Porto,Santo Tirso,Vilarinho,L.AMIEDO (AVES),41.3604512,-8.3352657,NC,187.0,2010-08-01T11:00,27.4,56,17.9,30.6,0.0,0.0,0.0,0.0,1,1014.5,993.2,41,19,0,81,0.55,1.59,7.4,8.7,241,240,23.8,31.5,25.6,22.9,17.5,0.098,0.149,0.234,0.345,1,3600.0,832.6,706.7,125.9,830.4,832.6,1129.9,787.0,668.0,119.0,830.4,787.0,1068.0,,,,,,,,,,,,,,,,,,,,,,,,,,,,,,,,,,,,,,,,,,,,,,,,,,,,,,,Eucalyptus L'Hér.; Tracheophyta; Pinus pinaster Aiton; Magnoliopsida
2010,2010-08-07,Porto,Paredes,Cete,L.BARREIRO (Barreiro),41.1797041,-8.360269,Desconhecida,188.0,2010-08-07T00:00,22.0,47,10.3,20.7,0.0,0.0,0.0,0.0,0,1012.9,991.1,0,0,0,0,0.06,1.39,9.0,12.9,85,67,16.6,23.2,26.8,23.2,18.2,0.119,0.135,0.197,0.346,0,0.0,0.0,0.0,0.0,0.0,0.0,0.0,0.0,0.0,0.0,0.0,0.0,0.0,,,,,,,,,,,,,,,,,,,,,,,,,,,,,,,,,,,,,,,,,,,,,,,,,,,,,,,Magnoliopsida; Pinus pinaster Aiton; Eucalyptus L'Hér.; Tracheophyta; Vitis vinifera L.
2010,2010-08-01,Lisboa,Cascais,Cascais,Ribeira das Vinhas,38.71502635,-9.456762952650216,NC,68.0,2010-08-01T17:00,21.4,74,16.6,19.6,0.0,0.0,0.0,0.0,0,1015.0,1007.0,2,0,0,6,0.31,0.66,28.9,37.9,341,343,47.2,28.1,24.2,22.5,19.3,0.078,0.129,0.185,0.286,1,3600.0,485.7,406.5,79.2,786.8,485.7,685.9,564.0,472.0,92.0,786.8,564.0,796.5,,,,,,,,,,,,,,,,,,,,,,,,,,,,,,,,,,,,,,,,,,,,,,,,,,,,,,,Pinus pinea L.; Tracheophyta; Magnoliopsida; Pinus pinaster Aiton
2010,2010-08-07,Lisboa,Sintra,Montelavar,Maceira,38.8571312,-9.3250289,Desconhecida,150.0,2010-08-07T23:00,20.4,76,16.0,21.5,0.0,0.0,0.0,0.0,0,1015.0,997.5,11,0,0,38,0.01,0.58,6.9,10.5,313,322,13.7,23.8,27.1,23.4,19.9,0.083,0.163,0.232,0.343,0,0.0,0.0,0.0,0.0,0.0,0.0,0.0,0.0,0.0,0.0,0.0,0.0,0.0,,,,,,,,,,,,,,,,,,,,,,,,,,,,,,,,,,,,,,,,,,,,,,,,,,,,,,,Tracheophyta; Magnoliopsida; Pinus pinaster Aiton; Eucalyptus L'Hér.; Vitis vinifera L.; 
2010,2010-07-20,Aveiro,Castelo de Paiva,Real,Vale do Lobo (Ponte de Vale de Fens),41.0338464,-8.2910799,Desconhecida,173.0,2010-07-20T15:00,23.8,57,14.8,23.9,0.0,0.0,0.0,0.0,1,1015.6,995.6,22,21,1,8,0.53,1.26,19.7,25.0,310,311,38.9,29.8,23.6,21.0,17.0,0.117,0.162,0.249,0.359,1,3600.0,788.0,648.9,139.1,802.2,788.0,1071.4,833.0,686.0,147.0,802.2,833.0,1132.7,,,,,,,,,,,,,,,,,,,,,,,,,,,,,,,,,,,,,,,,,,,,,,,,,,,,,,,Eucalyptus L'Hér.; Vitis vinifera L.; Pinus pinaster Aiton; Tracheophyta; Magnoliopsida
2010,2010-08-01,Braga,Fafe,Moreira do Rei,MARINHÃO (MOREIRA DE REI) (Marinhão),41.479027,-8.11899,NC,499.0,2010-08-01T12:00,27.8,52,17.2,30.9,0.0,0.0,0.0,0.0,2,1014.8,959.2,61,36,0,94,0.62,1.77,8.9,10.7,256,256,28.4,33.1,25.1,21.6,16.0,0.096,0.151,0.238,0.348,1,3600.0,892.3,727.0,165.3,802.0,892.3,1203.5,869.0,708.0,161.0,802.0,869.0,1172.1,,,,,,,,,,,,,,,,,,,,,,,,,,,,,,,,,,,,,,,,,,,,,,,,,,,,,,,Eucalyptus L'Hér.; Tracheophyta; Magnoliopsida; Pinus pinaster Aiton
2010,2010-08-06,Braga,Barcelos,Paradela,OUTEIRAL(PARADELA)M3 (Outeiral),41.46270265,-8.679326648641545,NC,34.0,2010-08-06T19:00,27.3,47,15.0,26.6,0.0,0.0,0.0,0.0,0,1012.2,1008.3,0,0,0,0,0.22,1.93,16.9,28.6,340,345,29.5,30.3,26.8,23.3,18.8,0.101,0.145,0.224,0.34,1,3600.0,96.8,68.0,28.8,532.7,96.8,169.7,168.0,118.0,50.0,532.7,168.0,294.5,,,,,,,,,,,,,,,,,,,,,,,,,,,,,,,,,,,,,,,,,,,,,,,,,,,,,,,Eucalyptus L'Hér.; Pinus pinaster Aiton; Tracheophyta; Vitis vinifera L.
2010,2010-07-29,Viana do Castelo,Viana do Castelo,Montaria,SRª.MINHO (Praça Alto Minho),41.7909521,-8.7282473,Desconhecida,290.0,2010-07-29T18:00,29.2,37,13.2,28.4,0.0,0.0,0.0,0.0,0,1012.8,980.3,0,0,0,0,0.34,2.54,12.5,18.8,348,353,33.1,32.0,26.4,21.2,16.7,0.098,0.154,0.24,0.348,1,3600.0,296.1,237.5,58.6,701.7,296.1,449.1,374.0,300.0,74.0,701.7,374.0,567.2,,,,,,,,,,,,,,,,,,,,,,,,,,,,,,,,,,,,,,,,,,,,,,,,,,,,,,,Tracheophyta; Magnoliopsida; Eucalyptus L'Hér.
2010,2010-08-06,Porto,Amarante,Lomba,PONTE TELHEIRA (Bandoleiro-Ponte),41.2824416,-8.060305059803397,NC,120.0,2010-08-06T23:00,24.7,34,7.8,22.8,0.0,0.0,0.0,0.0,0,1012.9,999.1,0,0,0,0,0.09,2.06,9.2,11.4,79,62,15.5,24.2,27.2,23.7,18.6,0.102,0.148,0.231,0.344,0,0.0,0.0,0.0,0.0,0.0,0.0,0.0,0.0,0.0,0.0,0.0,0.0,0.0,,,,,,,,,,,,,,,,,,,,,,,,,,,,,,,,,,,,,,,,,,,,,,,,,,,,,,,Magnoliopsida; Eucalyptus L'Hér.; Vitis vinifera L.; Pinus pinaster Aiton; Tracheophyta; 
2010,2010-07-26,Braga,Guimarães,São Faustino,BRASIL (S. FAUSTINO) (CASTELÕES),41.3885593,-8.2736958,NC,280.0,2010-07-26T22:00,26.8,41,12.4,26.0,0.0,0.0,0.0,0.0,0,1013.3,981.6,0,0,0,0,0.1,2.08,10.2,13.2,58,73,16.6,26.1,26.7,21.2,16.7,0.098,0.156,0.244,0.35,0,0.0,0.0,0.0,0.0,0.0,0.0,0.0,0.0,0.0,0.0,0.0,0.0,0.0,,,,,,,,,,,,,,,,,,,,,,,,,,,,,,,,,,,,,,,,,,,,,,,,,,,,,,,Tracheophyta; Pinus pinaster Aiton; Magnoliopsida; Eucalyptus L'Hér.
2010,2010-07-29,Porto,Penafiel,Recezinhos (são Martinho),Regadas,41.2726266,-8.2833754,NC,290.0,2010-07-29T21:00,28.3,46,15.5,29.8,0.0,0.0,0.0,0.0,0,1012.6,980.0,0,0,0,0,0.01,2.09,2.3,6.2,309,350,13.0,28.7,27.9,22.0,16.9,0.092,0.153,0.24,0.349,0,0.0,0.0,0.0,0.0,0.0,0.0,0.0,0.0,0.0,0.0,0.0,0.0,0.0,,,,,,,,,,,,,,,,,,,,,,,,,,,,,,,,,,,,,,,,,,,,,,,,,,,,,,,Eucalyptus L'Hér.; Tracheophyta
2010,2010-08-01,Porto,Felgueiras,Moure,LG. ARGONDA (PINHEIRO),41.3528045,-8.1754517,NC,306.0,2010-08-01T15:00,29.9,45,16.6,31.9,0.0,0.0,0.0,0.0,0,1014.0,979.7,1,0,0,3,0.6,2.34,11.2,13.9,285,287,29.5,35.3,26.8,22.6,17.1,0.097,0.147,0.231,0.344,1,3600.0,729.4,504.8,224.6,641.9,729.4,1044.1,773.0,535.0,238.0,641.9,773.0,1106.6,,,,,,,,,,,,,,,,,,,,,,,,,,,,,,,,,,,,,,,,,,,,,,,,,,,,,,,Magnoliopsida; Tracheophyta; Pinus pinaster Aiton; Eucalyptus L'Hér.; Vitis vinifera L.
2010,2010-08-01,Aveiro,Oliveira de Azeméis,Macinhata da Seixa,Alto do Monte,40.8190363,-8.4683213,Desconhecida,191.0,2010-08-01T21:00,20.1,71,14.8,19.6,0.0,0.0,0.0,0.0,0,1015.3,993.0,0,0,0,0,0.05,0.68,14.5,25.5,333,338,30.2,24.5,26.6,23.2,18.2,0.091,0.135,0.211,0.327,0,0.0,0.0,0.0,0.0,0.0,0.0,0.0,0.0,0.0,0.0,0.0,0.0,0.0,,,,,,,,,,,,,,,,,,,,,,,,,,,,,,,,,,,,,,,,,,,,,,,,,,,,,,,Tracheophyta; Magnoliopsida; Eucalyptus L'Hér.
2010,2010-07-04,Setúbal,Montijo,Pegões,EN Nº4 HERDADE DO GAMOAL JT CRUZ PIÇARRAS (CANHA),38.70171365,-8.622602999626979,NC,80.0,2010-07-04T04:00,20.2,79,16.3,20.9,0.0,0.0,0.0,0.0,0,1016.3,1006.9,2,0,0,7,0.02,0.51,9.9,21.1,19,27,18.7,20.8,25.6,22.8,18.2,0.048,0.075,0.134,0.21,0,0.0,0.0,0.0,0.0,0.0,0.0,0.0,0.0,0.0,0.0,0.0,0.0,0.0,,,,,,,,,,,,,,,,,,,,,,,,,,,,,,,,,,,,,,,,,,,,,,,,,,,,,,,Pinus pinaster Aiton; Vitis vinifera L.; Pinus pinea L.; Tracheophyta; Quercus suber L.; Eucalyptus L'Hér.; Magnoliopsida; Olea europaea L.; Pinales; 
2010,2010-08-08,Aveiro,Oliveira de Azeméis,Travanca,Outeiro,40.8108312,-8.4729562,Desconhecida,209.0,2010-08-08T08:00,25.6,55,15.8,26.5,0.0,0.0,0.0,0.0,0,1015.4,991.5,7,0,0,24,0.2,1.48,7.3,10.1,200,197,19.4,25.5,26.2,23.5,18.7,0.091,0.131,0.201,0.321,1,3600.0,351.6,264.1,87.6,611.3,351.6,574.6,277.0,208.0,69.0,611.3,277.0,452.6,,,,,,,,,,,,,,,,,,,,,,,,,,,,,,,,,,,,,,,,,,,,,,,,,,,,,,,Magnoliopsida; Tracheophyta; Pinus pinaster Aiton; Eucalyptus L'Hér.
2010,2010-07-04,Vila Real,Vila Pouca de Aguiar,Tresminas,REGATO DAS VINHAS - Vilarelho,41.480132,-7.5179742,Desconhecida,719.0,2010-07-04T14:00,29.7,39,14.2,32.7,0.0,0.0,0.0,0.0,0,1019.8,940.9,1,1,0,0,0.68,2.56,4.7,5.8,4,4,15.8,30.7,22.3,18.2,12.9,0.182,0.215,0.276,0.371,1,3600.0,885.0,748.9,136.2,832.1,885.0,1190.7,910.0,770.0,140.0,832.1,910.0,1224.4,,,,,,,,,,,,,,,,,,,,,,,,,,,,,,,,,,,,,,,,,,,,,,,,,,,,,,,Pinus pinaster Aiton; Magnoliopsida; Tracheophyta
2010,2010-07-26,Porto,Gondomar,Baguim Do Monte (rio Tinto),RUA DA MORENA (Rua de João de Deus),41.18562705,-8.5415098,NC,122.0,2010-07-26T17:00,34.5,26,12.2,33.9,0.0,0.0,0.0,0.0,0,1012.0,998.4,0,0,0,0,0.5,4.05,9.5,12.3,11,15,20.5,36.0,27.2,21.8,17.7,0.105,0.149,0.231,0.352,1,3600.0,490.3,414.1,76.2,796.7,490.3,689.1,566.0,478.0,88.0,796.7,566.0,795.6,,,,,,,,,,,,,,,,,,,,,,,,,,,,,,,,,,,,,,,,,,,,,,,,,,,,,,,Magnoliopsida; Tracheophyta
2010,2010-08-01,Aveiro,Oliveira de Azeméis,Ossela,Ribeira de Baixo,40.8282452,-8.4356829,Desconhecida,241.0,2010-08-01T15:00,28.0,52,17.1,29.5,0.0,0.0,0.0,0.0,0,1014.9,987.6,5,0,0,17,0.57,1.83,15.5,19.3,312,315,37.4,34.8,26.7,23.4,18.2,0.096,0.142,0.221,0.339,1,3600.0,734.4,533.3,201.1,674.0,734.4,1050.6,778.0,565.0,213.0,674.0,778.0,1113.0,,,,,,,,,,,,,,,,,,,,,,,,,,,,,,,,,,,,,,,,,,,,,,,,,,,,,,,Eucalyptus L'Hér.; Tracheophyta; Pinus pinaster Aiton; Magnoliopsida; Vitis vinifera L.
2010,2010-08-06,Porto,Marco de Canaveses,Alpendurada e Matos,L.VILA CÊTE,41.0866803,-8.2483748,Desconhecida,142.0,2010-08-06T14:00,33.1,21,8.0,33.5,0.0,0.0,0.0,0.0,0,1012.5,996.6,0,0,0,0,0.73,3.99,8.9,11.5,40,46,21.6,35.6,26.3,23.6,18.6,0.1,0.148,0.233,0.345,1,3600.0,886.7,784.6,102.1,906.2,886.7,1151.1,912.0,807.0,105.0,906.2,912.0,1184.0,,,,,,,,,,,,,,,,,,,,,,,,,,,,,,,,,,,,,,,,,,,,,,,,,,,,,,,Tracheophyta; Vitis vinifera L.; Pinus pinaster Aiton; Magnoliopsida; Castanea sativa Mill.; Eucalyptus L'Hér.
2010,2010-08-09,Porto,Santo Tirso,Rebordões,Cancelo,41.3524388,-8.4295071,NC,114.0,2010-08-09T02:00,23.1,71,17.5,25.4,0.0,0.0,0.0,0.0,2,1016.1,1002.8,52,0,85,4,0.0,0.83,3.1,4.7,54,94,9.4,22.7,27.1,23.7,18.6,0.098,0.142,0.218,0.337,0,0.0,0.0,0.0,0.0,0.0,0.0,0.0,0.0,0.0,0.0,0.0,0.0,0.0,,,,,,,,,,,,,,,,,,,,,,,,,,,,,,,,,,,,,,,,,,,,,,,,,,,,,,,Tracheophyta; Pinus pinaster Aiton; Eucalyptus L'Hér.; Magnoliopsida; Vitis vinifera L.
2010,2010-08-01,Aveiro,Arouca,Urrô,Prançoilo,40.916294,-8.2904033,NC,275.0,2010-08-01T10:00,24.7,62,17.0,27.2,0.0,0.0,0.0,0.0,0,1015.0,983.6,17,19,0,0,0.44,1.18,5.6,6.7,220,216,20.2,28.7,25.1,22.7,17.6,0.102,0.148,0.231,0.348,1,3600.0,738.1,637.2,100.9,846.9,738.1,999.0,673.0,581.0,92.0,846.9,673.0,910.8,,,,,,,,,,,,,,,,,,,,,,,,,,,,,,,,,,,,,,,,,,,,,,,,,,,,,,,Eucalyptus L'Hér.; Magnoliopsida; Vitis vinifera L.; Pinus pinaster Aiton
2010,2010-07-26,Braga,Guimarães,Oleiros,L. TRAPEIRA - OLEIROS (Lameiros),41.4606092,-8.4016102,NC,253.0,2010-07-26T14:00,33.2,27,11.7,34.8,0.0,0.0,0.0,0.0,0,1014.0,985.9,0,0,0,0,0.73,3.7,7.9,10.4,66,70,24.5,35.2,25.3,20.8,16.5,0.099,0.157,0.246,0.35,1,3600.0,901.7,797.5,104.2,901.8,901.7,1172.5,926.0,819.0,107.0,901.8,926.0,1204.1,,,,,,,,,,,,,,,,,,,,,,,,,,,,,,,,,,,,,,,,,,,,,,,,,,,,,,,Eucalyptus L'Hér.; Pinus pinaster Aiton; Tracheophyta; Magnoliopsida; Vitis vinifera L.
2010,2010-07-26,Braga,VIZELA,Santa Eulália,L. REQUEIXOS - STª EULALIA (NESPEREIRA),41.36599705,-8.283225703660113,NC,164.0,2010-07-26T20:00,30.7,39,15.1,31.5,0.0,0.0,0.0,0.0,0,1011.9,993.4,0,0,0,0,0.08,2.69,6.6,14.4,351,1,13.3,30.7,27.2,21.4,17.1,0.099,0.157,0.245,0.35,0,1665.05,0.0,0.0,0.0,0.0,0.0,0.0,40.0,23.0,17.0,200.1,40.0,93.7,,,,,,,,,,,,,,,,,,,,,,,,,,,,,,,,,,,,,,,,,,,,,,,,,,,,,,,Tracheophyta; Magnoliopsida; Vitis vinifera L.
2010,2010-07-20,Aveiro,Santa Maria da Feira,Caldas de São Jorge,Arcozelo,40.956178,-8.5083485,Desconhecida,219.0,2010-07-20T19:00,20.0,81,16.6,19.8,0.0,0.0,0.0,0.0,3,1014.8,989.3,94,96,1,24,0.09,0.46,17.6,24.2,311,312,38.2,25.3,23.8,20.9,16.9,0.113,0.127,0.198,0.33,1,952.37,68.6,15.5,53.0,91.7,68.6,224.1,106.0,24.0,82.0,91.7,106.0,346.5,,,,,,,,,,,,,,,,,,,,,,,,,,,,,,,,,,,,,,,,,,,,,,,,,,,,,,,Eucalyptus L'Hér.; Tracheophyta; Magnoliopsida; Pinales
2010,2010-07-26,Braga,Póvoa de Lanhoso,Garfe,L. MOINHO (GARFE) (FRIANDE),41.608162750000005,-8.699049194163852,NC,81.0,2010-07-26T08:00,24.7,50,13.6,23.7,0.0,0.0,0.0,0.0,0,1015.5,1006.1,0,0,0,0,0.26,1.55,14.8,22.8,76,85,27.7,24.1,24.2,21.3,17.6,0.101,0.156,0.242,0.348,1,3600.0,391.1,305.4,85.7,666.5,391.1,607.5,315.0,246.0,69.0,666.5,315.0,489.3,,,,,,,,,,,,,,,,,,,,,,,,,,,,,,,,,,,,,,,,,,,,,,,,,,,,,,,Tracheophyta; Eucalyptus L'Hér.; Pinus pinaster Aiton
2010,2010-08-01,Porto,Santo Tirso,Monte Córdova,L.PONTE NOVA (Ponte Nova),41.3146636,-8.4652611,NC,138.0,2010-08-01T15:00,29.1,46,16.4,30.0,0.0,0.0,0.0,0.0,0,1014.2,998.5,0,0,0,0,0.61,2.16,17.6,22.4,314,318,34.9,33.8,26.6,23.1,18.0,0.117,0.14,0.211,0.348,1,3600.0,746.0,556.2,189.8,704.5,746.0,1048.2,790.0,589.0,201.0,704.5,790.0,1110.0,,,,,,,,,,,,,,,,,,,,,,,,,,,,,,,,,,,,,,,,,,,,,,,,,,,,,,,Magnoliopsida; Pinus pinaster Aiton; Tracheophyta; Eucalyptus L'Hér.; Vitis vinifera L.
2010,2010-08-01,Aveiro,Albergaria-a-Velha,Branca,Albergaria-a-Nova,40.743211,-8.4902351,Desconhecida,155.0,2010-08-01T16:00,27.1,51,16.0,27.0,0.0,0.0,0.0,0.0,0,1014.5,996.8,0,0,0,1,0.5,1.76,18.6,23.5,316,319,40.7,34.6,26.4,23.0,18.4,0.065,0.09,0.139,0.258,1,3600.0,606.2,447.2,159.1,673.2,606.2,882.0,667.0,492.0,175.0,673.2,667.0,970.4,,,,,,,,,,,,,,,,,,,,,,,,,,,,,,,,,,,,,,,,,,,,,,,,,,,,,,,Eucalyptus L'Hér.; Tracheophyta
2010,2010-07-26,Setúbal,Seixal,Fernão Ferro,JUNTO A ROTUNDA DE FERNÃO FERRO (Castelo),38.5730422,-9.0823756,NC,62.0,2010-07-26T15:00,35.6,19,8.5,35.2,0.0,0.0,0.0,0.0,0,1010.6,1003.7,0,0,0,0,0.77,4.71,12.4,15.7,343,351,23.0,43.5,27.7,22.6,19.6,0.052,0.069,0.117,0.227,1,3600.0,829.0,729.8,99.3,894.3,829.0,1081.9,877.0,772.0,105.0,894.3,877.0,1144.5,,,,,,,,,,,,,,,,,,,,,,,,,,,,,,,,,,,,,,,,,,,,,,,,,,,,,,,Tracheophyta
2010,2010-08-07,Braga,Vila Nova de Famalicão,Arnoso (Santa Maria),MOINHOS (ARNOSO STª MARIA)) (Moinhos),41.4675071,-8.497075093328993,NC,151.0,2010-08-07T22:00,25.9,55,16.2,27.0,0.0,0.0,0.0,0.0,0,1013.8,996.5,0,0,0,0,0.04,1.5,7.0,11.2,21,33,13.3,27.1,27.8,23.3,18.2,0.098,0.142,0.22,0.338,0,0.0,0.0,0.0,0.0,0.0,0.0,0.0,0.0,0.0,0.0,0.0,0.0,0.0,,,,,,,,,,,,,,,,,,,,,,,,,,,,,,,,,,,,,,,,,,,,,,,,,,,,,,,Eucalyptus L'Hér.; Tracheophyta; Vitis vinifera L.
2010,2010-07-26,Aveiro,Santa Maria da Feira,Argoncilhe,Largo São Pedro,41.0183885,-8.5477254,Desconhecida,225.0,2010-07-26T15:00,34.5,24,10.9,34.8,0.0,0.0,0.0,0.0,0,1013.0,988.1,0,0,0,0,0.72,4.17,11.8,15.3,50,56,25.6,37.2,26.3,21.2,17.3,0.107,0.122,0.186,0.325,1,3600.0,806.4,709.0,97.4,884.6,806.4,1062.7,853.0,750.0,103.0,884.6,853.0,1124.1,,,,,,,,,,,,,,,,,,,,,,,,,,,,,,,,,,,,,,,,,,,,,,,,,,,,,,,Eucalyptus L'Hér.; Magnoliopsida; Tracheophyta; Quercus L.
2010,2010-06-14,Lisboa,Sintra,Algueirão-Mem Martins,TAPADA DAS MERCES (Casal da Tapada),38.7999099,-9.3397834,NC,166.0,2010-06-14T13:00,20.2,67,14.0,19.3,0.0,0.0,0.0,0.0,0,1014.9,995.5,7,0,0,23,0.49,0.77,28.1,35.5,339,340,43.6,23.0,18.9,17.8,15.9,0.236,0.239,0.29,0.354,1,3600.0,970.0,846.1,123.9,881.2,970.0,1273.2,971.0,847.0,124.0,881.2,971.0,1274.5,,,,,,,,,,,,,,,,,,,,,,,,,,,,,,,,,,,,,,,,,,,,,,,,,,,,,,,Tracheophyta; Magnoliopsida; Pinales; 
2010,2010-07-26,Porto,Paredes,Rebordosa,LG CAVADAS (VILELA),41.2202567,-8.4112601,NC,216.0,2010-07-26T16:00,34.5,24,10.8,34.3,0.0,0.0,0.0,0.0,0,1012.7,988.8,0,0,0,0,0.62,4.17,9.8,12.8,36,40,20.2,35.3,26.0,21.1,17.0,0.124,0.142,0.22,0.354,1,3600.0,662.6,575.1,87.5,852.4,662.6,894.6,727.0,631.0,96.0,852.4,727.0,981.5,,,,,,,,,,,,,,,,,,,,,,,,,,,,,,,,,,,,,,,,,,,,,,,,,,,,,,,Magnoliopsida; Pinus pinaster Aiton; Eucalyptus L'Hér.; Tracheophyta; Vitis vinifera L.
2010,2010-07-21,Aveiro,Santa Maria da Feira,Romariz,Duas  Igrejas (Duas Igrejas),40.9556613,-8.4689201,Desconhecida,294.0,2010-07-21T13:00,22.0,52,11.8,21.8,0.0,0.0,0.0,0.0,1,1013.8,980.0,34,8,0,89,0.56,1.26,18.1,22.7,314,316,38.9,27.9,22.3,20.6,16.6,0.116,0.165,0.254,0.358,1,3600.0,912.1,696.1,216.0,745.4,912.1,1237.1,912.0,696.0,216.0,745.4,912.0,1236.9,,,,,,,,,,,,,,,,,,,,,,,,,,,,,,,,,,,,,,,,,,,,,,,,,,,,,,,Eucalyptus L'Hér.; Tracheophyta; Olea europaea L.; Pinales
2010,2010-07-27,Porto,Santo Tirso,Monte Córdova,Redundo,41.3169705,-8.4038033,NC,447.0,2010-07-27T00:00,21.9,47,10.0,20.1,0.0,0.0,0.0,0.0,0,1013.7,962.8,0,0,0,0,0.09,1.4,12.6,23.1,93,92,28.8,22.3,25.1,20.1,15.6,0.092,0.158,0.247,0.351,0,0.0,0.0,0.0,0.0,0.0,0.0,0.0,0.0,0.0,0.0,0.0,0.0,0.0,,,,,,,,,,,,,,,,,,,,,,,,,,,,,,,,,,,,,,,,,,,,,,,,,,,,,,,Eucalyptus L'Hér.; Pinus pinaster Aiton; Tracheophyta; Magnoliopsida
2010,2010-08-09,Porto,Penafiel,Paço de Sousa,Salgadinha,41.1662682,-8.3459799,Desconhecida,135.0,2010-08-09T05:00,23.3,67,16.8,25.5,0.0,0.0,0.0,0.0,0,1015.5,999.8,17,0,28,0,0.0,0.95,0.8,3.4,63,148,14.0,22.3,26.8,23.8,18.7,0.109,0.141,0.212,0.342,0,0.0,0.0,0.0,0.0,0.0,0.0,0.0,0.0,0.0,0.0,0.0,0.0,0.0,,,,,,,,,,,,,,,,,,,,,,,,,,,,,,,,,,,,,,,,,,,,,,,,,,,,,,,Tracheophyta; Eucalyptus L'Hér.; Magnoliopsida; Vitis vinifera L.
2010,2010-06-15,Vila Real,Vila Pouca de Aguiar,Vreia de Jales,Quintã,41.4363303,-7.5917163,NC,861.0,2010-06-15T13:00,16.3,45,4.5,11.9,0.0,0.0,0.0,0.0,2,1018.7,921.1,70,77,1,0,0.33,1.01,21.0,30.2,12,12,56.9,16.9,14.2,13.7,10.7,0.319,0.333,0.312,0.382,1,3324.36,499.1,161.4,337.7,170.8,499.1,1252.6,501.0,162.0,339.0,170.8,501.0,1257.3,,,,,,,,,,,,,,,,,,,,,,,,,,,,,,,,,,,,,,,,,,,,,,,,,,,,,,,Magnoliopsida; Tracheophyta; Pinus pinaster Aiton
2010,2010-06-15,Coimbra,Coimbra,São Silvestre,s silvestre (SÃO SILVESTRE),40.2358448,-8.5264719,NC,26.0,2010-06-15T14:00,23.9,36,7.9,20.7,0.0,0.0,0.0,0.0,0,1016.3,1013.3,7,0,11,0,0.6,1.91,27.3,36.0,347,351,46.8,25.8,19.8,18.1,15.5,0.112,0.149,0.135,0.246,1,3600.0,806.0,567.8,238.2,625.2,806.0,1204.1,829.0,584.0,245.0,625.2,829.0,1238.4,,,,,,,,,,,,,,,,,,,,,,,,,,,,,,,,,,,,,,,,,,,,,,,,,,,,,,,Tracheophyta; Vitis vinifera L.; Quercus L.; Magnoliopsida; Eucalyptus L'Hér.
2010,2010-07-26,Porto,Marco de Canaveses,Vila Boa de Quires,Rua de Covela (Gaia),41.2028475,-8.2047635,NC,275.0,2010-07-26T16:00,34.0,25,10.9,33.8,0.0,0.0,0.0,0.0,0,1013.2,982.8,0,0,0,0,0.62,4.02,10.5,13.6,68,68,27.4,35.0,25.3,20.7,16.6,0.104,0.163,0.251,0.353,1,3600.0,665.1,576.7,88.4,856.4,665.1,893.0,730.0,633.0,97.0,856.4,730.0,980.1,,,,,,,,,,,,,,,,,,,,,,,,,,,,,,,,,,,,,,,,,,,,,,,,,,,,,,,Pinus pinaster Aiton; Tracheophyta; Eucalyptus L'Hér.; Magnoliopsida; Vitis vinifera L.; Quercus L.; Pinales; 
2010,2010-07-26,Porto,Felgueiras,Penacova,L.CARTAS (Cartas),41.3711444,-8.2502985,NC,316.0,2010-07-26T18:00,33.8,24,10.5,33.0,0.0,0.0,0.0,0.0,0,1012.3,977.4,0,0,0,0,0.33,3.98,6.6,10.8,49,53,20.2,34.2,26.4,20.9,16.4,0.098,0.156,0.244,0.35,1,3600.0,301.0,242.4,58.6,711.4,301.0,451.8,380.0,306.0,74.0,711.4,380.0,570.3,,,,,,,,,,,,,,,,,,,,,,,,,,,,,,,,,,,,,,,,,,,,,,,,,,,,,,,Magnoliopsida; Vitis vinifera L.; Tracheophyta; Eucalyptus L'Hér.; Pinus pinaster Aiton
2010,2010-08-10,Aveiro,Santa Maria da Feira,Louredo,S. Vicente (Rua da Capela),40.9799889,-8.4600169,Desconhecida,204.0,2010-08-10T18:00,29.7,29,9.6,27.5,0.0,0.0,0.0,0.0,0,1017.0,993.9,0,0,0,0,0.35,2.97,14.4,19.7,328,332,31.0,34.4,29.0,23.7,18.7,0.104,0.117,0.161,0.314,1,3600.0,257.5,204.0,53.5,684.5,257.5,396.8,337.0,267.0,70.0,684.5,337.0,519.3,,,,,,,,,,,,,,,,,,,,,,,,,,,,,,,,,,,,,,,,,,,,,,,,,,,,,,,Tracheophyta; Eucalyptus L'Hér.; Magnoliopsida
2010,2010-08-01,Viseu,Moimenta da Beira,Sever,Arcas,41.0047245,-7.6988022,Desconhecida,814.0,2010-08-01T14:00,29.0,38,13.0,30.0,0.0,0.0,0.0,0.0,1,1013.8,925.4,27,0,0,90,0.68,2.5,13.0,16.3,265,265,33.5,34.4,25.5,21.1,15.5,0.12,0.141,0.215,0.352,1,3600.0,876.5,707.4,169.1,809.8,876.5,1159.9,902.0,728.0,174.0,809.8,902.0,1193.6,,,,,,,,,,,,,,,,,,,,,,,,,,,,,,,,,,,,,,,,,,,,,,,,,,,,,,,Tracheophyta; Vitis vinifera L.; Magnoliopsida; Castanea sativa Mill.; Pinus pinaster Aiton
2010,2010-07-26,Aveiro,Espinho,Guetim,Rua Francisco Silva (Ribeira de Silvalde),40.9906022,-8.6136603,Desconhecida,51.0,2010-07-26T17:00,35.4,25,12.4,33.6,0.0,0.0,0.0,0.0,0,1011.3,1005.6,0,0,0,0,0.59,4.3,17.8,23.4,352,3,30.2,38.3,28.2,22.4,18.5,0.09,0.125,0.196,0.325,1,3600.0,492.1,415.0,77.1,796.6,492.1,690.7,568.0,479.0,89.0,796.6,568.0,797.3,,,,,,,,,,,,,,,,,,,,,,,,,,,,,,,,,,,,,,,,,,,,,,,,,,,,,,,Eucalyptus L'Hér.; Magnoliopsida; Tracheophyta; Pinus pinaster Aiton; Acacia Mill.
2010,2010-07-27,Castelo Branco,Sertã,Carvalhal,Carvalhal dos Ramalhos (Carvalhal),39.8691586,-8.1398029,Desconhecida,433.0,2010-07-27T01:00,24.2,33,7.0,22.1,0.0,0.0,0.0,0.0,0,1012.7,963.8,0,0,0,0,0.09,2.02,9.2,23.7,79,77,23.8,25.0,28.5,23.1,18.1,0.108,0.153,0.2,0.336,0,0.0,0.0,0.0,0.0,0.0,0.0,0.0,0.0,0.0,0.0,0.0,0.0,0.0,,,,,,,,,,,,,,,,,,,,,,,,,,,,,,,,,,,,,,,,,,,,,,,,,,,,,,,Pinus pinaster Aiton; Eucalyptus L'Hér.; Tracheophyta; Magnoliopsida; Vitis vinifera L.; Olea europaea L.
2010,2010-08-06,Coimbra,Lousã,Foz De Arouce,Ponte Velha,40.179857,-8.2657099,Desconhecida,92.0,2010-08-06T22:00,27.0,37,11.1,25.8,0.0,0.0,0.0,0.0,0,1012.1,1001.6,0,0,0,0,0.11,2.24,10.6,20.9,24,27,20.9,27.9,28.1,23.6,19.2,0.053,0.07,0.097,0.219,0,0.0,0.0,0.0,0.0,0.0,0.0,0.0,0.0,0.0,0.0,0.0,0.0,0.0,,,,,,,,,,,,,,,,,,,,,,,,,,,,,,,,,,,,,,,,,,,,,,,,,,,,,,,Pinus pinaster Aiton; Tracheophyta; Magnoliopsida; Eucalyptus L'Hér.; Pinales; Acacia Mill.; Quercus L.; Olea europaea L.; 
2010,2010-08-10,Braga,Braga,Pedralva,MARCO (PEDRALVA) (Marco),41.57719105,-8.322675272587194,NC,478.0,2010-08-10T19:00,27.5,28,7.5,26.0,0.0,0.0,0.0,0.0,0,1017.3,963.8,0,0,0,0,0.14,2.64,6.0,14.6,287,290,31.3,30.7,27.5,22.7,17.3,0.098,0.146,0.229,0.343,1,3600.0,78.8,54.3,24.5,506.0,78.8,142.9,148.0,102.0,46.0,506.0,148.0,268.3,,,,,,,,,,,,,,,,,,,,,,,,,,,,,,,,,,,,,,,,,,,,,,,,,,,,,,,Magnoliopsida; Eucalyptus L'Hér.; Pinus pinaster Aiton; Tracheophyta; Pinales
2010,2010-07-28,Coimbra,Oliveira do Hospital,Lourosa,QT DA GALVA (TÁBUA),40.3177699,-7.9312021,Natural,432.0,2010-07-28T17:00,35.1,24,11.6,33.2,0.0,0.0,0.0,0.0,0,1015.0,967.8,0,0,0,0,0.56,4.28,16.3,21.4,305,306,35.3,38.3,29.0,22.6,17.4,0.096,0.146,0.229,0.343,1,3600.0,474.7,400.6,74.1,785.8,474.7,676.2,551.0,465.0,86.0,785.8,551.0,785.0,,,,,,,,,,,,,,,,,,,,,,,,,,,,,,,,,,,,,,,,,,,,,,,,,,,,,,,Tracheophyta; Olea europaea L.; Pinus pinaster Aiton; Magnoliopsida; Eucalyptus L'Hér.; Quercus L.; 
2010,2010-07-30,Porto,Felgueiras,Rande,L.CIMO DE VILA (Cimo de Vila),41.3308088,-8.2277133,NC,214.0,2010-07-30T02:00,23.0,69,17.0,24.3,0.0,0.0,0.0,0.0,0,1012.8,988.2,0,0,0,0,0.02,0.86,7.5,11.6,107,97,15.1,22.7,26.9,22.2,17.3,0.111,0.149,0.23,0.35,0,0.0,0.0,0.0,0.0,0.0,0.0,0.0,0.0,0.0,0.0,0.0,0.0,0.0,,,,,,,,,,,,,,,,,,,,,,,,,,,,,,,,,,,,,,,,,,,,,,,,,,,,,,,Magnoliopsida; Tracheophyta; Eucalyptus L'Hér.; Vitis vinifera L.
2010,2010-07-29,Braga,Fafe,São Gens,PAREDES(S.GENS) (Paredes),41.4468161,-8.13452635762129,Desconhecida,429.0,2010-07-29T09:00,27.0,46,14.3,27.4,0.0,0.0,0.0,0.0,0,1015.8,967.6,7,0,0,23,0.37,1.93,7.2,9.4,90,90,22.7,26.9,24.6,21.2,16.0,0.095,0.153,0.241,0.348,1,3600.0,584.3,487.8,96.4,784.2,584.3,825.4,509.0,425.0,84.0,784.2,509.0,719.0,,,,,,,,,,,,,,,,,,,,,,,,,,,,,,,,,,,,,,,,,,,,,,,,,,,,,,,Tracheophyta; Eucalyptus L'Hér.; Magnoliopsida; Pinales
2010,2010-08-09,Porto,Paredes,Cete,ZONA INDUSTRIAL (CETE),41.1714756,-8.3553953,NC,131.0,2010-08-09T08:00,25.8,61,17.7,28.0,0.0,0.0,0.0,0.0,0,1016.5,1001.4,18,0,27,5,0.16,1.31,4.2,4.5,329,331,13.0,25.8,26.3,23.8,18.8,0.119,0.135,0.194,0.344,1,3600.0,281.8,190.4,91.4,442.5,281.8,572.6,222.0,150.0,72.0,442.5,222.0,451.1,,,,,,,,,,,,,,,,,,,,,,,,,,,,,,,,,,,,,,,,,,,,,,,,,,,,,,,Magnoliopsida; Pinus pinaster Aiton; Eucalyptus L'Hér.; Tracheophyta; Vitis vinifera L.
2010,2010-06-19,Aveiro,Santa Maria da Feira,Guisande,Estrada Guisande - Azevedo (Estrada),40.9794439,-8.4773993,Desconhecida,225.0,2010-06-19T05:00,12.6,97,12.2,12.8,0.0,0.0,0.0,0.0,2,1016.9,990.0,66,73,0,0,0.0,0.04,3.6,6.5,6,6,15.5,14.7,18.1,17.1,14.4,0.233,0.253,0.259,0.35,0,0.0,0.0,0.0,0.0,0.0,0.0,0.0,0.0,0.0,0.0,0.0,0.0,0.0,,,,,,,,,,,,,,,,,,,,,,,,,,,,,,,,,,,,,,,,,,,,,,,,,,,,,,,Eucalyptus L'Hér.; Tracheophyta
2010,2010-08-01,Porto,Gondomar,Lomba,MONTE MEDA (Baguim do Monte),41.0617409,-8.4108172,NC,76.0,2010-08-01T15:00,29.3,50,17.7,29.5,0.0,0.0,0.0,0.0,0,1015.1,1006.4,3,0,0,11,0.61,2.04,25.1,32.7,328,332,45.4,35.0,27.3,23.7,18.6,0.108,0.145,0.224,0.349,1,3600.0,746.6,569.2,177.4,721.1,746.6,1048.0,791.0,603.0,188.0,721.1,791.0,1110.3,,,,,,,,,,,,,,,,,,,,,,,,,,,,,,,,,,,,,,,,,,,,,,,,,,,,,,,Magnoliopsida; Eucalyptus L'Hér.; Vitis vinifera L.; Pinus pinaster Aiton; Tracheophyta; 
2010,2010-08-08,Porto,Penafiel,Marecos,VARIANTE DE CAVALON (BUSTÊLO),41.186518,-8.2971088,Desconhecida,223.0,2010-08-08T01:00,24.0,54,14.0,24.4,0.0,0.0,0.0,0.0,0,1014.3,988.7,0,0,0,0,0.04,1.38,6.0,6.5,107,109,11.9,23.0,26.9,23.1,18.1,0.109,0.142,0.214,0.343,0,0.0,0.0,0.0,0.0,0.0,0.0,0.0,0.0,0.0,0.0,0.0,0.0,0.0,,,,,,,,,,,,,,,,,,,,,,,,,,,,,,,,,,,,,,,,,,,,,,,,,,,,,,,Tracheophyta; Eucalyptus L'Hér.; Vitis vinifera L.; Magnoliopsida
2010,2010-08-09,Porto,Vila Nova de Gaia,Pedroso,R CAMINHO DA CAPELA (Rampa de Caminho Velho),41.064143,-8.5572235,NC,131.0,2010-08-09T07:00,22.5,83,19.5,25.7,0.0,0.0,0.0,0.0,0,1016.3,1001.1,16,0,27,1,0.04,0.45,2.5,4.1,45,105,11.2,22.4,25.8,23.5,18.8,0.113,0.141,0.217,0.35,1,3234.54,136.1,77.1,59.0,317.6,127.8,323.0,83.0,47.0,36.0,298.2,83.0,196.9,,,,,,,,,,,,,,,,,,,,,,,,,,,,,,,,,,,,,,,,,,,,,,,,,,,,,,,Magnoliopsida; Eucalyptus L'Hér.; Tracheophyta
2010,2010-07-29,Aveiro,Vale de Cambra,Vila Cova de Perrinho,VILA COVA DE PERRINHO,40.88818835,-8.389790117710223,Desconhecida,462.0,2010-07-29T08:00,26.2,42,12.4,26.3,0.0,0.0,0.0,0.0,0,1015.3,963.4,10,0,0,32,0.22,1.96,4.3,7.2,95,87,14.0,24.9,24.8,21.6,16.8,0.103,0.165,0.257,0.357,1,3600.0,389.1,303.0,86.0,664.5,389.1,605.0,312.0,243.0,69.0,664.5,312.0,485.1,,,,,,,,,,,,,,,,,,,,,,,,,,,,,,,,,,,,,,,,,,,,,,,,,,,,,,,Eucalyptus L'Hér.; Pinus pinaster Aiton; Tracheophyta
2010,2010-07-12,Aveiro,Vale de Cambra,Codal,CODAL,40.86308605,-8.412685953904214,Desconhecida,329.0,2010-07-12T13:00,22.3,51,11.8,23.2,0.0,0.0,0.0,0.0,0,1019.3,981.4,1,0,0,3,0.6,1.32,13.5,16.3,312,315,34.2,28.2,22.3,21.1,15.9,0.118,0.188,0.278,0.365,1,3600.0,959.7,836.8,123.0,887.4,959.7,1248.0,960.0,837.0,123.0,887.4,960.0,1248.3,,,,,,,,,,,,,,,,,,,,,,,,,,,,,,,,,,,,,,,,,,,,,,,,,,,,,,,Tracheophyta; Eucalyptus L'Hér.; Pinus pinaster Aiton; Magnoliopsida
2010,2010-07-27,Braga,Póvoa de Lanhoso,Travassos,LEIRADELA (TRAVASSOS) (Leiradela),41.57569275,-8.202529903910126,NC,282.0,2010-07-27T02:00,22.8,42,9.3,21.1,0.0,0.0,0.0,0.0,0,1014.3,981.9,0,0,0,0,0.09,1.61,10.8,26.4,86,95,28.4,22.6,25.9,21.2,16.7,0.095,0.156,0.245,0.35,0,0.0,0.0,0.0,0.0,0.0,0.0,0.0,0.0,0.0,0.0,0.0,0.0,0.0,,,,,,,,,,,,,,,,,,,,,,,,,,,,,,,,,,,,,,,,,,,,,,,,,,,,,,,Tracheophyta; Eucalyptus L'Hér.; Magnoliopsida; Vitis vinifera L.
2010,2010-07-13,Aveiro,Oliveira de Azeméis,Pinheiro da Bemposta,Bemposta,40.7844512,-8.4814605,NC,173.0,2010-07-13T14:00,22.4,59,13.9,22.5,0.0,0.0,0.0,0.0,2,1015.7,995.6,73,81,0,0,0.46,1.12,14.2,17.8,277,277,33.8,27.5,22.8,21.7,16.9,0.105,0.16,0.244,0.343,1,3600.0,704.4,400.5,304.0,443.5,704.4,1195.0,723.0,411.0,312.0,443.5,723.0,1226.5,,,,,,,,,,,,,,,,,,,,,,,,,,,,,,,,,,,,,,,,,,,,,,,,,,,,,,,Tracheophyta; Magnoliopsida; Eucalyptus L'Hér.
2010,2010-06-19,Vila Real,Mondim de Basto,Mondim de Basto,RIBEIRA _Pedra Vedra,41.403339,-7.947090188751002,Natural,235.0,2010-06-19T16:00,23.2,46,11.1,22.8,0.0,0.0,0.0,0.0,0,1016.3,989.2,1,1,0,0,0.5,1.52,12.9,16.9,333,336,29.9,24.5,19.5,16.6,13.9,0.278,0.31,0.331,0.38,1,3600.0,693.3,591.9,101.4,857.9,693.3,914.0,759.0,648.0,111.0,857.9,759.0,1000.6,,,,,,,,,,,,,,,,,,,,,,,,,,,,,,,,,,,,,,,,,,,,,,,,,,,,,,,Tracheophyta; Pinus pinaster Aiton; Eucalyptus L'Hér.; Magnoliopsida; Vitis vinifera L.; Castanea sativa Mill.
2010,2010-08-10,Porto,Gondomar,Foz do Sousa,Zebreiros,41.0887012,-8.5197249,NC,29.0,2010-08-10T20:00,25.5,50,14.4,24.3,0.0,0.0,0.0,0.0,0,1017.2,1013.8,0,0,0,0,0.15,1.62,17.9,28.4,345,352,28.4,30.3,29.8,24.7,19.9,0.089,0.117,0.174,0.315,0,164.34,0.0,0.0,0.0,0.0,0.0,0.0,17.0,8.0,9.0,87.4,17.0,63.4,,,,,,,,,,,,,,,,,,,,,,,,,,,,,,,,,,,,,,,,,,,,,,,,,,,,,,,Tracheophyta; Magnoliopsida; Eucalyptus L'Hér.; Pinus pinaster Aiton
2010,2010-08-09,Braga,Barcelos,Remelhe,RIBEIRINHA (REMELHE) (Ribeira),41.4932801,-8.60682282580473,NC,154.0,2010-08-09T09:00,25.9,54,16.0,27.7,0.0,0.0,0.0,0.0,1,1016.8,999.1,24,0,38,3,0.25,1.52,1.6,2.1,27,31,18.7,26.5,25.4,23.2,18.4,0.099,0.142,0.218,0.337,1,3600.0,440.3,281.6,158.7,473.6,440.3,791.2,380.0,243.0,137.0,473.6,380.0,682.8,,,,,,,,,,,,,,,,,,,,,,,,,,,,,,,,,,,,,,,,,,,,,,,,,,,,,,,Vitis vinifera L.; Eucalyptus L'Hér.; Pinus pinaster Aiton; Magnoliopsida; Tracheophyta
2010,2010-08-06,Lisboa,Cascais,Alcabideche,CURVA CANAS/MALVEIRA DA SERRA,38.739751850000005,-9.40823198439682,Desconhecida,97.0,2010-08-06T23:00,20.8,69,14.8,20.3,0.0,0.0,0.0,0.0,0,1012.1,1000.8,0,0,0,0,0.06,0.78,14.8,26.3,354,1,25.6,21.8,24.1,22.1,19.4,0.077,0.127,0.183,0.285,0,0.0,0.0,0.0,0.0,0.0,0.0,0.0,0.0,0.0,0.0,0.0,0.0,0.0,,,,,,,,,,,,,,,,,,,,,,,,,,,,,,,,,,,,,,,,,,,,,,,,,,,,,,,Tracheophyta; Eucalyptus L'Hér.; Magnoliopsida; Pinus pinea L.; Pinus pinaster Aiton; Pinales; Vitis vinifera L.; 
2010,2010-08-10,Castelo Branco,Covilhã,Ferro,Quinta da Raposa,40.2342622,-7.4451731,Desconhecida,479.0,2010-08-10T18:00,33.7,28,12.9,32.7,0.0,0.0,0.0,0.0,0,1015.6,963.1,0,0,0,0,0.35,3.75,13.4,19.2,297,298,36.7,35.9,30.5,25.8,19.7,0.101,0.157,0.217,0.347,1,3600.0,233.3,182.2,51.2,640.9,233.3,378.3,310.0,242.0,68.0,640.9,310.0,502.6,,,,,,,,,,,,,,,,,,,,,,,,,,,,,,,,,,,,,,,,,,,,,,,,,,,,,,,Tracheophyta; Olea europaea L.; Magnoliopsida; Quercus L.
2010,2010-08-01,Braga,Guimarães,Barco,L. (BARCO) (DONIM),41.4965449,-8.321232731687468,NC,114.0,2010-08-01T16:00,29.6,43,15.9,29.4,0.0,0.0,0.0,0.0,0,1013.8,1000.9,3,3,0,0,0.57,2.35,20.6,27.4,317,321,38.9,34.8,27.3,23.2,17.8,0.097,0.15,0.238,0.347,1,3600.0,639.4,531.2,108.2,802.4,639.4,879.0,703.0,584.0,119.0,802.4,703.0,966.4,,,,,,,,,,,,,,,,,,,,,,,,,,,,,,,,,,,,,,,,,,,,,,,,,,,,,,,Magnoliopsida; Pinus pinaster Aiton; Tracheophyta
2010,2010-06-20,Braga,Braga,Cabreiros,R. NOVA DO ALEGRETE (Rua João C Novais e Sousa),41.5394551,-8.4883728,NC,124.0,2010-06-20T09:00,18.7,65,12.0,17.9,0.0,0.0,0.0,0.0,0,1016.9,1002.3,0,0,0,0,0.31,0.76,9.7,12.6,27,31,25.6,19.3,17.8,16.9,14.2,0.227,0.284,0.309,0.375,1,3600.0,622.4,497.0,125.4,742.5,622.4,886.6,551.0,440.0,111.0,742.5,551.0,784.9,,,,,,,,,,,,,,,,,,,,,,,,,,,,,,,,,,,,,,,,,,,,,,,,,,,,,,,Magnoliopsida; Tracheophyta; Pinus pinaster Aiton
2010,2010-07-29,Santarém,Alpiarça,Alpiarça,Frade de Baixo,39.2179364,-8.5993671,NC,26.0,2010-07-29T13:00,36.6,20,10.3,36.6,0.0,0.0,0.0,0.0,0,1013.2,1010.3,0,0,0,0,0.87,4.9,15.6,19.1,310,311,36.4,39.6,29.7,24.4,19.3,0.168,0.186,0.205,0.328,1,3600.0,959.3,842.2,117.0,901.6,959.3,1239.3,959.0,842.0,117.0,901.6,959.0,1239.0,,,,,,,,,,,,,,,,,,,,,,,,,,,,,,,,,,,,,,,,,,,,,,,,,,,,,,,Vitis vinifera L.; Acacia Mill.; Tracheophyta
2010,2010-08-01,Porto,Baião,Ancede,Cimo de Vila,41.1046709,-8.0614156,Desconhecida,328.0,2010-08-01T17:00,28.8,46,16.1,28.9,0.0,0.0,0.0,0.0,0,1013.3,976.5,1,0,0,3,0.44,2.13,14.2,18.8,300,302,31.7,34.0,27.1,22.5,17.1,0.096,0.153,0.239,0.348,1,3600.0,472.6,392.6,80.1,780.4,472.6,667.9,549.0,456.0,93.0,780.4,549.0,775.8,,,,,,,,,,,,,,,,,,,,,,,,,,,,,,,,,,,,,,,,,,,,,,,,,,,,,,,Magnoliopsida; Pinus pinaster Aiton; Tracheophyta; Vitis vinifera L.; Quercus suber L.; Acacia Mill.; Eucalyptus L'Hér.; Quercus L.; 
2010,2010-07-27,Aveiro,Santa Maria da Feira,Nogueira da Regedoura,Junto  a Igreja de Nogueira de Regedoura (ESPINHO),41.0157616,-8.5571606,Desconhecida,227.0,2010-07-27T07:00,23.8,44,11.0,21.1,0.0,0.0,0.0,0.0,0,1013.8,987.7,0,0,0,0,0.21,1.64,20.5,34.6,89,91,39.6,23.6,25.6,21.6,17.5,0.108,0.149,0.23,0.351,1,3600.0,195.8,131.0,64.8,473.3,195.8,367.2,130.0,87.0,43.0,473.3,130.0,243.8,,,,,,,,,,,,,,,,,,,,,,,,,,,,,,,,,,,,,,,,,,,,,,,,,,,,,,,Eucalyptus L'Hér.; Magnoliopsida; Tracheophyta; Quercus L.
2010,2010-07-29,Aveiro,Santa Maria da Feira,Mozelos,Rua de Ermilhe,40.99774985,-8.560747557187135,Desconhecida,141.0,2010-07-29T03:00,22.3,75,17.6,24.8,0.0,0.0,0.0,0.0,0,1015.1,998.7,0,0,0,0,0.0,0.68,2.0,1.0,135,135,7.6,21.0,27.4,22.6,18.1,0.089,0.123,0.192,0.323,0,0.0,0.0,0.0,0.0,0.0,0.0,0.0,0.0,0.0,0.0,0.0,0.0,0.0,,,,,,,,,,,,,,,,,,,,,,,,,,,,,,,,,,,,,,,,,,,,,,,,,,,,,,,Tracheophyta; Eucalyptus L'Hér.; Magnoliopsida; Pinus pinaster Aiton
2010,2010-08-01,Porto,Amarante,Figueiró (Santiago),RUA NOVA DE AROUCA,41.2894833,-8.155317,NC,471.0,2010-08-01T16:00,28.9,44,15.4,29.6,0.0,0.0,0.0,0.0,0,1013.5,961.2,1,1,0,0,0.52,2.24,12.1,15.7,280,281,33.5,34.4,26.3,21.7,16.1,0.094,0.148,0.233,0.345,1,3600.0,606.7,461.4,145.3,700.6,606.7,874.4,668.0,508.0,160.0,700.6,668.0,962.7,,,,,,,,,,,,,,,,,,,,,,,,,,,,,,,,,,,,,,,,,,,,,,,,,,,,,,,Magnoliopsida; Tracheophyta; Eucalyptus L'Hér.; Pinus pinaster Aiton
2010,2010-07-30,Aveiro,Santa Maria da Feira,Canedo,Av Principal (CANEDO),41.0076016,-8.4638205,Desconhecida,214.0,2010-07-30T02:00,22.7,72,17.5,25.2,0.0,0.0,0.0,0.0,0,1012.8,988.1,0,0,0,0,0.0,0.76,1.4,3.1,90,69,10.4,22.2,27.1,22.4,17.7,0.105,0.12,0.178,0.322,0,0.0,0.0,0.0,0.0,0.0,0.0,0.0,0.0,0.0,0.0,0.0,0.0,0.0,,,,,,,,,,,,,,,,,,,,,,,,,,,,,,,,,,,,,,,,,,,,,,,,,,,,,,,Eucalyptus L'Hér.; Tracheophyta; Magnoliopsida; Pinus pinaster Aiton
2010,2010-07-29,Aveiro,Aveiro,Nossa Senhora de Fátima,Rua do Barreiro - Póvoa do Valado,40.5713841,-8.574449,Desconhecida,42.0,2010-07-29T03:00,21.1,85,18.6,24.0,0.0,0.0,0.0,0.0,0,1014.9,1010.0,0,0,0,0,0.0,0.37,2.3,4.8,18,13,6.8,19.2,28.1,23.3,19.2,0.045,0.069,0.112,0.226,0,0.0,0.0,0.0,0.0,0.0,0.0,0.0,0.0,0.0,0.0,0.0,0.0,0.0,,,,,,,,,,,,,,,,,,,,,,,,,,,,,,,,,,,,,,,,,,,,,,,,,,,,,,,Tracheophyta; Magnoliopsida; Pinus pinaster Aiton; Eucalyptus L'Hér.
2010,2010-07-01,Aveiro,Santa Maria da Feira,Fiães,Regadio (Rua Central),40.9881909,-8.521616,Desconhecida,176.0,2010-07-01T12:00,24.5,59,15.9,27.0,0.0,0.0,0.0,0.0,0,1016.3,996.0,16,0,0,52,0.6,1.26,11.4,13.4,305,306,28.1,29.2,22.7,19.9,15.5,0.129,0.168,0.234,0.342,1,3600.0,954.9,822.8,132.2,873.4,954.9,1246.5,932.0,803.0,129.0,873.4,932.0,1216.6,,,,,,,,,,,,,,,,,,,,,,,,,,,,,,,,,,,,,,,,,,,,,,,,,,,,,,,Tracheophyta; Magnoliopsida; Eucalyptus L'Hér.; Olea europaea L.
2010,2010-08-01,Porto,Valongo,Campo,ALTO MINA (Alto da Fonte),41.1773425,-8.4625916,NC,117.0,2010-08-01T16:00,28.4,49,16.6,28.4,0.0,0.0,0.0,0.0,0,1013.8,1000.5,3,3,0,0,0.54,1.98,20.6,27.4,317,321,38.9,33.9,27.0,23.4,18.3,0.103,0.143,0.219,0.347,1,3600.0,639.3,531.1,108.2,800.2,639.3,881.2,703.0,584.0,119.0,800.2,703.0,969.0,,,,,,,,,,,,,,,,,,,,,,,,,,,,,,,,,,,,,,,,,,,,,,,,,,,,,,,Magnoliopsida; Tracheophyta; Quercus suber L.; Vitis vinifera L.
2010,2010-07-29,Porto,Vila do Conde,Retorta,AV. DR FERNANDO GOMES (RIO MAU),41.3524262,-8.7169326,NC,36.0,2010-07-29T12:00,30.9,45,17.6,33.4,0.0,0.0,0.0,0.0,0,1014.7,1010.6,10,0,0,35,0.69,2.45,14.5,17.9,330,341,27.4,34.7,26.5,22.7,18.2,0.095,0.148,0.231,0.344,1,3600.0,925.9,813.8,112.0,893.0,925.9,1209.2,901.0,792.0,109.0,893.0,901.0,1176.7,,,,,,,,,,,,,,,,,,,,,,,,,,,,,,,,,,,,,,,,,,,,,,,,,,,,,,,Magnoliopsida; Eucalyptus L'Hér.
2010,2010-08-01,Porto,Santo Tirso,Roriz,Fontão,41.3450398,-8.3831557,NC,241.0,2010-08-01T15:00,29.1,47,16.5,29.9,0.0,0.0,0.0,0.0,0,1014.7,987.5,3,0,0,10,0.6,2.15,17.8,22.4,315,318,37.8,34.9,26.6,22.8,17.5,0.093,0.149,0.234,0.346,1,3600.0,741.1,550.4,190.7,698.3,741.1,1046.6,785.0,583.0,202.0,698.3,785.0,1108.6,,,,,,,,,,,,,,,,,,,,,,,,,,,,,,,,,,,,,,,,,,,,,,,,,,,,,,,Magnoliopsida; Eucalyptus L'Hér.; Vitis vinifera L.; Tracheophyta; Quercus suber L.
2010,2010-08-09,Viana do Castelo,Viana do Castelo,Cardielos,S. SILVESTRE (São Silvestre),41.7130468,-8.7391575,Desconhecida,34.0,2010-08-09T13:00,27.2,47,15.0,29.4,0.0,0.0,0.0,0.0,0,1016.5,1012.6,4,0,7,0,0.61,1.91,9.2,8.9,296,297,23.8,34.4,25.9,23.2,19.0,0.082,0.156,0.241,0.346,1,3600.0,865.4,744.3,121.1,830.1,865.4,1193.3,865.0,744.0,121.0,830.1,865.0,1192.8,,,,,,,,,,,,,,,,,,,,,,,,,,,,,,,,,,,,,,,,,,,,,,,,,,,,,,,Magnoliopsida; Eucalyptus L'Hér.; Tracheophyta
2010,2010-07-29,Porto,Gondomar,Rio Tinto,ESTRADA DA CIRCUNVALAÇAO (Estrada),41.1776808,-8.5682925,NC,102.0,2010-07-29T10:00,28.9,53,18.5,32.7,0.0,0.0,0.0,0.0,0,1015.0,1003.4,4,0,0,13,0.47,1.86,1.5,1.5,315,346,13.3,30.2,25.9,22.6,18.0,0.115,0.148,0.23,0.353,1,3600.0,736.5,632.4,104.1,836.9,736.5,1002.5,672.0,577.0,95.0,836.9,672.0,914.7,,,,,,,,,,,,,,,,,,,,,,,,,,,,,,,,,,,,,,,,,,,,,,,,,,,,,,,Tracheophyta; Eucalyptus L'Hér.; Magnoliopsida
2010,2010-07-28,Bragança,Bragança,Deilão,Navalho/ Petisqueira- PNM,41.8494611,-6.5910506,Desconhecida,951.0,2010-07-28T14:00,31.8,22,7.5,33.2,0.0,0.0,0.0,0.0,0,1017.1,915.3,0,0,0,0,0.68,3.68,3.1,3.7,225,241,20.2,35.0,23.9,19.4,13.9,0.114,0.151,0.234,0.355,1,3600.0,894.4,791.5,102.8,910.1,894.4,1153.7,922.0,816.0,106.0,910.1,922.0,1189.3,,,,,,,,,,,,,,,,,,,,,,,,,,,,,,,,,,,,,,,,,,,,,,,,,,,,,,,Magnoliopsida; Castanea sativa Mill.; Tracheophyta
2010,2010-07-28,Viana do Castelo,Caminha,Vile,VILE,41.8051957,-8.840439744150522,Desconhecida,14.0,2010-07-28T17:00,29.5,43,15.7,29.8,0.0,0.0,0.0,0.0,0,1015.1,1013.5,0,0,0,0,0.45,2.35,12.0,14.5,303,305,23.4,36.3,27.9,22.3,18.2,0.082,0.166,0.256,0.353,1,3600.0,492.7,415.5,77.2,799.9,492.7,689.0,568.0,479.0,89.0,799.9,568.0,794.3,,,,,,,,,,,,,,,,,,,,,,,,,,,,,,,,,,,,,,,,,,,,,,,,,,,,,,,Magnoliopsida; Pinus pinaster Aiton; Tracheophyta
2010,2010-07-26,Lisboa,Torres Vedras,Silveira,Praia Azul,39.110203850000005,-9.364428227008002,Desconhecida,38.0,2010-07-26T20:00,26.2,44,13.0,24.1,0.0,0.0,0.0,,0,1010.1,1005.7,0,0,0,0,0.19,1.9,20.9,35.9,4,7,36.0,27.6,25.8,21.3,19.0,0.063,0.118,0.165,0.22,0,1518.77,0.0,0.0,0.0,0.0,0.0,0.0,36.0,20.0,16.0,174.7,36.0,93.2,,,,,,,,,,,,,,,,,,,,,,,,,,,,,,,,,,,,,,,,,,,,,,,,,,,,,,,Tracheophyta; Magnoliopsida; Vitis vinifera L.; Eucalyptus L'Hér.; 
2010,2010-08-09,Viseu,Viseu,Torredeita,Salgueiral,40.6440835,-8.0152818,Desconhecida,437.0,2010-08-09T14:00,32.9,32,14.0,34.1,0.0,0.0,0.0,0.0,1,1016.2,968.0,32,0,12,82,0.6,3.42,7.7,9.2,259,259,23.0,37.7,28.0,23.9,18.3,0.094,0.141,0.212,0.333,1,3600.0,702.1,466.1,236.0,541.8,702.1,1144.9,723.0,480.0,243.0,541.8,723.0,1179.0,,,,,,,,,,,,,,,,,,,,,,,,,,,,,,,,,,,,,,,,,,,,,,,,,,,,,,,Pinus pinaster Aiton; Magnoliopsida; Tracheophyta; Pinus pinea L.; Eucalyptus L'Hér.
2010,2010-07-27,Braga,Barcelos,Fragoso,L. COSTA(FRAGOSO) (BALUGÃES),41.61011045,-8.69673001318574,NC,90.0,2010-07-27T10:00,29.8,34,12.2,28.8,0.0,0.0,0.0,0.0,0,1013.9,1003.7,0,0,0,0,0.56,2.77,15.9,22.3,85,89,31.7,29.9,25.5,21.6,17.6,0.099,0.154,0.24,0.347,1,3600.0,738.0,635.1,102.9,839.2,738.0,1003.5,674.0,580.0,94.0,839.2,674.0,916.5,,,,,,,,,,,,,,,,,,,,,,,,,,,,,,,,,,,,,,,,,,,,,,,,,,,,,,,Eucalyptus L'Hér.; Tracheophyta; Pinus pinaster Aiton; Vitis vinifera L.
2010,2010-07-19,Lisboa,Loures,São Julião do Tojal,ZAMBUJAL - R ESPERANÇA (Zambujal),38.8628625,-9.1187591,Desconhecida,30.0,2010-07-19T02:00,17.4,94,16.4,17.7,0.0,0.0,0.0,0.0,1,1018.8,1015.2,46,51,0,0,0.0,0.13,13.8,21.6,340,342,20.9,21.0,24.6,22.5,18.7,0.243,0.28,0.339,0.441,0,0.0,0.0,0.0,0.0,0.0,0.0,0.0,0.0,0.0,0.0,0.0,0.0,0.0,,,,,,,,,,,,,,,,,,,,,,,,,,,,,,,,,,,,,,,,,,,,,,,,,,,,,,,Tracheophyta; Magnoliopsida; Eucalyptus L'Hér.; Olea europaea L.; 
2010,2010-07-27,Porto,Paredes,Astromil,Aldeia Nova,41.1981228,-8.4195664,NC,200.0,2010-07-27T10:00,29.3,33,11.5,27.7,0.0,0.0,0.0,0.0,0,1013.9,991.3,0,0,0,0,0.57,2.72,18.7,24.9,92,93,37.4,28.7,25.0,21.4,17.2,0.123,0.142,0.219,0.354,1,3600.0,744.2,641.3,102.9,843.1,744.2,1008.8,680.0,586.0,94.0,843.1,680.0,921.8,,,,,,,,,,,,,,,,,,,,,,,,,,,,,,,,,,,,,,,,,,,,,,,,,,,,,,,Magnoliopsida; Pinus pinaster Aiton; Eucalyptus L'Hér.; Tracheophyta; Vitis vinifera L.
2010,2010-07-29,Lisboa,Sintra,Pêro Pinheiro,ALTO DAS SALIMAS - MORLENA    <<< FALTA AREA ARDIDA>>> (Alto),38.8811364,-9.294637727967732,Desconhecida,117.0,2010-07-29T14:00,27.2,49,15.7,28.6,0.0,0.0,0.0,0.0,0,1014.7,1001.3,0,0,0,0,0.66,1.83,17.8,22.1,328,334,34.6,37.1,27.2,23.4,19.5,0.083,0.167,0.238,0.346,1,3600.0,918.1,809.9,108.2,901.8,918.1,1191.5,942.0,831.0,111.0,901.8,942.0,1222.5,,,,,,,,,,,,,,,,,,,,,,,,,,,,,,,,,,,,,,,,,,,,,,,,,,,,,,,Tracheophyta; Magnoliopsida; Pinus pinaster Aiton; Eucalyptus L'Hér.; Vitis vinifera L.; 
2010,2010-08-09,Aveiro,Oliveira de Azeméis,Macieira de Sarnes,Pedra Branca,40.905214,-8.4654957,Desconhecida,238.0,2010-08-09T14:00,32.7,34,14.8,33.8,0.0,0.0,0.0,0.0,1,1015.8,989.2,23,0,12,54,0.63,3.27,11.3,13.0,297,298,26.6,36.6,27.3,23.5,18.6,0.107,0.138,0.205,0.339,1,3600.0,718.2,467.5,250.7,543.1,718.2,1145.5,739.0,481.0,258.0,543.1,739.0,1178.6,,,,,,,,,,,,,,,,,,,,,,,,,,,,,,,,,,,,,,,,,,,,,,,,,,,,,,,Magnoliopsida; Eucalyptus L'Hér.; Pinus pinaster Aiton; Tracheophyta; Pinales
2010,2010-08-06,Porto,Matosinhos,Leça Do Balio,Rua das Aves,41.2129235,-8.628658,NC,63.0,2010-08-06T14:00,32.8,23,8.7,32.5,0.0,0.0,0.0,0.0,0,1013.0,1005.9,0,0,0,0,0.75,3.86,13.3,16.6,347,359,24.8,35.1,26.2,23.5,19.0,0.113,0.142,0.217,0.347,1,3600.0,880.4,778.2,102.1,898.6,880.4,1151.5,905.0,800.0,105.0,898.6,905.0,1183.7,,,,,,,,,,,,,,,,,,,,,,,,,,,,,,,,,,,,,,,,,,,,,,,,,,,,,,,Tracheophyta; Magnoliopsida
2010,2010-07-02,Santarém,Ourém,Fátima,Eira da Pedra,39.6255498,-8.6659081,NC,350.0,2010-07-02T00:00,15.5,91,14.0,15.3,0.0,0.0,0.0,0.0,1,1016.0,974.9,44,19,0,89,0.0,0.16,10.0,18.7,330,335,20.2,19.2,23.5,20.2,15.7,0.094,0.178,0.26,0.339,0,0.0,0.0,0.0,0.0,0.0,0.0,0.0,0.0,0.0,0.0,0.0,0.0,0.0,,,,,,,,,,,,,,,,,,,,,,,,,,,,,,,,,,,,,,,,,,,,,,,,,,,,,,,Magnoliopsida; Tracheophyta; Olea europaea L.; Quercus rotundifolia Lam.
2010,2010-07-20,Braga,Barcelos,Mariz,MARIZ (MARIZ) (MARIZ),41.52729755,-8.667218407927539,NC,48.0,2010-07-20T17:00,22.3,72,16.9,22.1,0.0,0.0,0.0,0.0,3,1015.1,1009.5,100,98,19,74,0.25,0.76,17.6,23.4,298,301,33.8,27.0,23.6,21.2,17.4,0.109,0.166,0.253,0.353,1,3600.0,324.7,162.8,161.9,305.9,324.7,705.1,373.0,187.0,186.0,305.9,373.0,809.8,,,,,,,,,,,,,,,,,,,,,,,,,,,,,,,,,,,,,,,,,,,,,,,,,,,,,,,Eucalyptus L'Hér.; Tracheophyta; Pinus pinaster Aiton
2010,2010-07-01,Porto,Valongo,Alfena,ALFENA,41.22144345,-8.47176603571262,NC,183.0,2010-07-01T18:00,22.1,61,14.2,21.4,0.0,0.0,0.0,0.0,0,1015.1,993.9,1,0,0,4,0.27,1.04,14.3,18.4,309,310,28.8,27.2,23.7,19.8,15.1,0.122,0.196,0.274,0.369,1,3600.0,321.4,240.5,81.0,645.8,321.4,492.7,397.0,297.0,100.0,645.8,397.0,608.5,,,,,,,,,,,,,,,,,,,,,,,,,,,,,,,,,,,,,,,,,,,,,,,,,,,,,,,Magnoliopsida; Eucalyptus L'Hér.; Tracheophyta; Pinus pinaster Aiton
2010,2010-07-08,Lisboa,ODIVELAS,Ramada,GRANJA NOVAS - RAMADA (Casal da Granja),38.812117,-9.198767,Desconhecida,305.0,2010-07-08T00:00,19.1,83,16.2,20.4,0.0,0.0,0.0,0.0,0,1014.2,978.8,20,0,0,65,0.0,0.37,6.3,11.2,336,345,20.5,22.4,26.1,21.4,16.6,0.091,0.181,0.257,0.345,0,0.0,0.0,0.0,0.0,0.0,0.0,0.0,0.0,0.0,0.0,0.0,0.0,0.0,,,,,,,,,,,,,,,,,,,,,,,,,,,,,,,,,,,,,,,,,,,,,,,,,,,,,,,Eucalyptus L'Hér.; Tracheophyta; Magnoliopsida; Olea europaea L.; Pinus pinea L.; 
2010,2010-07-23,Aveiro,Santa Maria da Feira,Fiães,Rua das Escolas (Rua das Costouras),40.9945859,-8.5247192,Desconhecida,203.0,2010-07-23T17:00,28.2,37,12.0,26.3,0.0,0.0,0.0,0.0,0,1019.2,996.1,0,0,0,0,0.49,2.42,18.5,24.7,336,339,38.2,31.8,23.8,20.9,17.2,0.112,0.125,0.193,0.328,1,3600.0,505.8,427.7,78.1,814.6,505.8,695.8,583.0,493.0,90.0,814.6,583.0,802.0,,,,,,,,,,,,,,,,,,,,,,,,,,,,,,,,,,,,,,,,,,,,,,,,,,,,,,,Tracheophyta; Eucalyptus L'Hér.; Magnoliopsida; Olea europaea L.
2010,2010-07-30,Aveiro,Aveiro,Nossa Senhora de Fátima,Rua do Barreiro - Póvoa do Valado,40.5713841,-8.574449,Desconhecida,42.0,2010-07-30T22:00,23.6,71,18.0,26.0,0.0,0.0,0.0,0.0,0,1012.7,1007.8,0,0,0,0,0.0,0.86,3.4,4.0,238,243,9.0,26.0,28.5,23.6,19.3,0.045,0.068,0.11,0.224,0,0.0,0.0,0.0,0.0,0.0,0.0,0.0,0.0,0.0,0.0,0.0,0.0,0.0,,,,,,,,,,,,,,,,,,,,,,,,,,,,,,,,,,,,,,,,,,,,,,,,,,,,,,,Tracheophyta; Magnoliopsida; Pinus pinaster Aiton; Eucalyptus L'Hér.
2010,2010-08-01,Guarda,Seia,Girabolhos,Trogas,40.5098594,-7.7374096,Desconhecida,405.0,2010-08-01T18:00,28.6,44,15.3,28.4,0.0,0.0,0.0,0.0,0,1013.8,968.6,0,0,0,0,0.31,2.18,13.6,17.9,287,289,28.8,34.9,29.3,24.5,18.2,0.079,0.164,0.251,0.353,1,3600.0,263.8,190.9,72.9,602.1,263.8,420.9,340.0,246.0,94.0,602.1,340.0,542.5,,,,,,,,,,,,,,,,,,,,,,,,,,,,,,,,,,,,,,,,,,,,,,,,,,,,,,,Tracheophyta; Pinus pinaster Aiton; Olea europaea L.; Magnoliopsida; Vitis vinifera L.; Pinus pinea L.
2010,2010-07-08,Braga,Celorico de Basto,Arnóia,CAMPELO (ARNOIA) (Campelo),41.39054365,-8.006846020187858,NC,220.0,2010-07-08T11:00,30.0,54,19.7,34.4,0.0,0.0,0.0,0.0,0,1013.6,988.8,0,0,0,0,0.62,1.95,6.9,8.6,186,180,36.0,31.8,25.7,21.3,15.4,0.134,0.199,0.283,0.366,1,3600.0,879.2,766.6,112.7,867.1,879.2,1169.8,835.0,728.0,107.0,867.1,835.0,1110.9,,,,,,,,,,,,,,,,,,,,,,,,,,,,,,,,,,,,,,,,,,,,,,,,,,,,,,,Tracheophyta; Pinus pinaster Aiton; Magnoliopsida
2010,2010-07-30,Porto,Gondomar,São Pedro da Cova,RUA DO ARCO (Rua do Padre Dehon),41.1473685,-8.5074154,NC,78.0,2010-07-30T04:00,22.9,78,18.9,25.5,0.0,0.0,0.0,0.0,0,1012.2,1003.1,0,0,0,0,0.0,0.62,4.8,10.5,48,84,13.3,22.2,27.2,23.2,18.4,0.114,0.14,0.215,0.353,0,0.0,0.0,0.0,0.0,0.0,0.0,0.0,0.0,0.0,0.0,0.0,0.0,0.0,,,,,,,,,,,,,,,,,,,,,,,,,,,,,,,,,,,,,,,,,,,,,,,,,,,,,,,Magnoliopsida; Eucalyptus L'Hér.; Tracheophyta; Vitis vinifera L.; Pinus pinaster Aiton
2010,2010-08-06,Porto,Valongo,Sobrado,L.CAMPELO (Campelo),41.21680555,-8.466103414762593,NC,162.0,2010-08-06T15:00,32.9,21,7.8,32.8,0.0,0.0,0.0,0.0,0,1012.1,994.0,0,0,0,0,0.67,3.94,8.3,10.6,18,24,20.2,36.3,26.5,23.3,18.5,0.103,0.14,0.212,0.343,1,3600.0,788.3,694.0,94.3,891.5,788.3,1035.0,836.0,736.0,100.0,891.5,836.0,1097.7,,,,,,,,,,,,,,,,,,,,,,,,,,,,,,,,,,,,,,,,,,,,,,,,,,,,,,,Tracheophyta; Eucalyptus L'Hér.; Magnoliopsida; Pinus pinaster Aiton
2010,2010-07-08,Porto,Paredes,Rebordosa,ALMINHAS (VILELA),41.2202567,-8.4112601,NC,216.0,2010-07-08T07:00,23.4,85,20.8,27.2,0.0,0.0,0.0,0.0,0,1013.1,988.3,1,1,0,0,0.09,0.42,3.7,5.8,209,176,14.4,23.4,24.9,20.9,15.4,0.163,0.17,0.255,0.366,1,3600.0,217.2,141.5,75.7,446.3,217.2,419.5,155.0,101.0,54.0,446.3,155.0,299.4,,,,,,,,,,,,,,,,,,,,,,,,,,,,,,,,,,,,,,,,,,,,,,,,,,,,,,,Magnoliopsida; Pinus pinaster Aiton; Eucalyptus L'Hér.; Tracheophyta; Vitis vinifera L.
2010,2010-07-29,Porto,Penafiel,Rio de Moinhos,SRª REMÉDIOS (SENHORA DOS REMÉDIOS),41.1169039,-8.27507040257782,Desconhecida,236.0,2010-07-29T13:00,33.3,31,14.1,35.1,0.0,0.0,0.0,0.0,0,1014.3,988.0,5,0,0,16,0.77,3.51,12.0,14.3,309,313,29.9,36.9,26.4,22.0,17.3,0.1,0.158,0.247,0.352,1,3600.0,941.7,832.8,109.0,903.5,941.7,1222.9,942.0,833.0,109.0,903.5,942.0,1223.2,,,,,,,,,,,,,,,,,,,,,,,,,,,,,,,,,,,,,,,,,,,,,,,,,,,,,,,Eucalyptus L'Hér.; Tracheophyta; Magnoliopsida; Vitis vinifera L.
2010,2010-07-08,Aveiro,Vale de Cambra,São Pedro de Castelões,Cavião - Sra. Saude (Cavião de Baixo),40.8390621,-8.402303678879736,Desconhecida,216.0,2010-07-08T12:00,29.5,51,18.4,31.8,0.0,0.0,0.0,0.0,0,1015.5,991.1,15,13,3,4,0.65,2.0,16.9,21.4,241,237,42.1,33.2,26.4,21.9,16.3,0.103,0.178,0.266,0.36,1,3600.0,897.1,755.6,141.5,804.6,897.1,1242.6,875.0,737.0,138.0,804.6,875.0,1212.0,,,,,,,,,,,,,,,,,,,,,,,,,,,,,,,,,,,,,,,,,,,,,,,,,,,,,,,Tracheophyta; Eucalyptus L'Hér.
2010,2010-07-30,Braga,Celorico de Basto,Arnóia,L. CASTELO (ARNOIA) (São Clemente),41.39054365,-8.006846020187858,NC,220.0,2010-07-30T05:00,20.0,68,13.8,20.2,0.0,0.0,0.0,0.0,0,1012.7,987.1,0,0,0,0,0.02,0.76,7.6,20.4,95,99,20.9,21.7,26.8,22.7,17.4,0.093,0.157,0.246,0.351,0,0.0,0.0,0.0,0.0,0.0,0.0,0.0,0.0,0.0,0.0,0.0,0.0,0.0,,,,,,,,,,,,,,,,,,,,,,,,,,,,,,,,,,,,,,,,,,,,,,,,,,,,,,,Tracheophyta; Pinus pinaster Aiton; Magnoliopsida
2010,2010-08-09,Porto,Baião,Mesquinhata,Valeças (Ribas),41.1266006,-8.0914335,NC,375.0,2010-08-09T15:00,33.1,33,14.8,34.0,0.3,0.3,0.0,0.0,51,1015.7,974.3,16,0,7,40,0.58,3.38,10.0,12.3,291,291,29.9,37.1,27.8,23.3,18.1,0.119,0.136,0.199,0.346,1,3600.0,633.4,453.6,179.8,590.3,633.4,1022.6,673.0,482.0,191.0,590.3,673.0,1086.6,,,,,,,,,,,,,,,,,,,,,,,,,,,,,,,,,,,,,,,,,,,,,,,,,,,,,,,Magnoliopsida; Tracheophyta
2010,2010-08-01,Porto,Santo Tirso,Monte Córdova,MONTE ASSUNÇÃO (Bouças do Monte),41.3164414,-8.4320306,NC,357.0,2010-08-01T16:00,28.1,45,15.2,29.0,0.0,0.0,0.0,0.0,0,1013.4,973.3,0,0,0,1,0.52,2.08,11.7,14.6,304,308,28.8,33.8,26.1,22.1,16.7,0.093,0.149,0.234,0.346,1,3600.0,638.3,529.2,109.1,799.0,638.3,879.4,702.0,582.0,120.0,799.0,702.0,967.1,,,,,,,,,,,,,,,,,,,,,,,,,,,,,,,,,,,,,,,,,,,,,,,,,,,,,,,Tracheophyta; Vitis vinifera L.; Eucalyptus L'Hér.; Pinus pinaster Aiton; Magnoliopsida
2010,2010-07-26,Porto,Lousada,Cernadelo,MOINHO NOVO (Moinho),41.2986424,-8.2310751,Desconhecida,239.0,2010-07-26T15:00,33.8,26,11.4,34.2,0.0,0.0,0.0,0.0,0,1013.5,987.0,0,0,0,0,0.72,3.91,11.6,15.4,74,74,30.6,36.3,25.8,21.4,16.9,0.091,0.16,0.25,0.353,1,3600.0,808.0,710.7,97.3,889.8,808.0,1059.0,855.0,752.0,103.0,889.8,855.0,1120.6,,,,,,,,,,,,,,,,,,,,,,,,,,,,,,,,,,,,,,,,,,,,,,,,,,,,,,,Eucalyptus L'Hér.; Pinus pinaster Aiton; Tracheophyta; Vitis vinifera L.; Magnoliopsida
2010,2010-07-30,Aveiro,Vale de Cambra,Macieira de Cambra,Porto Novo,40.8480592,-8.3880687,Desconhecida,278.0,2010-07-30T06:00,19.2,82,16.0,20.7,0.0,0.0,0.0,0.0,1,1012.8,980.5,43,48,0,0,0.02,0.41,4.5,10.4,104,92,13.3,20.9,26.2,22.9,17.9,0.098,0.15,0.236,0.347,1,0.0,19.6,7.3,12.2,84.2,8.5,109.9,8.0,3.0,5.0,38.6,8.0,44.9,,,,,,,,,,,,,,,,,,,,,,,,,,,,,,,,,,,,,,,,,,,,,,,,,,,,,,,Tracheophyta; Pinus pinaster Aiton; Eucalyptus L'Hér.
2010,2010-08-10,Porto,Paredes,Lordelo,ZONA INDUSTRIAL (LORDELO),41.2364966,-8.415551743176014,NC,210.0,2010-08-10T23:00,23.2,54,13.2,23.5,0.0,0.0,0.0,0.0,0,1018.6,994.3,0,0,0,0,0.02,1.32,4.7,9.0,351,360,15.5,24.3,28.2,23.6,18.4,0.119,0.135,0.191,0.343,0,0.0,0.0,0.0,0.0,0.0,0.0,0.0,0.0,0.0,0.0,0.0,0.0,0.0,,,,,,,,,,,,,,,,,,,,,,,,,,,,,,,,,,,,,,,,,,,,,,,,,,,,,,,Magnoliopsida; Pinus pinaster Aiton; Eucalyptus L'Hér.; Tracheophyta; Vitis vinifera L.
2010,2010-08-09,Porto,Felgueiras,Refontoura,Leitão,41.3364511,-8.1955905,NC,276.0,2010-08-09T16:00,31.8,36,14.9,31.9,0.0,0.0,0.0,0.0,0,1015.2,984.4,0,0,0,0,0.44,3.01,10.5,13.2,297,296,28.8,36.2,27.8,23.4,18.1,0.091,0.144,0.225,0.341,1,3600.0,428.8,311.2,117.6,487.1,428.8,850.2,474.0,344.0,130.0,487.1,474.0,939.7,,,,,,,,,,,,,,,,,,,,,,,,,,,,,,,,,,,,,,,,,,,,,,,,,,,,,,,Tracheophyta; Magnoliopsida; Vitis vinifera L.; Pinus pinaster Aiton
2010,2010-07-27,Setúbal,Seixal,Amora,BRR SOUTELO - FOROS DE AMORA (Bairro do Soutelo),38.6179186,-9.1270326,NC,35.0,2010-07-27T13:00,31.6,41,16.8,35.7,0.0,0.0,0.0,0.0,0,1013.4,1009.4,0,0,0,0,0.71,2.74,5.2,5.6,236,225,14.8,40.6,28.1,23.1,19.8,0.052,0.069,0.116,0.227,1,3600.0,948.4,834.2,114.2,886.6,948.4,1247.8,947.0,833.0,114.0,886.6,947.0,1245.9,,,,,,,,,,,,,,,,,,,,,,,,,,,,,,,,,,,,,,,,,,,,,,,,,,,,,,,Tracheophyta; Eucalyptus L'Hér.
2010,2010-07-30,Aveiro,Santa Maria da Feira,Romariz,Duas Igrejas,40.9556613,-8.4689201,Desconhecida,294.0,2010-07-30T07:00,21.6,68,15.4,22.1,0.0,0.0,0.0,0.0,0,1012.9,979.1,0,0,0,0,0.09,0.84,9.4,17.3,83,91,20.2,21.7,25.4,22.2,17.3,0.102,0.15,0.235,0.35,1,3600.0,182.2,119.4,62.8,442.7,182.2,358.0,119.0,78.0,41.0,442.7,119.0,233.8,,,,,,,,,,,,,,,,,,,,,,,,,,,,,,,,,,,,,,,,,,,,,,,,,,,,,,,Eucalyptus L'Hér.; Tracheophyta; Olea europaea L.; Pinales
