year,date,district,municipality,parish,local,latitude,longitude,cause,elevation,hourly.time,hourly.temperature_2m,hourly.relative_humidity_2m,hourly.dew_point_2m,hourly.apparent_temperature,hourly.precipitation,hourly.rain,hourly.snowfall,hourly.snow_depth,hourly.weather_code,hourly.pressure_msl,hourly.surface_pressure,hourly.cloud_cover,hourly.cloud_cover_low,hourly.cloud_cover_mid,hourly.cloud_cover_high,hourly.et0_fao_evapotranspiration,hourly.vapour_pressure_deficit,hourly.wind_speed_10m,hourly.wind_speed_100m,hourly.wind_direction_10m,hourly.wind_direction_100m,hourly.wind_gusts_10m,hourly.soil_temperature_0_to_7cm,hourly.soil_temperature_7_to_28cm,hourly.soil_temperature_28_to_100cm,hourly.soil_temperature_100_to_255cm,hourly.soil_moisture_0_to_7cm,hourly.soil_moisture_7_to_28cm,hourly.soil_moisture_28_to_100cm,hourly.soil_moisture_100_to_255cm,hourly.is_day,hourly.sunshine_duration,hourly.shortwave_radiation_instant,hourly.direct_radiation_instant,hourly.diffuse_radiation_instant,hourly.direct_normal_irradiance_instant,hourly.global_tilted_irradiance_instant,hourly.terrestrial_radiation_instant,hourly.shortwave_radiation,hourly.direct_radiation,hourly.diffuse_radiation,hourly.direct_normal_irradiance,hourly.global_tilted_irradiance,hourly.terrestrial_radiation,scientificNames
2011,2011-08-03,Porto,Gondomar,Foz do Sousa,Zebreiros,41.082231,-8.5159932,NC,46.0,2011-08-03T16:00,24.7,56,15.2,23.8,0.0,0.0,0.0,0.0,0,1021.1,1015.7,0,0,0,0,0.47,1.38,22.5,28.7,319,322,36.7,30.7,23.9,22.4,19.1,0.133,0.139,0.208,0.345,1,3600.0,636.9,543.3,93.6,823.7,636.9,876.2,701.0,598.0,103.0,823.7,701.0,964.4,Pinus pinaster Aiton; Tracheophyta; Eucalyptus L'Hér.
2011,2011-08-03,Vila Real,Vila Real,Borbela,BORBELA,41.3279575,-7.7593653,Desconhecida,615.0,2011-08-03T15:00,25.7,43,12.1,26.9,0.0,0.0,0.0,0.0,0,1020.0,951.2,0,0,0,0,0.57,1.89,7.2,9.0,297,299,23.4,30.7,22.3,20.6,16.4,0.153,0.139,0.207,0.342,1,3600.0,777.4,670.9,106.5,860.1,777.4,1036.1,825.0,712.0,113.0,860.1,825.0,1099.6,Magnoliopsida; Tracheophyta; Pinus pinaster Aiton
2011,2011-08-03,Aveiro,Espinho,Anta,Rua do Lameirao,41.007855,-8.6187792,Desconhecida,39.0,2011-08-03T18:00,22.3,63,15.0,20.8,0.0,0.0,0.0,0.0,0,1021.2,1016.6,0,0,0,0,0.25,0.99,21.5,28.8,325,328,37.1,28.4,24.1,22.4,19.2,0.106,0.121,0.187,0.316,1,3600.0,275.6,215.5,60.1,666.3,275.6,429.7,353.0,276.0,77.0,666.3,353.0,550.3,Eucalyptus L'Hér.; Tracheophyta; Pinus pinaster Aiton; Magnoliopsida
2011,2011-07-30,Viseu,Viseu,Abraveses,MONTE MEAO (Brita Montes),40.6774183,-7.9212864,Desconhecida,496.0,2011-07-30T03:00,15.9,88,13.9,16.7,0.0,0.0,0.0,0.0,0,1017.0,959.4,4,5,0,0,0.0,0.22,3.6,5.8,270,277,9.0,18.6,25.9,22.4,17.7,0.083,0.152,0.232,0.34,0,0.0,0.0,0.0,0.0,0.0,0.0,0.0,0.0,0.0,0.0,0.0,0.0,0.0,Magnoliopsida; Tracheophyta
2011,2011-07-30,Aveiro,Águeda,Macinhata do Vouga,Serém,40.6561919,-8.4735716,Desconhecida,98.0,2011-07-30T05:00,15.0,98,14.6,15.9,0.0,0.0,0.0,0.0,3,1017.4,1005.7,89,99,0,0,0.0,0.04,4.0,4.7,260,266,7.6,16.5,24.8,22.0,18.7,0.066,0.09,0.14,0.254,0,0.0,0.0,0.0,0.0,0.0,0.0,0.0,0.0,0.0,0.0,0.0,0.0,0.0,Eucalyptus L'Hér.; Tracheophyta
2011,2011-07-24,Porto,Gondomar,Melres,Moreira,41.0584124,-8.39758858073601,NC,32.0,2011-07-24T05:00,17.9,64,10.9,14.9,0.0,0.0,0.0,0.0,0,1016.8,1013.0,0,0,0,0,0.09,0.75,22.3,35.9,2,7,37.8,19.5,23.3,21.0,18.6,0.134,0.146,0.225,0.351,0,0.0,0.0,0.0,0.0,0.0,0.0,0.0,0.0,0.0,0.0,0.0,0.0,0.0,Eucalyptus L'Hér.; Magnoliopsida; Tracheophyta
2011,2011-07-24,Porto,Amarante,Fregim,ALTO DE S.JORGE (Monte de São Jorge),41.2702199,-8.1170009,NC,242.0,2011-07-24T07:00,17.1,74,12.5,16.6,0.0,0.0,0.0,0.0,0,1018.6,990.1,0,0,0,0,0.08,0.5,8.5,15.5,62,65,19.8,17.3,20.9,19.5,16.9,0.13,0.164,0.248,0.348,1,3600.0,206.0,136.9,69.2,475.3,206.0,381.6,140.0,93.0,47.0,475.3,140.0,259.3,Tracheophyta; Magnoliopsida; Pinus pinaster Aiton; Vitis vinifera L.; Quercus L.; Eucalyptus L'Hér.; 
2011,2011-07-24,Porto,Penafiel,Duas Igrejas,Vila Verde,41.1836616,-8.273259231917095,NC,409.0,2011-07-24T04:00,13.5,67,7.5,11.4,0.0,0.0,0.0,0.0,0,1017.0,968.8,0,0,0,0,0.03,0.51,10.3,14.0,65,61,18.7,15.8,21.2,18.9,16.0,0.103,0.157,0.241,0.346,0,0.0,0.0,0.0,0.0,0.0,0.0,0.0,0.0,0.0,0.0,0.0,0.0,0.0,Eucalyptus L'Hér.; Tracheophyta
2011,2011-07-24,Porto,Penafiel,Bustelo,Sousa,41.2299987,-8.2677145,NC,259.0,2011-07-24T11:00,26.2,39,11.1,27.4,0.0,0.0,0.0,0.0,0,1018.3,988.7,0,0,0,0,0.57,2.08,6.1,7.7,45,49,22.0,27.3,21.3,19.4,16.8,0.137,0.156,0.235,0.349,1,3600.0,873.4,767.8,105.6,886.8,873.4,1147.5,827.0,727.0,100.0,886.8,827.0,1086.5,Magnoliopsida; Tracheophyta; Eucalyptus L'Hér.; Pinus pinaster Aiton; Vitis vinifera L.; Pinales; 
2011,2011-07-24,Viana do Castelo,Ponte de Lima,Arcozelo,IGREJA - ARCOZELO (Fonte da Igreja),41.7918096,-8.5927082,NC,35.0,2011-07-24T10:00,23.3,56,14.1,22.4,0.0,0.0,0.0,0.0,0,1019.6,1015.5,0,0,0,0,0.44,1.25,19.5,26.3,356,2,34.9,24.7,21.5,20.1,18.0,0.116,0.165,0.24,0.345,1,3600.0,734.9,631.0,103.9,829.2,734.9,1008.6,672.0,577.0,95.0,829.2,672.0,922.2,Magnoliopsida; Vitis vinifera L.; Tracheophyta; Eucalyptus L'Hér.; Pinus pinaster Aiton; Olea europaea L.
2011,2011-06-26,Aveiro,Murtosa,Torreira,Muranzel,40.7604396,-8.7065433,Desconhecida,5.0,2011-06-26T09:00,27.3,50,16.1,29.1,0.0,0.0,0.0,0.0,1,1016.5,1015.9,25,0,0,83,0.36,1.81,2.2,2.9,360,60,11.5,31.4,24.8,21.5,18.3,0.042,0.098,0.148,0.24,1,3600.0,601.9,487.4,114.5,734.3,601.9,878.7,531.0,430.0,101.0,734.3,531.0,775.1,Tracheophyta; Magnoliopsida
2011,2011-06-26,Vila Real,Montalegre,Ferral,GÉMEAS,41.6942182,-7.9998175,Desconhecida,651.0,2011-06-26T11:00,30.9,31,11.8,32.4,0.0,0.0,0.0,0.0,0,1017.7,946.4,7,0,0,24,0.65,3.08,6.1,7.6,177,177,22.3,29.4,21.0,16.7,13.1,0.129,0.219,0.298,0.37,1,3600.0,900.6,790.2,110.3,887.0,900.6,1179.2,857.0,752.0,105.0,887.0,857.0,1122.1,Tracheophyta; Magnoliopsida; Pinales
2011,2011-06-26,Porto,Paredes,Lordelo,LUGAR DE CERQUEDA (Lugar),41.2346057,-8.4146751,NC,202.0,2011-06-26T13:00,34.0,33,15.6,37.8,0.0,0.0,0.0,0.0,1,1015.1,992.6,30,0,0,100,0.71,3.56,3.2,4.1,207,195,12.2,33.5,23.4,18.9,15.6,0.133,0.177,0.262,0.365,1,3600.0,912.6,707.9,204.7,746.7,912.6,1254.9,914.0,709.0,205.0,746.7,914.0,1256.8,Magnoliopsida; Pinus pinaster Aiton; Eucalyptus L'Hér.; Tracheophyta; Vitis vinifera L.
2011,2011-07-27,Porto,Penafiel,Rãs,Enxameia,41.1702136,-8.2919262,NC,283.0,2011-07-27T09:00,23.6,42,10.0,21.1,0.0,0.0,0.0,0.0,0,1015.2,982.8,0,0,0,0,0.38,1.68,17.1,23.6,83,83,40.3,23.6,22.4,19.9,16.8,0.121,0.152,0.23,0.347,1,3600.0,586.2,486.4,99.8,776.8,586.2,830.2,511.0,424.0,87.0,776.8,511.0,723.8,Magnoliopsida; Eucalyptus L'Hér.; Tracheophyta; Vitis vinifera L.
2011,2011-07-27,Viana do Castelo,Vila Nova de Cerveira,Cornes,Portinho,41.9520006,-8.6792268,Desconhecida,62.0,2011-07-27T10:00,23.2,51,12.6,22.6,0.0,0.0,0.0,0.0,0,1016.2,1009.0,0,0,0,0,0.45,1.38,14.5,19.1,7,16,27.0,24.4,21.4,19.7,17.5,0.114,0.166,0.241,0.347,1,3600.0,742.2,636.0,106.2,842.1,742.2,1001.5,678.0,581.0,97.0,842.1,678.0,914.9,Tracheophyta; Magnoliopsida; Pinus pinaster Aiton; Eucalyptus L'Hér.
2011,2011-07-27,Porto,Felgueiras,Pinheiro,Azenha,41.3684352,-8.152882,NC,497.0,2011-07-27T12:00,27.1,31,8.3,26.8,0.0,0.0,0.0,0.0,0,1015.3,959.8,0,0,0,0,0.68,2.49,13.5,18.3,74,75,42.1,30.1,22.7,19.5,15.9,0.097,0.147,0.228,0.34,1,3600.0,950.3,840.5,109.8,917.3,950.3,1215.0,926.0,819.0,107.0,917.3,926.0,1184.0,Pinus pinaster Aiton; Tracheophyta; Magnoliopsida; Vitis vinifera L.; Eucalyptus L'Hér.
2011,2011-07-27,Porto,Penafiel,Duas Igrejas,Monte,41.1864654,-8.2690378,NC,403.0,2011-07-27T14:00,29.6,25,7.4,29.4,0.0,0.0,0.0,0.0,0,1013.9,969.0,0,0,0,0,0.73,3.12,11.9,15.6,55,56,34.6,33.5,23.6,19.7,16.3,0.092,0.152,0.235,0.343,1,3600.0,913.7,808.6,105.1,915.3,913.7,1171.5,939.0,831.0,108.0,915.3,939.0,1204.0,Eucalyptus L'Hér.; Tracheophyta; Magnoliopsida
2011,2011-07-27,Porto,Felgueiras,Rande,BREIAS (JUGUEIROS),41.3308088,-8.2277133,NC,214.0,2011-07-27T16:00,31.8,23,7.9,31.3,0.0,0.0,0.0,0.0,0,1013.2,989.3,0,0,0,0,0.58,3.64,7.7,10.2,37,39,24.8,33.7,24.7,20.4,17.3,0.118,0.151,0.229,0.346,1,3600.0,671.4,582.1,89.3,866.4,671.4,891.0,737.0,639.0,98.0,866.4,737.0,978.1,Magnoliopsida; Tracheophyta; Eucalyptus L'Hér.; Vitis vinifera L.
2011,2011-07-27,Leiria,Óbidos,Amoreira,QUINTA DO FURADOURO,39.3443128,-9.2038448,Desconhecida,32.0,2011-07-27T16:00,25.3,48,13.6,23.1,0.0,0.0,0.0,0.0,0,1012.7,1009.0,0,0,0,0,0.53,1.67,28.6,39.0,354,356,49.0,31.3,22.9,20.7,19.2,0.048,0.084,0.137,0.221,1,3600.0,667.3,573.4,93.9,836.2,667.3,909.3,732.0,629.0,103.0,836.2,732.0,997.5,Magnoliopsida; Tracheophyta; Eucalyptus L'Hér.
2011,2011-08-07,Porto,Valongo,Campo,Póvoas,41.1549494,-8.4642516,NC,192.0,2011-08-07T15:00,22.1,52,11.7,21.7,0.0,0.0,0.0,0.0,0,1015.5,993.2,0,0,0,0,0.5,1.28,15.3,19.2,297,298,30.6,27.7,22.0,21.3,18.3,0.178,0.142,0.213,0.337,1,3600.0,758.8,648.6,110.3,834.7,758.8,1033.3,805.0,688.0,117.0,834.7,805.0,1096.2,Magnoliopsida; Eucalyptus L'Hér.; Tracheophyta; Pinus pinaster Aiton
2011,2011-08-07,Porto,Felgueiras,Lagares,L.BELA VISTA (Bela Vista),41.3673676,-8.2225278,NC,281.0,2011-08-07T18:00,20.4,60,12.4,19.1,0.0,0.0,0.0,0.0,1,1015.7,983.1,27,30,0,0,0.22,0.95,13.4,18.2,306,308,32.8,24.5,22.4,21.4,18.0,0.229,0.147,0.212,0.33,1,3600.0,243.1,172.1,71.0,559.3,243.1,409.3,315.0,223.0,92.0,559.3,315.0,530.3,Magnoliopsida; Vitis vinifera L.; Tracheophyta
2011,2011-07-27,Porto,Penafiel,Pinheiro,SANTO ANTONIO (Casal de Santo António de Cegade),41.1193264,-8.3031666,NC,204.0,2011-07-27T02:00,18.3,66,11.9,16.9,0.0,0.0,0.0,0.0,0,1013.0,989.1,0,0,0,0,0.05,0.7,13.8,23.2,15,19,27.4,20.1,24.1,20.5,17.4,0.109,0.162,0.248,0.349,0,0.0,0.0,0.0,0.0,0.0,0.0,0.0,0.0,0.0,0.0,0.0,0.0,0.0,Tracheophyta; Vitis vinifera L.; Eucalyptus L'Hér.
2011,2011-07-27,Porto,Marco de Canaveses,Soalhães,Telhe,41.1603957,-8.0979057,Desconhecida,397.0,2011-07-27T03:00,17.0,65,10.4,15.9,0.0,0.0,0.0,0.0,0,1014.2,968.1,0,0,0,0,0.03,0.67,8.4,22.0,70,72,33.1,18.8,23.5,19.8,16.4,0.1,0.157,0.241,0.346,0,0.0,0.0,0.0,0.0,0.0,0.0,0.0,0.0,0.0,0.0,0.0,0.0,0.0,Magnoliopsida; Tracheophyta; Quercus L.; Eucalyptus L'Hér.; Pinus pinaster Aiton; Vitis vinifera L.; Castanea sativa Mill.; Pinales; 
2011,2011-07-27,Faro,Albufeira,Guia,Vale Rabelho,37.0902898,-8.3103903,Desconhecida,9.0,2011-07-27T08:00,23.5,61,15.6,23.9,0.0,0.0,0.0,0.0,0,1011.1,1010.1,0,0,0,0,0.21,1.13,10.1,13.7,358,2,23.0,24.9,27.5,25.0,21.2,0.088,0.168,0.239,0.308,1,3600.0,383.8,291.6,92.2,637.8,383.8,606.3,304.0,231.0,73.0,637.8,304.0,480.3,Olea europaea L.; Tracheophyta; Ceratonia siliqua L.; Vitis vinifera L.; Magnoliopsida; 
2011,2011-07-27,Aveiro,Oliveira de Azemeis,Oliveira de Azeméis,Rua do Guiso,40.8431067,-8.468516409995193,Desconhecida,223.0,2011-07-27T09:00,24.9,43,11.3,23.3,0.0,0.0,0.0,0.0,0,1014.1,988.6,0,0,0,0,0.38,1.81,14.2,19.6,54,58,31.7,24.9,23.0,20.7,17.8,0.094,0.141,0.22,0.326,1,3600.0,570.9,472.1,98.8,755.7,570.9,828.5,497.0,411.0,86.0,755.7,497.0,721.2,Tracheophyta; Pinus pinaster Aiton; Eucalyptus L'Hér.
2011,2011-07-27,Porto,Gondomar,São Cosme,PINHEIRO DA SAUDADE (Pinheiro),41.143908,-8.5559612,NC,70.0,2011-07-27T08:00,22.9,53,12.9,21.8,0.0,0.0,0.0,0.0,0,1014.7,1006.5,0,0,0,0,0.24,1.3,13.5,19.4,48,55,27.4,22.6,23.1,21.1,18.3,0.122,0.152,0.235,0.352,1,3600.0,387.9,300.8,87.0,655.7,387.9,608.4,312.0,242.0,70.0,655.7,312.0,489.4,Tracheophyta; Magnoliopsida; Eucalyptus L'Hér.
2011,2011-08-11,Aveiro,Espinho,Anta,R. do Lameirão (Lado Drtº Estrada),41.007855,-8.6187792,Desconhecida,39.0,2011-08-11T05:00,21.0,79,17.3,21.9,0.0,0.0,0.0,0.0,0,1014.6,1010.0,4,4,0,0,0.02,0.51,12.3,18.8,357,356,15.8,18.2,24.5,22.3,19.6,0.107,0.12,0.181,0.313,0,0.0,0.0,0.0,0.0,0.0,0.0,0.0,0.0,0.0,0.0,0.0,0.0,0.0,Eucalyptus L'Hér.; Tracheophyta; Pinus pinaster Aiton; Magnoliopsida
2011,2011-08-11,Aveiro,Ovar,Esmoriz,Rua das Saibreiras,40.9602526,-8.6228198,Desconhecida,51.0,2011-08-11T11:00,30.3,42,16.1,31.6,0.0,0.0,0.0,0.0,0,1015.6,1009.8,1,1,0,0,0.62,2.49,14.5,17.1,325,335,27.4,31.9,24.3,22.2,19.6,0.106,0.12,0.181,0.312,1,3600.0,838.7,725.3,113.5,869.9,838.7,1110.1,791.0,684.0,107.0,869.9,791.0,1046.9,Tracheophyta; Eucalyptus L'Hér.
2011,2011-08-11,Aveiro,Águeda,Macinhata do Vouga,Jafafe de Cima,40.6553986,-8.4535347,Desconhecida,53.0,2011-08-11T13:00,33.2,33,14.8,34.1,0.0,0.0,0.0,0.0,0,1015.1,1009.1,0,0,0,0,0.78,3.4,17.6,21.4,319,327,33.8,37.7,25.3,22.1,19.7,0.074,0.089,0.132,0.247,1,3600.0,922.8,811.8,111.0,901.5,922.8,1199.0,923.0,812.0,111.0,901.5,923.0,1199.3,Tracheophyta; Magnoliopsida; Eucalyptus L'Hér.; Pinus pinaster Aiton
2011,2011-08-03,Porto,Vila Nova de Gaia,Gulpilhares,GONDARÍM DE CIMA (Gestosa de Cima),41.075126,-8.6354469,NC,65.0,2011-08-03T17:00,23.1,60,14.9,21.3,0.0,0.0,0.0,0.0,0,1021.3,1013.7,0,0,0,0,0.36,1.13,23.1,30.2,321,324,37.1,28.4,23.3,21.9,18.8,0.132,0.146,0.225,0.348,1,3600.0,464.0,385.7,78.3,767.2,464.0,667.8,539.0,448.0,91.0,767.2,539.0,775.7,Tracheophyta; Magnoliopsida; Eucalyptus L'Hér.
2011,2011-08-03,Porto,Gondomar,Foz do Sousa,Gens,41.109102,-8.490958,NC,62.0,2011-08-03T17:00,23.7,59,15.1,22.1,0.0,0.0,0.0,0.0,0,1021.3,1014.0,0,0,0,0,0.37,1.22,23.1,30.2,321,324,37.1,29.6,24.0,22.3,19.0,0.133,0.139,0.208,0.345,1,3600.0,463.8,385.5,78.3,769.0,463.8,665.9,539.0,448.0,91.0,769.0,539.0,773.9,Eucalyptus L'Hér.; Pinus pinaster Aiton; Tracheophyta; Magnoliopsida
2011,2011-08-03,Aveiro,Águeda,Lamas do Vouga,Pedaçães,40.6252279,-8.469937,Desconhecida,79.0,2011-08-03T22:00,18.1,86,15.7,17.6,0.0,0.0,0.0,0.0,0,1022.4,1013.0,0,0,0,0,0.02,0.29,16.3,26.0,346,350,24.8,20.4,23.0,21.9,19.0,0.081,0.078,0.121,0.235,0,0.0,0.0,0.0,0.0,0.0,0.0,0.0,0.0,0.0,0.0,0.0,0.0,0.0,Magnoliopsida; Eucalyptus L'Hér.; Tracheophyta
2011,2011-08-03,Viseu,Sernancelhe,Escurquela,ESCURQUELA,41.0033167,-7.515943306195032,Desconhecida,725.0,2011-08-03T21:00,20.3,64,13.3,20.4,0.0,0.0,0.0,0.0,0,1021.2,939.2,0,0,0,0,0.02,0.85,5.8,12.2,292,304,18.7,23.3,24.0,21.5,17.0,0.185,0.146,0.19,0.329,0,0.0,0.0,0.0,0.0,0.0,0.0,0.0,0.0,0.0,0.0,0.0,0.0,0.0,Magnoliopsida; Pinus pinaster Aiton; Tracheophyta; Pinales; Castanea sativa Mill.; Olea europaea L.; Quercus L.; Vitis vinifera L.; 
2011,2011-08-01,Porto,Felgueiras,Jugueiros,tujeiras (JUGUEIROS),41.3969664,-8.1875708,NC,237.0,2011-08-01T22:00,18.7,82,15.6,20.2,0.5,0.5,0.0,0.0,53,1011.0,983.4,74,1,80,82,0.0,0.38,2.7,5.7,247,252,13.0,22.7,25.0,21.9,17.7,0.105,0.142,0.216,0.334,0,0.0,0.0,0.0,0.0,0.0,0.0,0.0,0.0,0.0,0.0,0.0,0.0,0.0,Magnoliopsida; Eucalyptus L'Hér.; Pinus pinaster Aiton
2011,2011-08-02,Viana do Castelo,Ponte da Barca,Vila Nova de Muia,SANTA RITA - VILA NOVA MUIA (Santa Catarina),41.8066265,-8.4012727,NC,48.0,2011-08-02T01:00,17.8,94,16.7,18.7,0.0,0.0,0.0,0.0,0,1010.8,1005.1,6,7,0,0,0.0,0.13,9.9,15.7,316,323,20.9,20.8,24.4,22.0,18.3,0.098,0.149,0.226,0.339,0,0.0,0.0,0.0,0.0,0.0,0.0,0.0,0.0,0.0,0.0,0.0,0.0,0.0,Tracheophyta; Vitis vinifera L.; Magnoliopsida; Eucalyptus L'Hér.; Pinus pinaster Aiton
2011,2011-08-02,Porto,Póvoa de Varzim,Póvoa de Varzim,VIA GEN. HUMBERTO DELGADO (Via General Humberto Delgado),41.3778761,-8.758443632782878,NC,8.0,2011-08-02T12:00,22.4,68,16.2,22.9,0.0,0.0,0.0,0.0,3,1015.8,1014.9,84,93,0,0,0.39,0.87,13.6,16.5,258,259,24.8,26.3,22.8,22.2,18.9,0.102,0.148,0.229,0.338,1,3600.0,629.0,282.7,346.4,312.3,629.0,1201.7,612.0,275.0,337.0,312.3,612.0,1169.1,Tracheophyta; Magnoliopsida
2011,2011-08-02,Braga,Celorico de Basto,Britelo,CRESPOS(BRITELO)M.3 (ED304 (ED304) Km 117),41.3878479,-7.98631663297138,NC,241.0,2011-08-02T23:00,17.2,91,15.7,18.7,0.0,0.0,0.0,0.0,2,1019.2,990.8,57,63,0,0,0.0,0.18,3.4,4.1,302,308,8.3,20.2,23.3,22.0,17.9,0.111,0.148,0.229,0.339,0,0.0,0.0,0.0,0.0,0.0,0.0,0.0,0.0,0.0,0.0,0.0,0.0,0.0,Eucalyptus L'Hér.; Pinus pinaster Aiton; Tracheophyta; Magnoliopsida; Pinales; Vitis vinifera L.
2011,2011-08-09,Porto,Vila Nova de Gaia,Olival,PEDRA MOURA (Alameda do Senhor da Pedra),41.0612018,-8.5234476,NC,153.0,2011-08-09T14:00,30.9,28,10.5,31.2,0.0,0.0,0.0,0.0,0,1019.0,1001.7,0,0,0,0,0.73,3.2,12.8,16.7,52,57,27.7,31.6,22.7,21.4,18.7,0.158,0.139,0.204,0.342,1,3600.0,896.2,792.2,104.0,921.0,896.2,1144.7,922.0,815.0,107.0,921.0,922.0,1177.6,Tracheophyta; Eucalyptus L'Hér.; Magnoliopsida
2011,2011-08-10,Porto,Gondomar,São Pedro da Cova,L. DA MINA (SÃO PEDRO DA COVA),41.146305850000005,-8.513812231973976,NC,128.0,2011-08-10T02:00,20.6,44,7.9,17.9,0.0,0.0,0.0,0.0,0,1017.7,1002.7,0,0,0,1,0.11,1.36,14.4,30.8,68,79,28.1,20.2,23.7,21.6,18.9,0.152,0.139,0.204,0.342,0,0.0,0.0,0.0,0.0,0.0,0.0,0.0,0.0,0.0,0.0,0.0,0.0,0.0,Magnoliopsida; Eucalyptus L'Hér.; Tracheophyta; Vitis vinifera L.; Pinus pinaster Aiton
2011,2011-08-04,Braga,Vila Nova de Famalicão,Riba de Ave,RUA 5 DE OUTUBRO (RIBA DE AVE) (Rua 5 de Outubro),41.3925524,-8.388764752645615,NC,138.0,2011-08-04T11:00,23.9,63,16.6,25.5,0.0,0.0,0.0,0.0,2,1021.5,1005.4,57,63,0,0,0.42,1.08,8.3,10.1,275,276,24.5,27.0,22.3,21.8,18.3,0.116,0.147,0.223,0.336,1,3600.0,665.8,467.8,197.9,553.1,665.8,1123.9,629.0,442.0,187.0,553.1,629.0,1061.8,Tracheophyta; Pinus pinaster Aiton; Eucalyptus L'Hér.; Magnoliopsida
2011,2011-06-11,Porto,Vila Nova de Gaia,Grijó,LG NOVA DA BOUÇA (Largo da Venda Nova),41.030392250000006,-8.583434430828127,NC,110.0,2011-06-11T13:00,20.6,52,10.4,21.4,0.0,0.0,0.0,0.0,1,1020.2,1007.2,27,0,0,89,0.57,1.17,11.2,13.2,303,305,27.4,25.4,18.6,18.2,15.9,0.162,0.217,0.266,0.343,1,3600.0,954.6,829.9,124.7,876.4,954.6,1256.4,957.0,832.0,125.0,876.4,957.0,1259.6,Magnoliopsida; Tracheophyta; Eucalyptus L'Hér.
2011,2011-06-11,Viana do Castelo,Arcos de Valdevez,Rio de Moinhos,LAMELA - RIO MOINHOS (Branda de Lamelas),41.8893902,-8.4547034,NC,185.0,2011-06-11T22:00,13.7,83,10.9,13.1,0.0,0.0,0.0,0.0,3,1021.3,999.1,82,0,87,100,0.0,0.26,5.9,9.1,346,353,11.9,16.2,18.3,17.1,14.7,0.175,0.245,0.314,0.379,0,0.0,0.0,0.0,0.0,0.0,0.0,0.0,0.0,0.0,0.0,0.0,0.0,0.0,Pinales; Magnoliopsida; Eucalyptus L'Hér.
2011,2011-08-03,Porto,Gondomar,Valbom,LG. MARCENEIROS (VALBOM),41.1435921,-8.5357976,NC,121.0,2011-08-03T15:00,24.6,54,14.8,25.3,0.0,0.0,0.0,0.0,0,1020.9,1006.8,0,0,0,0,0.54,1.42,15.9,19.4,308,310,30.6,30.6,23.1,21.9,18.6,0.133,0.139,0.208,0.345,1,3600.0,775.8,672.9,102.9,855.9,775.8,1044.3,822.0,713.0,109.0,855.9,822.0,1106.5,Tracheophyta; Magnoliopsida; Eucalyptus L'Hér.
2011,2011-08-03,Lisboa,Sintra,Rio de Mouro,SERRA MINAS - R PLANETA MERCURIO (JTO RIO) (Bairro Serradinho),38.7723602,-9.3256835,Desconhecida,116.0,2011-08-03T22:00,18.3,88,16.3,17.3,0.0,0.0,0.0,0.0,0,1021.8,1008.0,4,4,0,0,0.02,0.26,22.4,34.6,349,351,36.0,20.2,22.0,20.8,19.1,0.142,0.176,0.24,0.338,0,0.0,0.0,0.0,0.0,0.0,0.0,0.0,0.0,0.0,0.0,0.0,0.0,0.0,Tracheophyta; Magnoliopsida; Pinales; 
2011,2011-08-11,Viseu,Resende,São João de Fontoura,Nadais de Cima,41.1069315,-7.9181849,Desconhecida,232.0,2011-08-11T23:00,26.7,50,15.5,28.2,0.0,0.0,0.0,0.0,0,1013.9,987.5,0,0,0,0,0.01,1.75,2.6,5.5,74,32,9.0,24.5,26.3,22.3,19.0,0.108,0.144,0.22,0.334,0,0.0,0.0,0.0,0.0,0.0,0.0,0.0,0.0,0.0,0.0,0.0,0.0,0.0,Magnoliopsida; Olea europaea L.; Pinales; Vitis vinifera L.; ; Pinus pinaster Aiton
2011,2011-08-12,Porto,Marco de Canaveses,Manhuncelos,Boi Morto,41.1430562,-8.1492414,NC,390.0,2011-08-12T04:00,20.9,69,15.0,21.9,0.0,0.0,0.0,0.0,0,1013.5,968.8,0,0,0,0,0.01,0.77,4.7,6.0,94,57,9.4,20.2,24.6,21.4,18.1,0.135,0.138,0.199,0.34,0,0.0,0.0,0.0,0.0,0.0,0.0,0.0,0.0,0.0,0.0,0.0,0.0,0.0,Magnoliopsida; Pinus pinaster Aiton; Eucalyptus L'Hér.; Tracheophyta; Vitis vinifera L.; ; Quercus L.
2011,2011-06-11,Aveiro,Espinho,Anta,Rua do Lameirão,41.0145432,-8.6261856,Desconhecida,37.0,2011-06-11T21:00,15.7,69,10.1,13.5,0.0,0.0,0.0,0.0,1,1020.5,1016.0,29,0,0,96,0.05,0.55,15.5,22.0,347,350,28.1,18.5,20.1,18.7,16.3,0.156,0.215,0.265,0.343,0,0.0,0.0,0.0,0.0,0.0,0.0,0.0,0.0,0.0,0.0,0.0,0.0,0.0,Tracheophyta; Eucalyptus L'Hér.; Magnoliopsida; Pinus pinaster Aiton
2011,2011-06-11,Viana do Castelo,Ponte de Lima,Vitorino dos Piães,BEL MONTE - VITORINO DOS PIAES (Belmonte),41.6815613,-8.6232985,NC,129.0,2011-06-11T23:00,13.7,85,11.2,13.2,0.0,0.0,0.0,0.0,3,1020.5,1005.0,81,0,86,98,0.0,0.24,5.8,9.4,353,4,13.3,16.4,19.1,17.8,15.1,0.14,0.221,0.299,0.372,0,0.0,0.0,0.0,0.0,0.0,0.0,0.0,0.0,0.0,0.0,0.0,0.0,0.0,Tracheophyta; Eucalyptus L'Hér.
2011,2011-06-12,Porto,Santo Tirso,Refojos de Riba de Ave,LG. LAVATÃES (Lavatães),41.2920945,-8.4471657,NC,216.0,2011-06-12T14:00,20.8,53,11.0,20.5,0.0,0.0,0.0,0.0,1,1019.4,994.2,27,0,33,23,0.49,1.14,12.6,15.7,290,290,32.0,24.8,18.8,17.3,14.8,0.145,0.23,0.298,0.37,1,3600.0,767.0,500.6,266.4,555.4,767.0,1195.8,789.0,515.0,274.0,555.4,789.0,1230.1,Tracheophyta; Magnoliopsida; Pinus pinaster Aiton; Vitis vinifera L.; Eucalyptus L'Hér.
2011,2011-06-12,Porto,Gondomar,Jovim,BOUÇA (Bouça das Almas),41.1069301,-8.5093383,NC,165.0,2011-06-12T16:00,19.7,57,11.1,18.5,0.0,0.0,0.0,0.0,1,1019.0,999.6,38,0,53,21,0.35,0.98,10.7,13.0,290,289,28.1,23.7,19.3,17.7,15.4,0.195,0.243,0.297,0.374,1,3600.0,503.9,304.9,199.0,442.4,503.9,914.2,552.0,334.0,218.0,442.4,552.0,1001.4,Eucalyptus L'Hér.; Vitis vinifera L.; Tracheophyta; Magnoliopsida
2011,2011-06-12,Braga,Vila Nova de Famalicão,Vermoim,IGREJA VELHA(VERMOIM) (Igreja),41.4168727,-8.4433579,NC,141.0,2011-06-12T22:00,15.0,89,13.2,15.2,0.0,0.0,0.0,0.0,0,1020.2,1003.3,10,7,6,0,0.0,0.19,5.4,10.3,233,241,11.9,17.6,19.5,17.7,15.1,0.147,0.22,0.293,0.369,0,0.0,0.0,0.0,0.0,0.0,0.0,0.0,0.0,0.0,0.0,0.0,0.0,0.0,Tracheophyta; Vitis vinifera L.
2011,2011-06-26,Porto,Vila Nova de Gaia,Canelas,LG. ANTÓNIO MOREIRA BARBOSA (Rua António Moreira Barbosa),41.0805427,-8.6006594,NC,126.0,2011-06-26T14:00,33.3,37,16.4,36.0,0.0,0.0,0.0,0.0,1,1014.7,1000.6,34,0,7,100,0.62,3.24,5.9,7.2,227,217,13.0,33.4,24.0,19.3,16.3,0.131,0.193,0.277,0.368,1,3600.0,752.8,479.1,273.6,527.7,752.8,1201.7,773.0,492.0,281.0,527.7,773.0,1234.1,Tracheophyta; Magnoliopsida; Eucalyptus L'Hér.
2011,2011-06-26,Porto,Paços de Ferreira,Freamunde,L. S. MARTINHO (SANFINS DE FERREIRA),41.2885918,-8.3401591,NC,357.0,2011-06-26T16:00,33.8,33,15.2,34.7,0.0,0.0,0.0,0.0,2,1014.0,974.6,54,0,40,100,0.46,3.52,5.7,7.1,235,229,18.7,34.6,24.3,18.3,14.5,0.096,0.187,0.275,0.362,1,3600.0,496.9,220.5,276.3,316.5,496.9,922.2,543.0,241.0,302.0,316.5,543.0,1007.8,Tracheophyta; Eucalyptus L'Hér.; Magnoliopsida; Pinus pinaster Aiton; 
2011,2011-08-09,Coimbra,Pampilhosa da Serra,Dornelas do Zêzere,adurao (Adurão),40.1043195,-7.7722474,Desconhecida,457.0,2011-08-09T08:00,22.9,34,6.4,20.1,0.0,0.0,0.0,0.0,0,1020.1,967.9,0,0,0,0,0.26,1.83,12.8,20.3,50,53,30.2,22.3,24.4,24.3,20.5,0.097,0.154,0.209,0.335,1,3600.0,383.7,300.1,83.6,683.3,383.7,584.4,303.0,237.0,66.0,683.3,303.0,461.5,Magnoliopsida; Pinus pinaster Aiton
2011,2011-07-27,Porto,TROFA,Coronado_Sao Mamede,MENDÕES (CANEDO),41.2748271,-8.5739705,NC,139.0,2011-07-27T12:00,28.9,31,10.3,29.2,0.0,0.0,0.0,0.0,0,1014.4,998.6,0,0,0,0,0.69,2.73,12.5,16.1,46,50,27.4,31.1,23.4,20.7,17.8,0.107,0.147,0.225,0.343,1,3600.0,938.8,827.9,110.9,904.2,938.8,1214.1,914.0,806.0,108.0,904.2,914.0,1182.0,Magnoliopsida; Pinales; Tracheophyta; Eucalyptus L'Hér.
2011,2011-07-27,Porto,Marco de Canaveses,Vila Boa do Bispo,Calvário,41.1332787,-8.2097194,NC,208.0,2011-07-27T13:00,30.1,28,9.5,30.6,0.0,0.0,0.0,0.0,0,1014.6,991.2,0,0,0,0,0.74,3.08,11.6,14.7,68,68,34.2,32.5,24.1,20.9,17.6,0.105,0.16,0.246,0.35,1,3600.0,960.8,850.8,110.0,920.1,960.8,1226.2,961.0,851.0,110.0,920.1,961.0,1226.5,Tracheophyta; Pinus pinaster Aiton; Vitis vinifera L.; Quercus L.; Eucalyptus L'Hér.; Magnoliopsida; Acacia Mill.; 
2011,2011-07-27,Aveiro,Sever do Vouga,Dornelas,Boialvo,40.7845209,-8.3785332,Desconhecida,606.0,2011-07-27T11:00,26.2,33,8.7,25.2,0.0,0.0,0.0,0.0,0,1014.8,947.4,0,0,0,0,0.61,2.28,14.8,19.6,72,73,42.1,27.9,22.4,19.6,16.3,0.102,0.157,0.245,0.347,1,3600.0,871.0,761.1,109.9,881.5,871.0,1144.9,824.0,720.0,104.0,881.5,824.0,1083.1,Tracheophyta; Eucalyptus L'Hér.; Pinus pinaster Aiton; Quercus L.; Magnoliopsida
2011,2011-07-27,Viana do Castelo,Arcos de Valdevez,Paçô,ZONA INDUSTRIAL - PAÇO (GAVIEIRA),41.8295743,-8.4118568,NC,50.0,2011-07-27T14:00,31.3,31,12.1,31.1,0.0,0.0,0.0,0.0,0,1014.3,1008.6,0,0,0,0,0.76,3.16,18.6,24.9,350,357,32.0,34.5,24.4,20.8,17.9,0.1,0.156,0.235,0.344,1,3600.0,904.7,797.6,107.1,905.5,904.7,1168.1,929.0,819.0,110.0,905.5,929.0,1199.4,Tracheophyta; Pinus pinaster Aiton; Magnoliopsida; Eucalyptus L'Hér.
2011,2011-07-27,Porto,Penafiel,Rãs,Enxameia,41.1702136,-8.2919262,NC,283.0,2011-07-27T13:00,29.7,26,8.2,29.8,0.0,0.0,0.0,0.0,0,1014.6,982.8,0,0,0,0,0.74,3.07,11.6,14.7,68,68,34.2,31.4,23.2,20.0,16.8,0.12,0.151,0.229,0.346,1,3600.0,960.8,850.8,110.0,920.1,960.8,1226.2,961.0,851.0,110.0,920.1,961.0,1226.5,Magnoliopsida; Eucalyptus L'Hér.; Tracheophyta; Vitis vinifera L.
2011,2011-07-27,Setúbal,Almada,Sobreda,VALE FIGUEIRA JT CAMPO FUTEBOL (Alto do Vale de Rosal),38.6220343,-9.1905996,Desconhecida,61.0,2011-07-27T15:00,28.7,44,15.3,28.1,0.0,0.0,0.0,0.0,0,1011.9,1004.9,0,0,0,0,0.66,2.21,26.4,35.5,343,347,44.6,35.3,24.1,21.6,19.7,0.051,0.077,0.129,0.227,1,3600.0,813.1,711.0,102.1,871.9,813.1,1081.4,860.0,752.0,108.0,871.9,860.0,1143.8,Tracheophyta; Magnoliopsida; Pinus pinaster Aiton; Pinales; Eucalyptus L'Hér.
2011,2011-07-24,Porto,Penafiel,Galegos,L.SETE PEDRAS (Sete Pedras),41.1604125,-8.3114028,NC,229.0,2011-07-24T12:00,27.6,37,11.8,29.7,0.0,0.0,0.0,0.0,0,1018.0,991.9,0,0,0,0,0.65,2.31,5.5,6.7,11,16,20.5,29.4,21.8,19.6,17.0,0.136,0.156,0.235,0.349,1,3600.0,940.4,832.6,107.8,903.9,940.4,1220.7,916.0,811.0,105.0,903.9,916.0,1189.0,Eucalyptus L'Hér.; Tracheophyta
2011,2011-07-24,Porto,Vila Nova de Gaia,Perozinho,LUIS DE CAMOES (Largo de Dom Luis I),41.1343067,-8.6059033,NC,76.0,2011-07-24T12:00,27.6,41,13.1,28.7,0.0,0.0,0.0,0.0,0,1018.1,1009.4,0,0,0,0,0.66,2.18,12.8,15.9,349,354,24.1,29.6,22.8,20.4,18.2,0.129,0.155,0.239,0.354,1,3600.0,933.7,827.9,105.8,899.3,933.7,1220.0,909.0,806.0,103.0,899.3,909.0,1187.8,Magnoliopsida; Tracheophyta
2011,2011-07-24,Porto,Vila Nova de Gaia,Olival,LG. CARVALHO (Escadas dos Carvalhos),41.0612018,-8.5234476,NC,153.0,2011-07-24T15:00,28.4,42,14.2,27.8,0.0,0.0,0.0,0.0,0,1017.2,999.7,0,0,0,0,0.65,2.24,23.2,30.3,332,335,41.4,32.2,23.8,20.3,17.8,0.131,0.145,0.223,0.351,1,3600.0,800.1,699.9,100.2,869.7,800.1,1066.4,846.0,740.0,106.0,869.7,846.0,1127.6,Tracheophyta; Eucalyptus L'Hér.; Magnoliopsida
2011,2011-07-24,Porto,Valongo,Campo,ALTO DA MINA (Alto da Fonte),41.1773425,-8.4625916,NC,117.0,2011-07-24T16:00,27.8,44,14.6,26.7,0.0,0.0,0.0,0.0,0,1017.1,1003.7,0,0,0,0,0.57,2.07,23.5,31.9,331,333,41.0,32.0,24.2,20.5,18.0,0.115,0.148,0.228,0.345,1,3600.0,663.3,573.0,90.3,842.9,663.3,900.9,727.0,628.0,99.0,842.9,727.0,987.4,Magnoliopsida; Tracheophyta; Quercus suber L.; Vitis vinifera L.
2011,2011-07-24,Aveiro,Aveiro,Nariz,Rua da Picada (Rua da Piedade),40.5476769,-8.5874705,Desconhecida,35.0,2011-07-24T15:00,29.0,41,14.4,28.6,0.0,0.0,0.0,0.0,0,1016.4,1012.4,2,0,0,6,0.66,2.37,22.9,29.5,332,335,42.8,36.2,24.4,20.9,18.8,0.05,0.061,0.103,0.213,1,3600.0,803.0,700.8,102.1,867.1,803.0,1071.1,849.0,741.0,108.0,867.1,849.0,1132.6,Eucalyptus L'Hér.; Magnoliopsida; Pinus pinaster Aiton; Tracheophyta
2011,2011-08-05,Aveiro,Santa Maria da Feira,Argoncilhe,Custeira (Carregueiras),41.0183885,-8.5477254,Desconhecida,225.0,2011-08-05T11:00,20.7,59,12.5,20.7,0.0,0.0,0.0,0.0,2,1017.9,991.7,73,55,0,77,0.42,0.99,10.6,12.4,298,300,25.2,25.7,22.2,21.3,18.2,0.124,0.119,0.175,0.314,1,3600.0,723.3,478.7,244.6,565.9,723.3,1124.1,683.0,452.0,231.0,565.9,683.0,1061.5,Eucalyptus L'Hér.; Magnoliopsida; Tracheophyta; Quercus L.
2011,2011-08-05,Porto,TROFA,Covelas,RINDO (VENTOSA),41.3008521,-8.5349796,NC,115.0,2011-08-05T16:00,22.7,51,12.0,22.1,0.0,0.0,0.0,0.0,0,1016.4,1003.0,20,1,0,63,0.45,1.36,13.7,16.6,265,265,30.2,29.2,23.8,21.9,18.6,0.134,0.138,0.202,0.338,1,3600.0,632.8,523.0,109.9,799.2,632.8,869.7,697.0,576.0,121.0,799.2,697.0,957.9,Magnoliopsida; Pinus pinaster Aiton; Vitis vinifera L.; Quercus L.; Tracheophyta; Eucalyptus L'Hér.; Olea europaea L.; ; Pinales
2011,2011-08-05,Aveiro,Albergaria-a-Velha,Albergaria-a-Velha,SOBREIRO,40.6938582,-8.5060594,Desconhecida,126.0,2011-08-05T19:00,19.8,63,12.5,18.8,0.0,0.0,0.0,0.0,2,1016.6,1001.8,70,61,5,39,0.11,0.86,11.9,15.5,272,273,27.4,25.3,23.8,21.7,18.9,0.079,0.089,0.136,0.25,1,3600.0,72.2,39.2,33.0,313.9,72.2,166.1,127.0,69.0,58.0,313.9,127.0,292.2,Tracheophyta; Eucalyptus L'Hér.
2011,2011-08-05,Viseu,Cinfães,Travanca,TRAVANCA,41.0335646,-8.2223709,Desconhecida,122.0,2011-08-05T18:00,21.3,55,12.0,20.1,0.0,0.0,0.0,0.0,1,1015.9,1001.6,46,22,10,66,0.24,1.13,12.3,15.7,255,254,26.3,27.2,24.2,22.0,18.6,0.121,0.152,0.235,0.342,1,3600.0,273.6,213.2,60.5,678.3,273.6,417.7,353.0,275.0,78.0,678.3,353.0,538.9,Pinus pinaster Aiton; Magnoliopsida; Tracheophyta; Eucalyptus L'Hér.; Vitis vinifera L.; Quercus L.; 
2011,2011-08-03,Braga,Póvoa de Lanhoso,Moure,CALDESES(MOURE)M3 (Caldeses),41.6078536,-8.3340477,NC,137.0,2011-08-03T13:00,24.7,53,14.5,26.5,0.0,0.0,0.0,0.0,0,1020.7,1004.8,0,0,0,0,0.58,1.46,10.5,12.0,308,311,25.6,30.3,22.5,21.6,17.9,0.107,0.146,0.224,0.338,1,3600.0,875.0,677.0,198.0,743.8,875.0,1209.0,875.0,677.0,198.0,743.8,875.0,1209.0,Vitis vinifera L.; Magnoliopsida; Tracheophyta
2011,2011-06-26,Porto,Penafiel,Castelões,LUG DE PENOUCOS (BUSTÊLO),41.2310904,-8.1850549,NC,219.0,2011-06-26T01:00,22.0,63,14.5,22.8,0.0,0.0,0.0,0.0,0,1017.0,991.6,0,0,0,1,0.02,0.99,4.8,4.0,103,117,10.4,20.3,23.2,18.5,15.2,0.123,0.207,0.288,0.366,0,0.0,0.0,0.0,0.0,0.0,0.0,0.0,0.0,0.0,0.0,0.0,0.0,0.0,Tracheophyta; Eucalyptus L'Hér.; Vitis vinifera L.; Magnoliopsida
2011,2011-08-09,Porto,Marco de Canaveses,Tuias,Vilar,41.17549355,-8.16457827943076,Desconhecida,213.0,2011-08-09T16:00,31.3,24,8.6,30.2,0.0,0.0,0.0,0.0,0,1018.5,994.5,0,0,0,0,0.59,3.45,10.9,14.9,73,75,28.1,30.7,22.5,21.0,18.1,0.158,0.151,0.228,0.338,1,3600.0,649.8,562.9,86.9,877.6,649.8,853.5,718.0,622.0,96.0,877.6,718.0,943.2,Tracheophyta; Magnoliopsida; Pinus pinaster Aiton; Vitis vinifera L.
2011,2011-08-09,Aveiro,Santa Maria da Feira,Nogueira da Regedoura,Olivaes (Oliveira),41.00510615,-8.587127848697744,Desconhecida,110.0,2011-08-09T19:00,27.9,43,14.1,27.7,0.0,0.0,0.0,0.0,0,1017.9,1005.3,0,0,0,0,0.17,2.14,10.2,17.6,8,11,20.9,29.4,24.5,21.6,19.1,0.119,0.121,0.183,0.313,1,3600.0,87.7,61.4,26.3,533.6,87.7,153.1,160.0,112.0,48.0,533.6,160.0,279.3,Tracheophyta; Magnoliopsida; Eucalyptus L'Hér.
2011,2011-08-09,Porto,Gondomar,Rio Tinto,AGRA DO MATO (Agra),41.1807166,-8.5575691,NC,71.0,2011-08-09T21:00,24.8,57,15.7,25.3,0.0,0.0,0.0,0.0,0,1018.3,1010.1,0,0,0,0,0.06,1.36,10.3,18.1,29,35,19.4,25.3,24.4,21.6,19.1,0.149,0.143,0.214,0.34,0,0.0,0.0,0.0,0.0,0.0,0.0,0.0,0.0,0.0,0.0,0.0,0.0,0.0,Tracheophyta; Magnoliopsida
2011,2011-08-09,Lisboa,ODIVELAS,Ramada,SERRA DA AMOREIRA (Bairro Novo Casal da Serra),38.80800875,-9.196381569305192,NC,233.0,2011-08-09T23:00,21.5,58,12.8,20.5,0.0,0.0,0.0,0.0,0,1016.4,989.4,0,0,0,0,0.07,1.08,12.7,25.7,335,349,25.2,22.7,24.9,21.8,19.5,0.093,0.166,0.233,0.333,0,0.0,0.0,0.0,0.0,0.0,0.0,0.0,0.0,0.0,0.0,0.0,0.0,0.0,Eucalyptus L'Hér.; Tracheophyta; Magnoliopsida; Olea europaea L.; Pinus pinea L.; 
2011,2011-08-11,Aveiro,Santa Maria da Feira,Vale,Travessa do Zangarinal,40.9798669,-8.4432735,Desconhecida,216.0,2011-08-11T14:00,33.0,31,13.5,34.1,0.0,0.0,0.0,0.0,0,1014.6,990.5,0,0,0,0,0.75,3.49,13.5,16.4,318,320,27.7,34.8,24.4,21.4,18.7,0.124,0.146,0.221,0.338,1,3600.0,884.2,781.2,103.0,912.3,884.2,1140.2,910.0,804.0,106.0,912.3,910.0,1173.5,Magnoliopsida; Tracheophyta; Eucalyptus L'Hér.; Pinales
2011,2011-08-03,Porto,Amarante,Aboim,LG SOBREIRO (Loureiro),41.3241375,-8.0652679,Desconhecida,151.0,2011-08-03T02:00,17.1,93,15.9,18.8,0.0,0.0,0.0,0.0,3,1019.2,1001.3,90,100,0,0,0.0,0.14,2.2,1.5,270,284,4.7,19.1,22.5,21.9,18.1,0.123,0.152,0.233,0.342,0,0.0,0.0,0.0,0.0,0.0,0.0,0.0,0.0,0.0,0.0,0.0,0.0,0.0,Tracheophyta; Eucalyptus L'Hér.; Pinus pinaster Aiton; Magnoliopsida; Vitis vinifera L.; 
2011,2011-08-10,Aveiro,Albergaria-a-Velha,Albergaria-a-Velha,Albergaria (Albergaria a Nova),40.7403631,-8.4899293,Desconhecida,150.0,2011-08-10T06:00,19.5,45,7.3,16.3,0.0,0.0,0.0,0.0,0,1017.8,1000.2,0,0,0,0,0.14,1.25,17.3,33.8,91,89,35.3,18.9,23.0,21.3,18.9,0.085,0.089,0.133,0.248,1,0.0,8.4,2.8,5.6,32.0,2.5,69.3,3.0,1.0,2.0,16.0,3.0,24.8,Eucalyptus L'Hér.; Tracheophyta
2011,2011-08-11,Aveiro,Santa Maria da Feira,Romariz,Goim,40.9432863,-8.4386917,Desconhecida,347.0,2011-08-11T13:00,32.1,31,12.8,34.4,0.0,0.0,0.0,0.0,0,1015.0,976.5,0,0,0,0,0.71,3.29,6.2,6.9,280,279,20.9,33.3,23.5,20.9,18.2,0.123,0.15,0.23,0.339,1,3600.0,925.4,819.5,105.9,912.4,925.4,1195.9,926.0,820.0,106.0,912.4,926.0,1196.6,Eucalyptus L'Hér.; Tracheophyta; Pinales
2011,2011-08-11,Porto,Felgueiras,Caramos,LAMEIROES (Lameiro do Morto),41.3403403,-8.1701312,NC,337.0,2011-08-11T14:00,32.9,25,10.1,34.1,0.0,0.0,0.0,0.0,0,1014.4,977.1,0,0,0,0,0.72,3.77,7.2,8.5,297,298,20.9,34.4,23.2,20.7,17.7,0.118,0.146,0.219,0.334,1,3600.0,888.6,786.6,102.0,923.3,888.6,1134.4,915.0,810.0,105.0,923.3,915.0,1168.2,Pinus pinaster Aiton; Tracheophyta; Eucalyptus L'Hér.; Magnoliopsida
2011,2011-08-09,Lisboa,ODIVELAS,Canecas,R FONTAINHAS DAS ESPIAS - CANEÇAS (Arilhe),38.8159778,-9.2219504,NC,229.0,2011-08-09T15:00,31.5,26,9.6,31.8,0.0,0.0,0.0,0.0,0,1015.7,990.0,0,0,0,0,0.68,3.43,9.8,11.8,6,12,27.0,33.3,23.2,20.8,18.9,0.129,0.173,0.237,0.334,1,3600.0,807.8,707.0,100.9,895.5,807.8,1050.5,857.0,750.0,107.0,895.5,857.0,1114.5,Tracheophyta; Magnoliopsida; Pinus pinea L.
2011,2011-08-09,Porto,Vila do Conde,Vilar de Pinheiro,LG. INDUSTRIA (RIO MAU),41.2683498,-8.6655057,NC,66.0,2011-08-09T13:00,29.5,34,11.9,30.5,0.0,0.0,0.0,0.0,0,1020.3,1012.7,0,0,0,0,0.71,2.72,11.8,16.0,20,31,26.3,30.5,22.2,21.4,18.9,0.126,0.147,0.224,0.334,1,3600.0,937.1,827.1,110.0,918.6,937.1,1198.0,937.0,827.0,110.0,918.6,937.0,1197.9,Magnoliopsida; Eucalyptus L'Hér.; Tracheophyta
2011,2011-08-09,Viana do Castelo,Viana do Castelo,Vila Fria,JUNQUEIRA-VILA FRIA (Junqueira),41.6625255,-8.7617649,Desconhecida,44.0,2011-08-09T14:00,27.1,44,13.8,28.6,0.0,0.0,0.0,0.0,0,1020.0,1014.9,0,0,0,0,0.65,2.0,11.7,15.0,9,21,24.5,29.3,21.6,21.0,18.7,0.162,0.166,0.238,0.341,1,3600.0,889.0,783.9,105.0,914.3,889.0,1140.8,914.0,806.0,108.0,914.3,914.0,1173.0,Eucalyptus L'Hér.; Tracheophyta; Magnoliopsida; Pinus pinaster Aiton
2011,2011-08-09,Braga,Celorico de Basto,Veade,SEARA (VEADE) M5 (Cruz da Seara),41.41462535,-7.974960980903772,NC,198.0,2011-08-09T14:00,30.1,29,10.1,30.2,0.0,0.0,0.0,0.0,0,1019.5,997.1,0,0,0,0,0.73,3.03,13.5,17.9,81,81,34.2,30.8,22.4,21.8,18.6,0.151,0.148,0.224,0.336,1,3600.0,900.6,796.6,104.0,930.2,900.6,1139.6,927.0,820.0,107.0,930.2,927.0,1173.0,Magnoliopsida; Pinus pinaster Aiton; Vitis vinifera L.; Tracheophyta
2011,2011-08-12,Braga,Póvoa de Lanhoso,Frades,CRUZES(FRADES)M3 (Cruzes),41.61399405,-8.242035471520008,NC,440.0,2011-08-12T02:00,17.9,68,12.0,17.4,0.0,0.0,0.0,0.0,0,1013.9,963.1,0,0,0,1,0.02,0.65,7.3,9.7,81,75,13.3,19.5,23.5,20.5,17.4,0.132,0.154,0.221,0.335,0,0.0,0.0,0.0,0.0,0.0,0.0,0.0,0.0,0.0,0.0,0.0,0.0,0.0,Eucalyptus L'Hér.; Tracheophyta; Pinus pinaster Aiton; Quercus L.; Magnoliopsida; Vitis vinifera L.
2011,2011-08-12,Porto,Póvoa de Varzim,Argivai,RUA S. MIGUEL O'ANJO (Rua Santos Minho),41.3756541,-8.7341865,NC,33.0,2011-08-12T04:00,18.5,74,13.7,16.6,0.0,0.0,0.0,0.0,0,1013.9,1010.0,8,0,0,28,0.06,0.56,20.9,33.9,356,4,33.1,20.5,24.5,21.8,19.1,0.108,0.14,0.209,0.326,0,0.0,0.0,0.0,0.0,0.0,0.0,0.0,0.0,0.0,0.0,0.0,0.0,0.0,Tracheophyta; Eucalyptus L'Hér.; Pinus pinaster Aiton
2011,2011-08-13,Viana do Castelo,Monção,Barbeita,Terendo,42.0684555,-8.4107817,Desconhecida,62.0,2011-08-13T00:00,18.7,84,16.0,18.7,0.0,0.0,0.0,0.0,0,1014.0,1006.7,0,0,0,0,0.02,0.34,14.3,24.6,342,354,28.8,21.0,24.1,21.0,18.2,0.118,0.149,0.224,0.338,0,0.0,0.0,0.0,0.0,0.0,0.0,0.0,0.0,0.0,0.0,0.0,0.0,0.0,Tracheophyta; Vitis vinifera L.; Eucalyptus L'Hér.; Magnoliopsida; Pinus pinaster Aiton; 
2011,2011-08-13,Braga,Celorico de Basto,Infesta,REBORDÕES(INFESTA) M.6 (ED304 (ED304) Km 126),41.4008308,-8.048084608930965,NC,433.0,2011-08-13T03:00,18.4,80,14.8,19.2,0.0,0.0,0.0,0.0,0,1013.0,963.1,14,0,0,45,0.0,0.43,5.4,7.8,188,214,9.7,18.9,24.3,21.1,17.7,0.124,0.142,0.212,0.33,0,0.0,0.0,0.0,0.0,0.0,0.0,0.0,0.0,0.0,0.0,0.0,0.0,0.0,Magnoliopsida; Pinus pinaster Aiton; Vitis vinifera L.; Tracheophyta
2011,2011-07-27,Aveiro,Santa Maria da Feira,Rio Meão,Casais de Baixo,40.9438427,-8.5923096,Desconhecida,86.0,2011-07-27T17:00,31.5,27,10.4,27.4,0.0,0.0,0.0,0.0,0,1012.6,1002.9,0,0,0,0,0.62,3.37,30.2,42.2,338,343,46.1,34.7,25.8,21.1,18.4,0.104,0.11,0.164,0.303,1,3600.0,492.6,415.5,77.0,800.4,492.6,688.4,569.0,480.0,89.0,800.4,569.0,795.3,Eucalyptus L'Hér.; Tracheophyta; Magnoliopsida; Pinus pinaster Aiton
2011,2011-07-27,Viana do Castelo,Arcos de Valdevez,Grade,GRADE,41.8701949,-8.374643169276897,NC,204.0,2011-07-27T18:00,26.9,40,12.0,25.6,0.0,0.0,0.0,0.0,0,1013.1,989.9,0,0,0,0,0.33,2.13,13.2,19.8,343,350,28.1,29.1,23.3,19.4,16.9,0.108,0.166,0.247,0.35,1,3600.0,305.0,244.6,60.4,714.1,305.0,454.3,384.0,308.0,76.0,714.1,384.0,572.0,Magnoliopsida; Eucalyptus L'Hér.; Tracheophyta; Acacia Mill.
2011,2011-07-25,Viseu,São João da Pesqueira,Valongo dos Azeites,Portela,41.070487,-7.3958163,Desconhecida,581.0,2011-07-25T23:00,21.2,57,12.4,21.0,0.0,0.0,0.0,0.0,0,1015.7,949.9,5,0,0,18,0.03,1.07,6.5,15.0,341,350,20.2,23.6,25.9,21.2,17.0,0.111,0.154,0.198,0.332,0,0.0,0.0,0.0,0.0,0.0,0.0,0.0,0.0,0.0,0.0,0.0,0.0,0.0,Magnoliopsida; Tracheophyta; Olea europaea L.; Vitis vinifera L.; Pinus pinaster Aiton; Pinales
2011,2011-07-26,Viana do Castelo,Paredes de Coura,Vascões,LAMAS - PPCB (Lamas),41.9125992,-8.4930867,NC,599.0,2011-07-26T00:00,16.6,86,14.3,17.2,0.0,0.0,0.0,0.0,0,1017.7,948.8,3,3,0,0,0.0,0.26,6.1,13.1,28,32,22.7,18.6,20.8,17.3,14.9,0.118,0.177,0.258,0.355,0,0.0,0.0,0.0,0.0,0.0,0.0,0.0,0.0,0.0,0.0,0.0,0.0,0.0,Magnoliopsida; Quercus L.; Tracheophyta; Eucalyptus L'Hér.; Pinales; 
2011,2011-07-26,Porto,Felgueiras,Borba de Godim,LG DE BALAZAR (PINHEIRO),41.3219949,-8.1424064,NC,386.0,2011-07-26T08:00,20.9,70,15.3,22.0,0.0,0.0,0.0,0.0,0,1014.8,970.5,0,0,0,0,0.19,0.74,4.9,6.6,36,41,16.6,21.5,22.1,19.7,16.4,0.096,0.155,0.239,0.345,1,3600.0,387.3,298.2,89.1,641.0,387.3,616.8,313.0,241.0,72.0,641.0,313.0,498.4,Vitis vinifera L.; Tracheophyta; Magnoliopsida
2011,2011-07-26,Porto,Lousada,Macieira,Cavadinha,41.2904579,-8.244309535049862,NC,224.0,2011-07-26T11:00,27.2,51,16.2,30.1,0.0,0.0,0.0,0.0,0,1014.3,988.8,0,0,0,0,0.57,1.76,6.1,7.2,357,3,20.9,29.0,22.6,20.0,17.1,0.125,0.153,0.232,0.347,1,3600.0,862.1,756.4,105.6,877.1,862.1,1143.4,816.0,716.0,100.0,877.1,816.0,1082.3,Vitis vinifera L.; Tracheophyta; Magnoliopsida
2011,2011-07-26,Aveiro,Albergaria-a-Velha,Albergaria-a-Velha,SOBREIRO,40.6938582,-8.5060594,Desconhecida,126.0,2011-07-26T13:00,29.1,47,16.5,30.5,0.0,0.0,0.0,0.0,0,1013.3,999.0,0,0,0,0,0.69,2.15,19.0,24.1,331,333,38.9,34.7,24.2,21.0,18.3,0.067,0.092,0.145,0.257,1,3600.0,933.1,817.0,116.0,879.0,933.1,1232.3,933.0,817.0,116.0,879.0,933.0,1232.2,Tracheophyta; Eucalyptus L'Hér.
2011,2011-06-12,Vila Real,Chaves,Santa Maria Maior,MONTE DA BANDEIRA (Bairro do Monte Meão),41.7368323,-7.480509154651061,NC,365.0,2011-06-12T18:00,22.0,46,9.7,20.0,0.0,0.0,0.0,0.0,0,1016.6,974.7,9,0,15,1,0.23,1.44,13.7,19.5,265,267,37.1,23.2,19.7,16.5,13.8,0.209,0.243,0.29,0.369,1,3600.0,200.9,110.5,90.5,314.4,200.9,466.1,251.0,138.0,113.0,314.4,251.0,582.2,Tracheophyta; Magnoliopsida
2011,2011-06-12,Vila Real,Boticas,Boticas,Cerdeiras (CERDEDO),41.6585005,-7.8799353,NC,834.0,2011-06-12T20:00,14.5,67,8.4,13.0,0.0,0.0,0.0,0.0,0,1019.1,923.8,3,0,5,0,0.04,0.55,7.2,14.9,252,255,29.2,16.8,16.9,14.3,11.9,0.271,0.309,0.334,0.381,1,2121.07,1.7,1.0,0.7,11.0,1.2,3.8,53.0,30.0,23.0,241.5,53.0,117.6,Tracheophyta; Pinus pinaster Aiton; Magnoliopsida
2011,2011-06-12,Porto,Felgueiras,Caramos,Crasto,41.3403403,-8.1701312,NC,337.0,2011-06-12T21:00,15.0,78,11.3,14.3,0.0,0.0,0.0,0.0,0,1019.8,980.0,0,0,0,0,0.01,0.37,7.6,9.7,270,274,14.4,17.5,18.7,16.4,13.8,0.158,0.24,0.303,0.372,0,0.0,0.0,0.0,0.0,0.0,0.0,0.0,0.0,0.0,0.0,0.0,0.0,0.0,Pinus pinaster Aiton; Tracheophyta; Eucalyptus L'Hér.; Magnoliopsida
2011,2011-06-13,Porto,Santo Tirso,Monte Córdova,LG MONTE PADRÃO (Lugar do Monte),41.3164414,-8.4320306,Desconhecida,357.0,2011-06-13T00:00,14.0,87,11.8,14.0,0.0,0.0,0.0,0.0,1,1020.5,978.2,30,29,7,0,0.0,0.21,3.9,5.9,214,232,10.4,14.4,18.0,16.4,13.8,0.143,0.228,0.297,0.37,0,0.0,0.0,0.0,0.0,0.0,0.0,0.0,0.0,0.0,0.0,0.0,0.0,0.0,Tracheophyta; Vitis vinifera L.; Eucalyptus L'Hér.; Pinus pinaster Aiton; Magnoliopsida
2011,2011-08-20,Viana do Castelo,Ponte de Lima,Anais,ANAIS - ANAIS (Anais),41.699011,-8.524176,NC,285.0,2011-08-20T19:00,28.5,50,17.2,30.3,0.0,0.0,0.0,0.0,0,1014.6,982.5,18,0,7,47,0.1,1.93,5.2,6.1,304,332,10.4,31.1,26.2,21.4,18.0,0.1,0.145,0.212,0.33,1,3551.6,46.2,27.1,19.1,311.3,45.9,93.7,109.0,64.0,45.0,384.1,109.0,220.9,Eucalyptus L'Hér.; Pinus pinaster Aiton; Tracheophyta
2011,2011-08-20,Aveiro,Albergaria-a-Velha,Valmaior,Mouquim,40.6972034,-8.4379283,Desconhecida,53.0,2011-08-20T19:00,31.7,41,16.8,31.5,0.0,0.0,0.0,0.0,1,1012.2,1006.2,48,0,30,100,0.23,2.77,17.6,26.7,23,32,27.4,33.8,27.5,22.7,19.9,0.063,0.077,0.111,0.226,1,699.67,23.3,5.7,17.6,65.7,22.9,89.4,57.0,14.0,43.0,84.0,57.0,218.7,Eucalyptus L'Hér.; Tracheophyta
2011,2011-08-04,Aveiro,Santa Maria da Feira,Lourosa,Rua da Fontinha,40.983541,-8.5499188,Desconhecida,164.0,2011-08-04T12:00,24.2,62,16.4,25.5,0.0,0.0,0.0,0.0,1,1021.5,1002.5,29,32,0,1,0.47,1.16,11.9,14.1,305,308,28.8,28.9,22.4,21.7,18.5,0.121,0.119,0.175,0.315,1,3600.0,725.7,499.6,226.1,552.4,725.7,1201.6,706.0,486.0,220.0,552.4,706.0,1168.9,Tracheophyta; Magnoliopsida; Pinus pinaster Aiton; Eucalyptus L'Hér.
2011,2011-08-04,Porto,Felgueiras,Pinheiro,Azenha,41.3684352,-8.152882,NC,497.0,2011-08-04T13:00,24.8,55,15.2,26.5,0.0,0.0,0.0,0.0,0,1020.5,964.3,18,18,0,6,0.6,1.41,13.5,16.9,286,286,40.0,29.9,22.0,20.5,16.5,0.109,0.142,0.217,0.334,1,3600.0,902.3,781.4,120.9,859.3,902.3,1208.1,903.0,782.0,121.0,859.3,903.0,1209.1,Pinus pinaster Aiton; Tracheophyta; Magnoliopsida; Vitis vinifera L.; Eucalyptus L'Hér.
2011,2011-08-04,Aveiro,Vale de Cambra,Junqueira,Chã,40.8500507,-8.3927361,Desconhecida,242.0,2011-08-04T15:00,24.7,62,16.9,25.5,0.0,0.0,0.0,0.0,1,1020.5,992.6,48,27,0,78,0.47,1.18,16.2,20.5,307,308,37.4,29.9,22.9,21.4,18.1,0.119,0.148,0.228,0.342,1,3600.0,658.4,479.2,179.2,610.4,658.4,1043.1,698.0,508.0,190.0,610.4,698.0,1105.8,Tracheophyta
2011,2011-08-04,Porto,Vila Nova de Gaia,Pedroso,RECANTO ALHEIRA DE AQUÉM (Recanto da Alheira d'Aquem),41.0776771,-8.5420095,NC,95.0,2011-08-04T16:00,24.3,68,17.9,25.0,0.0,0.0,0.0,0.0,3,1020.0,1008.9,86,65,0,90,0.37,0.99,15.8,20.1,291,291,31.0,29.7,23.8,22.0,18.8,0.13,0.139,0.207,0.344,1,3600.0,508.5,324.2,184.3,493.3,508.5,873.2,560.0,357.0,203.0,493.3,560.0,961.6,Eucalyptus L'Hér.; Magnoliopsida; Tracheophyta
2011,2011-07-27,Porto,Santo Tirso,Roriz,LG DE MOUROS (AVES),41.3515405,-8.3829071,NC,220.0,2011-07-27T03:00,18.6,57,10.0,16.7,0.0,0.0,0.0,0.0,0,1013.3,987.6,0,0,0,0,0.07,0.92,13.1,24.3,21,32,27.0,20.3,23.9,20.3,17.2,0.107,0.153,0.232,0.341,0,0.0,0.0,0.0,0.0,0.0,0.0,0.0,0.0,0.0,0.0,0.0,0.0,0.0,Magnoliopsida; Tracheophyta; Vitis vinifera L.; Quercus suber L.
2011,2011-07-27,Viana do Castelo,Arcos de Valdevez,Cabreiro,PORTO CERDEIRA - CABREIRO (Corga do Porto Novo),41.9327534,-8.4151051,NC,150.0,2011-07-27T06:00,15.0,82,11.9,13.0,0.0,0.0,0.0,0.0,0,1016.2,998.3,0,0,0,0,0.04,0.31,17.7,28.0,24,35,31.7,17.1,21.6,19.6,17.2,0.113,0.168,0.249,0.351,1,0.0,28.5,11.9,16.6,122.1,13.7,128.9,12.0,5.0,7.0,58.9,12.0,54.3,Magnoliopsida; Pinus pinaster Aiton; Eucalyptus L'Hér.
2011,2011-06-13,Viana do Castelo,Viana do Castelo,Darque,MONTE GALEÃO (Monte),41.683106,-8.796185,Desconhecida,18.0,2011-06-13T17:00,19.7,74,15.0,19.8,0.0,0.0,0.0,0.0,2,1021.4,1019.3,61,68,0,0,0.27,0.6,11.2,14.1,266,267,24.8,25.2,20.4,18.6,16.0,0.123,0.211,0.296,0.371,1,3600.0,399.6,263.5,136.1,489.6,399.6,713.7,458.0,302.0,156.0,489.6,458.0,818.0,Tracheophyta; Magnoliopsida; Pinus pinaster Aiton; Eucalyptus L'Hér.
2011,2011-06-13,Aveiro,Águeda,Trofa,TROFA,40.5945686,-8.4641855,Desconhecida,80.0,2011-06-13T18:00,20.8,65,13.9,20.1,0.0,0.0,0.0,0.0,0,1021.1,1011.7,19,21,0,0,0.23,0.87,13.0,16.4,298,299,31.7,24.8,20.7,18.5,16.2,0.081,0.134,0.177,0.267,1,3600.0,283.8,198.0,85.8,552.3,283.8,475.4,354.0,247.0,107.0,552.3,354.0,593.1,Eucalyptus L'Hér.; Pinus pinaster Aiton; Tracheophyta
2011,2011-08-20,Viana do Castelo,Ponte de Lima,Vitorino dos Piães,IGREJA - VITORINO DOS PIAES (Fonte da Igreja),41.6815613,-8.6232985,NC,129.0,2011-08-20T19:00,28.7,51,17.7,30.5,0.0,0.0,0.0,0.0,0,1014.3,999.6,16,0,11,31,0.11,1.92,6.5,8.6,341,2,12.6,31.8,27.0,22.2,19.0,0.1,0.143,0.205,0.325,1,3574.72,47.5,28.7,18.8,329.0,47.3,95.3,111.0,67.0,44.0,400.4,111.0,222.7,Tracheophyta; Eucalyptus L'Hér.
2011,2011-08-06,Viseu,Lamego,Valdigem,VALDIGEM,41.1386734,-7.757867134086674,Desconhecida,430.0,2011-08-06T00:00,17.4,70,12.0,16.9,0.0,0.0,0.0,0.0,3,1015.1,965.3,92,100,3,0,0.02,0.59,7.6,11.2,225,225,24.8,21.0,24.1,22.0,17.8,0.159,0.148,0.182,0.337,0,0.0,0.0,0.0,0.0,0.0,0.0,0.0,0.0,0.0,0.0,0.0,0.0,0.0,Olea europaea L.; Magnoliopsida; Vitis vinifera L.; Tracheophyta; Eucalyptus L'Hér.; 
2011,2011-08-07,Setúbal,Barreiro,Santo António da Charneca,CIDADE SOL TRASEIRAS DO CLUBE (Cidade Sol),38.6330077,-9.0334412,Desconhecida,50.0,2011-08-07T11:00,24.2,49,12.9,24.2,0.0,0.0,0.0,0.0,0,1014.2,1008.4,0,0,0,0,0.53,1.52,15.3,19.6,351,354,33.5,28.1,23.0,22.3,20.3,0.068,0.064,0.104,0.205,1,3600.0,850.6,734.8,115.7,861.6,850.6,1134.1,801.0,692.0,109.0,861.6,801.0,1068.0,Magnoliopsida; Tracheophyta; Quercus suber L.; Pinus pinaster Aiton; Pinus pinea L.; 
2011,2011-07-25,Porto,Felgueiras,Borba de Godim,Vilar,41.3219949,-8.1424064,NC,386.0,2011-07-25T23:00,19.4,77,15.2,20.2,0.0,0.0,0.0,0.0,0,1016.2,971.6,0,0,0,1,0.01,0.52,6.6,10.4,319,340,16.6,21.8,24.0,19.6,16.4,0.096,0.155,0.239,0.345,0,0.0,0.0,0.0,0.0,0.0,0.0,0.0,0.0,0.0,0.0,0.0,0.0,0.0,Vitis vinifera L.; Tracheophyta; Magnoliopsida
2011,2011-07-25,Viana do Castelo,Arcos de Valdevez,Paçô,ZONA INDUSTRIAL (GAVIEIRA),41.8295743,-8.4118568,NC,50.0,2011-07-25T23:00,20.2,80,16.7,19.2,0.0,0.0,0.0,0.0,0,1016.6,1010.7,0,0,0,0,0.04,0.47,23.0,37.1,343,348,40.3,22.4,24.3,20.5,17.8,0.104,0.159,0.238,0.345,0,0.0,0.0,0.0,0.0,0.0,0.0,0.0,0.0,0.0,0.0,0.0,0.0,0.0,Tracheophyta; Pinus pinaster Aiton; Magnoliopsida; Eucalyptus L'Hér.
2011,2011-07-25,Setúbal,Sines,Sines,ESTRADA DO PAIOL (Estrada da Afeiteira),37.9574843,-8.812298931051298,Desconhecida,40.0,2011-07-25T23:00,21.3,72,16.0,20.5,0.0,0.0,0.0,0.0,0,1013.6,1008.9,0,0,0,0,0.06,0.71,19.1,31.9,348,354,33.8,22.9,25.2,22.4,20.5,0.049,0.088,0.143,0.226,0,0.0,0.0,0.0,0.0,0.0,0.0,0.0,0.0,0.0,0.0,0.0,0.0,0.0,Tracheophyta; Pinus pinea L.; Pinus pinaster Aiton; Magnoliopsida
2011,2011-06-26,Porto,Santo Tirso,Refojos de Riba de Ave,Represas,41.2920945,-8.4471657,Desconhecida,216.0,2011-06-26T03:00,22.0,64,14.8,23.1,0.0,0.0,0.0,0.0,0,1016.0,991.0,0,0,0,0,0.0,0.96,3.1,1.9,45,68,7.2,19.2,23.4,19.0,15.5,0.099,0.187,0.275,0.362,0,0.0,0.0,0.0,0.0,0.0,0.0,0.0,0.0,0.0,0.0,0.0,0.0,0.0,Tracheophyta; Magnoliopsida; Pinus pinaster Aiton; Vitis vinifera L.; Eucalyptus L'Hér.
2011,2011-06-26,Porto,Gondomar,Baguim do Monte,RUA DAS COVAS (Rua de João de Deus),41.1874734,-8.5377585,NC,151.0,2011-06-26T03:00,22.1,74,17.3,24.3,0.0,0.0,0.0,0.0,0,1016.0,998.4,0,0,0,0,0.0,0.69,3.1,1.9,45,68,7.2,19.2,23.4,19.3,16.0,0.112,0.182,0.268,0.362,0,0.0,0.0,0.0,0.0,0.0,0.0,0.0,0.0,0.0,0.0,0.0,0.0,0.0,Tracheophyta
2011,2011-06-26,Porto,Gondomar,Foz do Sousa,Quintas,41.0994524,-8.4999065,NC,79.0,2011-06-26T10:00,29.9,47,17.3,32.8,0.0,0.0,0.0,0.0,1,1016.3,1007.3,28,0,0,92,0.5,2.24,3.4,3.4,342,32,13.0,29.5,23.2,19.7,16.6,0.129,0.183,0.269,0.367,1,3600.0,750.3,616.8,133.6,774.0,750.3,1054.7,691.0,568.0,123.0,774.0,691.0,971.3,Eucalyptus L'Hér.; Tracheophyta; Magnoliopsida; Pinus pinaster Aiton
2011,2011-06-26,Leiria,Alcobaça,Cela,Bica,39.5398754,-9.0355054,Desconhecida,180.0,2011-06-26T14:00,35.8,26,13.1,36.4,0.0,0.0,0.0,0.0,0,1014.5,994.5,16,0,24,5,0.82,4.38,15.9,20.0,155,152,31.7,38.2,24.8,20.0,16.9,0.085,0.173,0.237,0.313,1,3600.0,895.1,749.0,146.1,817.4,895.1,1212.9,919.0,769.0,150.0,817.4,919.0,1245.2,Vitis vinifera L.; Tracheophyta; Magnoliopsida; Pinus pinaster Aiton; Eucalyptus L'Hér.
2011,2011-06-26,Porto,TROFA,Muro,GUEID?OS (Lugar da Fonte),41.3010941,-8.5941379,NC,119.0,2011-06-26T16:00,32.9,37,16.1,33.9,0.0,0.0,0.0,0.0,1,1013.9,1000.5,34,0,17,81,0.51,3.17,9.0,10.5,275,274,16.2,34.7,25.1,19.6,16.3,0.109,0.175,0.263,0.36,1,3600.0,540.2,297.6,242.6,425.7,540.2,925.3,590.0,325.0,265.0,425.7,590.0,1010.6,Tracheophyta; Eucalyptus L'Hér.; Magnoliopsida
2011,2011-06-26,Leiria,Ansião,Alvorge,Costeira - Vale Galego,39.9798987,-8.4555929,Desconhecida,289.0,2011-06-26T16:00,36.1,27,14.0,36.1,0.0,0.0,0.0,0.0,0,1013.9,982.1,10,0,14,6,0.58,4.39,11.2,14.8,182,179,26.6,37.2,25.1,19.3,16.0,0.072,0.126,0.196,0.282,1,3600.0,555.5,371.9,183.7,532.2,555.5,924.9,608.0,407.0,201.0,532.2,608.0,1012.2,Olea europaea L.; Vitis vinifera L.; Pinus pinaster Aiton; Tracheophyta; Magnoliopsida; Eucalyptus L'Hér.; Quercus L.
2011,2011-07-24,Porto,Gondomar,Foz do Sousa,AVª FOZ DO SOUSA (VALBOM),41.119341,-8.50547,NC,95.0,2011-07-24T17:00,26.8,49,15.2,25.2,0.0,0.0,0.0,0.0,0,1017.0,1006.1,0,0,0,0,0.45,1.8,23.4,32.0,331,334,41.8,31.0,24.6,20.7,18.1,0.13,0.145,0.223,0.351,1,3600.0,488.3,409.4,78.9,781.5,488.3,694.3,563.0,472.0,91.0,781.5,563.0,800.5,Pinus pinaster Aiton; Eucalyptus L'Hér.; Tracheophyta; Magnoliopsida
2011,2011-07-24,Faro,Lagoa,Lagoa,Lameiras,37.14284895,-8.416410356026095,Desconhecida,35.0,2011-07-24T19:00,26.4,44,13.2,24.9,0.0,0.0,0.0,0.0,0,1015.4,1011.4,0,0,0,0,0.23,1.93,17.7,24.5,321,327,31.7,31.0,27.5,24.2,20.8,0.088,0.17,0.241,0.309,1,3600.0,106.6,73.6,33.0,524.5,106.6,186.1,181.0,125.0,56.0,524.5,181.0,315.9,Tracheophyta; Magnoliopsida
2011,2011-07-24,Porto,Marco de Canaveses,Penha Longa,PENOUÇOS (BANHO E CARVALHOSA),41.1077811,-8.160269,Desconhecida,344.0,2011-07-24T19:00,25.2,51,14.4,24.9,0.0,0.0,0.0,0.0,0,1017.1,978.0,0,0,0,0,0.18,1.56,12.0,20.3,321,327,39.6,27.7,23.4,19.3,16.6,0.116,0.164,0.251,0.352,1,3600.0,118.8,84.1,34.8,528.1,118.8,211.0,188.0,133.0,55.0,528.1,188.0,333.8,Tracheophyta; Magnoliopsida; Pinus pinaster Aiton; Eucalyptus L'Hér.
2011,2011-07-24,Porto,Santo Tirso,Refojos de Riba de Ave,Lavatães,41.2920945,-8.4471657,Desconhecida,216.0,2011-07-24T21:00,21.2,65,14.2,19.8,0.0,0.0,0.0,0.0,0,1017.7,992.6,3,0,0,9,0.08,0.89,18.4,32.5,343,347,36.7,24.2,24.2,20.1,17.4,0.1,0.154,0.237,0.344,0,0.0,0.0,0.0,0.0,0.0,0.0,0.0,0.0,0.0,0.0,0.0,0.0,0.0,Tracheophyta; Magnoliopsida; Pinus pinaster Aiton; Vitis vinifera L.; Eucalyptus L'Hér.
2011,2011-07-24,Viana do Castelo,Arcos de Valdevez,Portela,CIMO DE VILA - PORTELA (Cimo de Vila),41.9444262,-8.4503411,NC,311.0,2011-07-24T22:00,18.9,77,14.8,19.0,0.0,0.0,0.0,0.0,0,1020.4,984.1,1,1,0,0,0.02,0.5,10.2,21.6,10,18,32.8,21.1,22.0,18.6,16.4,0.116,0.169,0.249,0.351,0,0.0,0.0,0.0,0.0,0.0,0.0,0.0,0.0,0.0,0.0,0.0,0.0,0.0,Magnoliopsida; Eucalyptus L'Hér.; Quercus L.; Vitis vinifera L.; Pinus pinaster Aiton; ; Tracheophyta
2011,2011-07-27,Viana do Castelo,Arcos de Valdevez,Sabadim,COSTA - SABADIM (Costa),41.9094317,-8.4431347,NC,70.0,2011-07-27T21:00,22.4,58,13.7,20.7,0.0,0.0,0.0,0.0,0,1015.1,1006.9,0,0,0,0,0.11,1.15,20.3,34.5,7,18,39.2,24.6,24.2,20.3,17.7,0.108,0.166,0.247,0.35,0,0.0,0.0,0.0,0.0,0.0,0.0,0.0,0.0,0.0,0.0,0.0,0.0,0.0,Acacia Mill.; Eucalyptus L'Hér.; Tracheophyta; Magnoliopsida; Pinus pinaster Aiton
2011,2011-07-25,Aveiro,Vale de Cambra,Junqueira,Chã,40.8500507,-8.3927361,Desconhecida,242.0,2011-07-25T21:00,21.0,74,16.3,21.0,0.0,0.0,0.0,0.0,0,1015.8,987.7,0,0,0,0,0.04,0.64,15.2,26.6,346,351,31.7,24.1,24.4,20.3,17.5,0.113,0.157,0.242,0.349,0,0.0,0.0,0.0,0.0,0.0,0.0,0.0,0.0,0.0,0.0,0.0,0.0,0.0,Tracheophyta
2011,2011-07-25,Porto,Maia,Maia,AV. D. MANUEL II (Alameda de Manuel António Dias Moutinho),41.2329846,-8.6222375,NC,100.0,2011-07-25T04:00,17.7,86,15.4,17.8,0.0,0.0,0.0,0.0,0,1017.5,1005.6,0,0,0,0,0.01,0.27,11.7,21.6,11,18,24.5,19.6,23.0,20.5,18.0,0.124,0.151,0.231,0.348,0,0.0,0.0,0.0,0.0,0.0,0.0,0.0,0.0,0.0,0.0,0.0,0.0,0.0,Tracheophyta; Eucalyptus L'Hér.; Magnoliopsida
2011,2011-07-24,Lisboa,Sintra,Agualva,R JOSE AFONSO (Agualva-Cacém),38.78413805,-9.301270661479826,Desconhecida,170.0,2011-07-24T23:00,17.3,86,14.9,15.4,0.0,0.0,0.0,0.0,0,1017.2,997.1,14,15,0,0,0.03,0.28,24.0,39.8,347,350,48.2,19.4,21.6,19.9,18.4,0.125,0.182,0.246,0.341,0,0.0,0.0,0.0,0.0,0.0,0.0,0.0,0.0,0.0,0.0,0.0,0.0,0.0,Tracheophyta; Magnoliopsida; ; Pinales
2011,2011-08-05,Braga,Guimarães,Salvador (Briteiros),CITÂNIA (BRITEIROS S. SALVADOR)M3 (DONIM),41.52498985,-8.322332546823615,NC,171.0,2011-08-05T14:00,23.1,50,12.1,24.1,0.0,0.0,0.0,0.0,1,1016.6,996.8,28,1,0,90,0.57,1.42,11.3,13.4,263,264,32.0,29.6,22.9,21.3,17.8,0.114,0.145,0.222,0.337,1,3600.0,861.8,693.5,168.3,800.8,861.8,1151.0,886.0,713.0,173.0,800.8,886.0,1183.3,Quercus L.; Magnoliopsida; Tracheophyta; Olea europaea L.; Eucalyptus L'Hér.
2011,2011-08-11,Setúbal,Setúbal,São Sebastião,BAIXA DE SANTAS - MANTEIGADAS,38.5283287,-8.8658345,Desconhecida,30.0,2011-08-11T14:00,31.6,33,13.3,32.7,0.0,0.0,0.0,0.0,0,1013.8,1010.4,0,0,0,0,0.72,3.13,12.7,13.7,241,243,28.1,39.2,26.8,23.2,20.7,0.057,0.059,0.084,0.197,1,3600.0,873.9,765.0,108.9,875.2,873.9,1163.9,899.0,787.0,112.0,875.2,899.0,1197.3,Tracheophyta; Magnoliopsida
2011,2011-08-11,Viana do Castelo,Arcos de Valdevez,Soajo,COSTA VELHA - PNPG (Costa),41.9167608,-8.2167435,NC,512.0,2011-08-11T17:00,31.0,32,12.3,30.0,0.0,0.0,0.0,0.0,0,1015.3,958.9,6,0,0,19,0.46,3.07,12.1,17.3,10,12,29.9,31.1,23.2,19.5,16.5,0.148,0.157,0.227,0.344,1,3600.0,458.4,389.3,69.1,819.0,458.4,632.9,537.0,456.0,81.0,819.0,537.0,741.4,Magnoliopsida
2011,2011-07-26,Viseu,Resende,Resende,Fonte do Bulhó,41.105831,-7.9644114,Desconhecida,240.0,2011-07-26T17:00,30.7,34,12.9,29.6,0.0,0.0,0.0,0.0,0,1012.3,985.4,0,0,0,0,0.49,2.93,13.9,18.9,339,342,31.7,34.1,25.4,20.7,17.4,0.1,0.157,0.241,0.346,1,3600.0,487.7,409.9,77.8,794.9,487.7,683.7,564.0,474.0,90.0,794.9,564.0,790.6,Tracheophyta; Magnoliopsida; Pinales; Eucalyptus L'Hér.; Vitis vinifera L.
2011,2011-07-26,Porto,Marco de Canaveses,Vila Boa do Bispo,Mosteiro,41.1332787,-8.2097194,NC,208.0,2011-07-26T17:00,30.4,37,14.0,29.7,0.0,0.0,0.0,0.0,0,1012.3,988.9,0,0,0,0,0.48,2.75,13.9,18.9,339,342,31.7,33.5,25.3,20.7,17.6,0.107,0.161,0.247,0.35,1,3600.0,488.1,410.2,77.9,793.1,488.1,685.7,564.0,474.0,90.0,793.1,564.0,792.4,Tracheophyta; Pinus pinaster Aiton; Vitis vinifera L.; Quercus L.; Eucalyptus L'Hér.; Magnoliopsida; Acacia Mill.; 
2011,2011-07-26,Viana do Castelo,Ponte de Lima,Arcozelo,RIBEIRO - ARCOZELO (Ribeiro),41.7736356,-8.5819714,NC,10.0,2011-07-26T20:00,23.6,53,13.4,20.7,0.0,0.0,0.0,0.0,0,1013.5,1012.3,0,0,0,0,0.17,1.37,27.3,43.1,348,353,48.6,25.9,24.3,20.7,18.3,0.105,0.16,0.236,0.343,0,1810.71,0.0,0.0,0.0,0.0,0.0,0.0,42.0,23.0,19.0,194.4,42.0,98.1,Tracheophyta; Magnoliopsida
2011,2011-07-26,Porto,Santo Tirso,São Mamede Negrelos,BUSTELO (AVES),41.3488993,-8.403043,NC,145.0,2011-07-26T21:00,23.4,48,11.7,21.5,0.0,0.0,0.0,0.0,0,1013.2,996.4,0,0,0,0,0.12,1.51,17.2,31.0,350,357,32.4,25.4,24.9,20.6,17.6,0.121,0.144,0.215,0.342,0,0.0,0.0,0.0,0.0,0.0,0.0,0.0,0.0,0.0,0.0,0.0,0.0,0.0,Magnoliopsida; Tracheophyta; Vitis vinifera L.; Quercus suber L.
2011,2011-07-26,Aveiro,Santa Maria da Feira,Guisande,Rua Tras dos Lagos,40.9732481,-8.4785278,Desconhecida,214.0,2011-07-26T23:00,21.1,58,12.4,19.5,0.0,0.0,0.0,0.0,0,1013.1,988.3,0,0,0,0,0.08,1.06,15.9,26.3,355,359,29.2,22.7,24.6,20.5,17.7,0.113,0.122,0.186,0.32,0,0.0,0.0,0.0,0.0,0.0,0.0,0.0,0.0,0.0,0.0,0.0,0.0,0.0,Eucalyptus L'Hér.; Tracheophyta; Pinales
2011,2011-08-17,Braga,VIZELA,Barrosas_Santa Eulalia,QUINTA DA COSTA  (STª EULALIA) M.3 (ED309 (ED309) Km 53),41.3494036,-8.3185051,Desconhecida,446.0,2011-08-17T09:00,17.4,82,14.3,18.2,0.0,0.0,0.0,0.0,3,1016.0,964.3,81,90,0,0,0.16,0.36,4.3,5.4,312,312,17.6,21.3,22.3,21.0,17.4,0.108,0.142,0.203,0.324,1,3600.0,321.3,130.4,190.9,224.3,321.3,775.4,276.0,112.0,164.0,224.3,276.0,666.1,Magnoliopsida; Tracheophyta; Eucalyptus L'Hér.
2011,2011-08-17,Braga,Braga,Pedralva,OUTEIRO(PEDRALVA)M1 (Outeiro),41.57719105,-8.322675272587194,NC,478.0,2011-08-17T13:00,24.1,49,12.7,25.8,0.0,0.0,0.0,0.0,0,1013.7,959.8,0,0,0,0,0.6,1.53,8.4,10.2,277,280,28.8,30.4,23.2,21.0,17.5,0.108,0.148,0.215,0.332,1,3600.0,909.6,796.8,112.8,907.6,909.6,1171.5,911.0,798.0,113.0,907.6,911.0,1173.3,Magnoliopsida; Eucalyptus L'Hér.; Pinus pinaster Aiton; Tracheophyta; Pinales
2011,2011-08-13,Viana do Castelo,Viana do Castelo,Torre,RUA CAMPELO - TORRE (Rua Campos Monteiro),41.7169271,-8.7199494,Desconhecida,31.0,2011-08-13T12:00,23.3,65,16.2,25.2,0.0,0.0,0.0,0.0,0,1014.3,1010.7,19,21,0,0,0.53,1.01,13.1,15.6,302,310,28.4,29.1,22.8,21.4,19.0,0.101,0.162,0.235,0.339,1,3600.0,883.7,774.6,109.0,880.6,883.7,1172.0,859.0,753.0,106.0,880.6,859.0,1139.3,Pinus pinaster Aiton; Tracheophyta; Eucalyptus L'Hér.; Magnoliopsida; ; Vitis vinifera L.
2011,2011-08-13,Porto,Lousada,Lustosa,LUGAR IGREJA (Lugar da Estrada),41.3321025,-8.3085374,NC,411.0,2011-08-13T13:00,26.7,49,15.2,28.6,0.0,0.0,0.0,0.0,0,1014.0,967.8,0,0,0,0,0.64,1.78,12.9,16.3,297,298,33.5,31.4,23.3,20.7,17.5,0.116,0.144,0.205,0.326,1,3600.0,916.9,816.0,100.9,916.4,916.9,1186.5,918.0,817.0,101.0,916.4,918.0,1187.9,Vitis vinifera L.; Eucalyptus L'Hér.; Tracheophyta; Magnoliopsida
2011,2011-08-13,Porto,Felgueiras,Sousa,SAO DONATO (São Donato),41.3475222,-8.2480509,NC,324.0,2011-08-13T13:00,26.9,50,15.7,29.0,0.0,0.0,0.0,0.0,0,1013.7,977.1,0,0,0,0,0.64,1.76,12.9,16.4,288,289,31.7,32.1,23.8,21.1,17.9,0.105,0.145,0.217,0.332,1,3600.0,916.2,813.2,102.9,913.6,916.2,1186.0,917.0,814.0,103.0,913.6,917.0,1187.1,Tracheophyta; Eucalyptus L'Hér.; Magnoliopsida; Vitis vinifera L.
2011,2011-08-13,Viseu,Resende,Resende,POSSARO (Possarro),41.105831,-7.9644114,Desconhecida,240.0,2011-08-13T15:00,27.1,52,16.5,28.4,0.0,0.0,0.0,0.0,0,1013.4,986.2,0,0,0,0,0.56,1.71,15.1,19.5,295,298,38.5,33.0,25.3,21.9,18.6,0.113,0.146,0.221,0.335,1,3600.0,734.0,609.0,125.0,802.8,734.0,1010.8,781.0,648.0,133.0,802.8,781.0,1075.6,Tracheophyta; Magnoliopsida; Pinales; Eucalyptus L'Hér.; Vitis vinifera L.
2011,2011-07-24,Porto,Maia,Vermoim,A41 (SÃO PEDRO DE AVIOSO),41.2357067,-8.6089608,NC,80.0,2011-07-24T17:00,25.8,53,15.4,24.3,0.0,0.0,0.0,0.0,0,1017.0,1007.8,0,0,0,0,0.43,1.58,23.4,32.0,331,334,41.8,29.8,24.1,20.5,18.1,0.125,0.151,0.231,0.348,1,3600.0,488.8,409.8,79.0,779.7,488.8,696.5,563.0,472.0,91.0,779.7,563.0,802.3,Tracheophyta; Eucalyptus L'Hér.; Magnoliopsida
2011,2011-07-31,Lisboa,ODIVELAS,Canecas,SERRA CHA (Bairro Novo Casal da Serra),38.8159778,-9.2219504,NC,229.0,2011-07-31T10:00,20.5,69,14.6,20.0,0.0,0.0,0.0,0.0,0,1015.7,989.1,14,1,0,42,0.35,0.75,15.5,20.1,332,333,36.7,22.6,21.0,20.8,18.5,0.12,0.177,0.243,0.337,1,3600.0,664.9,451.3,213.6,596.6,664.9,1004.1,604.0,410.0,194.0,596.6,604.0,912.1,Tracheophyta; Magnoliopsida; Pinus pinea L.
2011,2011-08-03,Porto,Amarante,Real,Ramalhada,41.2472875,-8.172050257445942,Desconhecida,179.0,2011-08-03T11:00,23.3,59,15.0,25.0,0.0,0.0,0.0,0.0,0,1021.2,1000.4,4,4,0,0,0.46,1.16,6.5,7.4,304,309,22.0,26.8,21.8,21.6,17.9,0.123,0.152,0.233,0.341,1,3600.0,737.4,478.2,259.2,563.0,737.4,1128.2,697.0,452.0,245.0,563.0,697.0,1066.4,Tracheophyta; Acacia Mill.; Magnoliopsida; Pinales; Eucalyptus L'Hér.; Vitis vinifera L.
2011,2011-08-03,Aveiro,Águeda,Macinhata do Vouga,Carvoeiro,40.6818882,-8.4363979,Desconhecida,20.0,2011-08-03T13:00,25.4,51,14.6,26.6,0.0,0.0,0.0,0.0,0,1021.0,1018.7,1,1,0,0,0.59,1.59,14.5,17.1,318,325,30.2,30.7,22.3,22.2,19.3,0.086,0.078,0.121,0.236,1,3600.0,876.1,685.1,191.0,747.4,876.1,1217.6,876.0,685.0,191.0,747.4,876.0,1217.4,Pinus pinaster Aiton; Eucalyptus L'Hér.; Magnoliopsida; Tracheophyta
2011,2011-08-03,Porto,Marco de Canaveses,Soalhães,Telhe,41.1603957,-8.0979057,Desconhecida,397.0,2011-08-03T15:00,25.2,48,13.3,26.5,0.0,0.0,0.0,0.0,0,1020.3,975.1,0,0,0,0,0.56,1.67,9.5,11.8,295,297,28.4,30.9,22.4,20.8,16.9,0.111,0.15,0.231,0.341,1,3600.0,779.8,676.1,103.7,863.0,779.8,1040.6,827.0,717.0,110.0,863.0,827.0,1103.5,Magnoliopsida; Tracheophyta; Quercus L.; Eucalyptus L'Hér.; Pinus pinaster Aiton; Vitis vinifera L.; Castanea sativa Mill.; Pinales; 
2011,2011-08-03,Porto,Maia,Maia,Souto,41.2321868,-8.628761843781994,NC,89.0,2011-08-03T13:00,24.1,56,14.9,25.6,0.0,0.0,0.0,0.0,0,1021.2,1010.8,2,2,0,0,0.56,1.31,12.4,14.0,306,312,27.7,28.8,22.2,21.7,18.6,0.133,0.144,0.219,0.343,1,3600.0,862.3,637.2,225.1,698.0,862.3,1212.6,862.0,637.0,225.0,698.0,862.0,1212.2,Tracheophyta; Magnoliopsida
2011,2011-08-03,Viana do Castelo,Monção,Merufe,Cernadas,42.0297394,-8.3967117,Desconhecida,221.0,2011-08-03T14:00,24.1,56,14.7,25.6,0.0,0.0,0.0,0.0,0,1021.6,996.0,1,1,0,0,0.56,1.32,12.0,13.9,303,307,27.4,30.6,22.1,20.3,16.9,0.103,0.156,0.239,0.347,1,3600.0,839.9,689.0,150.8,794.4,839.9,1152.1,863.0,708.0,155.0,794.4,863.0,1183.8,Pinus pinaster Aiton; Magnoliopsida; Tracheophyta; Eucalyptus L'Hér.; Vitis vinifera L.; Pinales; Quercus L.; 
2011,2011-08-20,Leiria,Pedrógão Grande,Vila Facaia,Lameira Cimeira,39.9156333,-8.2042769,Desconhecida,363.0,2011-08-20T20:00,30.5,38,14.6,30.4,0.0,0.0,0.0,0.0,1,1011.8,971.5,35,0,9,100,0.16,2.71,11.3,25.6,59,62,29.5,30.9,29.3,24.0,20.1,0.117,0.15,0.185,0.312,0,0.0,0.0,0.0,0.0,0.0,0.0,0.0,1.0,0.0,1.0,0.0,1.0,29.4,Pinus pinaster Aiton; Eucalyptus L'Hér.; Tracheophyta; Magnoliopsida; Olea europaea L.; Acacia Mill.; 
2011,2011-08-20,Porto,Gondomar,Foz do Sousa,LG. JANCIDO (VALBOM),41.119341,-8.50547,NC,95.0,2011-08-20T22:00,28.0,53,17.4,29.3,0.0,0.0,0.0,0.0,0,1012.2,1001.4,2,0,0,8,0.07,1.79,9.4,18.4,40,48,24.5,28.1,27.5,22.9,19.7,0.119,0.136,0.192,0.336,0,0.0,0.0,0.0,0.0,0.0,0.0,0.0,0.0,0.0,0.0,0.0,0.0,0.0,Pinus pinaster Aiton; Eucalyptus L'Hér.; Tracheophyta; Magnoliopsida
2011,2011-08-21,Braga,Barcelos,Pedra Furada,N. SRª ABROTAS (PEDRA FURADA) M2 (POUSA),41.46836065,-8.636895681150165,NC,117.0,2011-08-21T00:00,24.7,66,17.9,25.9,0.0,0.0,0.0,0.0,0,1012.0,998.5,10,0,0,32,0.05,1.07,11.6,15.3,7,24,20.9,25.3,26.4,22.1,19.1,0.101,0.14,0.203,0.323,0,0.0,0.0,0.0,0.0,0.0,0.0,0.0,0.0,0.0,0.0,0.0,0.0,0.0,Tracheophyta; Pinus pinaster Aiton; Eucalyptus L'Hér.
2011,2011-07-25,Viana do Castelo,Ponte de Lima,Santa Maria Rebordões,SÃO BRAS - REBORDOES STª MARIA (São Brás),41.7353587,-8.5781207,NC,74.0,2011-07-25T06:00,16.8,86,14.4,15.6,0.0,0.0,0.0,0.0,0,1018.2,1009.4,1,0,0,4,0.04,0.27,18.4,29.5,360,9,30.6,18.4,21.8,20.0,17.9,0.107,0.154,0.232,0.34,1,0.0,28.5,11.9,16.6,120.5,13.8,130.4,12.0,5.0,7.0,58.5,12.0,55.0,Eucalyptus L'Hér.; Pinus pinaster Aiton; Tracheophyta; Magnoliopsida
2011,2011-07-25,Viseu,Lamego,Valdigem,VALDIGEM,41.1386734,-7.757867134086674,Desconhecida,430.0,2011-07-25T06:00,16.1,87,13.9,16.5,0.0,0.0,0.0,0.0,0,1018.2,968.0,0,0,0,0,0.02,0.25,6.3,14.7,66,65,20.5,17.8,23.0,20.6,16.8,0.137,0.149,0.192,0.344,1,38.49,35.1,14.0,21.0,131.1,17.9,141.9,15.0,6.0,9.0,66.8,15.0,60.7,Olea europaea L.; Magnoliopsida; Vitis vinifera L.; Tracheophyta; Eucalyptus L'Hér.; 
2011,2011-07-26,Porto,Penafiel,Duas Igrejas,OLIVEIRAS (Oliveira),41.1864654,-8.2690378,NC,403.0,2011-07-26T10:00,24.7,55,15.1,26.4,0.0,0.0,0.0,0.0,0,1014.6,969.0,0,0,0,0,0.45,1.4,5.4,6.4,8,16,19.4,26.8,21.9,19.4,16.2,0.095,0.154,0.238,0.344,1,3600.0,739.0,631.9,107.1,825.8,739.0,1014.5,676.0,578.0,98.0,825.8,676.0,928.0,Eucalyptus L'Hér.; Tracheophyta; Magnoliopsida
2011,2011-07-26,Braga,Vila Verde,Atães,L.(ATÃES) M.3 (ABOIM DA NOBREGA),41.72058395,-8.416887349949057,NC,293.0,2011-07-26T08:00,20.0,74,15.2,19.6,0.0,0.0,0.0,0.0,0,1015.6,981.6,14,15,0,0,0.17,0.61,14.6,20.5,20,24,36.4,20.4,21.3,19.0,16.2,0.103,0.163,0.244,0.348,1,3600.0,346.4,231.3,115.1,499.5,346.4,614.0,280.0,187.0,93.0,499.5,280.0,496.3,Quercus L.; Magnoliopsida; Tracheophyta; Eucalyptus L'Hér.
2011,2011-07-26,Porto,Paredes,Besteiros,S. DOMINGOS (São Domingos),41.2209256,-8.3482426,NC,195.0,2011-07-26T13:00,29.8,42,15.6,32.6,0.0,0.0,0.0,0.0,0,1013.6,991.6,0,0,0,0,0.7,2.43,9.4,11.4,337,342,24.1,32.5,23.5,20.3,17.3,0.124,0.153,0.231,0.347,1,3600.0,941.0,828.0,113.0,894.3,941.0,1227.5,941.0,828.0,113.0,894.3,941.0,1227.5,Magnoliopsida; Pinus pinaster Aiton; Eucalyptus L'Hér.; Tracheophyta; Vitis vinifera L.; Quercus L.
2011,2011-07-26,Porto,Penafiel,Pinheiro,Torre,41.1193264,-8.3031666,NC,204.0,2011-07-26T14:00,30.1,41,15.5,30.6,0.0,0.0,0.0,0.0,0,1013.6,990.6,0,0,0,0,0.72,2.51,21.9,28.4,333,336,40.7,33.5,23.8,20.3,17.4,0.111,0.163,0.249,0.349,1,3600.0,891.8,782.7,109.0,883.0,891.8,1175.3,916.0,804.0,112.0,883.0,916.0,1207.2,Tracheophyta; Vitis vinifera L.; Eucalyptus L'Hér.
2011,2011-07-26,Aveiro,Espinho,Anta,R. do Lameirão,41.007855,-8.6187792,Desconhecida,39.0,2011-07-26T15:00,28.1,47,15.6,26.4,0.0,0.0,0.0,0.0,0,1013.5,1009.0,0,0,0,0,0.64,2.03,33.0,44.5,335,339,54.4,34.0,24.9,21.4,18.8,0.093,0.126,0.196,0.32,1,3600.0,798.1,694.1,104.0,864.7,798.1,1064.2,844.0,734.0,110.0,864.7,844.0,1125.5,Eucalyptus L'Hér.; Tracheophyta; Pinus pinaster Aiton; Magnoliopsida
2011,2011-07-26,Santarém,Coruche,Couço,Aldeia Velha,38.9120984,-8.2895727,Desconhecida,79.0,2011-07-26T15:00,34.2,31,14.6,34.6,0.0,0.0,0.0,0.0,0,1011.0,1002.2,0,0,0,0,0.75,3.71,17.9,23.4,322,323,40.7,40.0,27.4,23.5,20.6,0.049,0.076,0.138,0.208,1,3600.0,806.1,702.2,103.8,868.0,806.1,1072.7,854.0,744.0,110.0,868.0,854.0,1136.5,Quercus suber L.; Magnoliopsida; Pinus pinea L.; Tracheophyta
2011,2011-07-26,Porto,Vila Nova de Gaia,São Felix da Marinha,R. PORTALTO (Rua de Portalto),41.0305323,-8.6290322,NC,26.0,2011-07-26T15:00,28.2,47,15.7,26.6,0.0,0.0,0.0,0.0,0,1013.5,1010.5,0,0,0,0,0.64,2.04,33.0,44.5,335,339,54.4,34.1,25.0,21.5,18.9,0.093,0.126,0.196,0.32,1,3600.0,798.1,694.1,104.0,864.7,798.1,1064.2,844.0,734.0,110.0,864.7,844.0,1125.5,Eucalyptus L'Hér.; Magnoliopsida; Tracheophyta; Pinales; Pinus pinaster Aiton
2011,2011-07-26,Viana do Castelo,Viana do Castelo,Alvarães,RUA DAS LAGOAS - ALVARAES (Rua das Lages),41.642535,-8.7428802,Desconhecida,68.0,2011-07-26T16:00,27.2,42,13.2,25.1,0.0,0.0,0.0,0.0,0,1014.3,1006.5,0,0,0,0,0.57,2.09,27.0,38.0,350,355,51.1,30.7,23.6,20.3,18.0,0.103,0.152,0.229,0.339,1,3600.0,663.6,571.4,92.2,843.9,663.6,897.6,727.0,626.0,101.0,843.9,727.0,983.5,Tracheophyta; Pinus pinaster Aiton; Eucalyptus L'Hér.; Magnoliopsida
2011,2011-07-26,Leiria,Alcobaça,Alcobaça,ALCOBAÇA,39.550219,-8.975359035947783,Desconhecida,38.0,2011-07-26T17:00,21.8,66,15.3,19.5,0.0,0.0,0.0,0.0,0,1013.6,1009.2,0,0,0,0,0.34,0.88,28.4,37.5,345,346,53.3,28.7,22.9,20.7,19.1,0.055,0.077,0.128,0.224,1,3600.0,490.9,408.7,82.3,775.2,490.9,699.0,567.0,472.0,95.0,775.2,567.0,807.3,Tracheophyta; Magnoliopsida
2011,2011-07-26,Porto,Vila Nova de Gaia,Olival,Lavadorinhos,41.0394225,-8.5368402,NC,157.0,2011-07-26T18:00,26.5,46,13.9,24.6,0.0,0.0,0.0,0.0,0,1012.5,994.6,0,0,0,0,0.35,1.87,21.4,31.8,333,337,43.6,30.5,25.2,20.8,18.0,0.113,0.122,0.186,0.32,1,3600.0,298.7,238.5,60.2,696.0,298.7,454.4,377.0,301.0,76.0,696.0,377.0,573.4,Magnoliopsida; Tracheophyta; Eucalyptus L'Hér.
2011,2011-07-26,Porto,Maia,Avioso (Santa Maria),Cidadelha,41.2678191,-8.6060493,NC,87.0,2011-07-26T13:00,28.6,45,15.4,29.8,0.0,0.0,0.0,0.0,0,1013.8,1003.9,0,0,0,0,0.69,2.17,17.6,22.5,337,340,29.5,31.7,23.6,20.8,18.2,0.108,0.148,0.226,0.343,1,3600.0,937.4,824.4,113.1,890.6,937.4,1227.3,937.0,824.0,113.0,890.6,937.0,1226.7,Magnoliopsida; Tracheophyta
2011,2011-08-05,Setúbal,Almada,Costa da Caparica,TERRAS DA COSTA,38.6329231,-9.2251377,Desconhecida,4.0,2011-08-05T16:00,23.1,60,15.0,22.4,0.0,0.0,0.0,0.0,1,1017.4,1016.9,27,2,0,85,0.44,1.13,21.1,27.7,313,316,36.4,30.6,24.1,22.1,20.4,0.061,0.073,0.125,0.224,1,3600.0,630.7,534.5,96.2,799.0,630.7,889.1,695.0,589.0,106.0,799.0,695.0,979.8,Tracheophyta; Magnoliopsida
2011,2011-08-05,Aveiro,Águeda,Valongo do Vouga,Carvalhal da Portela (Carvalhal),40.6276005,-8.4437336,Desconhecida,20.0,2011-08-05T15:00,23.3,50,12.4,23.1,0.0,0.0,0.0,0.0,1,1017.2,1014.9,30,5,5,76,0.51,1.42,15.1,17.9,282,285,30.2,30.5,23.7,22.1,19.5,0.077,0.078,0.12,0.234,1,3600.0,745.0,596.9,148.1,760.6,745.0,1043.1,790.0,633.0,157.0,760.6,790.0,1106.1,Tracheophyta; Eucalyptus L'Hér.; Magnoliopsida; Pinus pinaster Aiton
2011,2011-08-05,Porto,Matosinhos,Custóias,RUA SAO GENS (Rua Sacadura Cabral),41.2069227,-8.6463005,NC,83.0,2011-08-05T16:00,22.3,52,12.0,21.8,0.0,0.0,0.0,0.0,1,1016.5,1006.8,22,3,1,62,0.44,1.29,13.1,16.2,249,249,29.5,28.6,23.5,21.7,18.8,0.132,0.143,0.217,0.342,1,3600.0,625.7,509.5,116.2,777.0,625.7,871.5,689.0,561.0,128.0,777.0,689.0,959.6,Tracheophyta; Magnoliopsida
2011,2011-08-05,Vila Real,Vila Real,Mondrões,Bisalhães,41.2873696,-7.787292,NC,478.0,2011-08-05T18:00,21.1,50,10.4,19.1,0.0,0.0,0.0,0.0,1,1015.1,960.6,26,0,0,85,0.25,1.24,14.8,20.5,270,270,40.0,26.7,23.9,21.2,17.2,0.15,0.147,0.198,0.34,1,3600.0,265.8,209.6,56.2,685.3,265.8,406.5,345.0,272.0,73.0,685.3,345.0,527.5,Pinus pinaster Aiton; Magnoliopsida; Tracheophyta
2011,2011-08-06,Aveiro,Águeda,Águeda,Rio Covo,40.5794516,-8.3999105,Desconhecida,117.0,2011-08-06T00:00,18.8,76,14.4,18.9,0.0,0.0,0.0,0.0,3,1015.6,1001.8,94,100,6,0,0.02,0.53,9.0,12.7,185,188,17.6,21.7,24.1,22.5,19.3,0.117,0.139,0.206,0.325,0,0.0,0.0,0.0,0.0,0.0,0.0,0.0,0.0,0.0,0.0,0.0,0.0,0.0,Tracheophyta; Eucalyptus L'Hér.; Pinus pinaster Aiton; Magnoliopsida
2011,2011-07-25,Porto,Amarante,Fregim,ALTO S. JORGE (Monte de São Jorge),41.2702199,-8.1170009,Desconhecida,242.0,2011-07-25T02:00,19.7,71,14.2,20.1,0.0,0.0,0.0,0.0,0,1017.7,989.4,0,0,0,0,0.02,0.68,7.0,11.7,35,34,13.0,18.7,22.8,19.7,16.9,0.122,0.163,0.246,0.348,0,0.0,0.0,0.0,0.0,0.0,0.0,0.0,0.0,0.0,0.0,0.0,0.0,0.0,Tracheophyta; Magnoliopsida; Pinus pinaster Aiton; Vitis vinifera L.; Quercus L.; Eucalyptus L'Hér.; 
2011,2011-08-14,Porto,Valongo,Alfena,LG. TRANSLEÇA (ALFENA),41.2492226,-8.5158034,NC,103.0,2011-08-14T22:00,21.1,83,18.0,23.3,0.0,0.0,0.0,0.0,3,1015.9,1003.8,90,100,0,0,0.0,0.43,4.9,5.9,197,191,10.4,24.0,25.2,22.5,19.3,0.112,0.139,0.204,0.333,0,0.0,0.0,0.0,0.0,0.0,0.0,0.0,0.0,0.0,0.0,0.0,0.0,0.0,Eucalyptus L'Hér.; Tracheophyta
2011,2011-08-14,Bragança,Bragança,Nogueira,NOGUEIRA (Palheiros),41.772505,-6.8153638,Desconhecida,770.0,2011-08-14T16:00,28.2,30,8.8,25.4,0.0,0.0,0.0,0.0,1,1011.7,927.8,33,0,7,95,0.54,2.68,18.8,25.3,265,264,42.5,31.8,24.9,20.9,16.9,0.129,0.137,0.198,0.34,1,3600.0,550.6,408.7,141.9,670.7,550.6,812.2,613.0,455.0,158.0,670.7,613.0,904.2,Tracheophyta; Olea europaea L.; Vitis vinifera L.
2011,2011-08-15,Porto,Lousada,Torno,Soutelo,41.2942168,-8.2110968,NC,248.0,2011-08-15T12:00,27.0,52,16.3,29.9,0.0,0.0,0.0,0.0,2,1016.5,988.3,54,60,0,0,0.53,1.71,3.9,4.8,292,297,18.7,31.5,24.4,21.9,18.5,0.1,0.144,0.216,0.331,1,3600.0,772.8,565.2,207.6,642.7,772.8,1172.6,752.0,550.0,202.0,642.7,752.0,1141.0,Tracheophyta; Vitis vinifera L.; Eucalyptus L'Hér.; Pinus pinaster Aiton
2011,2011-06-30,Aveiro,Aveiro,Eixo,Vila Verde Eixo,40.6294024,-8.5655405,Desconhecida,14.0,2011-06-30T09:00,24.0,38,8.8,22.2,0.0,0.0,0.0,0.0,0,1018.1,1016.5,0,0,0,0,0.38,1.85,9.8,13.2,54,68,24.5,25.7,23.2,21.7,18.0,0.046,0.083,0.135,0.234,1,3600.0,620.6,513.9,106.6,776.1,620.6,876.3,547.0,453.0,94.0,776.1,547.0,772.4,Tracheophyta; Eucalyptus L'Hér.
2011,2011-07-26,Porto,Amarante,Freixo de Cima,LG. S. GENS,41.3116144,-8.1353228,Desconhecida,400.0,2011-07-26T07:00,18.1,84,15.4,19.2,0.0,0.0,0.0,0.0,0,1014.9,968.6,0,0,0,0,0.06,0.33,4.6,8.7,39,42,14.8,18.6,22.1,19.7,16.3,0.096,0.155,0.239,0.345,1,3600.0,191.0,121.4,69.6,426.1,191.0,377.8,129.0,82.0,47.0,426.1,129.0,255.2,Eucalyptus L'Hér.; Tracheophyta; Pinus pinaster Aiton; Magnoliopsida; Vitis vinifera L.; 
2011,2011-07-26,Aveiro,Águeda,Lamas do Vouga,LAMAS,40.63500515,-8.471344440818028,Desconhecida,32.0,2011-07-26T09:00,23.9,65,17.0,23.2,0.0,0.0,0.0,0.0,0,1014.5,1010.8,0,0,0,0,0.33,1.04,21.6,28.5,345,351,35.3,25.6,23.8,21.4,18.8,0.061,0.08,0.129,0.241,1,3600.0,561.7,456.1,105.7,728.8,561.7,829.6,489.0,397.0,92.0,728.8,489.0,722.2,Eucalyptus L'Hér.; Magnoliopsida; Vitis vinifera L.
2011,2011-07-26,Porto,Penafiel,Duas Igrejas,Oliveira,41.1864654,-8.2690378,NC,403.0,2011-07-26T12:00,27.7,45,14.6,30.0,0.0,0.0,0.0,0.0,0,1014.1,968.9,0,0,0,0,0.64,2.06,9.1,10.8,342,345,26.3,31.7,22.5,19.4,16.2,0.094,0.154,0.237,0.344,1,3600.0,922.7,803.6,119.1,874.6,922.7,1218.2,899.0,783.0,116.0,874.6,899.0,1186.9,Eucalyptus L'Hér.; Tracheophyta; Magnoliopsida
2011,2011-07-26,Viseu,Lamego,Penude,Fraga,41.0764376,-7.8520499,Desconhecida,763.0,2011-07-26T15:00,28.8,36,12.3,29.4,0.0,0.0,0.0,0.0,0,1012.6,929.5,0,0,0,0,0.64,2.52,11.9,14.8,355,354,28.4,33.4,23.0,18.7,15.2,0.112,0.148,0.228,0.347,1,3600.0,797.8,696.7,101.0,874.3,797.8,1056.6,845.0,738.0,107.0,874.3,845.0,1119.2,Vitis vinifera L.; Magnoliopsida; Tracheophyta; Pinales; 
2011,2011-07-26,Setúbal,Almada,Feijó,QUINTA DA ALEMBRANÇA - TRASEIRAS DA BP (Quinta da Aldeia),38.6529791,-9.1665562,Desconhecida,61.0,2011-07-26T15:00,25.2,58,16.4,24.2,0.0,0.0,0.0,0.0,0,1013.3,1006.3,0,0,0,0,0.54,1.33,30.9,41.5,343,346,51.1,29.2,23.5,21.2,19.4,0.139,0.176,0.243,0.347,1,3600.0,803.8,693.2,110.6,848.4,803.8,1083.2,850.0,733.0,117.0,848.4,850.0,1145.4,Magnoliopsida; Tracheophyta
2011,2011-07-26,Porto,Lousada,Macieira,LG DA CAVADINHA (SÃO VICENTE DA BEIRA),41.2904579,-8.244309535049862,NC,224.0,2011-07-26T14:00,30.2,39,14.8,32.3,0.0,0.0,0.0,0.0,0,1013.2,988.0,0,0,0,0,0.7,2.62,11.1,14.0,335,337,27.4,33.1,23.6,20.1,17.1,0.123,0.153,0.231,0.347,1,3600.0,897.5,788.5,109.0,891.1,897.5,1173.1,922.0,810.0,112.0,891.1,922.0,1205.1,Vitis vinifera L.; Tracheophyta; Magnoliopsida
2011,2011-08-09,Castelo Branco,Fundão,Vale de Prazeres,Casa Nova,40.1106704,-7.4310164,Desconhecida,534.0,2011-08-09T05:00,18.6,38,4.0,15.4,0.0,0.0,0.0,0.0,0,1018.8,957.4,0,0,0,0,0.09,1.33,11.7,26.3,11,23,25.6,19.2,24.0,23.2,19.3,0.116,0.161,0.219,0.34,0,0.0,0.0,0.0,0.0,0.0,0.0,0.0,0.0,0.0,0.0,0.0,0.0,0.0,Eucalyptus L'Hér.; Tracheophyta; Olea europaea L.; Pinus pinaster Aiton; Magnoliopsida; Quercus suber L.; Quercus L.; Vitis vinifera L.; 
2011,2011-08-09,Setúbal,Setúbal,São Julião,ESTRADA DE ALGODEIA (Estrada da Algodeia),38.5302447,-8.8927389,NC,7.0,2011-08-09T10:00,28.5,31,9.7,27.3,0.0,0.0,0.0,0.0,0,1017.6,1016.8,0,0,0,0,0.53,2.68,12.2,16.9,19,24,26.3,28.8,24.2,23.1,20.7,0.062,0.06,0.086,0.198,1,3600.0,743.8,637.9,105.9,857.3,743.8,990.1,674.0,578.0,96.0,857.3,674.0,897.1,Tracheophyta; Magnoliopsida
2011,2011-08-09,Setúbal,Sesimbra,Castelo (Sesimbra),HERDADE DA APOSTIÇA - VEIO DE AGUA (Castelo),38.4749148,-9.1111472,NC,105.0,2011-08-09T12:00,28.8,29,9.2,29.0,0.0,0.0,0.0,0.0,0,1017.3,1005.3,0,0,0,0,0.69,2.8,11.6,15.1,26,28,27.4,35.5,23.6,22.4,20.7,0.048,0.079,0.132,0.222,1,3600.0,948.5,835.2,113.3,917.4,948.5,1211.3,921.0,811.0,110.0,917.4,921.0,1176.3,Pinus pinea L.; Magnoliopsida; Tracheophyta; Vitis vinifera L.; Pinus pinaster Aiton
2011,2011-08-09,Porto,TROFA,Alvarelhos,L.SÃO ROQUE (São Roque),41.3107904,-8.6115389,NC,66.0,2011-08-09T15:00,31.5,28,11.0,31.8,0.0,0.0,0.0,0.0,0,1018.4,1010.9,0,0,0,0,0.67,3.3,11.3,15.1,53,57,22.7,32.4,23.3,21.7,19.1,0.143,0.143,0.212,0.335,1,3600.0,794.5,698.4,96.1,904.1,794.5,1027.8,843.0,741.0,102.0,904.1,843.0,1090.6,Magnoliopsida; Tracheophyta; Pinales; Eucalyptus L'Hér.
2011,2011-08-17,Porto,Santo Tirso,Refojos de Riba de Ave,LAVATAES (Lavatães),41.2920945,-8.4471657,NC,216.0,2011-08-17T12:00,23.2,61,15.3,24.9,0.0,0.0,0.0,0.0,1,1014.5,989.6,40,45,0,0,0.49,1.11,9.0,10.5,307,308,23.0,29.2,23.6,22.1,18.8,0.102,0.143,0.213,0.33,1,3600.0,787.4,584.9,202.5,669.1,787.4,1166.5,766.0,569.0,197.0,669.1,766.0,1134.8,Tracheophyta; Magnoliopsida; Pinus pinaster Aiton; Vitis vinifera L.; Eucalyptus L'Hér.
2011,2011-08-17,Porto,Felgueiras,Macieira da Lixa,QUINTA DE LAGAREIROS (Quinta da Adega),41.3496108,-8.1492033,NC,406.0,2011-08-17T15:00,25.2,46,12.9,26.2,0.0,0.0,0.0,0.0,0,1013.2,967.4,0,0,0,0,0.55,1.72,9.7,11.8,292,293,28.1,32.1,24.0,21.4,17.8,0.099,0.143,0.215,0.331,1,3600.0,754.5,656.9,97.6,881.7,754.5,994.2,804.0,700.0,104.0,881.7,804.0,1059.4,Eucalyptus L'Hér.; Tracheophyta; Pinus pinaster Aiton; Magnoliopsida; Vitis vinifera L.
2011,2011-08-17,Lisboa,Lourinhã,Reguengo Grande,REGUENGO GRANDE,39.2837447,-9.2101967,Desconhecida,173.0,2011-08-17T19:00,18.0,71,12.6,15.7,0.0,0.0,0.0,0.0,0,1013.0,992.7,0,0,0,0,0.11,0.61,21.8,28.1,344,344,37.4,23.0,22.5,21.1,19.0,0.049,0.073,0.126,0.215,1,3600.0,58.5,37.9,20.6,435.3,58.5,110.6,128.0,83.0,45.0,457.8,128.0,241.9,Vitis vinifera L.; Tracheophyta; Magnoliopsida; Eucalyptus L'Hér.; Quercus L.; 
2011,2011-07-24,Porto,Marco de Canaveses,Vila Boa do Bispo,MEXIDE (ALTO),41.1332787,-8.2097194,Desconhecida,208.0,2011-07-24T19:00,26.1,51,15.3,26.1,0.0,0.0,0.0,0.0,0,1016.8,993.0,0,0,0,0,0.19,1.64,12.3,20.3,320,327,32.8,28.6,24.3,20.2,17.5,0.116,0.164,0.251,0.352,1,3600.0,120.9,85.5,35.5,535.2,120.9,211.7,191.0,135.0,56.0,535.2,191.0,334.3,Tracheophyta; Pinus pinaster Aiton; Vitis vinifera L.; Quercus L.; Eucalyptus L'Hér.; Magnoliopsida; Acacia Mill.; 
2011,2011-07-24,Porto,Gondomar,São Cosme,Bulha,41.13527305,-8.534103623752394,NC,121.0,2011-07-24T18:00,25.2,54,15.3,23.8,0.0,0.0,0.0,0.0,0,1016.7,1002.7,0,0,0,0,0.31,1.47,21.7,31.1,331,335,41.4,29.4,24.6,20.5,18.0,0.13,0.145,0.223,0.351,1,3600.0,292.8,225.9,66.8,649.9,292.8,460.8,368.0,284.0,84.0,649.9,368.0,579.2,Magnoliopsida; Tracheophyta; Eucalyptus L'Hér.
2011,2011-07-24,Porto,Vila Nova de Gaia,Olival,Rua da Castanheira,41.0526432,-8.5330671,NC,137.0,2011-07-24T20:00,21.5,68,15.4,20.6,0.0,0.0,0.0,0.0,0,1017.5,1001.5,0,0,0,1,0.09,0.81,18.6,33.0,338,342,41.0,25.5,24.6,20.5,17.9,0.13,0.145,0.223,0.351,0,1746.23,0.0,0.0,0.0,0.0,0.0,0.0,40.0,22.0,18.0,187.9,40.0,96.5,Tracheophyta; Eucalyptus L'Hér.; Magnoliopsida
2011,2011-07-24,Braga,Celorico de Basto,Veade,CANIÇO(VEADE)M-3 (Caniço),41.41462535,-7.974960980903772,NC,198.0,2011-07-24T21:00,23.2,56,14.0,23.4,0.0,0.0,0.0,0.0,0,1017.7,994.8,1,0,0,4,0.04,1.25,7.5,16.9,325,340,21.6,25.6,24.9,20.6,17.5,0.099,0.156,0.241,0.346,0,0.0,0.0,0.0,0.0,0.0,0.0,0.0,0.0,0.0,0.0,0.0,0.0,0.0,Magnoliopsida; Pinus pinaster Aiton; Vitis vinifera L.; Tracheophyta
2011,2011-07-25,Porto,Vila Nova de Gaia,Valadares,TRAV DOS SANATÓRIOS (Travessa  das Ameixoeiras),41.09898295,-8.631912499412149,NC,51.0,2011-07-25T02:00,18.4,85,15.8,16.9,0.0,0.0,0.0,0.0,0,1017.3,1011.2,0,0,0,0,0.03,0.33,23.7,37.2,351,356,36.0,20.6,23.6,20.8,18.4,0.127,0.154,0.238,0.354,0,0.0,0.0,0.0,0.0,0.0,0.0,0.0,0.0,0.0,0.0,0.0,0.0,0.0,Magnoliopsida; Pinus pinaster Aiton; Tracheophyta; Eucalyptus L'Hér.; Vitis vinifera L.; Pinales; Quercus L.; 
2011,2011-07-27,Castelo Branco,Covilhã,Canhoso,Sitio da Macaia,40.2965971,-7.4761748,Desconhecida,474.0,2011-07-27T16:00,33.5,21,8.2,33.1,0.0,0.0,0.0,0.0,0,1011.3,959.5,0,0,0,0,0.58,4.09,6.9,8.4,43,40,22.3,38.8,28.3,23.3,18.3,0.095,0.162,0.229,0.348,1,3600.0,656.2,565.5,90.8,849.7,656.2,882.5,723.0,623.0,100.0,849.7,723.0,972.3,Magnoliopsida; Pinus pinaster Aiton; Castanea sativa Mill.; Tracheophyta; Olea europaea L.; Quercus L.
2011,2011-07-27,Porto,Santo Tirso,Monte Córdova,Valinhas,41.3164414,-8.4320306,NC,357.0,2011-07-27T15:00,30.5,24,7.8,30.8,0.0,0.0,0.0,0.0,0,1013.9,974.1,0,0,0,0,0.65,3.32,7.2,9.5,53,53,24.8,34.3,23.9,19.8,16.6,0.095,0.151,0.233,0.342,1,3600.0,814.7,715.5,99.2,896.3,814.7,1058.6,862.0,757.0,105.0,896.3,862.0,1120.0,Tracheophyta; Vitis vinifera L.; Eucalyptus L'Hér.; Pinus pinaster Aiton; Magnoliopsida
2011,2011-07-27,Braga,Póvoa de Lanhoso,Taíde,BOBEIRO (TAÍDE) (Bobeiro),41.5584689,-8.220773256425403,NC,214.0,2011-07-27T16:00,32.2,24,9.2,31.3,0.0,0.0,0.0,0.0,0,1013.3,989.4,0,0,0,0,0.61,3.65,11.6,15.1,355,359,27.4,35.7,25.5,20.9,17.5,0.095,0.146,0.224,0.338,1,3600.0,668.9,578.7,90.2,861.7,668.9,890.6,734.0,635.0,99.0,861.7,734.0,977.2,Vitis vinifera L.; Tracheophyta; Pinales; Magnoliopsida
2011,2011-07-27,Porto,Vila Nova de Gaia,Sermonde,SABARIZ (ARCOZELO),41.0468462,-8.5815966,NC,129.0,2011-07-27T17:00,31.0,30,11.1,28.9,0.0,0.0,0.0,0.0,0,1012.8,998.3,0,0,0,0,0.53,3.17,17.6,23.6,345,348,32.8,34.9,25.6,21.0,18.2,0.091,0.125,0.194,0.32,1,3600.0,493.5,416.5,77.1,802.1,493.5,688.6,570.0,481.0,89.0,802.1,570.0,795.3,Tracheophyta; Eucalyptus L'Hér.; Magnoliopsida
2011,2011-07-27,Braga,Barcelos,Adães,PAÇO (ADAES) (Monte do Paço),41.5247145,-8.562222119503996,NC,92.0,2011-07-27T17:00,30.9,30,11.4,29.5,0.0,0.0,0.0,0.0,0,1013.0,1002.6,0,0,0,0,0.5,3.11,13.3,17.8,347,352,28.4,33.4,25.1,20.7,17.9,0.101,0.147,0.225,0.337,1,3600.0,494.8,416.8,78.0,803.7,494.8,687.8,571.0,481.0,90.0,803.7,571.0,793.7,Tracheophyta; Pinus pinaster Aiton; Eucalyptus L'Hér.
2011,2011-07-26,Porto,Felgueiras,Sendim,Cabeça de Porca,41.38328,-8.1805182,NC,356.0,2011-07-26T18:00,28.9,32,10.4,26.9,0.0,0.0,0.0,0.0,0,1012.6,972.8,0,0,0,0,0.36,2.71,14.0,20.2,360,2,33.5,31.9,24.9,20.0,16.6,0.1,0.146,0.224,0.338,1,3600.0,301.6,241.4,60.2,711.0,301.6,450.2,381.0,305.0,76.0,711.0,381.0,568.8,Vitis vinifera L.; Eucalyptus L'Hér.; Tracheophyta; Pinus pinaster Aiton; Magnoliopsida
2011,2011-07-26,Porto,Penafiel,Pinheiro,LUGAR DE SANTO ANTÓNIO (Lugar da Bouça),41.1193264,-8.3031666,NC,204.0,2011-07-26T22:00,22.5,55,13.0,21.1,0.0,0.0,0.0,0.0,0,1013.2,989.7,0,0,0,0,0.1,1.24,16.4,27.1,351,356,30.2,24.1,24.9,20.4,17.4,0.109,0.162,0.248,0.349,0,0.0,0.0,0.0,0.0,0.0,0.0,0.0,0.0,0.0,0.0,0.0,0.0,0.0,Tracheophyta; Vitis vinifera L.; Eucalyptus L'Hér.
