year,date,district,municipality,parish,local,latitude,longitude,cause,elevation,hourly.time,hourly.temperature_2m,hourly.relative_humidity_2m,hourly.dew_point_2m,hourly.apparent_temperature,hourly.precipitation,hourly.rain,hourly.snowfall,hourly.snow_depth,hourly.weather_code,hourly.pressure_msl,hourly.surface_pressure,hourly.cloud_cover,hourly.cloud_cover_low,hourly.cloud_cover_mid,hourly.cloud_cover_high,hourly.et0_fao_evapotranspiration,hourly.vapour_pressure_deficit,hourly.wind_speed_10m,hourly.wind_speed_100m,hourly.wind_direction_10m,hourly.wind_direction_100m,hourly.wind_gusts_10m,hourly.soil_temperature_0_to_7cm,hourly.soil_temperature_7_to_28cm,hourly.soil_temperature_28_to_100cm,hourly.soil_temperature_100_to_255cm,hourly.soil_moisture_0_to_7cm,hourly.soil_moisture_7_to_28cm,hourly.soil_moisture_28_to_100cm,hourly.soil_moisture_100_to_255cm,hourly.is_day,hourly.sunshine_duration,hourly.shortwave_radiation_instant,hourly.direct_radiation_instant,hourly.diffuse_radiation_instant,hourly.direct_normal_irradiance_instant,hourly.global_tilted_irradiance_instant,hourly.terrestrial_radiation_instant,hourly.shortwave_radiation,hourly.direct_radiation,hourly.diffuse_radiation,hourly.direct_normal_irradiance,hourly.global_tilted_irradiance,hourly.terrestrial_radiation,scientificNames
2012,2012-04-09,Porto,Maia,Águas Santas,RUA DR ANTONIO CARDOSO (Rua D),41.2100672,-8.5779371,NC,91.0,2012-04-09T14:00,18.0,55,8.9,17.4,0.0,0.0,0.0,0.0,0,1011.0,1000.3,0,0,0,0,0.46,0.92,13.0,15.9,275,273,27.4,20.8,13.7,13.0,12.0,0.178,0.216,0.285,0.349,1,3600.0,819.0,715.6,103.5,910.9,819.0,1071.5,847.0,740.0,107.0,910.9,847.0,1108.1,Tracheophyta; Pinus pinaster Aiton; Magnoliopsida; Eucalyptus L'Hér.; 
2012,2012-04-09,Viseu,Santa Comba Dão,Couto do Mosteiro,Colmeosa,40.4102502,-8.141927339600691,Reacendimento,218.0,2012-04-09T22:00,11.4,79,8.0,9.9,0.0,0.0,0.0,0.0,0,1009.8,983.8,12,2,17,0,0.0,0.28,6.5,13.7,267,275,15.1,13.4,14.5,11.9,10.6,0.179,0.201,0.27,0.31,0,0.0,0.0,0.0,0.0,0.0,0.0,0.0,0.0,0.0,0.0,0.0,0.0,0.0,Tracheophyta; Magnoliopsida; Pinus pinaster Aiton; Acacia Mill.; Quercus L.
2012,2012-04-07,Leiria,Alcobaça,Aljubarrota (São Vicente),Cumeira de Baixo,39.5676062,-8.9261347,Desconhecida,187.0,2012-04-07T20:00,11.0,73,6.4,8.4,0.0,0.0,0.0,0.0,0,1017.0,994.4,2,1,2,0,0.02,0.35,12.0,22.9,7,8,25.2,12.9,14.1,14.1,12.7,0.119,0.117,0.179,0.227,0,0.0,0.0,0.0,0.0,0.0,0.0,0.0,0.0,0.0,0.0,0.0,0.0,0.0,Tracheophyta; Eucalyptus L'Hér.; Magnoliopsida; Olea europaea L.
2012,2012-04-11,Faro,Alcoutim,Alcoutim,Alamo,37.3863929,-7.4434985,NC,22.0,2012-04-11T15:00,20.2,40,6.2,19.3,0.0,0.0,0.0,0.0,2,1011.9,1009.3,76,75,9,12,0.5,1.42,9.9,12.3,260,265,23.4,22.7,17.4,15.6,15.3,0.263,0.269,0.231,0.282,1,3600.0,760.6,678.9,81.7,948.8,760.6,974.7,819.0,731.0,88.0,948.8,819.0,1049.6,Pinus pinea L.; Quercus rotundifolia Lam.; Magnoliopsida
2012,2012-08-22,Porto,Paredes,Lordelo,IRVÃO,41.2346057,-8.4146751,NC,202.0,2012-08-22T20:00,21.1,82,17.9,22.8,0.0,0.0,0.0,0.0,0,1015.5,992.0,0,0,0,0,0.03,0.45,8.0,12.1,280,293,17.3,24.4,24.1,20.9,17.9,0.154,0.152,0.205,0.335,0,0.0,0.0,0.0,0.0,0.0,0.0,0.0,4.0,1.0,3.0,15.8,4.0,26.4,Magnoliopsida; Pinus pinaster Aiton; Eucalyptus L'Hér.; Tracheophyta; Vitis vinifera L.
2012,2012-08-22,Braga,Vieira do Minho,Guilhofrei,Monte de Guilhofrei,41.5769268,-8.1355007,Reacendimento,362.0,2012-08-22T16:00,26.4,56,16.8,27.9,0.0,0.0,0.0,0.0,0,1015.7,974.8,0,0,0,0,0.45,1.52,9.8,12.1,276,280,24.8,30.0,22.9,20.0,17.2,0.135,0.193,0.236,0.342,1,3600.0,579.7,493.7,86.0,832.0,579.7,793.7,647.0,551.0,96.0,832.0,647.0,885.8,Magnoliopsida; Eucalyptus L'Hér.; Pinus pinaster Aiton; Tracheophyta; Quercus L.
2012,2012-04-08,Porto,Vila do Conde,Azurara,MONTE SANTANA (Bouça do Monte),41.3455324,-8.7344345,NC,32.0,2012-04-08T17:00,16.3,51,6.1,13.2,0.0,0.0,0.0,0.0,0,1017.9,1014.1,1,0,0,2,0.26,0.92,14.9,18.4,323,325,29.5,19.3,14.2,13.2,12.0,0.151,0.215,0.291,0.35,1,3600.0,367.1,296.5,70.6,759.7,367.1,532.6,447.0,361.0,86.0,759.7,447.0,648.5,Tracheophyta; Eucalyptus L'Hér.
2012,2012-04-09,Braga,Barcelos,Carapeços,COUTADA (M5) (Coutada),41.5823144,-8.6381707,Reacendimento,120.0,2012-04-09T16:00,16.5,58,8.1,14.1,0.0,0.0,0.0,0.0,0,1010.5,996.3,9,10,0,0,0.33,0.8,15.3,18.0,300,299,29.9,20.1,13.8,12.4,11.2,0.164,0.22,0.295,0.364,1,3600.0,551.3,465.9,85.4,835.0,551.3,761.0,620.0,524.0,96.0,835.0,620.0,855.9,Magnoliopsida; Tracheophyta; Eucalyptus L'Hér.; Vitis vinifera L.
2012,2012-04-09,Porto,Paredes,Parada de Todeia,Paços,41.1690637,-8.3770562,NC,191.0,2012-04-09T16:00,16.9,57,8.2,14.4,0.0,0.0,0.0,0.0,0,1010.1,987.7,0,0,0,0,0.32,0.84,14.7,18.4,287,287,29.9,19.8,13.7,12.0,10.8,0.185,0.211,0.282,0.352,1,3600.0,505.1,416.4,88.8,747.7,505.1,759.5,569.0,469.0,100.0,747.7,569.0,855.5,Magnoliopsida; Pinus pinaster Aiton; Eucalyptus L'Hér.; Tracheophyta; Vitis vinifera L.
2012,2012-04-09,Aveiro,Arouca,Santa Eulália,Lugar de Troncos,40.9274489,-8.2777004,Desconhecida,246.0,2012-04-09T14:00,19.3,47,7.6,18.5,0.0,0.0,0.0,0.0,0,1010.9,982.3,0,0,0,0,0.5,1.19,12.2,15.2,268,266,33.1,21.3,13.3,12.1,10.9,0.185,0.215,0.287,0.352,1,3600.0,818.7,717.2,101.5,911.0,818.7,1073.8,847.0,742.0,105.0,911.0,847.0,1110.9,Pinus pinaster Aiton; Tracheophyta; Magnoliopsida; Eucalyptus L'Hér.
2012,2012-04-09,Porto,Maia,Moreira,R. PINHAL (Rua do Pinhal),41.2310248,-8.6635674,NC,70.0,2012-04-09T16:00,16.7,60,8.9,14.6,0.0,0.0,0.0,0.0,0,1010.5,1002.2,9,10,0,0,0.33,0.77,15.3,18.0,300,299,29.9,20.2,14.6,13.2,12.1,0.18,0.218,0.287,0.355,1,3600.0,551.0,465.7,85.3,832.7,551.0,762.7,620.0,524.0,96.0,832.7,620.0,858.2,Magnoliopsida; Eucalyptus L'Hér.; Tracheophyta; Pinus pinaster Aiton; 
2012,2012-04-10,Porto,Amarante,Gondar,LUGAR DA COSTA,41.2490072,-8.0269415,Desconhecida,176.0,2012-04-10T00:00,7.9,98,7.7,6.3,0.0,0.0,0.0,0.0,2,1010.2,988.9,68,72,5,0,0.0,0.02,6.9,10.4,231,256,15.1,10.6,13.8,12.0,10.5,0.192,0.226,0.293,0.348,0,0.0,0.0,0.0,0.0,0.0,0.0,0.0,0.0,0.0,0.0,0.0,0.0,0.0,Magnoliopsida; Tracheophyta; Eucalyptus L'Hér.; Vitis vinifera L.; Quercus L.; Pinus pinaster Aiton; Pinus pinea L.; 
2012,2012-04-10,Faro,Lagoa,Lagoa,Caramujeira,37.0992254,-8.4109891,NC,69.0,2012-04-10T15:00,17.1,57,8.4,13.1,0.1,0.1,0.0,0.0,51,1015.3,1007.1,75,80,5,0,0.34,0.85,25.7,33.2,285,285,48.6,19.0,15.9,14.7,14.4,0.265,0.295,0.232,0.276,1,3600.0,555.8,321.2,234.6,444.3,555.8,985.6,597.0,345.0,252.0,444.3,597.0,1058.6,Ceratonia siliqua L.; Tracheophyta; Magnoliopsida
2012,2012-04-10,Faro,Lagos,São Sebastião,Cerro das Mós (Barranco Cerro da Corça),37.1259776,-8.689132190653574,NC,3.0,2012-04-10T16:00,16.8,62,9.4,13.0,0.0,0.0,0.0,0.0,3,1015.2,1014.8,84,82,17,0,0.26,0.73,24.9,32.3,284,284,47.9,19.8,17.4,16.1,16.0,0.232,0.22,0.185,0.24,1,3600.0,383.3,186.3,196.9,319.6,383.3,794.6,432.0,210.0,222.0,319.6,432.0,895.7,Magnoliopsida; Tracheophyta; Ceratonia siliqua L.; Pinus pinaster Aiton; Olea europaea L.; Quercus suber L.; Vitis vinifera L.; 
2012,2012-08-08,Santarém,Chamusca,Chamusca,CHAMUSCA,39.33365205,-8.49101389250971,NC,14.0,2012-08-08T01:00,19.8,63,12.5,19.4,0.0,0.0,0.0,0.0,0,1015.3,1013.6,0,0,0,0,0.03,0.85,8.4,18.8,317,331,19.1,21.9,26.5,24.0,20.4,0.149,0.173,0.191,0.269,0,0.0,0.0,0.0,0.0,0.0,0.0,0.0,0.0,0.0,0.0,0.0,0.0,0.0,Vitis vinifera L.
2012,2012-08-08,Porto,Maia,Pedrouços,RUA DAS ESCALÓNIAS,41.1884917,-8.5840952,NC,152.0,2012-08-08T01:00,18.9,93,17.7,21.2,0.0,0.0,0.0,0.0,0,1016.0,998.1,0,0,0,0,0.0,0.16,3.1,3.1,45,54,9.7,18.0,22.0,20.3,17.3,0.126,0.155,0.235,0.334,0,0.0,0.0,0.0,0.0,0.0,0.0,0.0,0.0,0.0,0.0,0.0,0.0,0.0,Tracheophyta; Magnoliopsida; 
2012,2012-08-08,Porto,Póvoa de Varzim,Terroso,SEJAES,41.415134,-8.7278019,Reacendimento,77.0,2012-08-08T11:00,23.9,67,17.3,26.7,0.0,0.0,0.0,0.0,1,1017.3,1008.3,26,18,0,32,0.49,0.98,6.8,6.5,270,273,16.9,27.0,21.1,20.3,17.5,0.107,0.158,0.242,0.33,1,3600.0,803.4,640.2,163.2,766.8,803.4,1110.7,758.0,604.0,154.0,766.8,758.0,1047.9,Tracheophyta; Eucalyptus L'Hér.; Pinus pinaster Aiton
2012,2012-08-08,Bragança,Mirandela,Vale de Telhas,VALE DE TELHAS,41.6163445,-7.2277096,NC,346.0,2012-08-08T14:00,34.0,22,9.2,34.9,0.0,0.0,0.0,0.0,0,1014.9,976.7,1,0,0,2,0.72,4.16,6.9,9.1,171,171,25.6,36.4,24.7,21.8,17.6,0.123,0.149,0.188,0.288,1,3600.0,874.9,773.0,101.8,907.2,874.9,1133.7,902.0,797.0,105.0,907.2,902.0,1168.9,Olea europaea L.; Magnoliopsida; Vitis vinifera L.; Pinus pinaster Aiton
2012,2012-08-23,Castelo Branco,Fundão,Valverde,Quinta da Esparrela,40.1527564,-7.473231235979783,Desconhecida,444.0,2012-08-23T15:00,28.6,32,10.3,27.7,0.0,0.0,0.0,0.0,0,1013.3,963.8,12,0,0,41,0.61,2.66,14.8,18.9,283,283,39.6,35.8,26.7,23.8,20.1,0.096,0.156,0.209,0.308,1,3600.0,730.7,615.0,115.7,849.3,730.7,968.9,783.0,659.0,124.0,849.3,783.0,1038.2,Olea europaea L.; Vitis vinifera L.; Magnoliopsida; Tracheophyta
2012,2012-04-11,Faro,Lagos,São Sebastião,Cerro da Mozes (Barranco Cerro da Corça),37.1259776,-8.689132190653574,NC,3.0,2012-04-11T12:00,16.2,59,8.1,14.8,0.0,0.0,0.0,0.0,1,1015.8,1015.4,45,50,0,0,0.38,0.76,12.0,14.3,309,309,24.5,20.3,16.7,16.2,16.0,0.229,0.219,0.185,0.24,1,3600.0,731.9,493.1,238.8,567.8,731.9,1183.3,711.0,479.0,232.0,567.8,711.0,1149.5,Magnoliopsida; Tracheophyta; Ceratonia siliqua L.; Pinus pinaster Aiton; Olea europaea L.; Quercus suber L.; Vitis vinifera L.; 
2012,2012-08-22,Porto,Maia,Águas Santas,RUA DAS MIMOSAS,41.2167678,-8.5599107,NC,96.0,2012-08-22T14:00,25.7,63,18.2,28.8,0.0,0.0,0.0,0.0,0,1016.5,1005.4,7,8,0,0,0.55,1.22,10.4,12.4,290,292,20.5,29.7,23.0,21.1,18.4,0.163,0.167,0.221,0.328,1,3600.0,800.4,678.3,122.1,826.8,800.4,1097.3,826.0,700.0,126.0,826.8,826.0,1132.4,Tracheophyta; Pinus pinaster Aiton; Magnoliopsida; Eucalyptus L'Hér.; 
2012,2012-08-07,Lisboa,Alenquer,Vila Verde dos Francos,Portela do Sol,39.1566625,-9.1177912,Desconhecida,183.0,2012-08-07T22:00,18.4,71,13.0,17.6,0.0,0.0,0.0,0.0,0,1016.5,995.0,0,0,0,0,0.03,0.61,11.7,22.6,342,352,28.8,21.7,24.8,22.5,19.4,0.082,0.151,0.193,0.269,0,0.0,0.0,0.0,0.0,0.0,0.0,0.0,0.0,0.0,0.0,0.0,0.0,0.0,Tracheophyta; Magnoliopsida; Vitis vinifera L.; Eucalyptus L'Hér.; Olea europaea L.
2012,2012-08-07,Castelo Branco,Fundão,Souto da Casa,Salgueiral,40.112103,-7.559967,Desconhecida,502.0,2012-08-07T15:00,32.0,14,1.0,31.0,0.0,0.0,0.0,0.0,0,1015.5,960.3,7,0,0,24,0.65,4.1,6.2,7.6,159,161,24.5,38.6,25.5,23.4,19.0,0.092,0.153,0.216,0.308,1,3600.0,798.0,688.0,110.0,889.2,798.0,1029.3,849.0,732.0,117.0,889.2,849.0,1095.0,Pinus pinaster Aiton; Magnoliopsida; Olea europaea L.; Tracheophyta; Eucalyptus L'Hér.; Quercus L.; Pinales; Quercus suber L.; 
2012,2012-08-07,Viseu,Tondela,Guardão,Cadraço,40.57191,-8.167630636623684,Reacendimento,805.0,2012-08-07T12:00,25.7,24,3.5,25.4,0.0,0.0,0.0,0.0,0,1017.8,929.1,2,0,0,5,0.63,2.52,6.5,8.3,183,178,20.5,29.5,19.6,19.0,15.0,0.096,0.139,0.205,0.294,1,3600.0,931.8,809.5,122.3,898.7,931.8,1198.1,907.0,788.0,119.0,898.7,907.0,1166.2,Tracheophyta; Eucalyptus L'Hér.; Magnoliopsida; Pinus pinaster Aiton
2012,2012-08-07,Vila Real,Ribeira de Pena,Cerva,Seixinhos,41.473437,-7.84797,NC,353.0,2012-08-07T20:00,24.6,52,14.2,24.9,0.0,0.0,0.0,0.0,0,1016.7,976.5,0,0,0,0,0.07,1.48,7.1,8.5,285,298,15.5,26.0,23.5,20.5,16.8,0.111,0.163,0.249,0.346,0,242.36,0.0,0.0,0.0,0.0,0.0,0.0,18.0,9.0,9.0,96.3,18.0,65.8,Magnoliopsida; Pinus pinaster Aiton; Tracheophyta
2012,2012-07-23,Viseu,Viseu,Fragosela,PRIME / NESPRIDO,40.6268817,-7.8473894,Reacendimento,359.0,2012-07-23T13:00,33.4,15,3.5,33.9,0.0,0.0,0.0,0.0,0,1012.9,973.3,0,0,0,0,0.74,4.36,4.5,5.2,331,335,23.8,36.9,25.6,21.8,16.4,0.086,0.168,0.249,0.315,1,3600.0,970.2,863.2,106.9,926.0,970.2,1235.5,971.0,864.0,107.0,926.0,971.0,1236.6,Magnoliopsida; Pinus pinaster Aiton; Tracheophyta; Acacia Mill.
2012,2012-08-07,Aveiro,Águeda,Recardães,Fujacos,40.5466003,-8.4630537,Desconhecida,64.0,2012-08-07T23:00,18.6,84,15.8,20.0,0.0,0.0,0.0,0.0,0,1016.3,1008.7,0,0,0,0,0.0,0.35,4.5,8.4,14,20,9.0,20.8,23.5,21.1,18.2,0.079,0.104,0.164,0.251,0,0.0,0.0,0.0,0.0,0.0,0.0,0.0,0.0,0.0,0.0,0.0,0.0,0.0,Eucalyptus L'Hér.; Tracheophyta; Pinus pinaster Aiton; Magnoliopsida; Vitis vinifera L.
2012,2012-08-07,Setúbal,Moita,Moita,ALTO DO CARVALHINHO,38.6402642,-8.972055868357723,Desconhecida,22.0,2012-08-07T22:00,21.8,55,12.4,21.0,0.0,0.0,0.0,0.0,0,1016.1,1013.5,0,0,0,0,0.07,1.18,10.8,21.1,345,351,27.0,23.6,25.1,22.4,19.5,0.052,0.061,0.079,0.163,0,0.0,0.0,0.0,0.0,0.0,0.0,0.0,0.0,0.0,0.0,0.0,0.0,0.0,Eucalyptus L'Hér.; Tracheophyta
2012,2012-08-07,Aveiro,Santa Maria da Feira,Milheirós de Poiares,Rua de Gaiate,40.9220638,-8.4699237,Reacendimento,231.0,2012-08-07T11:00,25.5,42,11.7,27.0,0.0,0.0,0.0,0.0,0,1018.0,991.5,11,0,0,36,0.54,1.88,4.0,4.7,355,4,18.4,27.3,20.7,20.5,17.3,0.114,0.148,0.224,0.332,1,3600.0,846.5,731.0,115.5,869.1,846.5,1118.8,799.0,690.0,109.0,869.1,799.0,1056.0,Tracheophyta; Magnoliopsida; Eucalyptus L'Hér.
2012,2012-08-07,Aveiro,Santa Maria da Feira,Mosteiró,Cai Água,40.8968908,-8.529469,Desconhecida,151.0,2012-08-07T15:00,28.0,39,12.9,28.2,0.0,0.0,0.0,0.0,0,1017.1,999.9,0,0,0,0,0.63,2.3,15.5,18.8,312,313,30.6,32.5,22.8,21.0,17.9,0.113,0.147,0.223,0.332,1,3600.0,790.7,693.7,97.1,892.4,790.7,1033.9,839.0,736.0,103.0,892.4,839.0,1097.0,Magnoliopsida; Pinales; Eucalyptus L'Hér.; Tracheophyta; Pinus pinaster Aiton
2012,2012-04-08,Braga,Póvoa de Lanhoso,Brunhais,"Leiradela (EM599-1 102, 4830 Brunhais, Portugal)",41.5738004,-8.1827097,NC,243.0,2012-04-08T16:00,17.7,47,6.1,15.2,0.0,0.0,0.0,0.0,0,1017.3,988.7,4,4,0,0,0.34,1.08,11.3,14.1,287,289,28.1,19.5,12.3,11.6,10.4,0.176,0.223,0.297,0.364,1,3600.0,508.4,375.3,133.1,681.3,508.4,751.7,573.0,423.0,150.0,681.3,573.0,847.3,Tracheophyta; Magnoliopsida
2012,2012-04-08,Aveiro,Sever do Vouga,Paradela,Estação (Dornelas),40.703476,-8.360665,Desconhecida,72.0,2012-04-08T15:00,20.1,43,7.1,18.7,0.0,0.0,0.0,0.0,0,1017.5,1009.0,8,0,13,0,0.46,1.34,11.7,14.0,315,318,27.4,24.2,14.0,13.4,12.0,0.107,0.132,0.199,0.273,1,3600.0,690.3,578.6,111.8,836.3,690.3,944.1,741.0,621.0,120.0,836.3,741.0,1013.4,Pinus pinaster Aiton; Tracheophyta; Magnoliopsida; Eucalyptus L'Hér.
2012,2012-04-08,Porto,Vila do Conde,Retorta,Mourão,41.3524262,-8.7169326,NC,36.0,2012-04-08T23:00,11.2,84,8.6,10.0,0.0,0.0,0.0,0.0,0,1017.4,1013.0,0,0,0,0,0.0,0.21,5.4,8.4,37,20,11.5,10.9,13.9,13.1,12.0,0.155,0.212,0.288,0.351,0,0.0,0.0,0.0,0.0,0.0,0.0,0.0,0.0,0.0,0.0,0.0,0.0,0.0,Magnoliopsida; Eucalyptus L'Hér.
2012,2012-04-09,Braga,Fafe,Fafe,URBANIZAÇÃO ANTÓNIO ALEIXO (M3) (ABOIM),41.4468733,-8.180584376446348,NC,343.0,2012-04-09T15:00,18.2,46,6.6,16.6,0.0,0.0,0.0,0.0,0,1010.0,970.3,0,0,0,0,0.45,1.13,13.8,17.7,250,250,35.6,20.3,12.5,10.9,9.6,0.175,0.222,0.295,0.359,1,3600.0,723.7,636.1,87.6,925.0,723.7,938.0,777.0,683.0,94.0,925.0,777.0,1007.1,Magnoliopsida; Pinus pinaster Aiton; Tracheophyta; Eucalyptus L'Hér.
2012,2012-08-23,Lisboa,Lisboa,Beato,Rua Carlos Botelho - Beato,38.7326216,-9.110239570540047,NC,50.0,2012-08-23T21:00,19.5,74,14.8,18.2,0.0,0.0,0.0,0.0,2,1016.5,1010.6,73,54,0,82,0.05,0.58,19.8,29.3,341,341,37.4,23.8,25.1,24.2,22.6,0.237,0.269,0.3,0.336,0,0.0,0.0,0.0,0.0,0.0,0.0,0.0,0.0,0.0,0.0,0.0,0.0,0.0,Tracheophyta; Magnoliopsida
2012,2012-08-24,Aveiro,Sever do Vouga,Talhadas,Vilarinho,40.6659637,-8.3272991,Desconhecida,486.0,2012-08-24T12:00,21.4,57,12.6,19.8,0.0,0.0,0.0,0.0,3,1015.7,960.3,98,96,20,0,0.33,1.09,16.1,21.4,241,241,38.2,24.6,21.3,20.8,17.7,0.113,0.15,0.207,0.319,1,3600.0,481.0,178.9,302.2,208.2,481.0,1149.7,468.0,174.0,294.0,208.2,468.0,1118.5,Pinus pinaster Aiton; Eucalyptus L'Hér.; Tracheophyta; Magnoliopsida
2012,2012-08-24,Faro,Vila Real de Santo António,Vila Nova de Cacela,Portela,37.1754658,-7.5333882,NC,36.0,2012-08-24T20:00,25.6,48,13.6,23.7,0.0,0.0,0.0,0.0,0,1014.9,1010.7,0,0,0,0,0.18,1.72,21.0,31.8,321,321,38.2,28.8,29.4,27.5,23.6,0.125,0.148,0.18,0.256,0,0.0,0.0,0.0,0.0,0.0,0.0,0.0,0.0,0.0,0.0,0.0,0.0,3.3,Ceratonia siliqua L.; Magnoliopsida; Tracheophyta
2012,2012-08-08,Porto,Vila Nova de Gaia,Pedroso,REGATO,41.064143,-8.5572235,NC,131.0,2012-08-08T11:00,24.2,64,16.9,27.1,0.0,0.0,0.0,0.0,0,1017.3,1002.1,1,0,0,2,0.5,1.09,5.9,6.7,284,286,18.4,26.9,21.3,20.4,17.5,0.123,0.156,0.237,0.34,1,3600.0,810.8,660.3,150.5,788.5,810.8,1114.2,765.0,623.0,142.0,788.5,765.0,1051.2,Magnoliopsida; Eucalyptus L'Hér.; Tracheophyta
2012,2012-08-08,Lisboa,Cadaval,Cadaval,Casal do Vale de Arroz,39.242859,-9.1026628,Desconhecida,104.0,2012-08-08T15:00,28.8,37,12.8,29.4,0.0,0.0,0.0,0.0,0,1015.8,1003.9,0,0,0,0,0.64,2.47,12.8,15.3,322,326,31.3,38.6,25.7,23.1,20.0,0.081,0.151,0.193,0.269,1,3600.0,803.0,701.2,101.8,891.4,803.0,1046.7,852.0,744.0,108.0,891.4,852.0,1110.6,Magnoliopsida; Eucalyptus L'Hér.; Tracheophyta; Pinales
2012,2012-08-27,Guarda,Fornos de Algodres,Sobral Pichorro,PONTE CLAREANA / SOBRAL PICHORRO,40.6966844,-7.4510156,Reacendimento,414.0,2012-08-27T16:00,23.5,35,7.3,20.5,0.0,0.0,0.0,0.0,1,1016.2,969.1,44,0,30,86,0.41,1.87,15.4,21.3,259,258,35.6,31.1,24.9,23.7,20.2,0.075,0.142,0.207,0.293,1,3600.0,469.0,301.1,167.9,528.9,469.0,763.2,528.0,339.0,189.0,528.9,528.0,859.2,Quercus L.; Pinus pinaster Aiton; Olea europaea L.; Magnoliopsida; Tracheophyta; 
2012,2012-08-28,Bragança,Miranda do Douro,Cicouro,CICOURO,41.5000816,-6.271331,Desconhecida,680.0,2012-08-28T12:00,23.8,51,13.1,22.9,0.0,0.0,0.0,0.0,2,1019.1,943.0,65,48,0,73,0.43,1.43,14.5,19.1,251,250,35.3,25.7,21.8,21.9,18.7,0.147,0.168,0.216,0.296,1,3600.0,605.8,323.4,282.4,383.6,605.8,1130.3,592.0,316.0,276.0,383.6,592.0,1104.5,Magnoliopsida; Tracheophyta; Vitis vinifera L.; Olea europaea L.; Pinus pinaster Aiton; Castanea sativa Mill.; Pinales; Quercus L.; 
2012,2012-08-27,Faro,Albufeira,Albufeira,Sesmarias,37.0809433,-8.2952505,Desconhecida,47.0,2012-08-27T21:00,20.8,65,14.1,19.8,0.0,0.0,0.0,0.0,0,1019.3,1013.7,2,0,0,7,0.06,0.85,15.5,25.5,335,337,32.4,24.3,27.0,25.7,22.6,0.087,0.146,0.179,0.253,0,0.0,0.0,0.0,0.0,0.0,0.0,0.0,0.0,0.0,0.0,0.0,0.0,0.0,Quercus suber L.; Tracheophyta; Pinus pinea L.; Magnoliopsida
2012,2012-08-08,Viana do Castelo,Monção,Barroças e Taias,Souto,42.0019339,-8.4977586,Reacendimento,102.0,2012-08-08T15:00,26.2,62,18.3,29.2,0.0,0.0,0.0,0.0,1,1016.8,1005.0,21,2,0,64,0.55,1.29,10.6,12.2,294,298,24.5,30.4,22.1,19.6,17.0,0.126,0.178,0.267,0.357,1,3600.0,770.3,652.4,117.9,848.3,770.3,1023.3,817.0,692.0,125.0,848.3,817.0,1085.4,Pinus pinaster Aiton; Tracheophyta; Eucalyptus L'Hér.; Magnoliopsida; 
2012,2012-08-08,Leiria,Pombal,Abiul,Seródio - Ramalhais de Baixo,39.8914994,-8.5248629,Desconhecida,240.0,2012-08-08T15:00,29.9,34,12.5,30.2,0.0,0.0,0.0,0.0,0,1016.0,989.0,0,0,0,0,0.66,2.77,13.8,16.8,303,305,32.8,36.2,24.8,21.8,18.3,0.099,0.138,0.178,0.259,1,3600.0,787.2,688.3,98.9,882.9,787.2,1037.4,836.0,731.0,105.0,882.9,836.0,1101.7,Eucalyptus L'Hér.; Olea europaea L.; Vitis vinifera L.; Magnoliopsida; Tracheophyta; Pinus pinaster Aiton
2012,2012-08-28,Viseu,Castro Daire,Castro Daire,Lamelas de Cá,40.91465745,-7.920020147736607,Desconhecida,660.0,2012-08-28T20:00,17.4,74,12.7,17.4,0.0,0.0,0.0,0.0,0,1020.1,944.5,12,0,14,13,0.03,0.52,5.8,11.4,292,298,19.4,20.3,20.9,20.1,17.3,0.119,0.147,0.205,0.319,0,0.0,0.0,0.0,0.0,0.0,0.0,0.0,0.0,0.0,0.0,0.0,0.0,3.6,Pinus pinaster Aiton; Magnoliopsida; Pinales; Eucalyptus L'Hér.; Tracheophyta
2012,2012-08-29,Lisboa,Cascais,Alcabideche,alto da merendas - manique,38.739751850000005,-9.40823198439682,NC,97.0,2012-08-29T05:00,18.7,78,14.7,18.7,0.0,0.0,0.0,0.0,1,1020.4,1008.9,35,12,7,67,0.02,0.48,10.8,18.7,345,344,22.7,18.8,22.8,22.5,20.3,0.08,0.117,0.167,0.243,0,0.0,0.0,0.0,0.0,0.0,0.0,0.0,0.0,0.0,0.0,0.0,0.0,0.0,Tracheophyta; Eucalyptus L'Hér.; Magnoliopsida; Pinus pinea L.; Pinus pinaster Aiton; Pinales; Vitis vinifera L.; 
2012,2012-08-08,Faro,São Brás de Alportel,São Brás de Alportel,Almarjão,37.19555795,-7.89076299096229,Desconhecida,296.0,2012-08-08T07:00,22.0,88,19.9,23.9,0.0,0.0,0.0,0.0,1,1016.5,982.4,28,31,0,0,0.05,0.32,13.4,18.9,110,114,23.8,24.1,28.1,27.2,22.6,0.08,0.139,0.153,0.218,1,3071.73,118.9,59.4,59.4,244.3,107.8,323.7,70.0,35.0,35.0,221.6,70.0,190.6,Quercus suber L.; Magnoliopsida; Pinus pinaster Aiton; Quercus rotundifolia Lam.; Tracheophyta
2012,2012-08-08,Braga,Vila Verde,Cervães,VEIGA (M5),41.5959943,-8.5230863,Desconhecida,117.0,2012-08-08T19:00,23.0,60,14.9,23.6,0.0,0.0,0.0,0.0,0,1016.8,1003.2,1,0,0,2,0.12,1.12,7.4,10.8,293,300,21.2,26.7,23.4,20.1,17.1,0.106,0.167,0.257,0.353,1,3600.0,87.4,60.1,27.3,509.2,87.4,157.1,157.0,108.0,49.0,509.2,157.0,282.2,Pinus pinaster Aiton; Eucalyptus L'Hér.; Magnoliopsida; Tracheophyta
2012,2012-08-28,Castelo Branco,Fundão,Alcaria,Rua do Caçado - Alcaria,40.1996983,-7.5193298,Desconhecida,421.0,2012-08-28T01:00,16.9,79,13.1,17.2,0.0,0.0,0.0,0.0,0,1018.0,969.0,6,0,0,20,0.0,0.41,4.3,11.5,312,311,11.5,18.9,24.7,23.8,20.5,0.096,0.155,0.207,0.307,0,0.0,0.0,0.0,0.0,0.0,0.0,0.0,0.0,0.0,0.0,0.0,0.0,0.0,Tracheophyta; Magnoliopsida; Olea europaea L.; Pinus pinaster Aiton; Vitis vinifera L.; Quercus L.; Quercus suber L.; Eucalyptus L'Hér.; 
2012,2012-08-28,Faro,Castro Marim,Castro Marim,CASTRO MARIM,37.1967942,-7.483834,NC,3.0,2012-08-28T14:00,33.1,25,10.3,34.6,0.0,0.0,0.0,0.0,0,1017.0,1016.7,3,0,0,9,0.66,3.81,4.3,5.2,265,282,13.0,37.2,28.3,27.4,24.1,0.125,0.147,0.179,0.256,1,3600.0,837.2,733.1,104.2,887.0,837.2,1108.2,868.0,760.0,108.0,887.0,868.0,1149.0,Magnoliopsida; ; Tracheophyta; Ceratonia siliqua L.; Pinus pinea L.
2012,2012-08-28,Setúbal,Almada,Laranjeiro,BAIRRO SANTO ANTONIO,38.6568794,-9.1466263,Desconhecida,44.0,2012-08-28T21:00,20.4,73,15.4,19.2,0.0,0.0,0.0,0.0,0,1020.3,1015.1,4,0,0,12,0.06,0.64,20.9,29.2,339,340,33.5,22.9,24.7,23.1,20.7,0.057,0.063,0.09,0.178,0,0.0,0.0,0.0,0.0,0.0,0.0,0.0,0.0,0.0,0.0,0.0,0.0,0.0,Pinus pinea L.; Tracheophyta; Pinus pinaster Aiton
2012,2012-08-28,Bragança,Freixo Espada à Cinta,Mazouco,MAZOUCO,41.140207,-6.763198,Desconhecida,201.0,2012-08-28T14:00,27.9,45,15.0,27.9,0.0,0.0,0.0,0.0,3,1018.5,995.6,100,75,21,95,0.44,2.05,11.8,16.0,247,247,32.8,29.7,24.7,24.5,21.1,0.147,0.158,0.188,0.276,1,3600.0,520.5,194.7,325.8,245.6,520.5,1063.1,540.0,202.0,338.0,245.6,540.0,1102.8,Olea europaea L.; Tracheophyta; Vitis vinifera L.; Magnoliopsida
2012,2012-03-27,Porto,Vila Nova de Gaia,Vilar do Paraíso,CADAVAO DE BAIXO (Canelas de Baixo),41.1064555,-8.6153529,NC,88.0,2012-03-27T23:00,14.5,55,5.5,12.0,0.0,0.0,0.0,0.0,0,1021.4,1010.8,0,0,0,0,0.04,0.75,9.1,17.6,97,118,17.3,14.8,16.2,13.0,11.6,0.207,0.248,0.303,0.358,0,0.0,0.0,0.0,0.0,0.0,0.0,0.0,0.0,0.0,0.0,0.0,0.0,0.0,Tracheophyta; Magnoliopsida; Eucalyptus L'Hér.
2012,2012-03-27,Porto,Amarante,Vila Caiz,PONTE VAIA (Bandoleiro-Ponte),41.229918,-8.1252874,Reacendimento,157.0,2012-03-27T23:00,12.0,47,1.0,8.5,0.0,0.0,0.0,0.0,0,1021.8,1002.8,0,0,0,0,0.06,0.75,10.7,18.9,50,66,20.9,11.7,14.7,11.6,9.9,0.2,0.256,0.31,0.357,0,0.0,0.0,0.0,0.0,0.0,0.0,0.0,0.0,0.0,0.0,0.0,0.0,0.0,Magnoliopsida; Pinus pinaster Aiton; Tracheophyta; Vitis vinifera L.; Eucalyptus L'Hér.; 
2012,2012-03-28,Porto,Paredes,Aguiar de Sousa,Aguiar,41.1283153,-8.4464168,NC,163.0,2012-03-28T02:00,8.6,68,3.0,5.9,0.0,0.0,0.0,0.0,0,1022.3,1002.3,0,0,0,0,0.01,0.36,7.6,13.0,90,96,16.9,10.6,14.6,12.1,10.6,0.196,0.246,0.304,0.357,0,0.0,0.0,0.0,0.0,0.0,0.0,0.0,0.0,0.0,0.0,0.0,0.0,0.0,Magnoliopsida; Pinus pinaster Aiton; Eucalyptus L'Hér.; Tracheophyta; Vitis vinifera L.; Quercus L.; Quercus suber L.
2012,2012-03-27,Bragança,Bragança,Rabal,RABAL,41.8933848,-6.751693901941996,NC,879.0,2012-03-27T23:00,8.1,46,-2.9,4.4,0.0,0.0,0.0,0.0,0,1024.1,921.4,0,0,0,0,0.03,0.59,8.0,16.3,63,96,15.8,9.1,11.7,8.4,7.2,0.27,0.306,0.357,0.406,0,0.0,0.0,0.0,0.0,0.0,0.0,0.0,0.0,0.0,0.0,0.0,0.0,0.0,Quercus L.; Magnoliopsida; Pinus pinaster Aiton; Pinales; Tracheophyta
2012,2012-03-31,Porto,Valongo,Ermesinde,TRAVESSA BOUÇA DO MONTE (Travessa da Fontinha),41.2170785,-8.5515798,NC,108.0,2012-03-31T13:00,20.5,47,8.8,20.1,0.0,0.0,0.0,0.0,1,1010.4,997.8,33,0,7,95,0.47,1.28,8.9,10.7,230,225,16.6,21.7,15.4,13.5,11.6,0.178,0.231,0.295,0.351,1,3600.0,765.2,515.5,249.7,646.4,765.2,1093.4,766.0,516.0,250.0,646.4,766.0,1094.6,Tracheophyta; Eucalyptus L'Hér.
2012,2012-03-31,Viseu,Cinfães,Nespereira,Chã,41.0027353,-8.193203219967025,Reacendimento,232.0,2012-03-31T23:00,11.4,87,9.3,10.4,0.0,0.0,0.0,0.0,1,1010.8,983.1,22,0,19,34,0.0,0.18,5.1,5.2,129,146,7.2,11.8,14.7,12.1,9.9,0.162,0.237,0.303,0.357,0,0.0,0.0,0.0,0.0,0.0,0.0,0.0,0.0,0.0,0.0,0.0,0.0,0.0,Magnoliopsida; Eucalyptus L'Hér.; Tracheophyta; Pinus pinaster Aiton
2012,2012-06-28,Porto,Gondomar,Baguim do Monte,RUA DA MORENA,41.1945278,-8.54271614971638,NC,131.0,2012-06-28T02:00,16.4,99,16.2,17.8,0.0,0.0,0.0,0.0,3,1014.2,998.7,90,100,0,0,0.0,0.02,5.0,6.4,240,227,11.9,19.1,22.6,18.6,14.9,0.183,0.245,0.301,0.349,0,0.0,0.0,0.0,0.0,0.0,0.0,0.0,0.0,0.0,0.0,0.0,0.0,0.0,Tracheophyta; Magnoliopsida; Eucalyptus L'Hér.
2012,2012-06-28,Aveiro,Aveiro,Esgueira,Taboeira,40.6523699,-8.5901667,Desconhecida,24.0,2012-06-28T14:00,23.3,57,14.4,24.0,0.0,0.0,0.0,0.0,2,1014.7,1011.9,55,61,0,0,0.55,1.22,16.6,19.7,288,288,30.2,31.1,23.5,19.9,16.4,0.056,0.119,0.181,0.234,1,3600.0,849.1,699.1,150.0,768.8,849.1,1203.4,872.0,718.0,154.0,768.8,872.0,1235.9,Magnoliopsida; Tracheophyta; Pinus pinaster Aiton; Eucalyptus L'Hér.
2012,2012-06-29,Faro,Albufeira,Albufeira,rua das gaivotas,37.1286937,-8.2330185,NC,82.0,2012-06-29T12:00,25.0,35,8.7,24.6,0.0,0.0,0.0,0.0,0,1016.6,1007.1,0,0,0,0,0.66,2.05,15.3,19.2,319,320,40.3,31.4,26.2,24.0,18.4,0.101,0.141,0.164,0.241,1,3600.0,985.9,863.9,122.0,898.8,985.9,1272.0,962.0,843.0,119.0,898.8,962.0,1241.2,Tracheophyta; Ceratonia siliqua L.; Olea europaea L.
2012,2012-06-28,Évora,Reguengos de Monsaraz,Campo,HERDADE DO RONCÃO,38.3205176,-7.5023572,Desconhecida,220.0,2012-06-28T17:00,32.2,27,10.7,30.0,0.0,0.0,0.0,0.0,0,1010.9,986.4,0,0,0,0,0.55,3.53,17.4,23.6,277,278,40.0,36.1,30.1,24.2,17.8,0.123,0.167,0.21,0.278,1,3600.0,500.0,416.9,83.0,785.6,500.0,702.4,578.0,482.0,96.0,785.6,578.0,812.0,Quercus rotundifolia Lam.; Eucalyptus L'Hér.; Tracheophyta
2012,2012-06-30,Setúbal,Palmela,Poceirão,TRZ CAFE CIGANA,38.633037,-8.7423662,NC,40.0,2012-06-30T00:00,17.2,76,13.0,16.8,0.0,0.0,0.0,0.0,0,1017.9,1013.1,6,5,3,0,0.02,0.47,9.7,19.8,297,299,16.2,19.3,25.1,21.8,17.3,0.052,0.063,0.083,0.163,0,0.0,0.0,0.0,0.0,0.0,0.0,0.0,0.0,0.0,0.0,0.0,0.0,0.0,Vitis vinifera L.; Quercus suber L.; Magnoliopsida; Tracheophyta
2012,2012-08-22,Porto,TROFA,Muro,MENDOES,41.3010941,-8.5941379,NC,119.0,2012-08-22T15:00,25.7,64,18.3,28.3,0.0,0.0,0.0,0.0,0,1016.2,1002.5,0,0,0,0,0.51,1.19,11.8,13.9,293,295,22.7,30.0,23.1,20.8,18.2,0.151,0.18,0.225,0.33,1,3600.0,727.1,632.5,94.6,866.8,727.1,975.9,776.0,675.0,101.0,866.8,776.0,1041.5,Tracheophyta; Eucalyptus L'Hér.; Magnoliopsida
2012,2012-08-22,Leiria,Marinha Grande,Marinha Grande,Quinta da Bernagem,39.7495952,-8.9298895,Desconhecida,92.0,2012-08-22T16:00,23.8,65,16.9,23.8,0.0,0.0,0.0,0.0,0,1016.9,1006.2,14,16,0,0,0.4,1.02,19.9,23.5,319,320,29.5,32.1,24.1,21.5,18.9,0.053,0.06,0.086,0.169,1,3600.0,568.4,456.3,112.1,751.4,568.4,812.2,634.0,509.0,125.0,751.4,634.0,906.0,Tracheophyta
2012,2012-08-22,Viseu,Sernancelhe,Carregal,Tabosa,40.909932,-7.5880944,Reacendimento,721.0,2012-08-22T12:00,28.8,22,4.7,28.3,0.0,0.0,0.0,0.0,0,1016.3,937.3,0,0,0,0,0.65,3.1,7.9,9.7,267,266,25.6,31.6,23.8,21.3,17.2,0.146,0.139,0.169,0.281,1,3600.0,892.9,793.4,99.6,918.2,892.9,1155.6,870.0,773.0,97.0,918.2,870.0,1126.0,Pinus pinaster Aiton; Vitis vinifera L.; Magnoliopsida; Tracheophyta; Quercus L.; Castanea sativa Mill.; Acacia Mill.; Pinales; 
2012,2012-08-22,Faro,Olhão,Moncarapacho,Pedreiras,37.0842089,-7.7882465,Desconhecida,54.0,2012-08-22T16:00,32.5,32,13.8,32.4,0.0,0.0,0.0,0.0,0,1012.9,1006.8,0,0,0,0,0.58,3.31,13.8,18.1,290,293,29.2,36.5,30.0,26.0,22.5,0.103,0.138,0.175,0.258,1,3600.0,599.8,514.3,85.6,847.2,599.8,811.9,673.0,577.0,96.0,847.2,673.0,911.0,Magnoliopsida; Vitis vinifera L.; Tracheophyta; Ceratonia siliqua L.; Olea europaea L.; 
2012,2012-07-12,Setúbal,Seixal,Aldeia de Paio Pires,QUINTA DA CUCENA,38.6119995,-9.07313725926883,Desconhecida,5.0,2012-07-12T12:00,24.1,44,11.2,24.8,0.0,0.0,0.0,0.0,0,1020.9,1020.3,0,0,0,0,0.63,1.68,13.7,17.7,337,343,27.7,29.6,21.9,21.3,18.5,0.053,0.075,0.111,0.186,1,3600.0,985.4,867.2,118.2,917.3,985.4,1251.2,959.0,844.0,115.0,917.3,959.0,1217.7,Tracheophyta; Magnoliopsida; Pinus pinaster Aiton
2012,2012-08-29,Lisboa,Azambuja,Alcoentre,TAGARRO,39.2078257,-8.9572359,Desconhecida,81.0,2012-08-29T17:00,22.9,48,11.3,19.8,0.0,0.0,0.0,0.0,0,1021.3,1011.8,6,0,0,21,0.36,1.46,24.1,32.0,338,339,46.4,30.9,25.7,24.6,21.7,0.085,0.148,0.18,0.261,1,3600.0,381.1,314.3,66.8,763.2,381.1,552.5,462.0,381.0,81.0,763.2,462.0,669.8,Tracheophyta; Magnoliopsida; Pinales; Olea europaea L.
2012,2012-07-14,Viseu,Viseu,Repeses,Repeses,40.6331512,-7.925942387499379,Desconhecida,462.0,2012-07-14T20:00,17.4,63,10.2,15.6,0.0,0.0,0.0,0.0,0,1020.2,966.5,4,5,0,0,0.07,0.74,12.5,20.8,319,323,34.9,21.8,21.4,18.4,14.9,0.1,0.186,0.266,0.322,1,1925.73,0.0,0.0,0.0,0.0,0.0,0.0,48.0,27.0,21.0,222.9,48.0,105.1,Vitis vinifera L.; Magnoliopsida; Tracheophyta; Pinus pinaster Aiton
2012,2012-07-14,Santarém,Alcanena,Monsanto,Carvalheiro,39.4617348,-8.7123918,Desconhecida,149.0,2012-07-14T19:00,19.7,54,10.2,15.7,0.0,0.0,0.0,0.0,0,1019.9,1002.4,0,0,0,0,0.21,1.04,27.6,38.8,340,341,55.4,24.5,22.8,20.5,17.4,0.094,0.159,0.227,0.294,1,3600.0,137.0,97.6,39.4,569.0,137.0,227.1,212.0,151.0,61.0,569.0,212.0,351.3,Magnoliopsida; Olea europaea L.; Quercus L.; Quercus suber L.; Eucalyptus L'Hér.; Pinus pinaster Aiton; Tracheophyta; 
2012,2012-07-15,Aveiro,Santa Maria da Feira,Rio Meão,Rua do Pinheiro,40.9581668,-8.5826133,Desconhecida,116.0,2012-07-15T00:00,14.5,92,13.2,13.8,0.0,0.0,0.0,0.0,0,1022.1,1008.1,0,0,0,0,0.0,0.13,12.0,19.2,353,352,22.3,16.8,20.3,18.8,16.3,0.12,0.164,0.24,0.322,0,0.0,0.0,0.0,0.0,0.0,0.0,0.0,0.0,0.0,0.0,0.0,0.0,0.0,Eucalyptus L'Hér.; Tracheophyta; Olea europaea L.; Magnoliopsida
2012,2012-07-15,Leiria,Marinha Grande,Marinha Grande,MATAS NACIONAIS Talhão 184 E 185,39.7495952,-8.9298895,Desconhecida,92.0,2012-07-15T00:00,15.2,88,13.2,12.6,0.0,0.0,0.0,0.0,0,1021.8,1010.7,2,2,0,0,0.02,0.21,25.3,36.4,355,356,40.0,16.7,21.1,19.5,17.1,0.051,0.064,0.111,0.181,0,0.0,0.0,0.0,0.0,0.0,0.0,0.0,0.0,0.0,0.0,0.0,0.0,0.0,Tracheophyta
2012,2012-08-08,Vila Real,Vila Real,Torgueda,TORGUEDA,41.2742509,-7.8136277,NC,732.0,2012-08-08T09:00,23.8,38,8.7,22.8,0.0,0.0,0.0,0.0,0,1017.7,936.1,0,0,0,0,0.33,1.83,4.3,5.8,95,94,16.6,22.4,19.8,18.8,14.9,0.133,0.144,0.214,0.326,1,3600.0,580.0,491.0,89.0,813.6,580.0,802.9,502.0,425.0,77.0,813.6,502.0,695.0,Magnoliopsida; Vitis vinifera L.; Pinus pinaster Aiton; Tracheophyta; Pinales
2012,2012-08-08,Aveiro,Santa Maria da Feira,Canedo,Lousado,41.011463,-8.4536588,Desconhecida,192.0,2012-08-08T18:00,24.1,50,12.9,23.2,0.0,0.0,0.0,0.0,0,1016.9,994.8,0,0,0,0,0.26,1.51,12.0,15.3,319,321,29.2,29.4,23.9,20.6,17.5,0.111,0.121,0.184,0.311,1,3600.0,264.3,209.7,54.5,690.5,264.3,404.2,344.0,273.0,71.0,690.5,344.0,526.1,Eucalyptus L'Hér.; Pinus pinaster Aiton; Tracheophyta; Magnoliopsida
2012,2012-08-08,Porto,Amarante,Telões,SANTANA,41.3096543,-8.1007731,Reacendimento,242.0,2012-08-08T14:00,29.8,41,15.3,31.8,0.0,0.0,0.0,0.0,0,1016.4,989.1,14,0,0,47,0.68,2.45,12.0,15.0,286,287,30.6,32.9,22.6,20.1,16.7,0.11,0.163,0.247,0.343,1,3600.0,877.5,764.7,112.7,890.9,877.5,1142.2,903.0,787.0,116.0,890.9,903.0,1175.4,Magnoliopsida; Pinus pinaster Aiton; Tracheophyta; Vitis vinifera L.; Eucalyptus L'Hér.; 
2012,2012-08-27,Santarém,Mação,Cardigos,Sarnadas,39.6727475,-7.9960533,NC,313.0,2012-08-27T23:00,18.3,72,13.2,18.4,0.0,0.0,0.0,0.0,0,1019.1,982.5,20,0,0,65,0.01,0.59,6.0,14.0,303,312,18.4,21.5,25.7,24.7,21.3,0.101,0.151,0.183,0.267,0,0.0,0.0,0.0,0.0,0.0,0.0,0.0,0.0,0.0,0.0,0.0,0.0,0.0,Magnoliopsida; Eucalyptus L'Hér.; Pinus pinaster Aiton
2012,2012-07-12,Porto,Santo Tirso,Santo Tirso,L.ARGEMIL,41.3498449,-8.500501148735367,NC,74.0,2012-07-12T17:00,19.9,59,11.8,18.1,0.0,0.0,0.0,0.0,0,1021.6,1012.8,14,0,0,45,0.35,0.95,18.2,24.1,321,322,35.6,24.4,20.3,18.4,15.8,0.152,0.215,0.288,0.349,1,3600.0,520.9,441.5,79.4,817.9,520.9,714.4,597.0,506.0,91.0,817.9,597.0,818.8,Tracheophyta; Magnoliopsida; Pinus pinaster Aiton; Eucalyptus L'Hér.; Vitis vinifera L.
2012,2012-07-12,Lisboa,ODIVELAS,Odivelas_Lumiar e Carnide,Senhor Roubado,38.7925427,-9.1720636,NC,34.0,2012-07-12T19:00,19.6,59,11.4,15.6,0.0,0.0,0.0,0.0,0,1020.7,1016.7,0,0,0,0,0.2,0.93,30.4,40.9,350,350,52.6,23.6,22.5,20.8,18.2,0.12,0.171,0.222,0.292,1,3600.0,143.6,104.4,39.2,587.6,143.6,235.2,220.0,160.0,60.0,587.6,220.0,360.4,Tracheophyta
2012,2012-07-12,Lisboa,Torres Vedras,Carvoeira,Aldeia Nossa Senhora da Glória,39.0862473,-9.167073173503926,Desconhecida,165.0,2012-07-12T19:00,18.2,60,10.2,14.2,0.0,0.0,0.0,0.0,0,1021.2,1001.7,0,0,0,0,0.19,0.85,27.6,37.4,353,353,50.0,24.7,23.1,21.1,17.8,0.083,0.16,0.215,0.285,1,3600.0,144.2,104.9,39.3,585.8,144.2,236.9,220.0,160.0,60.0,585.8,220.0,361.5,Vitis vinifera L.; Magnoliopsida; Eucalyptus L'Hér.; Tracheophyta; Pinus pinea L.; 
2012,2012-07-12,Porto,Santo Tirso,Lamelas,RUA DAS FONTES,41.2831955,-8.479998688262267,NC,211.0,2012-07-12T12:00,20.7,58,12.1,21.7,0.0,0.0,0.0,0.0,0,1022.4,997.7,0,0,0,0,0.55,1.03,12.3,15.4,320,323,31.7,23.7,18.6,17.8,15.2,0.181,0.21,0.279,0.354,1,3600.0,958.1,843.2,114.9,904.3,958.1,1234.1,934.0,822.0,112.0,904.3,934.0,1203.0,Pinus pinaster Aiton; Eucalyptus L'Hér.; Tracheophyta; Vitis vinifera L.; Magnoliopsida
2012,2012-07-13,Vila Real,Alijó,Vila Chã,Carvalho,41.3468235,-7.4839069,NC,721.0,2012-07-13T07:00,13.9,74,9.3,13.0,0.0,0.0,0.0,0.0,1,1019.5,936.3,22,24,0,0,0.07,0.42,5.1,7.6,266,267,18.4,16.2,19.3,17.5,13.4,0.126,0.148,0.217,0.301,1,3600.0,207.3,121.8,85.4,382.6,207.3,421.4,148.0,87.0,61.0,382.6,148.0,300.9,Magnoliopsida; Olea europaea L.; Pinus pinaster Aiton; Tracheophyta
2012,2012-08-08,Castelo Branco,Covilhã,Teixoso,Quinta da Presa,40.3134342,-7.4580288,Desconhecida,564.0,2012-08-08T17:00,33.0,19,6.7,30.5,0.0,0.0,0.0,0.0,0,1015.5,953.9,0,0,0,0,0.48,4.05,11.6,14.8,265,266,34.2,36.6,26.5,22.6,18.3,0.092,0.161,0.227,0.323,1,3600.0,450.8,379.5,71.3,803.7,450.8,628.3,531.0,447.0,84.0,803.7,531.0,740.1,Tracheophyta; Olea europaea L.; Vitis vinifera L.; Pinus pinaster Aiton; Magnoliopsida
2012,2012-08-08,Porto,Vila do Conde,Rio Mau,OUTEIRO FIGUEIRA,41.4023917,-8.6763291,NC,52.0,2012-08-08T13:00,25.8,57,16.6,28.3,0.0,0.0,0.0,0.0,1,1017.1,1011.1,21,0,0,71,0.61,1.43,12.4,14.0,280,282,25.6,30.3,21.9,20.5,17.7,0.106,0.157,0.241,0.33,1,3600.0,914.1,781.1,133.0,867.5,914.1,1198.0,914.0,781.0,133.0,867.5,914.0,1197.9,Pinus pinaster Aiton; Tracheophyta; Eucalyptus L'Hér.
2012,2012-08-28,Viseu,Vila Nova de Paiva,Touro,VALE DE CARVALHOS,40.8953121,-7.7478521,Desconhecida,790.0,2012-08-28T13:00,22.5,57,13.5,21.8,0.0,0.0,0.0,0.0,3,1019.3,931.1,100,99,1,99,0.32,1.17,12.5,16.1,252,250,30.6,24.1,20.1,20.1,16.9,0.135,0.14,0.179,0.296,1,1442.48,417.4,91.6,325.7,108.1,417.4,1137.1,419.0,92.0,327.0,108.1,419.0,1141.4,Magnoliopsida; Pinus pinaster Aiton; Tracheophyta; Eucalyptus L'Hér.; Quercus L.; 
2012,2012-08-28,Bragança,Miranda do Douro,Constantim,CONSTANTIM,41.5000816,-6.271331,Desconhecida,680.0,2012-08-28T06:00,15.0,79,11.3,14.6,0.0,0.0,0.0,0.0,1,1019.4,941.0,44,37,3,29,0.02,0.36,5.7,14.7,235,245,13.3,17.1,21.6,22.0,18.7,0.147,0.168,0.216,0.296,1,0.0,4.5,0.0,4.5,0.0,0.5,35.2,1.0,0.0,1.0,0.0,1.0,7.8,Magnoliopsida; Tracheophyta; Vitis vinifera L.; Olea europaea L.; Pinus pinaster Aiton; Castanea sativa Mill.; Pinales; Quercus L.; 
2012,2012-07-14,Setúbal,Palmela,Quinta do Anjo,JT BT DE COINA,38.5674568,-8.9418673,NC,95.0,2012-07-14T00:00,19.7,83,16.7,19.7,0.0,0.0,0.0,0.0,2,1018.3,1007.1,52,58,0,0,0.02,0.4,15.7,24.5,340,343,32.4,21.1,23.1,20.8,17.6,0.056,0.059,0.072,0.162,0,0.0,0.0,0.0,0.0,0.0,0.0,0.0,0.0,0.0,0.0,0.0,0.0,0.0,Vitis vinifera L.; Tracheophyta; Olea europaea L.; Quercus suber L.
2012,2012-07-14,Lisboa,Sobral Monte Agraço,Sobral de Monte Agraço,EN115-Km 57.5 Sobral M.Agraço,39.01346065,-9.159639792999531,Desconhecida,184.0,2012-07-14T11:00,21.1,50,10.3,18.9,0.0,0.0,0.0,0.0,0,1020.5,999.0,0,0,0,0,0.5,1.25,24.6,31.5,348,349,46.8,26.4,21.9,20.9,17.8,0.09,0.161,0.215,0.287,1,3600.0,870.4,711.7,158.6,805.8,870.4,1169.1,823.0,673.0,150.0,805.8,823.0,1105.5,Vitis vinifera L.; Tracheophyta
2012,2012-08-08,Porto,Póvoa de Varzim,Balazar,SÃO PEDRO,41.4033425,-8.6246641,Desconhecida,55.0,2012-08-08T18:00,23.8,57,14.8,23.5,0.0,0.0,0.0,0.0,0,1016.7,1010.3,2,0,0,5,0.25,1.26,13.0,16.8,312,317,27.7,28.1,23.4,20.6,17.7,0.11,0.158,0.241,0.336,1,3600.0,269.9,212.8,57.1,693.9,269.9,408.1,350.0,276.0,74.0,693.9,350.0,529.3,Pinus pinaster Aiton; Eucalyptus L'Hér.; Vitis vinifera L.
2012,2012-08-08,Braga,Vila Verde,Marrancos,R. DE CIMA M-3,41.6666136,-8.5179288,Reacendimento,209.0,2012-08-08T18:00,24.7,57,15.5,25.3,0.0,0.0,0.0,0.0,0,1017.1,993.1,4,2,0,8,0.23,1.34,8.1,10.3,315,324,19.8,28.5,22.9,19.5,16.5,0.109,0.17,0.262,0.356,1,3600.0,252.7,184.1,68.6,604.5,252.7,405.3,328.0,239.0,89.0,604.5,328.0,526.0,Eucalyptus L'Hér.; Magnoliopsida; Pinus pinaster Aiton
2012,2012-08-08,Aveiro,Santa Maria da Feira,Mosteiró,Cai Água,40.8968908,-8.529469,Reacendimento,151.0,2012-08-08T13:00,27.9,46,15.2,30.0,0.0,0.0,0.0,0.0,0,1016.9,999.6,9,0,0,29,0.66,2.02,11.5,13.6,290,292,27.0,32.1,22.8,21.0,17.9,0.112,0.146,0.222,0.331,1,3600.0,921.9,807.0,115.0,892.7,921.9,1202.7,922.0,807.0,115.0,892.7,922.0,1202.8,Magnoliopsida; Pinales; Eucalyptus L'Hér.; Tracheophyta; Pinus pinaster Aiton
2012,2012-08-08,Vila Real,Alijó,Vila Chã,Chã,41.326435,-7.489572,NC,780.0,2012-08-08T15:00,31.2,24,8.4,31.6,0.0,0.0,0.0,0.0,0,1015.5,931.1,8,0,0,27,0.63,3.45,6.2,7.7,234,233,24.8,33.7,22.8,19.6,15.4,0.137,0.139,0.196,0.307,1,3600.0,772.9,671.4,101.6,877.1,772.9,1018.5,822.0,714.0,108.0,877.1,822.0,1083.2,Magnoliopsida; Pinus pinaster Aiton; Tracheophyta
2012,2012-07-14,Faro,Castro Marim,Castro Marim,Vale das Zorras,37.1967942,-7.483834,NC,3.0,2012-07-14T14:00,32.0,13,-0.3,29.5,0.0,0.0,0.0,0.0,0,1015.2,1014.9,0,0,0,0,0.85,4.16,17.9,23.2,332,334,30.6,35.3,28.1,25.4,20.8,0.125,0.156,0.192,0.262,1,3600.0,960.9,847.2,113.7,927.4,960.9,1209.3,989.0,872.0,117.0,927.4,989.0,1244.6,Magnoliopsida; ; Tracheophyta; Ceratonia siliqua L.; Pinus pinea L.
2012,2012-07-14,Lisboa,Mafra,Enxara do Bispo,Serra do Socorro,39.0177036,-9.225539830104896,Desconhecida,378.0,2012-07-14T16:00,20.7,44,8.1,17.2,0.0,0.0,0.0,0.0,0,1019.4,975.8,0,0,0,0,0.49,1.36,27.4,36.7,341,342,55.4,28.1,21.9,19.6,16.6,0.09,0.162,0.217,0.29,1,3600.0,709.3,611.5,97.8,871.6,709.3,928.6,776.0,669.0,107.0,871.6,776.0,1016.0,Eucalyptus L'Hér.; Tracheophyta; Pinales; Magnoliopsida
2012,2012-07-14,Faro,Albufeira,Albufeira,Ourada,37.0844984,-8.2761185,Desconhecida,12.0,2012-07-14T15:00,28.7,25,6.5,25.8,0.0,0.0,0.0,0.0,0,1017.1,1015.7,0,0,0,0,0.75,2.98,25.6,33.4,334,336,55.1,34.4,25.9,23.6,20.0,0.087,0.152,0.192,0.262,1,3600.0,862.2,753.6,108.6,910.4,862.2,1095.7,913.0,798.0,115.0,910.4,913.0,1160.3,Magnoliopsida; Tracheophyta
2012,2012-08-29,Bragança,Freixo Espada à Cinta,Poiares,Penedo Durão - PNDI,41.0588308,-6.8627905,NC,556.0,2012-08-29T00:00,16.7,80,13.1,17.0,0.0,0.0,0.0,0.0,0,1019.5,955.2,7,0,11,2,0.0,0.39,4.7,10.2,261,278,13.3,19.1,22.6,22.1,18.8,0.147,0.157,0.188,0.276,0,0.0,0.0,0.0,0.0,0.0,0.0,0.0,0.0,0.0,0.0,0.0,0.0,0.0,Olea europaea L.; Magnoliopsida; Tracheophyta
2012,2012-08-29,Setúbal,Seixal,Amora,R. INFANTE DON AUGUSTO,38.6297097,-9.1160023,NC,18.0,2012-08-29T20:00,20.2,69,14.3,18.6,0.0,0.0,0.0,0.0,0,1021.6,1019.5,0,0,0,1,0.09,0.74,20.4,31.1,343,344,39.2,23.5,24.8,23.3,20.9,0.056,0.063,0.09,0.177,0,0.0,0.0,0.0,0.0,0.0,0.0,0.0,0.0,0.0,0.0,0.0,0.0,3.7,Tracheophyta; Pinus pinea L.; Magnoliopsida
2012,2012-07-14,Setúbal,Moita,Moita,"AV MARGINAL, FRENTE LAR ABRIGO TEJO",38.6402642,-8.972055868357723,NC,22.0,2012-07-14T10:00,21.2,50,10.4,18.9,0.0,0.0,0.0,0.0,0,1019.9,1017.3,6,7,0,0,0.44,1.26,21.6,28.9,349,350,46.4,24.5,22.3,21.1,18.2,0.053,0.065,0.088,0.168,1,3600.0,779.3,654.5,124.8,836.2,779.3,1036.1,712.0,598.0,114.0,836.2,712.0,946.6,Eucalyptus L'Hér.; Tracheophyta
2012,2012-08-29,Viseu,Vila Nova de Paiva,Vila Cova à Coelheira,VILA COVA A COELHEIRA,40.9401466,-7.7762141,Desconhecida,825.0,2012-08-29T13:00,20.5,42,7.1,19.6,0.0,0.0,0.0,0.0,1,1020.2,927.6,28,0,0,93,0.5,1.41,10.1,12.2,297,298,30.2,24.7,18.7,19.3,16.6,0.123,0.147,0.203,0.31,1,3600.0,768.9,531.9,237.1,630.2,768.9,1132.2,772.0,534.0,238.0,630.2,772.0,1136.7,Tracheophyta; Magnoliopsida
2012,2012-08-29,Lisboa,Azambuja,Alcoentre,Tagarro,39.2298864,-8.9848935,Desconhecida,101.0,2012-08-29T17:00,22.8,48,11.2,19.7,0.0,0.0,0.0,0.0,0,1021.3,1009.5,6,0,0,21,0.36,1.45,24.1,32.0,338,339,46.4,30.8,25.6,24.5,21.6,0.085,0.148,0.18,0.261,1,3600.0,381.2,314.4,66.8,763.4,381.2,552.5,462.0,381.0,81.0,763.4,462.0,669.6,Eucalyptus L'Hér.; Magnoliopsida; Pinus pinea L.; Quercus suber L.
2012,2012-08-29,Setúbal,Barreiro,Santo André,AV PARQUE JUNTO PARQUE DA CIDADE,38.6437637,-9.0550176,NC,42.0,2012-08-29T21:00,19.5,72,14.4,18.2,0.0,0.0,0.0,0.0,0,1022.2,1017.2,4,0,0,14,0.06,0.63,18.9,29.5,347,347,36.7,22.1,24.5,23.2,20.8,0.056,0.063,0.09,0.177,0,0.0,0.0,0.0,0.0,0.0,0.0,0.0,0.0,0.0,0.0,0.0,0.0,0.0,Pinus pinea L.; Pinus pinaster Aiton; Magnoliopsida; Quercus suber L.; Tracheophyta; Oryza sativa L.; Eucalyptus L'Hér.; Vitis vinifera L.; 
2012,2012-07-14,Portalegre,Portalegre,Sé,ZONA INDUSTRIAL,39.2855635,-7.4266264,NC,452.0,2012-07-14T17:00,27.7,21,3.7,23.9,0.0,0.0,0.0,0.0,0,1015.8,965.2,0,0,0,0,0.52,2.92,17.1,23.2,312,314,38.9,33.7,26.4,22.8,17.8,0.101,0.146,0.178,0.247,1,3600.0,509.9,429.5,80.4,819.2,509.9,694.0,590.0,497.0,93.0,819.2,590.0,803.1,Quercus suber L.; Tracheophyta; Olea europaea L.
2012,2012-07-15,Aveiro,Oliveira de Azemeis,Pinheiro da Bemposta,Figueiredo de Cima,40.7966534,-8.4896634,Desconhecida,171.0,2012-07-15T18:00,23.4,51,12.7,21.1,0.0,0.0,0.0,0.0,0,1021.0,1001.1,0,0,0,0,0.32,1.41,21.0,29.5,338,340,45.0,26.3,21.2,18.7,16.2,0.112,0.172,0.253,0.324,1,3600.0,321.0,257.6,63.4,712.8,321.0,478.4,400.0,321.0,79.0,712.8,400.0,596.1,Eucalyptus L'Hér.; Tracheophyta; Magnoliopsida; Pinus pinaster Aiton
2012,2012-07-15,Leiria,Pombal,Carnide,Vale das Moitas,39.8866915,-8.7275794,Desconhecida,79.0,2012-07-15T16:00,25.4,41,11.1,22.8,0.0,0.0,0.0,0.0,0,1020.7,1011.5,0,0,0,0,0.56,1.92,26.7,34.9,339,341,50.8,32.3,22.0,19.8,17.2,0.05,0.061,0.106,0.173,1,3600.0,691.7,597.6,94.1,858.8,691.7,921.1,757.0,654.0,103.0,858.8,757.0,1008.1,Magnoliopsida; Eucalyptus L'Hér.; Pinus pinaster Aiton; Tracheophyta
2012,2012-07-15,Braga,Vila Verde,Gomide,SENRA,41.7160606,-8.3786604,Desconhecida,366.0,2012-07-15T13:00,21.5,49,10.3,22.2,0.0,0.0,0.0,0.0,0,1023.0,980.7,0,0,0,0,0.59,1.31,11.7,15.1,9,12,33.5,22.8,16.7,16.3,14.2,0.229,0.256,0.315,0.376,1,3600.0,964.7,849.8,115.0,908.9,964.7,1237.7,965.0,850.0,115.0,908.9,965.0,1238.1,Magnoliopsida; Tracheophyta; Eucalyptus L'Hér.; Pinus pinaster Aiton
2012,2012-07-15,Leiria,Caldas da Rainha,Vidais,QUINTA DO CASEVEL,39.3683851,-9.0493435,Desconhecida,94.0,2012-07-15T22:00,18.2,76,13.8,16.4,0.0,0.0,0.0,0.0,0,1020.9,1009.7,0,0,0,0,0.05,0.51,20.6,35.7,354,358,40.0,20.5,22.9,20.8,18.0,0.095,0.16,0.213,0.285,0,0.0,0.0,0.0,0.0,0.0,0.0,0.0,0.0,0.0,0.0,0.0,0.0,0.0,Tracheophyta; Eucalyptus L'Hér.; Magnoliopsida; Olea europaea L.
2012,2012-07-15,Porto,Paços de Ferreira,Ferreira,Rua 25 de Julho,41.2663712,-8.3445627,NC,331.0,2012-07-15T15:00,24.6,39,9.5,25.1,0.0,0.0,0.0,0.0,0,1021.3,983.4,0,0,0,0,0.59,1.9,8.7,11.2,353,356,26.6,26.7,18.7,17.0,14.5,0.148,0.215,0.292,0.363,1,3600.0,831.1,728.9,102.2,896.6,831.1,1076.2,878.0,770.0,108.0,896.6,878.0,1136.9,Eucalyptus L'Hér.; Tracheophyta; Magnoliopsida; Quercus L.; Pinus pinaster Aiton; 
2012,2012-08-22,Faro,Faro,São Pedro,Ponte de Marchil,37.0162727,-7.9351771,NC,5.0,2012-08-22T15:00,33.3,29,13.0,32.6,0.0,0.0,0.0,0.0,0,1015.2,1014.6,0,0,0,0,0.73,3.61,20.2,25.7,310,312,43.2,37.6,30.2,26.4,22.8,0.103,0.138,0.175,0.258,1,3600.0,761.0,662.0,99.0,882.6,761.0,1003.3,815.0,709.0,106.0,882.6,815.0,1074.5,Tracheophyta
2012,2012-07-15,Porto,Vila do Conde,Rio Mau,LUGAR DO OUTEIRO,41.399467,-8.685463,Reacendimento,45.0,2012-07-15T10:00,19.7,58,11.3,18.3,0.0,0.0,0.0,0.0,0,1023.7,1018.3,0,0,0,0,0.4,0.95,17.6,21.7,1,5,33.1,21.2,18.6,18.5,16.2,0.143,0.205,0.282,0.343,1,3600.0,768.1,664.5,103.7,857.0,768.1,1026.4,704.0,609.0,95.0,857.0,704.0,940.7,Tracheophyta; Eucalyptus L'Hér.; Pinus pinaster Aiton; Magnoliopsida
2012,2012-07-12,Castelo Branco,Sertã,Cernache do Bonjardim,Alcobia,39.8020292,-8.1911844,Desconhecida,344.0,2012-07-12T17:00,24.5,34,7.6,20.9,0.0,0.0,0.0,0.0,0,1019.5,980.2,0,0,0,0,0.47,2.03,21.8,28.5,321,323,46.1,31.1,23.2,20.3,16.7,0.099,0.16,0.224,0.28,1,3600.0,518.5,438.6,79.9,820.2,518.5,707.7,597.0,505.0,92.0,820.2,597.0,814.9,Tracheophyta; Pinus pinaster Aiton; Olea europaea L.; Magnoliopsida
2012,2012-07-13,Viana do Castelo,Ponte de Lima,Refóios do Lima,GENSO,41.7933146,-8.542976,Desconhecida,68.0,2012-07-13T01:00,13.2,92,11.9,12.9,0.0,0.0,0.0,0.0,0,1021.4,1013.2,6,7,0,0,0.0,0.12,5.9,12.2,346,341,13.3,15.5,19.1,18.1,15.6,0.193,0.253,0.314,0.374,0,0.0,0.0,0.0,0.0,0.0,0.0,0.0,0.0,0.0,0.0,0.0,0.0,0.0,Magnoliopsida; Eucalyptus L'Hér.; Tracheophyta; Vitis vinifera L.
2012,2012-07-13,Setúbal,Seixal,Amora,PINHAL CONDE DA CUNHA,38.6059049,-9.1366475,Desconhecida,38.0,2012-07-13T15:00,24.9,57,15.7,24.2,0.0,0.0,0.0,0.0,0,1018.0,1013.6,0,0,0,0,0.54,1.37,27.0,35.6,329,332,46.1,31.7,22.6,21.1,18.4,0.053,0.074,0.11,0.186,1,3600.0,786.9,638.2,148.7,769.0,786.9,1098.5,831.0,674.0,157.0,769.0,831.0,1160.1,Tracheophyta; Pinus pinaster Aiton; Magnoliopsida
2012,2012-07-14,Porto,Gondomar,São Pedro da Cova,RUA ANTONIO FERREIRA DA SILVA,41.1473685,-8.5074154,NC,78.0,2012-07-14T15:00,21.7,53,11.8,20.6,0.0,0.0,0.0,0.0,2,1020.4,1011.2,55,61,0,0,0.49,1.21,20.0,25.8,322,324,37.8,26.0,20.3,18.9,16.4,0.159,0.191,0.268,0.349,1,3600.0,762.2,594.6,167.6,729.4,762.2,1079.0,805.0,628.0,177.0,729.4,805.0,1139.6,Magnoliopsida; Eucalyptus L'Hér.; Tracheophyta; Vitis vinifera L.; Pinus pinaster Aiton
2012,2012-07-15,Porto,Maia,Águas Santas,RUA MONTE DA BELA,41.2094035,-8.5682143,NC,136.0,2012-07-15T00:00,14.5,93,13.3,13.8,0.0,0.0,0.0,0.0,0,1022.1,1005.7,0,0,0,0,0.0,0.12,12.0,19.2,353,352,22.3,16.7,19.5,18.3,15.9,0.166,0.205,0.277,0.344,0,0.0,0.0,0.0,0.0,0.0,0.0,0.0,0.0,0.0,0.0,0.0,0.0,0.0,Tracheophyta; Pinus pinaster Aiton; Magnoliopsida; Eucalyptus L'Hér.; 
2012,2012-07-15,Aveiro,Águeda,Valongo do Vouga,Sobreiro,40.6276005,-8.4437336,Desconhecida,20.0,2012-07-15T19:00,23.2,56,13.9,20.5,0.0,0.0,0.0,0.0,0,1021.2,1018.8,0,0,0,0,0.23,1.26,27.7,39.8,344,347,47.5,26.3,22.2,19.5,17.1,0.066,0.101,0.174,0.246,1,3600.0,138.3,100.3,38.0,570.4,138.3,232.8,211.0,153.0,58.0,570.4,211.0,355.1,Tracheophyta; Eucalyptus L'Hér.; Magnoliopsida; Pinus pinaster Aiton
2012,2012-07-15,Leiria,Caldas da Rainha,Nossa Senhora do Pópulo,São Cristóvão,39.3896231,-9.1313219,Desconhecida,61.0,2012-07-15T18:00,20.6,60,12.6,16.9,0.0,0.0,0.0,0.0,0,1020.7,1013.5,0,0,0,0,0.28,0.97,31.0,42.2,356,358,55.1,25.4,22.1,20.3,17.8,0.094,0.145,0.193,0.262,1,3600.0,329.0,265.0,64.0,729.1,329.0,481.1,411.0,331.0,80.0,729.1,411.0,601.0,Magnoliopsida; Vitis vinifera L.; Tracheophyta; Eucalyptus L'Hér.
2012,2012-07-14,Porto,Amarante,Vila Caiz,RUA DA BUFANEIRA,41.229918,-8.1252874,NC,157.0,2012-07-14T14:00,22.0,49,10.8,21.1,0.0,0.0,0.0,0.0,2,1020.7,1002.3,70,78,0,0,0.53,1.35,17.6,22.4,314,316,38.2,25.0,19.3,18.1,15.4,0.174,0.219,0.29,0.358,1,3600.0,806.4,579.5,226.9,645.1,806.4,1189.1,828.0,595.0,233.0,645.1,828.0,1220.9,Magnoliopsida; Pinus pinaster Aiton; Tracheophyta; Vitis vinifera L.; Eucalyptus L'Hér.; 
2012,2012-07-15,Porto,Lousada,Lustosa,Salgueirinhos,41.3321025,-8.3085374,NC,411.0,2012-07-15T18:00,23.9,40,9.6,21.8,0.0,0.0,0.0,0.0,0,1021.2,974.3,0,0,0,0,0.31,1.77,13.5,19.5,331,335,33.5,24.3,19.1,16.6,14.0,0.156,0.216,0.291,0.363,1,3600.0,320.7,258.2,62.5,721.8,320.7,473.5,400.0,322.0,78.0,721.8,400.0,590.5,Vitis vinifera L.; Eucalyptus L'Hér.; Tracheophyta; Magnoliopsida
2012,2012-07-15,Lisboa,Oeiras,Algés,Miraflores,38.7109291,-9.2282527,NC,49.0,2012-07-15T20:00,20.1,62,12.5,16.6,0.0,0.0,0.0,0.0,0,1019.8,1014.0,0,0,0,0,0.13,0.9,29.6,45.0,356,358,47.9,23.3,22.8,20.6,18.1,0.137,0.167,0.217,0.299,1,1924.48,0.0,0.0,0.0,0.0,0.0,0.0,48.0,28.0,20.0,228.1,48.0,105.3,Tracheophyta; Pinus pinaster Aiton; Pinales; Magnoliopsida; Pinus pinea L.; Vitis vinifera L.; Eucalyptus L'Hér.; Olea europaea L.
2012,2012-07-15,Porto,Gondomar,São Pedro da Cova,R. JOSÉ MARTINS CASTRO,41.1835747,-8.5280212,NC,153.0,2012-07-15T18:00,23.2,52,12.9,21.4,0.0,0.0,0.0,0.0,0,1021.3,1003.5,0,0,0,0,0.3,1.35,18.7,26.8,335,338,35.3,25.5,20.7,18.3,15.8,0.139,0.193,0.272,0.344,1,3600.0,322.2,258.7,63.5,715.4,322.2,478.7,401.0,322.0,79.0,715.4,401.0,595.8,Tracheophyta; Pinus pinaster Aiton; Eucalyptus L'Hér.
2012,2012-07-15,Vila Real,Sabrosa,São Lourenço de Ribapinhão,Delgada,41.3029047,-7.5949214,Desconhecida,716.0,2012-07-15T10:00,18.4,40,4.6,16.9,0.0,0.0,0.0,0.0,0,1023.2,941.5,0,0,0,0,0.43,1.27,8.7,11.2,48,50,25.9,21.9,18.5,17.6,13.6,0.125,0.146,0.214,0.301,1,3600.0,786.0,682.6,103.4,872.1,786.0,1036.1,722.0,627.0,95.0,872.1,722.0,951.8,Tracheophyta; Magnoliopsida
2012,2012-07-14,Santarém,Entroncamento,Entroncamento,ENTRONCAMENTO,39.4616236,-8.473766951035785,NC,34.0,2012-07-14T00:00,18.5,87,16.3,18.3,0.0,0.0,0.0,0.0,1,1017.7,1013.7,33,37,0,0,0.02,0.28,16.9,26.3,326,330,34.9,20.8,23.1,21.1,18.1,0.079,0.127,0.184,0.249,0,0.0,0.0,0.0,0.0,0.0,0.0,0.0,0.0,0.0,0.0,0.0,0.0,0.0,Tracheophyta; Magnoliopsida; Olea europaea L.
2012,2012-07-14,Lisboa,Lourinhã,Moledo,SÃO BARTOLOMEU DOS GALEGOS,39.29090375,-9.279586845819848,NC,69.0,2012-07-14T20:00,17.6,75,13.2,14.5,0.0,0.0,0.0,0.0,0,1020.7,1012.5,0,0,0,0,0.08,0.49,28.4,40.4,351,352,50.0,21.9,23.1,20.8,18.2,0.045,0.09,0.142,0.205,1,2057.17,0.0,0.0,0.0,0.0,0.0,0.0,51.0,29.0,22.0,230.7,51.0,114.2,Magnoliopsida; Eucalyptus L'Hér.; Tracheophyta; Vitis vinifera L.; Pinales; 
2012,2012-07-15,Braga,Póvoa de Lanhoso,Taíde,L. QUINTELA(M2),41.5578325,-8.2297605,Desconhecida,171.0,2012-07-15T15:00,25.6,40,11.1,25.6,0.0,0.0,0.0,0.0,0,1021.8,1002.0,0,0,0,0,0.61,1.96,14.0,18.1,348,353,36.4,26.8,19.2,17.8,15.4,0.173,0.228,0.3,0.368,1,3600.0,826.4,723.2,103.2,891.4,826.4,1074.0,873.0,764.0,109.0,891.4,873.0,1134.6,Vitis vinifera L.; Tracheophyta; Pinales; Eucalyptus L'Hér.; Magnoliopsida
2012,2012-07-14,Lisboa,Sobral Monte Agraço,São Quintino,Rua Figueira do Guincho - PNSC,39.005968800000005,-9.144093214982062,Desconhecida,280.0,2012-07-14T21:00,16.5,74,12.0,13.6,0.0,0.0,0.0,0.0,0,1020.6,987.6,0,0,0,0,0.06,0.48,24.4,38.6,346,348,46.1,20.1,22.5,20.2,17.2,0.09,0.162,0.217,0.29,0,0.0,0.0,0.0,0.0,0.0,0.0,0.0,0.0,0.0,0.0,0.0,0.0,0.0,Tracheophyta; Eucalyptus L'Hér.; Magnoliopsida
2012,2012-07-14,Bragança,Torre de Moncorvo,Larinho,Larinho,41.19115265,-7.0126301,NC,532.0,2012-07-14T12:00,21.8,33,4.6,21.0,0.0,0.0,0.0,0.0,0,1018.6,958.1,0,0,0,0,0.62,1.77,12.5,16.3,319,319,36.7,26.0,20.7,19.2,14.7,0.138,0.174,0.228,0.296,1,3600.0,978.0,857.3,120.7,917.1,978.0,1237.3,956.0,838.0,118.0,917.1,956.0,1209.5,Magnoliopsida; Pinales; Vitis vinifera L.; Tracheophyta
2012,2012-07-15,Viseu,Armamar,Goujoim,Ribeira de Goujoim,41.0942887,-7.6136944,Desconhecida,565.0,2012-07-15T14:00,25.2,25,3.5,24.6,0.0,0.0,0.0,0.0,0,1021.5,957.9,0,0,0,0,0.67,2.42,10.0,12.6,21,24,28.1,31.0,20.8,18.4,14.4,0.138,0.155,0.205,0.297,1,3600.0,932.8,825.8,107.0,922.4,932.8,1185.2,959.0,849.0,110.0,922.4,959.0,1218.5,Olea europaea L.; Tracheophyta; Magnoliopsida; Pinus pinaster Aiton
2012,2012-07-15,Aveiro,Aveiro,Nossa Senhora de Fátima,Rua Pero Jorge - Mamodeiro,40.5713841,-8.574449,Desconhecida,42.0,2012-07-15T15:00,26.1,37,10.3,25.6,0.0,0.0,0.0,0.0,0,1020.6,1015.7,0,0,0,0,0.63,2.13,16.3,20.4,342,346,38.5,32.8,21.7,19.8,17.4,0.049,0.092,0.158,0.225,1,3600.0,830.1,727.9,102.2,891.2,830.1,1081.1,877.0,769.0,108.0,891.2,877.0,1142.2,Tracheophyta; Magnoliopsida; Pinus pinaster Aiton; Eucalyptus L'Hér.
2012,2012-07-15,Leiria,Pombal,Pombal,MELGA,39.8881729,-8.6263454,Desconhecida,75.0,2012-07-15T16:00,25.1,42,11.1,22.4,0.0,0.0,0.0,0.0,0,1020.7,1012.0,0,0,0,0,0.55,1.86,26.7,34.9,339,341,50.8,31.8,21.8,19.6,17.1,0.051,0.062,0.112,0.179,1,3600.0,691.5,597.4,94.1,860.0,691.5,919.6,757.0,654.0,103.0,860.0,757.0,1006.7,Magnoliopsida; Olea europaea L.; Eucalyptus L'Hér.; Tracheophyta; Pinus pinaster Aiton; Vitis vinifera L.
2012,2012-07-16,Leiria,Pombal,Abiul,Casais Novos,39.8726178,-8.5386326,Reacendimento,182.0,2012-07-16T03:00,16.0,81,12.7,15.6,0.0,0.0,0.0,0.0,0,1020.5,998.8,0,0,0,0,0.01,0.36,9.0,22.3,358,10,18.7,18.0,22.2,20.2,17.0,0.101,0.144,0.206,0.269,0,0.0,0.0,0.0,0.0,0.0,0.0,0.0,0.0,0.0,0.0,0.0,0.0,0.0,Olea europaea L.; Pinus pinaster Aiton; Magnoliopsida; Tracheophyta
2012,2012-07-13,Porto,Maia,Nogueira,TRAVESSA SIDÓNIO PAIS,41.233971,-8.5839519,NC,82.0,2012-07-13T08:00,17.3,82,14.3,18.2,0.0,0.0,0.0,0.0,2,1019.7,1009.9,75,83,0,0,0.11,0.35,3.8,4.6,229,231,10.4,18.3,18.7,18.7,16.2,0.167,0.209,0.279,0.344,1,3600.0,232.5,110.2,122.4,228.5,232.5,638.1,190.0,90.0,100.0,228.5,190.0,521.3,Magnoliopsida; Eucalyptus L'Hér.; Tracheophyta; Pinus pinaster Aiton; 
2012,2012-07-13,Lisboa,Alenquer,Abrigada,Mares,39.1552585,-8.9949996,Desconhecida,98.0,2012-07-13T18:00,23.1,64,15.8,21.6,0.0,0.0,0.0,0.0,1,1017.7,1006.3,50,55,0,0,0.28,1.02,23.6,31.5,326,327,47.5,30.0,24.3,21.9,18.6,0.082,0.156,0.204,0.272,1,3600.0,305.0,226.5,78.5,621.9,305.0,482.1,381.0,283.0,98.0,621.9,381.0,602.3,Eucalyptus L'Hér.
2012,2012-07-14,Vila Real,Murça,Fiolhoso,LUGAR DO LADRILHO,41.4066807,-7.5034036,NC,728.0,2012-07-14T21:00,16.0,57,7.6,14.1,0.0,0.0,0.0,0.0,0,1021.5,938.0,10,11,0,0,0.04,0.77,8.9,17.5,339,341,29.2,19.8,20.6,17.5,13.5,0.126,0.146,0.215,0.301,0,0.0,0.0,0.0,0.0,0.0,0.0,0.0,0.0,0.0,0.0,0.0,0.0,0.0,Magnoliopsida; Vitis vinifera L.; Tracheophyta; Pinus pinaster Aiton; Quercus L.; Olea europaea L.; Castanea sativa Mill.; 
2012,2012-07-15,Coimbra,Arganil,Sarzedo,Barreiros,40.242514,-8.0679511,Desconhecida,169.0,2012-07-15T02:00,13.1,95,12.3,13.1,0.0,0.0,0.0,0.0,0,1021.0,1000.7,0,0,0,0,0.0,0.08,5.1,10.4,309,340,12.6,15.6,21.3,19.6,16.2,0.103,0.153,0.232,0.286,0,0.0,0.0,0.0,0.0,0.0,0.0,0.0,0.0,0.0,0.0,0.0,0.0,0.0,Eucalyptus L'Hér.; Pinus pinaster Aiton; Magnoliopsida; Tracheophyta; Olea europaea L.; 
2012,2012-07-16,Porto,Vila do Conde,Malta,MUROS BRANCOS,41.309392,-8.6574784,NC,92.0,2012-07-16T01:00,16.7,78,12.9,15.5,0.0,0.0,0.0,0.0,0,1022.5,1011.5,0,0,0,0,0.03,0.41,14.4,25.5,4,19,24.5,17.7,20.2,18.4,16.0,0.126,0.205,0.284,0.343,0,0.0,0.0,0.0,0.0,0.0,0.0,0.0,0.0,0.0,0.0,0.0,0.0,0.0,Magnoliopsida; Eucalyptus L'Hér.; Tracheophyta
2012,2012-07-16,Porto,Santo Tirso,Santo Tirso,Sª. BARTOLOMEU,41.35107,-8.4734104,NC,35.0,2012-07-16T14:00,30.9,34,13.3,32.9,0.0,0.0,0.0,0.0,0,1022.9,1018.9,0,0,0,0,0.73,2.93,9.5,12.0,37,44,20.5,30.3,21.1,18.7,16.3,0.14,0.204,0.281,0.348,1,3600.0,924.7,818.5,106.2,912.5,924.7,1187.5,949.0,840.0,109.0,912.5,949.0,1218.7,Tracheophyta; Vitis vinifera L.; Magnoliopsida
2012,2012-07-15,Porto,Valongo,Sobrado,LG. 5 CAMINHOS,41.2115102,-8.4652622,NC,127.0,2012-07-15T17:00,24.2,48,12.6,22.4,0.0,0.0,0.0,0.0,0,1021.3,1006.5,0,0,0,0,0.42,1.57,18.9,25.4,336,339,35.3,26.7,20.7,18.5,16.0,0.14,0.193,0.272,0.344,1,3600.0,511.4,431.3,80.2,804.1,511.4,710.0,587.0,495.0,92.0,804.1,587.0,814.9,Tracheophyta; Eucalyptus L'Hér.; Magnoliopsida; Pinus pinaster Aiton
2012,2012-07-16,Aveiro,Águeda,Águeda,Giesteira,40.5783153,-8.4150609,Desconhecida,87.0,2012-07-16T00:00,18.1,76,13.8,18.0,0.0,0.0,0.0,0.0,0,1021.7,1011.3,0,0,0,0,0.02,0.49,9.3,20.4,13,8,17.6,19.8,22.1,19.5,16.7,0.109,0.173,0.257,0.325,0,0.0,0.0,0.0,0.0,0.0,0.0,0.0,0.0,0.0,0.0,0.0,0.0,0.0,Tracheophyta; Magnoliopsida; Eucalyptus L'Hér.; Pinus pinaster Aiton
2012,2012-07-16,Faro,Monchique,Marmelete,Malhão/Sapato,37.3106968,-8.6680098,NC,373.0,2012-07-16T12:00,31.1,35,13.6,34.4,0.0,0.0,0.0,0.0,0,1020.2,978.5,0,0,0,0,0.7,2.95,3.1,4.4,45,55,18.7,35.2,24.2,21.5,17.8,0.116,0.15,0.165,0.212,1,3600.0,973.9,855.8,118.1,901.2,973.9,1257.1,948.0,833.0,115.0,901.2,948.0,1223.7,Quercus suber L.; Tracheophyta; Magnoliopsida; Eucalyptus L'Hér.
2012,2012-07-13,Castelo Branco,Fundão,Capinha,Quinta de S. Antonio - Capinha,40.2008959,-7.3756137,Desconhecida,482.0,2012-07-13T15:00,27.6,40,12.9,27.4,0.0,0.0,0.0,0.0,0,1015.3,961.5,2,2,0,0,0.64,2.21,18.3,24.5,302,303,46.8,34.0,24.0,20.6,16.0,0.096,0.174,0.252,0.324,1,3600.0,805.3,695.8,109.5,857.7,805.3,1073.7,853.0,737.0,116.0,857.7,853.0,1137.4,Quercus suber L.; Magnoliopsida; Eucalyptus L'Hér.; Pinus pinaster Aiton; Tracheophyta; Olea europaea L.; Quercus L.; Vitis vinifera L.; Pinales; 
2012,2012-07-15,Leiria,Ansião,Santiago da Guarda,Lagoa Parada,39.9472868,-8.48073,Desconhecida,256.0,2012-07-15T13:00,26.5,31,7.8,25.8,0.0,0.0,0.0,0.0,0,1020.8,991.5,0,0,0,0,0.71,2.4,16.1,20.3,350,353,39.2,30.1,21.0,19.6,16.5,0.102,0.145,0.207,0.27,1,3600.0,977.9,863.9,114.0,914.0,977.9,1251.2,978.0,864.0,114.0,914.0,978.0,1251.4,Pinus pinaster Aiton; Magnoliopsida; Tracheophyta; Quercus L.; Olea europaea L.; Eucalyptus L'Hér.
2012,2012-07-16,Coimbra,Arganil,Sarzedo,SARZEDO,40.2420676,-8.084114,Desconhecida,161.0,2012-07-16T01:00,17.0,75,12.6,16.6,0.0,0.0,0.0,0.0,0,1021.2,1002.1,0,0,0,0,0.01,0.48,8.3,14.0,56,29,13.3,18.5,22.4,19.7,16.3,0.101,0.152,0.23,0.285,0,0.0,0.0,0.0,0.0,0.0,0.0,0.0,0.0,0.0,0.0,0.0,0.0,0.0,Eucalyptus L'Hér.; Pinus pinaster Aiton; Magnoliopsida; Tracheophyta; Olea europaea L.; 
2012,2012-07-16,Santarém,Torres Novas,Santiago,Gateiras de Santo António,39.4989978,-8.507991985469888,Desconhecida,83.0,2012-07-16T18:00,36.5,17,7.4,33.6,0.0,0.0,0.0,0.0,0,1019.3,1010.0,0,0,0,0,0.47,5.07,15.2,20.2,356,359,30.2,37.9,26.0,20.9,17.9,0.078,0.126,0.181,0.248,1,3600.0,319.3,256.4,62.9,722.6,319.3,469.7,401.0,322.0,79.0,722.6,401.0,590.0,Olea europaea L.; Magnoliopsida; Quercus L.; Tracheophyta; Pinales
2012,2012-07-16,Lisboa,Mafra,Venda do Pinheiro,Lapa,38.9314037,-9.2345627,Desconhecida,231.0,2012-07-16T17:00,30.2,31,11.1,28.1,0.0,0.0,0.0,0.0,0,1019.6,993.5,0,0,0,0,0.54,2.98,18.7,24.7,344,347,40.0,35.5,24.9,20.7,17.7,0.089,0.161,0.216,0.289,1,3600.0,520.8,440.0,80.9,811.0,520.8,718.2,599.0,506.0,93.0,811.0,599.0,826.1,Tracheophyta; Eucalyptus L'Hér.; Pinus pinaster Aiton; Pinales; Magnoliopsida
2012,2012-07-16,Aveiro,Espinho,Guetim,Picadela,41.0177316,-8.604145,Desconhecida,96.0,2012-07-16T19:00,27.3,56,17.8,28.1,0.0,0.0,0.0,0.0,0,1022.0,1010.9,0,0,0,0,0.2,1.6,13.6,23.7,343,350,25.9,28.9,23.3,19.1,16.6,0.106,0.157,0.235,0.321,1,3600.0,139.7,102.1,37.6,575.2,139.7,235.1,212.0,155.0,57.0,575.2,212.0,356.8,Eucalyptus L'Hér.; Tracheophyta; Magnoliopsida
2012,2012-07-15,Lisboa,ODIVELAS,Odivelas_Lumiar e Carnide,Colinas do Cruzeiro,38.78470185,-9.193291616838952,NC,65.0,2012-07-15T18:00,22.9,48,11.2,18.8,0.0,0.0,0.0,0.0,0,1019.6,1012.0,0,0,0,0,0.35,1.46,30.3,41.8,350,353,51.5,26.3,22.8,20.6,18.1,0.119,0.169,0.22,0.291,1,3600.0,330.0,266.9,63.1,734.9,330.0,480.7,413.0,334.0,79.0,734.9,413.0,601.6,Tracheophyta; Olea europaea L.; Magnoliopsida; Pinales
2012,2012-07-15,Lisboa,Torres Vedras,Santa Maria e São Miguel,Torres Vedras,39.0885917,-9.25274142461584,Desconhecida,58.0,2012-07-15T14:00,22.3,50,11.3,20.6,0.0,0.0,0.0,0.0,0,1021.0,1014.2,0,0,0,0,0.58,1.35,27.1,34.9,355,358,51.1,29.7,22.2,21.0,18.2,0.09,0.166,0.225,0.296,1,3600.0,950.8,840.6,110.2,921.5,950.8,1207.6,975.0,862.0,113.0,921.5,975.0,1238.3,Tracheophyta; Magnoliopsida
2012,2012-07-15,Porto,Marco de Canaveses,Alpendurada e Matos,FREGUESIA DE VÁRZEA DO DOURORUA DE MOIRENTA,41.0866803,-8.2483748,Desconhecida,142.0,2012-07-15T13:00,24.4,40,9.9,24.8,0.0,0.0,0.0,0.0,0,1022.2,1005.7,0,0,0,0,0.65,1.84,13.0,16.2,357,1,27.4,26.7,19.2,18.3,15.7,0.153,0.213,0.289,0.36,1,3600.0,970.8,860.8,110.0,917.0,970.8,1242.7,971.0,861.0,110.0,917.0,971.0,1243.0,Tracheophyta; Vitis vinifera L.; Pinus pinaster Aiton; Magnoliopsida; Castanea sativa Mill.; Eucalyptus L'Hér.
2012,2012-03-15,Coimbra,Oliveira do Hospital,Nogueira do Cravo,Senhor das Almas,40.3332221,-7.8676353,NC,570.0,2012-03-15T12:00,16.4,43,3.8,13.2,0.0,0.0,0.0,0.0,3,1025.5,959.2,89,0,98,100,0.25,1.06,11.8,15.6,140,140,33.1,14.8,11.2,9.9,8.8,0.178,0.243,0.297,0.311,1,1483.36,366.0,79.8,286.1,109.4,366.0,1009.1,353.0,77.0,276.0,109.4,353.0,973.4,Olea europaea L.; Tracheophyta; Acacia Mill.; Pinus pinaster Aiton; Magnoliopsida; Quercus L.; Eucalyptus L'Hér.; Castanea sativa Mill.; 
2012,2012-03-15,Viana do Castelo,Ponte de Lima,Santa Comba,Quinta de Chão de Zil,41.7665629,-8.6096543,NC,19.0,2012-03-15T13:00,18.7,60,10.7,18.0,0.0,0.0,0.0,0.0,1,1024.8,1022.5,45,0,29,93,0.39,0.87,10.7,13.8,220,213,29.9,19.5,14.1,12.5,11.7,0.234,0.279,0.326,0.379,1,3600.0,675.5,483.1,192.4,669.2,675.5,998.6,674.0,482.0,192.0,669.2,674.0,996.4,Tracheophyta; Eucalyptus L'Hér.; Magnoliopsida; Pinus pinaster Aiton
2012,2012-03-15,Viseu,Viseu,Rio de Loba,RIO DE LOBA,40.6514806,-7.884773,Desconhecida,491.0,2012-03-15T12:00,19.1,35,3.3,16.7,0.0,0.0,0.0,0.0,3,1024.8,967.9,82,0,87,98,0.31,1.44,6.2,7.7,173,169,22.3,17.3,11.8,10.1,9.1,0.192,0.261,0.313,0.335,1,3600.0,477.0,228.1,248.9,314.6,477.0,1003.3,460.0,220.0,240.0,314.6,460.0,967.6,Tracheophyta; Pinus pinaster Aiton; Magnoliopsida; Eucalyptus L'Hér.
2012,2012-03-16,Braga,Fafe,Travassós,Leiras,41.4925764,-8.1962009,NC,327.0,2012-03-16T00:00,10.7,98,10.3,10.4,0.0,0.0,0.0,0.0,2,1024.5,985.1,68,0,64,98,0.0,0.03,2.9,2.9,60,360,7.6,11.0,13.0,10.5,9.3,0.229,0.278,0.326,0.372,0,0.0,0.0,0.0,0.0,0.0,0.0,0.0,0.0,0.0,0.0,0.0,0.0,0.0,Tracheophyta; Magnoliopsida; Eucalyptus L'Hér.; Pinales
2012,2012-06-22,Faro,Olhão,Moncarapacho,Alfandanga,37.0842089,-7.7882465,NC,54.0,2012-06-22T00:00,20.3,59,11.9,18.2,0.0,0.0,0.0,0.0,0,1018.2,1011.8,0,0,0,0,0.09,0.98,18.2,30.8,333,336,35.3,22.2,24.4,22.4,18.4,0.106,0.16,0.199,0.269,0,0.0,0.0,0.0,0.0,0.0,0.0,0.0,0.0,0.0,0.0,0.0,0.0,0.0,Magnoliopsida; Vitis vinifera L.; Tracheophyta; Ceratonia siliqua L.; Olea europaea L.; 
2012,2012-06-22,Leiria,Óbidos,Olho Marinho,Barrocas,39.332822,-9.2434675,Desconhecida,108.0,2012-06-22T16:00,19.5,49,8.6,15.5,0.0,0.0,0.0,0.0,0,1022.0,1009.2,0,0,0,0,0.45,1.15,31.2,39.2,349,349,54.7,25.6,20.4,18.9,16.1,0.059,0.099,0.135,0.191,1,3600.0,707.9,608.2,99.7,862.0,707.9,934.2,774.0,665.0,109.0,862.0,774.0,1021.5,Magnoliopsida; Eucalyptus L'Hér.
2012,2012-06-23,Viseu,Tarouca,Salzedas,VILA POUCA DA MURGANHEIRA,41.0545541,-7.7252889,Desconhecida,513.0,2012-06-23T08:00,17.4,63,10.3,16.7,0.0,0.0,0.0,0.0,1,1022.8,963.3,20,0,0,68,0.21,0.73,4.8,6.4,42,47,15.5,18.0,16.4,16.2,12.9,0.219,0.199,0.271,0.317,1,3600.0,449.2,343.5,105.7,664.3,449.2,684.6,374.0,286.0,88.0,664.3,374.0,570.0,Tracheophyta; Magnoliopsida; Pinus pinaster Aiton; Pinales; Castanea sativa Mill.; Olea europaea L.
2012,2012-06-23,Porto,Gondomar,Fânzeres,SEIXO,41.1852616,-8.5209222,NC,166.0,2012-06-23T22:00,16.5,87,14.2,16.6,0.0,0.0,0.0,0.0,0,1023.3,1003.5,2,0,0,6,0.0,0.25,8.7,15.6,353,353,18.4,18.0,19.3,16.9,14.5,0.255,0.273,0.309,0.351,0,0.0,0.0,0.0,0.0,0.0,0.0,0.0,0.0,0.0,0.0,0.0,0.0,0.0,Tracheophyta; Eucalyptus L'Hér.; Pinus pinaster Aiton; Castanea sativa Mill.
2012,2012-06-23,Porto,Vila Nova de Gaia,São Felix da Marinha,RUA NOSSA SRª DAS NECESSIDADES,41.0305323,-8.6290322,NC,26.0,2012-06-23T22:00,16.7,84,14.0,15.4,0.0,0.0,0.0,0.0,0,1023.2,1020.1,0,0,0,0,0.02,0.31,17.8,29.2,353,357,29.2,18.5,20.2,18.0,15.7,0.225,0.236,0.276,0.328,0,0.0,0.0,0.0,0.0,0.0,0.0,0.0,0.0,0.0,0.0,0.0,0.0,0.0,Eucalyptus L'Hér.; Magnoliopsida; Tracheophyta; Pinales; Pinus pinaster Aiton
2012,2012-07-16,Aveiro,Anadia,Vilarinho do Bairro,Vilarinho,40.4245255,-8.543433291762096,Reacendimento,78.0,2012-07-16T10:00,28.2,33,10.3,26.9,0.0,0.0,0.0,0.0,0,1022.6,1013.6,0,0,0,0,0.55,2.57,14.8,19.5,77,78,29.9,27.3,20.6,19.2,16.7,0.066,0.091,0.157,0.221,1,3600.0,768.7,662.8,105.9,851.5,768.7,1030.5,704.0,607.0,97.0,851.5,704.0,943.7,Pinus pinaster Aiton; Vitis vinifera L.; Tracheophyta; Eucalyptus L'Hér.; Magnoliopsida
2012,2012-07-22,Guarda,Sabugal,Cerdeira,Quinta da Bogalha - Senhora do Monte,40.513652,-7.0480087,Reacendimento,731.0,2012-07-22T14:00,32.3,20,6.4,32.8,0.0,0.0,0.0,0.0,0,1017.7,938.4,0,0,0,0,0.74,3.87,6.9,8.0,354,355,20.9,37.5,26.1,21.4,15.3,0.117,0.134,0.169,0.276,1,3600.0,918.7,812.9,105.9,915.4,918.7,1176.6,946.0,837.0,109.0,915.4,946.0,1211.5,Tracheophyta; Magnoliopsida; 
2012,2012-07-23,Porto,Gondomar,Foz do Sousa,LUGAR FERREIRINHA,41.0994524,-8.4999065,NC,79.0,2012-07-23T18:00,26.1,58,17.3,25.8,0.0,0.0,0.0,0.0,0,1012.0,1002.9,0,0,0,0,0.31,1.41,20.0,26.5,322,326,37.8,30.5,25.1,20.6,16.9,0.121,0.16,0.244,0.345,1,3600.0,310.2,249.8,60.5,718.4,310.2,460.8,390.0,314.0,76.0,718.4,390.0,579.3,Eucalyptus L'Hér.; Tracheophyta; Magnoliopsida; Pinus pinaster Aiton
2012,2012-07-22,Porto,Santo Tirso,Guimarei,CAMPO DE FUTEBOL,41.2999527,-8.4792107,NC,202.0,2012-07-22T12:00,27.6,45,14.5,30.2,0.0,0.0,0.0,0.0,0,1019.8,996.7,0,0,0,0,0.66,2.04,7.7,9.2,323,329,18.4,29.6,21.7,19.3,15.8,0.13,0.174,0.257,0.349,1,3600.0,949.8,838.9,110.9,910.3,949.8,1221.0,925.0,817.0,108.0,910.3,925.0,1189.2,Pinus pinaster Aiton; Magnoliopsida; Eucalyptus L'Hér.; Vitis vinifera L.; Tracheophyta
2012,2012-07-21,Viseu,Nelas,Nelas,CIRCULAR DE NELAS,40.51924,-7.859607564669652,Reacendimento,422.0,2012-07-21T23:00,20.7,71,15.3,21.9,0.0,0.0,0.0,0.0,0,1020.1,971.5,9,0,0,30,0.0,0.7,4.0,6.6,270,319,11.5,22.7,25.0,20.7,15.7,0.093,0.173,0.254,0.319,0,0.0,0.0,0.0,0.0,0.0,0.0,0.0,0.0,0.0,0.0,0.0,0.0,0.0,Pinus pinaster Aiton; Magnoliopsida; Vitis vinifera L.; Tracheophyta
2012,2012-07-23,Porto,Póvoa de Varzim,Rates,fonte da cabra,41.4415009,-8.6745656,Reacendimento,126.0,2012-07-23T18:00,24.5,63,17.0,24.7,0.0,0.0,0.0,0.0,0,1011.6,997.1,0,0,0,0,0.28,1.14,15.5,20.7,314,321,29.9,28.8,23.8,19.6,16.1,0.1,0.177,0.263,0.338,1,3600.0,315.2,252.9,62.2,720.9,315.2,465.0,395.0,317.0,78.0,720.9,395.0,582.8,Pinus pinaster Aiton; Tracheophyta; Eucalyptus L'Hér.
2012,2012-07-16,Aveiro,Sever do Vouga,Cedrim,Cedrim Santo Adrião,40.7111516,-8.3392655,Desconhecida,180.0,2012-07-16T10:00,27.2,37,11.0,25.8,0.0,0.0,0.0,0.0,0,1023.5,1002.8,0,0,0,0,0.54,2.29,16.8,22.5,75,77,33.8,25.5,20.5,19.0,16.2,0.109,0.173,0.256,0.325,1,3600.0,766.2,660.3,105.9,848.7,766.2,1030.1,702.0,605.0,97.0,848.7,702.0,943.8,Tracheophyta; Eucalyptus L'Hér.; Acacia Mill.; Pinus pinaster Aiton; Magnoliopsida; Quercus L.
2012,2012-07-16,Porto,Gondomar,Baguim do Monte,RUA DA MORENA,41.1945278,-8.54271614971638,NC,131.0,2012-07-16T14:00,31.3,30,11.7,32.8,0.0,0.0,0.0,0.0,0,1022.9,1008.0,0,0,0,0,0.74,3.2,9.5,12.0,37,44,20.5,30.6,21.0,18.6,16.0,0.134,0.19,0.27,0.343,1,3600.0,924.6,818.4,106.2,911.5,924.6,1188.8,949.0,840.0,109.0,911.5,949.0,1220.1,Tracheophyta; Magnoliopsida; Eucalyptus L'Hér.
2012,2012-09-03,Coimbra,Oliveira do Hospital,Seixo da Beira,Sobreda,40.4546462,-7.8128363,NC,389.0,2012-09-03T09:00,19.5,41,6.0,15.3,0.0,0.0,0.0,0.0,0,1021.1,976.0,0,0,0,0,0.32,1.34,21.9,30.4,65,66,47.2,21.0,22.2,22.3,19.8,0.074,0.146,0.215,0.31,1,3600.0,507.2,417.3,89.9,772.2,507.2,726.7,429.0,353.0,76.0,772.2,429.0,614.7,Tracheophyta; Magnoliopsida; Pinus pinaster Aiton; Olea europaea L.; Pinus pinea L.; Eucalyptus L'Hér.; Acacia Mill.; Quercus L.; Castanea sativa Mill.; 
2012,2012-07-23,Lisboa,Azambuja,Alcoentre,Vale de Judeus,39.2348833,-8.964874614233242,Desconhecida,104.0,2012-07-23T17:00,24.9,54,15.0,23.3,0.0,0.0,0.0,0.0,0,1013.0,1001.0,0,0,0,0,0.42,1.44,23.0,29.7,328,329,46.1,33.9,26.5,23.3,19.2,0.082,0.153,0.196,0.27,1,3600.0,501.4,418.2,83.1,790.5,501.4,701.2,579.0,483.0,96.0,790.5,579.0,809.8,Tracheophyta; Eucalyptus L'Hér.; Pinus pinea L.; Vitis vinifera L.
2012,2012-06-24,Porto,Vila Nova de Gaia,Vilar de Andorinho,A 20,41.1032455,-8.5767749,NC,155.0,2012-06-24T21:00,19.1,92,17.8,20.0,0.0,0.0,0.0,0.0,0,1021.0,1002.7,1,1,0,0,0.02,0.17,13.0,22.0,354,358,24.1,20.5,20.4,17.1,14.7,0.256,0.28,0.312,0.355,0,0.0,0.0,0.0,0.0,0.0,0.0,0.0,0.0,0.0,0.0,0.0,0.0,0.8,Magnoliopsida; Tracheophyta
2012,2012-03-23,Leiria,Porto de Mós,Pedreiras,Casal da Fonte,39.5901401,-8.8629768,Desconhecida,156.0,2012-03-23T02:00,13.8,42,1.3,9.7,0.0,0.0,0.0,0.0,1,1017.6,998.9,32,0,4,100,0.09,0.91,15.0,32.0,100,102,33.8,12.6,14.3,13.2,12.2,0.063,0.132,0.194,0.23,0,0.0,0.0,0.0,0.0,0.0,0.0,0.0,0.0,0.0,0.0,0.0,0.0,0.0,Olea europaea L.; Pinus pinaster Aiton; Quercus L.; Tracheophyta; Magnoliopsida; Eucalyptus L'Hér.
2012,2012-03-23,Porto,Baião,Covelas,Mirão (CAMPO NOVO),41.1157344,-7.986331,Desconhecida,206.0,2012-03-23T05:00,6.2,76,2.2,2.9,0.0,0.0,0.0,0.0,2,1017.7,992.4,57,0,45,100,0.01,0.23,10.1,23.5,92,94,25.2,7.1,10.2,10.3,9.7,0.238,0.27,0.315,0.353,0,0.0,0.0,0.0,0.0,0.0,0.0,0.0,0.0,0.0,0.0,0.0,0.0,0.0,Magnoliopsida; Pinus pinaster Aiton; Vitis vinifera L.; Quercus L.; Tracheophyta; Eucalyptus L'Hér.; Olea europaea L.; 
2012,2012-07-15,Lisboa,ODIVELAS,Odivelas_Lumiar e Carnide,Quinta das Dálias,38.7926939,-9.2023802,NC,128.0,2012-07-15T12:00,24.3,37,8.7,22.3,0.0,0.0,0.0,0.0,0,1021.0,1006.1,0,0,0,0,0.65,1.92,24.6,32.1,355,358,43.6,26.5,20.9,20.2,17.7,0.12,0.17,0.221,0.291,1,3600.0,980.7,865.6,115.1,919.0,980.7,1246.8,954.0,842.0,112.0,919.0,954.0,1212.8,Tracheophyta; Olea europaea L.
2012,2012-07-16,Viseu,Castro Daire,Castro Daire,Fareja,40.9048951,-7.9136437,Desconhecida,608.0,2012-07-16T15:00,31.0,22,6.6,30.8,0.0,0.0,0.0,0.0,0,1023.2,956.1,0,0,0,0,0.69,3.51,8.8,11.5,55,58,25.9,33.1,21.6,18.1,14.5,0.103,0.168,0.251,0.314,1,3600.0,832.0,733.6,98.3,905.2,832.0,1073.0,880.0,776.0,104.0,905.2,880.0,1134.9,Pinus pinaster Aiton; Olea europaea L.; Tracheophyta; Magnoliopsida
2012,2012-03-23,Porto,Paços de Ferreira,Carvalhosa,RUA ASSOCIAÇÃO INDUSTRIAL (MEIXOMIL),41.2999643,-8.3625207,NC,331.0,2012-03-23T14:00,20.4,31,2.7,17.1,0.0,0.0,0.0,0.0,3,1014.0,975.8,86,0,95,95,0.49,1.65,17.7,24.9,110,112,45.0,17.7,10.8,9.8,9.4,0.217,0.263,0.314,0.363,1,3600.0,725.4,512.9,212.5,711.4,725.4,993.0,751.0,531.0,220.0,711.4,751.0,1028.0,Tracheophyta; Eucalyptus L'Hér.; Pinus pinaster Aiton; Magnoliopsida; Vitis vinifera L.; Quercus L.; 
2012,2012-03-23,Porto,Vila do Conde,Bagunte,Santagões,41.3667967,-8.6601208,Reacendimento,95.0,2012-03-23T21:00,12.9,72,7.9,11.5,0.0,0.0,0.0,0.0,0,1014.4,1003.0,3,0,5,0,0.01,0.42,5.8,6.3,86,149,7.9,12.3,13.5,11.5,11.2,0.2,0.251,0.309,0.356,0,0.0,0.0,0.0,0.0,0.0,0.0,0.0,0.0,0.0,0.0,0.0,0.0,0.0,Eucalyptus L'Hér.; Tracheophyta
2012,2012-03-23,Porto,Felgueiras,Caramos,Santa Marta,41.3485398,-8.1655784,Desconhecida,415.0,2012-03-23T11:00,15.6,41,2.3,11.2,0.0,0.0,0.0,0.0,3,1015.9,967.5,82,0,89,97,0.33,1.06,18.7,26.6,101,103,49.7,12.7,8.8,8.8,8.3,0.231,0.27,0.318,0.364,1,3600.0,593.5,280.6,312.9,403.2,593.5,958.5,552.0,261.0,291.0,403.2,552.0,891.5,Tracheophyta; Pinus pinaster Aiton; Magnoliopsida; Eucalyptus L'Hér.; Vitis vinifera L.
2012,2012-03-23,Leiria,Porto de Mós,Pedreiras,Casal da Fonte,39.5901401,-8.8629768,Reacendimento,156.0,2012-03-23T12:00,19.7,28,0.8,14.2,0.0,0.0,0.0,0.0,3,1014.7,996.4,81,0,87,97,0.44,1.64,24.5,33.2,118,119,51.8,20.3,14.2,13.2,12.2,0.063,0.131,0.193,0.23,1,3600.0,596.9,217.6,379.3,282.2,596.9,1062.4,576.0,210.0,366.0,282.2,576.0,1025.1,Olea europaea L.; Pinus pinaster Aiton; Quercus L.; Tracheophyta; Magnoliopsida; Eucalyptus L'Hér.
2012,2012-03-23,Lisboa,Mafra,Cheleiros,Lexim,38.8908863,-9.3110896,Desconhecida,202.0,2012-03-23T12:00,18.6,35,3.0,14.9,0.0,0.0,0.0,0.0,2,1014.3,990.6,64,0,64,86,0.44,1.38,18.7,25.0,120,120,42.1,19.8,14.2,13.5,13.0,0.098,0.202,0.279,0.317,1,3600.0,713.7,416.0,297.7,534.8,713.7,1071.3,688.0,401.0,287.0,534.8,688.0,1032.8,Tracheophyta; Magnoliopsida
2012,2012-03-23,Porto,Santo Tirso,Guimarei,LG. CIPARIA (SANTO TIRSO),41.31869835,-8.509147938338778,NC,231.0,2012-03-23T14:00,21.1,31,3.2,18.2,0.0,0.0,0.0,0.0,3,1013.6,986.8,83,0,92,93,0.51,1.73,16.8,23.2,118,120,34.2,18.2,11.7,10.6,10.2,0.238,0.26,0.307,0.359,1,3600.0,743.1,574.0,169.1,795.5,743.1,993.8,769.0,594.0,175.0,795.5,769.0,1028.5,Eucalyptus L'Hér.; Pinales; Magnoliopsida; Pinus pinaster Aiton
2012,2012-07-15,Castelo Branco,Fundão,Escarigo,Quinta do Anascer da Condessa,40.255357700000005,-7.2908573911856385,Desconhecida,545.0,2012-07-15T18:00,27.8,18,1.3,23.8,0.0,0.0,0.0,0.0,0,1019.1,958.3,0,0,0,0,0.38,3.07,14.0,18.4,1,3,32.8,30.1,23.3,19.9,15.5,0.103,0.175,0.251,0.328,1,3600.0,313.5,253.4,60.2,738.6,313.5,454.1,396.0,320.0,76.0,738.6,396.0,573.6,Magnoliopsida; Tracheophyta; Pinus pinaster Aiton; Olea europaea L.; Quercus L.
2012,2012-08-29,Lisboa,Cascais,Estoril,Junto à Estação da CP,38.70957065,-9.390136815849148,NC,69.0,2012-08-29T10:00,21.4,65,14.5,20.5,0.0,0.0,0.0,0.0,1,1021.8,1013.7,36,19,2,59,0.35,0.9,16.9,20.7,336,337,29.5,23.7,22.1,22.2,20.0,0.139,0.162,0.208,0.292,1,3600.0,635.7,506.5,129.1,730.2,635.7,930.6,571.0,455.0,116.0,730.2,571.0,835.9,Magnoliopsida; Tracheophyta; Pinus pinaster Aiton
2012,2012-08-29,Faro,Albufeira,Albufeira,Urb Corcovada,37.1286937,-8.2330185,NC,82.0,2012-08-29T21:00,20.6,61,12.8,18.1,0.0,0.0,0.0,0.0,0,1020.9,1011.2,0,0,0,0,0.11,0.95,22.9,36.5,336,338,41.8,24.7,27.2,25.7,22.5,0.101,0.136,0.149,0.23,0,0.0,0.0,0.0,0.0,0.0,0.0,0.0,0.0,0.0,0.0,0.0,0.0,0.0,Tracheophyta; Ceratonia siliqua L.; Olea europaea L.
2012,2012-07-16,Aveiro,Santa Maria da Feira,Louredo,Vila Seca (Rua da Capela),40.9678942,-8.4600089,Desconhecida,267.0,2012-07-16T15:00,31.9,27,10.6,32.3,0.0,0.0,0.0,0.0,0,1022.4,992.4,0,0,0,0,0.7,3.46,11.4,14.3,11,18,22.0,31.2,21.0,18.0,15.4,0.131,0.193,0.275,0.354,1,3600.0,827.2,727.8,99.4,894.3,827.2,1077.5,874.0,769.0,105.0,894.3,874.0,1138.5,Eucalyptus L'Hér.; Tracheophyta; Pinales; Quercus L.; Magnoliopsida
2012,2012-07-16,Porto,Santo Tirso,Guimarei,LG. DEVESINHA,41.2999527,-8.4792107,NC,202.0,2012-07-16T14:00,30.5,31,11.6,31.9,0.0,0.0,0.0,0.0,0,1022.9,1000.0,0,0,0,0,0.72,3.0,9.5,12.0,37,44,20.5,29.2,20.3,17.9,15.4,0.16,0.196,0.272,0.352,1,3600.0,924.7,818.5,106.2,912.2,924.7,1187.9,949.0,840.0,109.0,912.2,949.0,1219.2,Pinus pinaster Aiton; Magnoliopsida; Eucalyptus L'Hér.; Vitis vinifera L.; Tracheophyta
2012,2012-07-16,Coimbra,Miranda do Corvo,Semide,Vale de Zote,40.1599192,-8.3362204,Reacendimento,199.0,2012-07-16T16:00,35.1,20,8.7,34.5,0.0,0.0,0.0,0.0,0,1020.7,998.5,0,0,0,0,0.64,4.54,9.7,12.1,22,23,23.0,36.7,23.6,19.5,16.3,0.095,0.142,0.216,0.274,1,3600.0,685.5,595.1,90.4,862.5,685.5,913.4,751.0,652.0,99.0,862.5,751.0,1000.8,Eucalyptus L'Hér.; Magnoliopsida; Pinus pinaster Aiton; Tracheophyta
2012,2012-07-23,Leiria,Pombal,Pelariga,PELARIGA,39.9677741,-8.6332632,Reacendimento,47.0,2012-07-23T20:00,20.9,70,15.3,20.8,0.0,0.0,0.0,0.0,0,1012.5,1007.0,0,0,0,0,0.06,0.74,13.2,19.8,317,323,29.5,26.1,25.2,21.3,17.8,0.047,0.06,0.1,0.171,0,1662.61,0.0,0.0,0.0,0.0,0.0,0.0,39.0,21.0,18.0,181.6,39.0,94.7,Tracheophyta; Eucalyptus L'Hér.; Olea europaea L.; Magnoliopsida
2012,2012-07-23,Porto,Amarante,Gondar,FREGUESIA DE VILA CHÂ DO MARÃO - PICOTO,41.2490072,-8.0269415,Reacendimento,176.0,2012-07-23T18:00,29.6,44,16.2,30.2,0.0,0.0,0.0,0.0,0,1011.4,991.5,0,0,0,0,0.33,2.3,10.2,13.8,288,290,30.2,32.9,25.9,20.6,16.2,0.1,0.179,0.266,0.347,1,3600.0,308.7,249.2,59.5,725.2,308.7,455.4,389.0,314.0,75.0,725.2,389.0,573.8,Magnoliopsida; Tracheophyta; Eucalyptus L'Hér.; Vitis vinifera L.; Quercus L.; Pinus pinaster Aiton; Pinus pinea L.; 
2012,2012-07-23,Lisboa,ODIVELAS,Pontinha,Olival do Pancas,38.76952815,-9.205143982998091,NC,50.0,2012-07-23T21:00,19.0,86,16.6,17.9,0.0,0.0,0.0,0.0,0,1012.8,1006.9,14,16,0,0,0.03,0.31,23.4,33.9,335,338,38.9,22.4,24.3,22.1,18.7,0.118,0.164,0.215,0.29,0,0.0,0.0,0.0,0.0,0.0,0.0,0.0,0.0,0.0,0.0,0.0,0.0,0.0,Pinus pinea L.; Olea europaea L.; Tracheophyta; Magnoliopsida; 
2012,2012-07-23,Porto,Vila do Conde,Fornelo,ESCOLAS NOVAS,41.3329007,-8.6441131,NC,127.0,2012-07-23T16:00,27.3,54,17.2,28.4,0.0,0.0,0.0,0.0,0,1011.9,997.4,0,0,0,0,0.53,1.67,16.6,21.2,309,312,31.7,31.7,23.8,19.9,16.3,0.111,0.176,0.261,0.342,1,3600.0,677.4,587.9,89.5,863.2,677.4,902.6,742.0,644.0,98.0,863.2,742.0,988.7,Eucalyptus L'Hér.; Tracheophyta
2012,2012-07-23,Aveiro,Anadia,Avelãs de Caminho,Perto da Industria APL,40.4782058,-8.4523964,Reacendimento,21.0,2012-07-23T14:00,30.6,39,15.0,31.7,0.0,0.0,0.0,0.0,0,1013.0,1010.6,0,0,0,0,0.73,2.68,17.2,21.2,307,310,36.4,35.7,24.3,21.2,17.5,0.078,0.113,0.182,0.258,1,3600.0,914.4,808.3,106.1,904.4,914.4,1184.4,939.0,830.0,109.0,904.4,939.0,1216.2,Magnoliopsida; Vitis vinifera L.; Tracheophyta
2012,2012-04-10,Viseu,Castro Daire,Moledo,Lamas,40.8320454,-7.9129767,Desconhecida,584.0,2012-04-10T16:00,11.3,61,4.0,6.9,0.0,0.0,0.0,0.0,2,1011.3,943.2,74,79,4,0,0.22,0.52,19.9,27.8,283,283,48.6,13.4,11.2,10.3,8.9,0.283,0.241,0.285,0.33,1,3600.0,394.5,257.1,137.4,461.4,394.5,759.6,445.0,290.0,155.0,461.4,445.0,856.8,Pinus pinaster Aiton; Magnoliopsida; Tracheophyta; Olea europaea L.
2012,2012-07-22,Vila Real,Valpaços,Fornos do Pinhal,AMOREIRINHAS,41.6525948,-7.2629169,Reacendimento,458.0,2012-07-22T14:00,31.4,23,7.8,33.0,0.0,0.0,0.0,0.0,0,1018.4,967.6,0,0,0,0,0.69,3.53,2.8,3.6,50,53,20.9,36.0,25.1,20.8,15.3,0.121,0.152,0.201,0.295,1,3600.0,910.8,804.8,105.9,911.4,910.8,1170.1,937.0,828.0,109.0,911.4,937.0,1203.8,Olea europaea L.; Vitis vinifera L.; Pinus pinaster Aiton; Magnoliopsida
2012,2012-08-04,Santarém,Alcanena,Louriceira,Carvalheiro,39.4275166,-8.67016,Desconhecida,123.0,2012-08-04T16:00,25.2,41,10.9,22.4,0.0,0.0,0.0,0.0,0,1015.0,1000.8,0,0,0,0,0.53,1.9,25.9,33.7,325,326,50.4,31.7,24.3,22.7,19.2,0.075,0.147,0.212,0.291,1,3600.0,644.8,550.5,94.3,830.7,644.8,880.8,711.0,607.0,104.0,830.7,711.0,971.1,Eucalyptus L'Hér.; Magnoliopsida; Olea europaea L.; Quercus suber L.; Pinus pinea L.; Quercus L.; Tracheophyta; Pinus pinaster Aiton; 
2012,2012-07-15,Porto,Vila do Conde,Rio Mau,OUTEIRO FIGUEIRA,41.4023917,-8.6763291,Reacendimento,52.0,2012-07-15T20:00,20.2,66,13.7,18.2,0.0,0.0,0.0,0.0,0,1022.0,1015.8,0,0,0,0,0.1,0.8,21.8,37.1,347,352,38.9,21.9,20.7,18.5,16.1,0.134,0.202,0.28,0.342,1,2179.75,2.2,1.3,0.9,14.9,1.6,4.8,56.0,33.0,23.0,259.8,56.0,121.6,Pinus pinaster Aiton; Tracheophyta; Eucalyptus L'Hér.
2012,2012-07-15,Leiria,Ansião,Santiago da Guarda,Pia Furada,39.9401061,-8.5156271,Reacendimento,325.0,2012-07-15T16:00,26.6,32,8.6,24.8,0.0,0.0,0.0,0.0,0,1019.0,982.1,0,0,0,0,0.58,2.37,17.2,21.8,340,344,40.3,30.9,21.7,19.2,16.0,0.101,0.144,0.207,0.27,1,3600.0,688.3,597.1,91.3,862.5,688.3,916.4,754.0,654.0,100.0,862.5,754.0,1003.8,Olea europaea L.; Magnoliopsida; Tracheophyta; Eucalyptus L'Hér.
2012,2012-07-16,Porto,Vila Nova de Gaia,Arcozelo,RUA DO OUTEIRAL,41.0550094,-8.6399166,NC,44.0,2012-07-16T18:00,28.5,52,17.8,27.7,0.0,0.0,0.0,0.0,0,1021.5,1016.4,0,0,0,0,0.38,1.85,24.6,35.7,345,351,41.4,29.2,22.9,19.1,16.7,0.149,0.199,0.275,0.349,1,3600.0,323.6,261.0,62.6,722.2,323.6,478.5,403.0,325.0,78.0,722.2,403.0,595.8,Pinus pinaster Aiton; Tracheophyta; Eucalyptus L'Hér.; Magnoliopsida; Acacia Mill.
2012,2012-07-16,Aveiro,Oliveira de Azemeis,Pinheiro da Bemposta,Rua Cova da Raposa,40.7845673,-8.4822234,Reacendimento,175.0,2012-07-16T16:00,33.0,26,11.0,32.5,0.0,0.0,0.0,0.0,0,1021.7,1002.0,0,0,0,0,0.65,3.73,13.4,16.9,354,359,25.6,33.3,22.4,18.8,16.2,0.106,0.169,0.251,0.323,1,3600.0,687.3,595.9,91.4,862.4,687.3,914.7,752.0,652.0,100.0,862.4,752.0,1000.9,Tracheophyta; Magnoliopsida; Eucalyptus L'Hér.
2012,2012-07-16,Porto,Vila Nova de Gaia,Grijó,RUA DO CUTEIRO,41.030392250000006,-8.583434430828127,NC,110.0,2012-07-16T14:00,32.1,28,11.5,33.5,0.0,0.0,0.0,0.0,0,1022.9,1010.4,0,0,0,0,0.75,3.42,9.5,12.0,37,44,20.5,32.9,21.6,18.9,16.5,0.109,0.159,0.236,0.321,1,3600.0,924.7,818.5,106.2,910.4,924.7,1190.3,949.0,840.0,109.0,910.4,949.0,1221.5,Magnoliopsida; Tracheophyta; Eucalyptus L'Hér.
2012,2012-09-02,Coimbra,Cantanhede,Bolho,BOLHO,40.40773045,-8.523862139609468,Desconhecida,89.0,2012-09-02T12:00,28.6,23,5.5,26.7,0.0,0.0,0.0,0.0,0,1020.3,1010.1,0,0,0,0,0.67,3.02,15.6,20.4,67,69,38.2,31.0,23.1,21.2,19.2,0.066,0.078,0.112,0.202,1,3600.0,865.7,762.9,102.8,915.6,865.7,1119.9,842.0,742.0,100.0,915.6,842.0,1089.3,Tracheophyta; Vitis vinifera L.; Eucalyptus L'Hér.; Olea europaea L.; Pinus pinaster Aiton; Magnoliopsida; Pinales; 
2012,2012-08-04,Porto,Paredes,Sobrosa,RUA N SRA FÁTIMA,41.2497289,-8.3552315,NC,315.0,2012-08-04T21:00,17.0,82,13.9,17.4,0.0,0.0,0.0,0.0,1,1015.0,978.2,50,47,8,8,0.0,0.35,6.4,9.3,297,298,19.4,20.3,21.6,19.8,16.1,0.133,0.146,0.225,0.343,0,0.0,0.0,0.0,0.0,0.0,0.0,0.0,0.0,0.0,0.0,0.0,0.0,0.0,Magnoliopsida; Pinus pinaster Aiton; Eucalyptus L'Hér.; Tracheophyta; Vitis vinifera L.
2012,2012-07-16,Leiria,Pedrógão Grande,Graça,TESTEIRAS,39.9014593,-8.2242058,Reacendimento,344.0,2012-07-16T11:00,31.4,23,7.6,30.5,0.0,0.0,0.0,0.0,0,1022.4,983.8,0,0,0,0,0.69,3.55,12.6,16.2,90,91,32.4,31.6,22.4,20.2,16.7,0.106,0.155,0.216,0.275,1,3600.0,895.1,785.4,109.8,890.8,895.1,1167.2,848.0,744.0,104.0,890.8,848.0,1105.7,Pinus pinaster Aiton; Eucalyptus L'Hér.; Magnoliopsida; Tracheophyta; Olea europaea L.; Acacia Mill.; 
2012,2012-07-16,Viseu,Viseu,São Salvador,Aral,40.6529769,-7.9349873,Reacendimento,395.0,2012-07-16T14:00,31.9,21,7.1,32.3,0.0,0.0,0.0,0.0,0,1022.2,978.1,0,0,0,0,0.75,3.71,8.6,10.8,57,60,24.8,35.3,22.9,19.6,15.8,0.087,0.178,0.264,0.327,1,3600.0,931.3,825.2,106.1,919.0,931.3,1188.8,957.0,848.0,109.0,919.0,957.0,1221.6,Tracheophyta; Magnoliopsida; Pinus pinaster Aiton
