year,date,district,municipality,parish,local,latitude,longitude,cause,elevation,hourly.time,hourly.temperature_2m,hourly.relative_humidity_2m,hourly.dew_point_2m,hourly.apparent_temperature,hourly.precipitation,hourly.rain,hourly.snowfall,hourly.snow_depth,hourly.weather_code,hourly.pressure_msl,hourly.surface_pressure,hourly.cloud_cover,hourly.cloud_cover_low,hourly.cloud_cover_mid,hourly.cloud_cover_high,hourly.et0_fao_evapotranspiration,hourly.vapour_pressure_deficit,hourly.wind_speed_10m,hourly.wind_speed_100m,hourly.wind_direction_10m,hourly.wind_direction_100m,hourly.wind_gusts_10m,hourly.soil_temperature_0_to_7cm,hourly.soil_temperature_7_to_28cm,hourly.soil_temperature_28_to_100cm,hourly.soil_temperature_100_to_255cm,hourly.soil_moisture_0_to_7cm,hourly.soil_moisture_7_to_28cm,hourly.soil_moisture_28_to_100cm,hourly.soil_moisture_100_to_255cm,hourly.is_day,hourly.sunshine_duration,hourly.shortwave_radiation_instant,hourly.direct_radiation_instant,hourly.diffuse_radiation_instant,hourly.direct_normal_irradiance_instant,hourly.global_tilted_irradiance_instant,hourly.terrestrial_radiation_instant,hourly.shortwave_radiation,hourly.direct_radiation,hourly.diffuse_radiation,hourly.direct_normal_irradiance,hourly.global_tilted_irradiance,hourly.terrestrial_radiation,scientificNames
2013,2013-09-06,Vila Real,Vila Pouca de Aguiar,Tresminas,Filhagosa,41.5003459999959,-7.57024399995804,Natural,813.0,2013-09-06T13:00,23.4,39,8.7,22.9,0.0,0.0,0.0,0.0,2,1013.8,923.9,59,13,34,91,0.54,1.76,10.7,13.6,327,328,31.3,28.3,21.9,21.4,17.9,0.137,0.136,0.191,0.325,1,3600.0,793.2,676.9,116.3,836.2,793.2,1090.1,798.0,681.0,117.0,836.2,798.0,1096.7,Tracheophyta; Magnoliopsida; Pinus pinaster Aiton
2013,2013-09-08,Vila Real,Chaves,Sanjurge,SANJURGE,41.7651820002662,-7.49793999989828,Reacendimento,395.0,2013-09-08T17:00,23.1,27,3.3,20.3,0.0,0.0,0.0,0.0,0,1020.8,975.5,4,0,0,14,0.29,2.05,8.4,11.2,313,315,21.2,26.2,22.0,22.7,19.6,0.199,0.138,0.179,0.325,1,3600.0,313.9,255.8,58.2,754.0,313.9,457.3,394.0,321.0,73.0,754.0,394.0,573.9,Pinus pinaster Aiton; Vitis vinifera L.; Magnoliopsida; Castanea sativa Mill.; Quercus L.; Tracheophyta
2013,2013-09-09,Vila Real,Mondim de Basto,Ermelo,Carrazedo,41.3691609999869,-7.91799299995104,Reacendimento,490.0,2013-09-09T16:00,25.5,31,7.3,23.6,0.0,0.0,0.0,0.0,0,1021.7,966.3,1,0,0,4,0.42,2.23,9.0,11.5,307,311,24.1,29.3,21.4,21.3,18.5,0.121,0.137,0.195,0.32,1,3600.0,498.7,425.0,73.6,830.4,498.7,690.4,569.0,485.0,84.0,830.4,569.0,787.8,Pinus pinaster Aiton; Eucalyptus L'Hér.; Vitis vinifera L.; Tracheophyta; Magnoliopsida; Pinales
2013,2013-09-09,Vila Real,Chaves,Anelhe,ANELHE,41.675960000356,-7.57952699979146,NC,360.0,2013-09-09T13:00,25.5,34,8.3,26.8,0.0,0.0,0.0,0.0,0,1023.0,981.9,3,0,0,11,0.55,2.16,1.1,1.5,360,14,15.5,28.6,21.0,22.7,19.9,0.188,0.139,0.179,0.325,1,3600.0,820.5,719.2,101.3,903.3,820.5,1073.9,826.0,724.0,102.0,903.3,826.0,1081.1,Pinus pinaster Aiton; Vitis vinifera L.; Magnoliopsida; Tracheophyta
2013,2013-09-10,Vila Real,Chaves,Santa Leocádia,Adães,41.6177640000317,-7.47084200011359,NC,781.0,2013-09-10T12:00,23.3,44,10.4,24.1,0.0,0.0,0.0,0.0,0,1020.8,933.6,0,0,0,0,0.51,1.6,5.2,6.6,78,81,21.6,26.7,19.9,20.7,18.3,0.136,0.145,0.209,0.33,1,3600.0,796.7,691.1,105.6,869.3,796.7,1072.7,777.0,674.0,103.0,869.3,777.0,1046.2,Castanea sativa Mill.; Magnoliopsida; Pinus pinaster Aiton; Tracheophyta
2013,2013-09-11,Vila Real,Chaves,Vale de Anta,Aboboleira,41.7547840001848,-7.50069900002744,Reacendimento,414.0,2013-09-11T17:00,25.2,31,7.1,22.8,0.0,0.0,0.0,0.0,0,1017.3,970.4,0,0,0,0,0.31,2.2,11.4,15.8,77,78,32.0,27.7,22.8,22.0,19.7,0.158,0.139,0.179,0.324,1,3600.0,295.9,239.9,56.0,737.9,295.9,438.9,375.0,304.0,71.0,737.9,375.0,556.2,Pinus pinaster Aiton; Tracheophyta; Magnoliopsida; Quercus L.
2013,2013-09-11,Vila Real,Montalegre,Pondras,Ormeche,41.7040879999267,-7.91208100001017,NC,816.0,2013-09-11T14:00,22.8,40,8.3,21.6,0.0,0.0,0.0,0.0,0,1018.4,927.6,2,1,1,0,0.53,1.67,13.7,18.7,88,88,42.1,25.6,19.9,19.8,17.6,0.162,0.147,0.211,0.327,1,3600.0,753.6,658.5,95.2,893.7,753.6,994.8,784.0,685.0,99.0,893.7,784.0,1034.9,Pinus pinaster Aiton; Magnoliopsida; Tracheophyta; Quercus L.
2013,2013-05-05,Vila Real,Chaves,Santa Cruz/Trindade,ZONA INDUSTRIAL DA COCANHA (Zona Industrial),41.7680555555556,-7.46916666666667,NC,423.0,2013-05-05T13:00,21.5,40,7.4,20.7,0.0,0.0,0.0,0.0,1,1019.4,970.8,24,0,21,38,0.47,1.54,7.4,9.4,227,227,18.4,21.1,14.4,11.4,9.7,0.279,0.305,0.349,0.396,1,3600.0,699.7,556.6,143.1,621.4,699.7,1204.8,704.0,560.0,144.0,621.4,704.0,1212.3,Tracheophyta; Magnoliopsida; Pinus pinaster Aiton
2013,2013-09-11,Vila Real,Mondim de Basto,Pardelhas,FONTE DO TRIGO - ERMELO,41.3358150000042,-7.90137700001399,Reacendimento,512.0,2013-09-11T16:00,25.5,34,8.6,23.4,0.0,0.0,0.0,0.0,0,1016.6,959.1,0,0,0,0,0.42,2.14,11.9,16.6,85,86,37.1,29.2,22.7,21.6,19.0,0.125,0.134,0.175,0.322,1,3600.0,488.4,414.2,74.3,825.3,488.4,677.6,559.0,474.0,85.0,825.3,559.0,775.4,Pinus pinaster Aiton; Magnoliopsida; Olea europaea L.; Tracheophyta
2013,2013-09-11,Vila Real,Sabrosa,Sabrosa,E.M. 323,41.2653649997711,-7.57464900016785,Desconhecida,576.0,2013-09-11T18:00,23.6,34,6.9,21.5,0.0,0.0,0.0,0.0,0,1017.3,952.4,0,0,0,0,0.17,1.92,8.8,16.6,78,77,33.8,25.8,22.4,21.3,18.8,0.137,0.134,0.178,0.324,1,3600.0,108.9,79.3,29.6,570.4,108.9,187.7,184.0,134.0,50.0,570.4,184.0,317.2,Pinus pinaster Aiton; Vitis vinifera L.; Magnoliopsida; Olea europaea L.; Tracheophyta
2013,2013-09-12,Vila Real,Mesão frio,Barqueiros,Lamas do Monte,41.1395030000475,-7.8913460000356,Reacendimento,256.0,2013-09-12T09:00,18.3,53,8.4,15.1,0.0,0.0,0.0,0.0,0,1020.0,989.9,0,0,0,0,0.26,1.0,19.1,27.0,93,93,45.0,20.1,21.9,22.8,20.3,0.107,0.135,0.191,0.315,1,3600.0,474.2,386.0,88.2,755.2,474.2,690.4,398.0,324.0,74.0,755.2,398.0,579.5,Vitis vinifera L.; Pinus pinaster Aiton; Magnoliopsida; Olea europaea L.
2013,2013-09-12,Vila Real,Mondim de Basto,Pardelhas,PARDELHAS,41.3358150000042,-7.90137700001399,Reacendimento,512.0,2013-09-12T10:00,18.8,46,6.9,16.1,0.0,0.0,0.0,0.0,0,1021.0,962.0,0,0,0,0,0.36,1.18,14.0,18.7,89,90,42.1,21.5,20.7,21.6,19.0,0.124,0.134,0.175,0.321,1,3600.0,648.0,553.3,94.6,859.4,648.0,869.7,582.0,497.0,85.0,859.4,582.0,781.1,Pinus pinaster Aiton; Magnoliopsida; Olea europaea L.; Tracheophyta
2013,2013-09-12,Vila Real,Montalegre,Sarraquinhos,Pedrario,41.8095189995236,-7.64817799992032,Reacendimento,944.0,2013-09-12T14:00,23.1,28,3.8,21.8,0.0,0.0,0.0,0.0,0,1020.2,916.0,0,0,0,0,0.54,2.03,9.2,12.2,116,114,28.8,26.0,18.7,19.1,16.9,0.181,0.201,0.248,0.365,1,3600.0,763.2,672.9,90.2,922.3,763.2,985.6,795.0,701.0,94.0,922.3,795.0,1026.8,Magnoliopsida; Tracheophyta
2013,2013-05-05,Vila Real,Montalegre,Ferral,Sacoselo,41.6978859996796,-7.97336900022295,Reacendimento,770.0,2013-05-05T18:00,16.2,49,5.4,13.4,0.0,0.0,0.0,0.0,0,1020.3,932.4,6,0,10,0,0.2,0.94,11.1,15.9,257,257,34.2,17.4,13.9,10.0,8.1,0.251,0.295,0.348,0.407,1,3600.0,248.5,194.3,54.2,697.1,248.5,374.9,330.0,258.0,72.0,697.1,330.0,497.8,Pinus pinaster Aiton; Tracheophyta; Magnoliopsida
2013,2013-09-12,Vila Real,Chaves,Nogueira da Montanha,Alanhosa,41.6725270001094,-7.44386299981011,NC,845.0,2013-09-12T12:00,20.5,34,4.2,19.2,0.0,0.0,0.0,0.0,0,1021.6,926.8,0,0,0,0,0.5,1.58,8.9,11.5,137,131,25.9,24.1,18.9,20.1,18.0,0.122,0.145,0.208,0.329,1,3600.0,812.0,712.5,99.4,905.2,812.0,1063.3,792.0,695.0,97.0,905.2,792.0,1037.1,Magnoliopsida; Tracheophyta; Acacia Mill.; Quercus L.; Castanea sativa Mill.
2013,2013-09-13,Vila Real,Montalegre,Pondras,Ormeche,41.7040879999267,-7.91208100001017,Reacendimento,816.0,2013-09-13T09:00,18.3,57,9.7,16.8,0.0,0.0,0.0,0.0,0,1022.8,930.3,0,0,0,0,0.23,0.91,9.8,13.4,96,98,29.5,18.4,18.1,19.6,17.7,0.147,0.147,0.21,0.327,1,3600.0,462.4,376.4,86.0,751.7,462.4,676.7,387.0,315.0,72.0,751.7,387.0,566.3,Pinus pinaster Aiton; Magnoliopsida; Tracheophyta; Quercus L.
2013,2013-09-13,Vila Real,Chaves,Nogueira da Montanha,SANTIAGO DO MONTE,41.6725270001094,-7.44386299981011,NC,845.0,2013-09-13T03:00,13.3,61,6.0,11.4,0.0,0.0,0.0,0.0,0,1021.9,924.8,0,0,0,0,0.01,0.6,5.8,10.7,86,102,15.5,13.6,19.3,20.0,18.0,0.117,0.145,0.208,0.329,0,0.0,0.0,0.0,0.0,0.0,0.0,0.0,0.0,0.0,0.0,0.0,0.0,0.0,Magnoliopsida; Tracheophyta; Acacia Mill.; Quercus L.; Castanea sativa Mill.
2013,2013-09-13,Vila Real,Vila Real,Vila Real (São Pedro),Meia-Laranja,41.2931260002984,-7.74151599989997,NC,414.0,2013-09-13T01:00,16.6,44,4.2,13.7,0.0,0.0,0.0,0.0,0,1019.6,971.2,0,0,0,0,0.07,1.07,10.4,16.9,90,88,25.6,16.4,22.1,22.3,20.0,0.147,0.147,0.166,0.32,0,0.0,0.0,0.0,0.0,0.0,0.0,0.0,0.0,0.0,0.0,0.0,0.0,0.0,Pinales; Tracheophyta; Vitis vinifera L.; Magnoliopsida
2013,2013-03-17,Vila Real,Chaves,Outeiro Seco,Modelo,41.7639960002899,-7.4675990000036,NC,409.0,2013-03-17T15:00,10.8,51,1.0,6.7,0.0,0.0,0.0,0.0,1,999.8,952.0,40,26,27,0,0.26,0.64,14.5,20.0,333,334,35.3,11.4,8.0,7.5,9.0,0.415,0.42,0.409,0.364,1,3600.0,504.0,372.0,132.0,626.6,504.0,820.5,546.0,403.0,143.0,626.6,546.0,888.9,Tracheophyta; Magnoliopsida; Pinus pinaster Aiton
2013,2013-05-05,Vila Real,Montalegre,Ferral,Sacoselo,41.6978859996796,-7.97336900022295,Reacendimento,770.0,2013-05-05T14:00,18.8,40,4.9,17.3,0.0,0.0,0.0,0.0,0,1020.3,933.1,7,0,11,0,0.53,1.3,14.2,18.5,243,241,38.5,19.6,12.9,10.0,8.1,0.257,0.297,0.349,0.407,1,3600.0,856.2,683.0,173.2,805.2,856.2,1140.9,885.0,706.0,179.0,805.2,885.0,1179.3,Pinus pinaster Aiton; Tracheophyta; Magnoliopsida
2013,2013-09-13,Vila Real,Boticas,Codessoso,Secerigo,41.650449000001,-7.7225960000356,NC,739.0,2013-09-13T23:00,18.1,58,9.6,17.2,0.0,0.0,0.0,0.0,0,1021.7,937.5,0,0,0,0,0.02,0.88,6.1,8.7,357,17,14.4,17.4,20.2,19.5,17.7,0.15,0.149,0.209,0.326,0,0.0,0.0,0.0,0.0,0.0,0.0,0.0,0.0,0.0,0.0,0.0,0.0,0.0,Quercus L.; Pinus pinaster Aiton; Magnoliopsida; Tracheophyta; Pinales
2013,2013-09-14,Vila Real,Montalegre,Cabril,Lagoa do Marinho (P.N.P.GERES),41.7627869998084,-8.04415799988641,NC,1149.0,2013-09-14T08:00,15.2,73,10.4,14.4,0.0,0.0,0.0,0.0,0,1020.8,892.4,10,0,0,33,0.1,0.47,6.4,11.3,47,59,18.7,14.9,17.4,17.9,15.4,0.242,0.279,0.303,0.419,1,3600.0,264.9,192.8,72.1,582.3,264.9,447.7,191.0,139.0,52.0,582.3,191.0,322.8,Tracheophyta
2013,2013-09-14,Vila Real,Chaves,Nogueira da Montanha,Maços,41.6857909999953,-7.44576400015089,NC,845.0,2013-09-14T13:00,26.1,28,6.4,24.5,0.0,0.0,0.0,0.0,0,1018.6,925.7,7,0,0,23,0.59,2.41,13.5,17.6,316,317,34.9,29.7,20.2,19.8,18.1,0.111,0.145,0.207,0.328,1,3600.0,793.5,700.3,93.2,903.8,793.5,1047.8,800.0,706.0,94.0,903.8,800.0,1056.3,Magnoliopsida; Pinus pinaster Aiton; Acacia Mill.; Castanea sativa Mill.
2013,2013-09-14,Vila Real,Chaves,Santo Estêvão,SANTO ESTEVÃO,41.7658750004239,-7.41525499979655,NC,373.0,2013-09-14T17:00,27.4,37,11.2,25.6,0.0,0.0,0.0,0.0,0,1015.4,973.4,6,0,0,20,0.33,2.31,14.4,19.9,328,328,31.3,30.9,24.7,22.9,20.7,0.129,0.134,0.166,0.314,1,3600.0,274.2,221.2,53.0,720.3,274.2,415.3,352.0,284.0,68.0,720.3,352.0,533.2,Tracheophyta; Pinus pinaster Aiton; Magnoliopsida
2013,2013-09-14,Vila Real,Chaves,Santa Leocádia,SANTA LEOCÁDIA,41.6168089999921,-7.46125299983554,Reacendimento,848.0,2013-09-14T16:00,26.7,29,7.2,23.6,0.0,0.0,0.0,0.0,0,1017.1,924.2,5,0,0,18,0.45,2.48,16.0,21.8,337,338,39.6,30.2,21.7,20.2,18.1,0.115,0.136,0.188,0.322,1,3600.0,459.9,387.0,72.9,806.3,459.9,649.1,530.0,446.0,84.0,806.3,530.0,748.1,Castanea sativa Mill.; Magnoliopsida; Pinus pinaster Aiton; Tracheophyta
2013,2013-09-14,Vila Real,Chaves,Calvão,CALVÃO,41.7910739999347,-7.55327600002289,Reacendimento,674.0,2013-09-14T13:00,26.7,31,7.9,26.0,0.0,0.0,0.0,0.0,0,1018.3,943.5,9,0,0,30,0.59,2.43,10.8,13.7,330,330,29.2,28.6,20.4,20.0,18.1,0.172,0.176,0.215,0.35,1,3600.0,795.8,699.5,96.2,904.2,795.8,1046.1,802.0,705.0,97.0,904.2,802.0,1054.3,Pinus pinaster Aiton; Castanea sativa Mill.; Magnoliopsida; Quercus L.
2013,2013-09-14,Vila Real,Ribeira de Pena,Canedo,LUGAR DA FOLGUEIRA,41.6197222222222,-7.73083333333333,Reacendimento,529.0,2013-09-14T13:00,28.1,30,8.8,28.6,0.0,0.0,0.0,0.0,0,1018.0,959.0,8,0,0,27,0.58,2.66,5.5,7.0,328,325,19.8,30.6,21.3,21.1,19.6,0.112,0.149,0.217,0.33,1,3600.0,802.9,704.7,98.3,908.9,802.9,1048.5,809.0,710.0,99.0,908.9,809.0,1056.4,Magnoliopsida; Pinus pinaster Aiton; Tracheophyta
2013,2013-09-15,Vila Real,Valpaços,Friões,Barracão,41.6909950002035,-7.37399900012546,Reacendimento,789.0,2013-09-15T09:00,17.5,67,11.3,17.3,0.0,0.0,0.0,0.0,0,1019.0,929.5,13,0,0,43,0.17,0.66,3.8,4.9,49,54,15.8,19.4,19.9,20.2,18.4,0.109,0.145,0.207,0.328,1,3600.0,361.4,242.2,119.3,483.7,361.4,677.3,303.0,203.0,100.0,483.7,303.0,567.8,Tracheophyta; Castanea sativa Mill.; Magnoliopsida
2013,2013-09-15,Vila Real,Vila Pouca de Aguiar,Vreia de Jales,Barrela,41.4194180001153,-7.59247200012207,Reacendimento,760.0,2013-09-15T08:00,16.1,80,12.7,15.9,0.0,0.0,0.0,0.0,1,1018.9,932.1,20,12,0,32,0.09,0.37,7.7,11.5,41,46,22.7,17.6,20.6,20.7,18.5,0.127,0.134,0.177,0.323,1,3600.0,247.6,164.6,83.0,492.0,247.6,452.6,179.0,119.0,60.0,492.0,179.0,327.2,Magnoliopsida; Tracheophyta; Quercus L.
2013,2013-09-15,Vila Real,Valpaços,Serapicos,Corveira,41.5990539995829,-7.43574400001102,NC,869.0,2013-09-15T14:00,23.8,35,7.3,23.8,0.0,0.0,0.0,0.0,1,1016.6,920.8,20,0,0,67,0.5,1.93,4.3,5.4,42,42,19.4,28.1,20.6,19.8,17.8,0.132,0.137,0.177,0.322,1,3600.0,721.5,608.4,113.1,848.8,721.5,969.9,753.0,635.0,118.0,848.8,753.0,1012.3,Magnoliopsida; Castanea sativa Mill.; Quercus L.
2013,2013-09-15,Vila Real,Chaves,Vilela Seca,VILELA SECA,41.8284369998508,-7.46988200002246,NC,414.0,2013-09-15T21:00,19.9,49,8.9,18.5,0.0,0.0,0.0,0.0,0,1015.6,968.0,0,0,0,0,0.05,1.18,7.6,10.3,329,335,13.3,22.3,23.6,21.7,19.8,0.129,0.138,0.178,0.322,0,0.0,0.0,0.0,0.0,0.0,0.0,0.0,0.0,0.0,0.0,0.0,0.0,0.0,Vitis vinifera L.; Tracheophyta; Magnoliopsida
2013,2013-09-15,Vila Real,Chaves,Santa Leocádia,SANTA LEOCÁDIA,41.6168089999921,-7.46125299983554,NC,848.0,2013-09-15T13:00,23.4,39,8.6,24.0,0.0,0.0,0.0,0.0,0,1017.2,923.4,19,0,0,63,0.53,1.77,4.3,5.6,66,63,21.6,27.8,20.7,20.2,18.1,0.114,0.136,0.188,0.321,1,3600.0,787.6,675.5,112.1,875.7,787.6,1043.7,794.0,681.0,113.0,875.7,794.0,1052.2,Castanea sativa Mill.; Magnoliopsida; Pinus pinaster Aiton; Tracheophyta
2013,2013-09-16,Vila Real,Chaves,Outeiro Seco,Outeiro Seco,41.7668800000019,-7.45269300010469,NC,377.0,2013-09-16T17:00,25.3,46,12.8,24.3,0.0,0.0,0.0,0.0,1,1012.1,969.5,25,0,0,83,0.28,1.75,13.1,18.0,323,323,31.3,29.0,23.5,21.9,20.1,0.126,0.137,0.177,0.322,1,3600.0,261.0,205.4,55.6,693.8,261.0,400.8,338.0,266.0,72.0,693.8,338.0,519.1,Magnoliopsida; Tracheophyta; Pinus pinaster Aiton
2013,2013-05-10,Vila Real,Chaves,Vale de Anta,Várzea,41.7277777777778,-7.48555555555556,NC,402.0,2013-05-10T14:00,19.1,48,8.0,20.1,0.0,0.0,0.0,0.0,1,1019.3,972.7,21,10,20,0,0.52,1.15,3.7,4.5,281,284,17.6,20.3,14.0,12.3,10.1,0.337,0.325,0.343,0.394,1,3600.0,825.8,605.3,220.5,707.5,825.8,1148.0,854.0,626.0,228.0,707.5,854.0,1187.2,Tracheophyta; Magnoliopsida; Vitis vinifera L.
2013,2013-09-16,Vila Real,Vila Real,Vila Marim,Arnal,41.3347029999892,-7.81298000017802,NC,946.0,2013-09-16T15:00,25.5,33,7.9,24.4,0.0,0.0,0.0,0.0,0,1013.0,910.1,12,0,0,40,0.48,2.2,8.7,11.2,315,315,27.0,29.3,20.8,19.4,17.3,0.128,0.134,0.177,0.323,1,3600.0,610.2,526.5,83.6,856.6,610.2,832.2,664.0,573.0,91.0,856.6,664.0,905.6,Tracheophyta; Magnoliopsida
2013,2013-09-16,Vila Real,Vila Pouca de Aguiar,Pensalvos,PENSALVES,41.5628579998016,-7.6560160001119,Reacendimento,759.0,2013-09-16T12:00,25.2,34,8.4,25.4,0.0,0.0,0.0,0.0,1,1014.7,930.9,25,0,0,84,0.53,2.1,5.2,6.6,326,331,21.6,28.9,20.9,20.6,18.6,0.101,0.137,0.195,0.32,1,3600.0,792.8,695.3,97.4,901.5,792.8,1044.1,773.0,678.0,95.0,901.5,773.0,1018.1,Pinus pinaster Aiton; Magnoliopsida; Quercus L.; Tracheophyta
2013,2013-05-11,Vila Real,Chaves,Vilarinho das Paranheiras,VILARINHO DAS PARANHEIRAS,41.6633390002781,-7.57603299988641,NC,317.0,2013-05-11T17:00,17.8,50,7.3,15.7,0.0,0.0,0.0,0.0,0,1019.8,982.7,0,0,0,0,0.32,1.02,9.8,12.6,336,340,25.6,19.4,15.2,12.9,10.7,0.307,0.318,0.341,0.394,1,3600.0,459.5,388.1,71.3,830.0,459.5,627.2,541.0,457.0,84.0,830.0,541.0,738.5,Tracheophyta; Magnoliopsida; Vitis vinifera L.; Pinus pinaster Aiton
2013,2013-09-16,Vila Real,Chaves,Bobadela,BOBADELA,41.7626629998949,-7.32144900004069,NC,877.0,2013-09-16T22:00,14.1,81,10.9,12.8,0.0,0.0,0.0,0.0,1,1016.9,917.1,30,2,0,94,0.01,0.31,11.0,20.4,349,352,28.4,18.2,21.4,19.9,17.7,0.127,0.134,0.17,0.321,0,0.0,0.0,0.0,0.0,0.0,0.0,0.0,0.0,0.0,0.0,0.0,0.0,0.0,Tracheophyta; Magnoliopsida; Pinales; Quercus L.
2013,2013-09-17,Vila Real,Valpaços,Bouçoães,Tortomil,41.7448490005069,-7.22670299953885,NC,701.0,2013-09-17T02:00,11.9,88,10.0,11.0,0.0,0.0,0.0,0.0,0,1016.1,934.9,3,0,0,11,0.0,0.17,6.5,13.7,3,14,13.3,15.9,21.4,20.8,18.6,0.131,0.134,0.17,0.321,0,0.0,0.0,0.0,0.0,0.0,0.0,0.0,0.0,0.0,0.0,0.0,0.0,0.0,Magnoliopsida; Tracheophyta; Castanea sativa Mill.
2013,2013-09-17,Vila Real,Chaves,Seara Velha,REVOLTA,41.7667900000016,-7.55830500019921,Reacendimento,598.0,2013-09-17T19:00,19.5,52,9.4,17.7,0.0,0.0,0.0,0.0,0,1015.8,947.7,9,0,0,29,0.08,1.09,11.3,22.6,338,343,31.0,22.5,21.4,20.4,18.7,0.155,0.176,0.214,0.348,0,91.8,0.0,0.0,0.0,0.0,0.0,0.0,15.0,7.0,8.0,79.9,15.0,59.7,Magnoliopsida; Tracheophyta
2013,2013-09-17,Vila Real,Vila Pouca de Aguiar,Vreia de Jales,CHÃO DAS VINHAS,41.4194180001153,-7.59247200012207,Reacendimento,760.0,2013-09-17T13:00,24.1,33,6.8,23.2,0.0,0.0,0.0,0.0,0,1016.7,932.3,0,0,0,0,0.55,2.02,10.6,13.4,18,20,33.5,28.0,21.1,20.7,18.6,0.125,0.134,0.176,0.322,1,3600.0,786.2,690.0,96.2,903.2,786.2,1034.8,793.0,696.0,97.0,903.2,793.0,1043.8,Magnoliopsida; Tracheophyta; Quercus L.
2013,2013-09-17,Vila Real,Montalegre,Cabril,Vila Boa (P.N.P.GERES),41.7231610001458,-8.03099200036791,NC,288.0,2013-09-17T20:00,21.5,52,11.2,20.8,0.0,0.0,0.0,0.0,0,1015.2,982.0,4,0,0,14,0.04,1.23,7.6,20.2,352,360,21.6,24.1,24.3,22.7,20.4,0.1,0.136,0.188,0.313,0,0.0,0.0,0.0,0.0,0.0,0.0,0.0,0.0,0.0,0.0,0.0,0.0,0.0,Magnoliopsida; Pinus pinaster Aiton; Tracheophyta
2013,2013-09-17,Vila Real,Chaves,Roriz,RORIZ,41.8225559997559,-7.26292099952698,NC,839.0,2013-09-17T18:00,20.8,42,7.2,18.0,0.0,0.0,0.0,0.0,0,1015.8,922.2,5,0,0,16,0.16,1.43,13.7,20.7,337,340,36.4,24.7,21.4,20.1,17.9,0.126,0.134,0.169,0.321,1,3600.0,76.0,53.0,22.9,533.3,76.0,134.6,149.0,104.0,45.0,533.3,149.0,264.2,Tracheophyta; Magnoliopsida; Castanea sativa Mill.; Quercus L.
2013,2013-09-17,Vila Real,Chaves,Santa Leocádia,Vale do Galo,41.6033339998457,-7.47371799998813,NC,867.0,2013-09-17T21:00,17.5,54,8.2,16.1,0.0,0.0,0.0,0.0,1,1017.3,919.6,20,0,0,67,0.03,0.91,6.2,15.9,350,357,21.6,20.3,21.6,20.1,18.1,0.112,0.136,0.187,0.32,0,0.0,0.0,0.0,0.0,0.0,0.0,0.0,0.0,0.0,0.0,0.0,0.0,0.0,Castanea sativa Mill.; Magnoliopsida; Tracheophyta; Pinus pinaster Aiton
2013,2013-09-18,Vila Real,Chaves,Santa Leocádia,VALE DO GALO,41.6168089999921,-7.46125299983554,NC,848.0,2013-09-18T06:00,9.4,95,8.6,8.1,0.0,0.0,0.0,0.0,1,1017.7,919.4,25,19,0,25,0.0,0.06,6.1,15.9,360,6,23.0,13.0,19.7,20.2,18.2,0.112,0.136,0.187,0.32,0,0.0,0.0,0.0,0.0,0.0,0.0,0.0,0.0,0.0,0.0,0.0,0.0,0.0,Castanea sativa Mill.; Magnoliopsida; Pinus pinaster Aiton; Tracheophyta
2013,2013-09-18,Vila Real,Vila Real,Vila Real (Nossa Senhora da Conceição),RUA SANTA IRIA,41.3140670002831,-7.74403900040521,NC,415.0,2013-09-18T13:00,25.7,34,8.5,25.8,0.0,0.0,0.0,0.0,0,1016.5,969.6,0,0,0,0,0.56,2.19,6.9,8.8,9,12,24.1,30.4,22.2,22.1,20.2,0.138,0.147,0.166,0.318,1,3600.0,796.1,702.9,93.2,923.4,796.1,1031.6,803.0,709.0,94.0,923.4,803.0,1040.6,Pinus pinaster Aiton; Pinales; Magnoliopsida; Tracheophyta
2013,2013-09-18,Vila Real,Vila Pouca de Aguiar,Vreia de Jales,CHÃO DAS VINHAS,41.4194180001153,-7.59247200012207,Reacendimento,760.0,2013-09-18T14:00,24.5,31,6.4,22.6,0.0,0.0,0.0,0.0,0,1017.4,933.1,8,9,0,0,0.54,2.12,14.4,18.7,359,360,39.6,28.7,21.0,20.7,18.6,0.124,0.134,0.175,0.321,1,3600.0,720.4,627.6,92.8,891.8,720.4,953.8,753.0,656.0,97.0,891.8,753.0,996.9,Magnoliopsida; Tracheophyta; Quercus L.
2013,2013-09-19,Vila Real,Vila Pouca de Aguiar,Vreia de Jales,CHÃO DAS VINHAS,41.4194180001153,-7.59247200012207,Reacendimento,760.0,2013-09-19T08:00,15.8,80,12.4,15.4,0.0,0.0,0.0,0.0,0,1020.0,933.1,16,13,0,14,0.09,0.36,7.7,11.5,28,32,21.6,16.9,19.8,20.6,18.7,0.124,0.134,0.175,0.321,1,3600.0,237.4,160.1,77.3,498.4,237.4,435.6,169.0,114.0,55.0,498.4,169.0,310.1,Magnoliopsida; Tracheophyta; Quercus L.
2013,2013-09-19,Vila Real,Vila Pouca de Aguiar,Vreia de Jales,Barrela,41.4194180001153,-7.59247200012207,Reacendimento,760.0,2013-09-19T18:00,24.6,33,7.1,21.9,0.0,0.0,0.0,0.0,0,1017.6,933.3,0,0,0,0,0.19,2.09,13.7,23.9,3,6,36.0,26.6,22.1,20.6,18.7,0.123,0.134,0.175,0.321,1,3600.0,70.5,48.6,21.9,534.4,70.5,123.4,145.0,100.0,45.0,534.4,145.0,253.8,Magnoliopsida; Tracheophyta; Quercus L.
2013,2013-09-19,Vila Real,Sabrosa,Sabrosa,LUGAR DA CARVALHA,41.2653649997711,-7.57464900016785,Desconhecida,576.0,2013-09-19T19:00,23.7,37,8.2,22.0,0.0,0.0,0.0,0.0,0,1016.0,951.2,0,0,0,0,0.1,1.85,8.6,15.2,360,5,19.4,24.8,22.5,20.9,19.1,0.126,0.134,0.175,0.321,0,0.14,0.0,0.0,0.0,0.0,0.0,0.0,11.0,5.0,6.0,60.0,11.0,53.9,Pinus pinaster Aiton; Vitis vinifera L.; Magnoliopsida; Olea europaea L.; Tracheophyta
2013,2013-09-19,Vila Real,Valpaços,São João da Corveira,Vilarinho do Monte,41.5969809998406,-7.4578599998686,NC,894.0,2013-09-19T13:00,23.9,39,9.1,23.7,0.0,0.0,0.0,0.0,0,1018.4,919.8,0,0,0,0,0.53,1.82,9.1,11.5,18,20,29.5,27.8,19.9,19.8,17.9,0.111,0.135,0.186,0.32,1,3600.0,773.9,677.8,96.1,899.7,773.9,1021.5,781.0,684.0,97.0,899.7,781.0,1030.9,Quercus L.; Tracheophyta; Magnoliopsida; Castanea sativa Mill.
2013,2013-09-19,Vila Real,Valpaços,Friões,Barracão,41.6909950002035,-7.37399900012546,Reacendimento,789.0,2013-09-19T12:00,23.1,41,9.2,23.3,0.0,0.0,0.0,0.0,0,1018.9,931.0,0,0,0,0,0.5,1.66,6.0,7.7,343,349,24.1,26.8,19.8,20.1,18.6,0.102,0.144,0.206,0.326,1,3600.0,784.0,690.7,93.3,912.0,784.0,1027.0,765.0,674.0,91.0,912.0,765.0,1002.1,Tracheophyta; Castanea sativa Mill.; Magnoliopsida
2013,2013-09-20,Vila Real,Chaves,Seara Velha,SEARA VELHA,41.7667900000016,-7.55830500019921,NC,598.0,2013-09-20T07:00,14.2,91,12.8,14.6,0.0,0.0,0.0,0.0,0,1020.5,950.9,0,0,0,0,0.01,0.15,3.4,6.8,148,122,9.7,14.2,19.7,20.3,18.7,0.15,0.175,0.214,0.347,1,602.47,56.2,29.2,27.0,226.0,32.0,175.4,25.0,13.0,12.0,128.7,25.0,78.0,Magnoliopsida; Tracheophyta
2013,2013-09-20,Vila Real,Peso da Régua,Poiares,POIARES,41.177751999961,-7.72435999976264,NC,517.0,2013-09-20T21:00,22.2,41,8.5,21.0,0.0,0.0,0.0,0.0,0,1019.2,960.4,17,0,0,57,0.04,1.57,5.6,8.9,63,76,15.1,21.5,23.2,21.4,19.7,0.135,0.147,0.165,0.317,0,0.0,0.0,0.0,0.0,0.0,0.0,0.0,0.0,0.0,0.0,0.0,0.0,0.0,Magnoliopsida; Vitis vinifera L.; Pinus pinaster Aiton; Olea europaea L.; Tracheophyta
2013,2013-09-21,Vila Real,Ribeira De Pena,Santo Aleixo de Além-tâmega,Bragadas,41.5400430001153,-7.83234500037299,Reacendimento,403.0,2013-09-21T11:00,25.7,44,12.6,25.3,0.0,0.0,0.0,0.0,1,1021.6,975.8,29,0,0,96,0.47,1.85,12.6,16.9,92,92,37.4,27.1,22.1,21.7,19.8,0.098,0.135,0.189,0.313,1,3600.0,698.8,590.1,108.6,837.6,698.8,956.4,656.0,554.0,102.0,837.6,656.0,897.8,Magnoliopsida; Eucalyptus L'Hér.; Pinus pinaster Aiton; Vitis vinifera L.; Tracheophyta
2013,2013-09-21,Vila Real,Mondim de Basto,Vilar de Ferreiros,Bezerral,41.418630999989,-7.8915150001314,Reacendimento,582.0,2013-09-21T02:00,15.5,67,9.5,14.2,0.0,0.0,0.0,0.0,0,1019.7,952.3,12,0,0,39,0.02,0.57,8.2,15.2,67,86,23.4,17.4,22.2,21.0,18.9,0.113,0.134,0.174,0.314,0,0.0,0.0,0.0,0.0,0.0,0.0,0.0,0.0,0.0,0.0,0.0,0.0,0.0,Magnoliopsida; Vitis vinifera L.; Eucalyptus L'Hér.; Pinus pinaster Aiton
2013,2013-09-21,Vila Real,Vila Real,Campeã,Montes,41.2664460002051,-7.88372099998924,Reacendimento,860.0,2013-09-21T14:00,26.3,33,8.7,25.8,0.0,0.0,0.0,0.0,0,1020.9,926.3,14,0,0,47,0.52,2.29,8.1,10.4,111,110,30.6,28.7,20.6,19.5,17.6,0.125,0.134,0.174,0.32,1,3600.0,682.4,572.5,109.9,827.6,682.4,939.1,714.0,599.0,115.0,827.6,714.0,982.5,Pinus pinaster Aiton; Magnoliopsida
2013,2013-09-21,Vila Real,Valpaços,São João da Corveira,Rio Bom,41.576418999566,-7.48325400034587,NC,896.0,2013-09-21T19:00,23.8,41,9.8,23.1,0.0,0.0,0.0,0.0,1,1020.2,921.2,27,0,0,89,0.06,1.74,4.7,6.4,157,153,11.9,24.7,21.9,19.8,18.0,0.11,0.135,0.185,0.319,0,0.0,0.0,0.0,0.0,0.0,0.0,0.0,8.0,1.0,7.0,13.1,8.0,44.2,Castanea sativa Mill.
2013,2013-09-21,Vila Real,Murça,Fiolhoso,CADAVAL - QUEIROAL.,41.3950529999203,-7.48731699996524,Desconhecida,675.0,2013-09-21T14:00,27.2,33,9.4,26.9,0.0,0.0,0.0,0.0,0,1020.9,946.0,13,0,0,42,0.52,2.43,8.0,10.1,108,107,28.8,30.5,22.0,21.1,19.2,0.121,0.133,0.169,0.317,1,3600.0,683.0,576.0,107.0,835.1,683.0,936.3,715.0,603.0,112.0,835.1,715.0,980.2,Magnoliopsida; Vitis vinifera L.; Tracheophyta; Pinus pinaster Aiton; Quercus L.; Olea europaea L.; Castanea sativa Mill.; 
2013,2013-09-21,Vila Real,Chaves,Calvão,CASTELÕES,41.7910739999347,-7.55327600002289,NC,674.0,2013-09-21T19:00,24.7,41,10.4,23.9,0.0,0.0,0.0,0.0,1,1019.9,944.5,27,0,0,89,0.07,1.85,5.9,8.0,169,162,12.2,25.1,22.1,19.8,18.3,0.145,0.175,0.213,0.347,0,0.0,0.0,0.0,0.0,0.0,0.0,0.0,7.0,2.0,5.0,26.2,7.0,44.3,Pinus pinaster Aiton; Castanea sativa Mill.; Magnoliopsida; Quercus L.
2013,2013-09-22,Vila Real,Vila Real,Campeã,Montes,41.2664460002051,-7.88372099998924,Reacendimento,860.0,2013-09-22T10:00,22.2,39,7.7,20.5,0.0,0.0,0.0,0.0,0,1022.1,926.2,0,0,0,0,0.35,1.63,7.6,9.7,93,92,24.1,22.6,19.9,19.6,17.6,0.124,0.134,0.174,0.32,1,3600.0,587.9,496.2,91.6,813.0,587.9,829.0,526.0,444.0,82.0,813.0,526.0,741.7,Pinus pinaster Aiton; Magnoliopsida
2013,2013-09-22,Vila Real,Ribeira De Pena,Santo Aleixo de Além-tâmega,Bragadas,41.5400430001153,-7.83234500037299,Reacendimento,403.0,2013-09-22T05:00,16.3,71,11.0,15.2,0.0,0.0,0.0,0.0,0,1019.8,972.6,0,0,0,0,0.02,0.54,10.1,16.8,86,81,22.3,17.5,22.7,21.8,19.8,0.098,0.135,0.189,0.313,0,0.0,0.0,0.0,0.0,0.0,0.0,0.0,0.0,0.0,0.0,0.0,0.0,0.0,Magnoliopsida; Eucalyptus L'Hér.; Pinus pinaster Aiton; Vitis vinifera L.; Tracheophyta
2013,2013-09-22,Vila Real,Chaves,Seara Velha,SEARA VELHA,41.7667900000016,-7.55830500019921,NC,598.0,2013-09-22T20:00,24.1,43,10.8,23.9,0.0,0.0,0.0,0.0,0,1019.2,951.9,0,0,0,0,0.01,1.7,2.5,3.6,262,233,8.6,24.1,23.3,20.4,18.8,0.143,0.175,0.213,0.346,0,0.0,0.0,0.0,0.0,0.0,0.0,0.0,0.0,0.0,0.0,0.0,0.0,0.0,Magnoliopsida; Tracheophyta
2013,2013-09-22,Vila Real,Chaves,Roriz,RORIZ,41.8225559997559,-7.26292099952698,NC,839.0,2013-09-22T20:00,24.1,30,5.6,22.4,0.0,0.0,0.0,0.0,0,1019.9,926.9,0,0,0,0,0.03,2.08,3.6,6.4,276,254,9.7,23.3,22.9,20.0,18.1,0.12,0.133,0.168,0.319,0,0.0,0.0,0.0,0.0,0.0,0.0,0.0,0.0,0.0,0.0,0.0,0.0,0.0,Tracheophyta; Magnoliopsida; Castanea sativa Mill.; Quercus L.
2013,2013-09-22,Vila Real,Vila Pouca de Aguiar,Telões,Pontido,41.4639439996084,-7.687861000167,Desconhecida,871.0,2013-09-22T20:00,23.2,39,8.5,22.3,0.0,0.0,0.0,0.0,0,1020.0,923.4,4,0,7,0,0.03,1.74,3.9,4.8,304,312,13.3,23.4,22.5,19.9,18.1,0.099,0.136,0.192,0.317,0,0.0,0.0,0.0,0.0,0.0,0.0,0.0,0.0,0.0,0.0,0.0,0.0,0.0,Pinus pinaster Aiton; Quercus L.; Tracheophyta; Pinales; Magnoliopsida; Castanea sativa Mill.
2013,2013-09-23,Vila Real,Chaves,Cimo de Vila da Castanheira,CIMO DE VILA DA CASTANHEIRA,41.7928670003679,-7.26572800000509,NC,778.0,2013-09-23T10:00,25.6,28,5.6,23.2,0.0,0.0,0.0,0.0,0,1017.6,931.7,0,0,0,0,0.39,2.37,8.7,11.3,142,143,25.9,25.2,21.2,20.5,18.5,0.12,0.133,0.168,0.319,1,3600.0,589.4,500.1,89.3,826.3,589.4,822.5,528.0,448.0,80.0,826.3,528.0,736.8,Magnoliopsida; Tracheophyta
2013,2013-09-23,Vila Real,Vila Pouca de Aguiar,Soutelo de Aguiar,SOUTELO DE AGUIAR,41.4801180002424,-7.67936999956767,Reacendimento,871.0,2013-09-23T10:00,24.4,33,7.2,22.9,0.0,0.0,0.0,0.0,0,1017.7,921.7,0,0,0,0,0.36,2.04,5.6,7.1,135,135,22.0,24.5,20.6,19.9,18.1,0.099,0.136,0.192,0.316,1,3600.0,589.1,500.8,88.3,827.3,589.1,822.6,527.0,448.0,79.0,827.3,527.0,735.9,Pinus pinaster Aiton; Tracheophyta; Quercus L.; Magnoliopsida
2013,2013-09-23,Vila Real,Vila Pouca de Aguiar,Vreia de Jales,CHÃO DAS VINHAS,41.434880999989,-7.62704099973043,Reacendimento,884.0,2013-09-23T12:00,27.3,27,6.4,25.5,0.0,0.0,0.0,0.0,0,1016.9,920.5,0,0,0,0,0.57,2.66,13.1,17.1,188,187,38.5,28.8,21.0,19.9,18.0,0.122,0.134,0.174,0.319,1,3600.0,759.6,666.3,93.3,896.9,759.6,1009.6,741.0,650.0,91.0,896.9,741.0,984.9,Magnoliopsida; Quercus L.; Tracheophyta; Pinus pinaster Aiton
2013,2013-09-23,Vila Real,Valpaços,Friões,Quintela,41.6821329996321,-7.3957210000356,Reacendimento,801.0,2013-09-23T13:00,28.9,22,5.3,26.9,0.0,0.0,0.0,0.0,0,1016.1,928.8,0,0,0,0,0.61,3.09,13.8,18.8,186,185,37.4,31.1,21.7,20.1,18.6,0.1,0.143,0.204,0.325,1,3600.0,758.0,666.0,92.0,907.8,758.0,997.1,766.0,673.0,93.0,907.8,766.0,1007.6,Tracheophyta; Quercus L.; Magnoliopsida; Castanea sativa Mill.
2013,2013-05-13,Vila Real,Montalegre,Pondras,Pai Afonso,41.6905939997567,-7.91813199996948,Reacendimento,960.0,2013-05-13T14:00,19.1,44,6.4,20.2,0.0,0.0,0.0,0.0,0,1018.0,911.0,1,1,0,0,0.57,1.25,2.9,4.0,60,63,19.4,20.2,12.9,9.9,7.5,0.29,0.324,0.343,0.402,1,3600.0,898.3,793.7,104.5,919.9,898.3,1156.2,928.0,820.0,108.0,919.9,928.0,1194.4,Tracheophyta; Magnoliopsida; Pinus pinaster Aiton
2013,2013-09-23,Vila Real,Vila Real,Pena,RANHADOURO - VILA MARIM,41.3054149998559,-7.85518333329095,Reacendimento,924.0,2013-09-23T14:00,28.0,25,6.2,26.3,0.0,0.0,0.0,0.0,0,1015.0,914.9,5,0,8,0,0.57,2.83,11.8,15.6,207,206,32.8,30.3,21.2,19.2,17.3,0.124,0.134,0.173,0.319,1,3600.0,695.1,609.2,85.9,893.4,695.1,926.7,728.0,638.0,90.0,893.4,728.0,970.6,Pinus pinaster Aiton; Magnoliopsida
2013,2013-09-23,Vila Real,Vila Real,Vila Cova,SENHORA DE LASSALETE,41.3177100000117,-7.85725200017293,NC,869.0,2013-09-23T14:00,28.3,25,6.5,26.7,0.0,0.0,0.0,0.0,0,1015.0,920.7,5,0,8,0,0.57,2.88,11.8,15.6,207,206,32.8,30.6,21.5,19.6,17.6,0.124,0.134,0.173,0.319,1,3600.0,695.1,609.2,85.9,893.4,695.1,926.7,728.0,638.0,90.0,893.4,728.0,970.6,Magnoliopsida; Vitis vinifera L.; Tracheophyta; Pinus pinaster Aiton
2013,2013-09-23,Vila Real,Vila Pouca de Aguiar,Vreia de Jales,Barrela,41.4194180001153,-7.59247200012207,Reacendimento,760.0,2013-09-23T13:00,29.0,24,6.6,27.3,0.0,0.0,0.0,0.0,0,1016.1,933.1,0,0,0,0,0.61,3.02,13.8,18.8,186,185,37.4,31.0,22.2,20.7,18.8,0.122,0.134,0.174,0.319,1,3600.0,758.2,666.1,92.1,904.7,758.2,1000.7,766.0,673.0,93.0,904.7,766.0,1010.9,Magnoliopsida; Tracheophyta; Quercus L.
2013,2013-09-23,Vila Real,Vila Pouca de Aguiar,Telões,OUTEIRO,41.4549679999881,-7.69510300000509,Desconhecida,749.0,2013-09-23T16:00,28.7,26,7.2,26.3,0.0,0.0,0.0,0.0,1,1014.1,932.3,26,0,42,3,0.37,2.93,11.5,15.5,226,226,33.1,31.3,23.3,20.7,18.9,0.099,0.136,0.191,0.316,1,3600.0,336.1,270.4,65.7,625.8,336.1,587.4,394.0,317.0,77.0,625.8,394.0,688.5,Pinus pinaster Aiton; Pinales; Quercus L.; Magnoliopsida; Tracheophyta
2013,2013-09-23,Vila Real,Boticas,Alturas do Barroso,ALTURAS DO BARROSO,41.7065810002221,-7.82196199999915,NC,1094.0,2013-09-23T23:00,15.2,77,11.1,14.9,0.0,0.0,0.0,0.0,1,1016.2,894.1,32,1,26,50,0.0,0.4,3.9,10.6,236,242,19.4,18.8,21.2,18.5,16.4,0.199,0.264,0.294,0.409,0,0.0,0.0,0.0,0.0,0.0,0.0,0.0,0.0,0.0,0.0,0.0,0.0,0.0,Tracheophyta; Magnoliopsida
2013,2013-09-24,Vila Real,Montalegre,Sarraquinhos,Pedrario,41.8095189995236,-7.64817799992032,Reacendimento,944.0,2013-09-24T12:00,21.6,49,10.3,20.2,0.0,0.0,0.0,0.0,2,1014.9,910.7,53,11,23,98,0.41,1.32,12.7,16.7,195,194,35.6,24.5,20.5,19.1,17.3,0.143,0.199,0.244,0.36,1,3600.0,620.2,399.8,220.4,544.5,620.2,998.5,605.0,390.0,215.0,544.5,605.0,974.0,Magnoliopsida; Tracheophyta
2013,2013-09-24,Vila Real,Montalegre,Cervos,CERVOS,41.7215880001916,-7.68954200002882,Reacendimento,837.0,2013-09-24T10:00,19.2,66,12.8,18.7,0.0,0.0,0.0,0.0,2,1015.6,921.8,74,37,25,85,0.22,0.75,10.1,13.0,174,174,30.2,21.3,20.5,19.5,17.8,0.109,0.143,0.205,0.322,1,3600.0,383.7,210.3,173.4,351.0,383.7,814.7,343.0,188.0,155.0,351.0,343.0,728.3,Pinus pinaster Aiton; Magnoliopsida; Eucalyptus L'Hér.; Tracheophyta; Pinales
2013,2013-09-24,Vila Real,Boticas,São Salvador de Viveiro,Agrelos,41.6597270001305,-7.80897999975416,NC,822.0,2013-09-24T02:00,15.8,89,14.0,16.7,0.0,0.0,0.0,0.0,1,1015.2,922.0,31,3,43,7,0.0,0.19,2.5,4.6,225,231,15.5,18.3,21.7,19.6,17.9,0.109,0.143,0.205,0.322,0,0.0,0.0,0.0,0.0,0.0,0.0,0.0,0.0,0.0,0.0,0.0,0.0,0.0,Magnoliopsida; Tracheophyta; Pinus pinaster Aiton
2013,2013-09-24,Vila Real,Vila Real,Campeã,Serra do Marão,41.2718880001704,-7.90279500007629,Reacendimento,1124.0,2013-09-24T00:00,14.0,85,11.5,13.6,0.0,0.0,0.0,0.0,1,1015.7,890.0,45,1,44,60,0.0,0.24,5.4,10.4,274,272,17.3,17.2,20.3,18.0,16.0,0.124,0.134,0.173,0.319,0,0.0,0.0,0.0,0.0,0.0,0.0,0.0,0.0,0.0,0.0,0.0,0.0,0.0,Pinales; Pinus pinaster Aiton; Magnoliopsida
2013,2013-09-24,Vila Real,Boticas,Alturas do Barroso,ALTO DO MORISCO,41.6968459998237,-7.81154200024075,NC,1042.0,2013-09-24T11:00,19.2,58,10.7,17.8,0.0,0.0,0.0,0.0,2,1015.4,900.2,52,14,21,91,0.28,0.93,10.8,14.4,182,180,33.8,22.0,20.0,18.8,16.5,0.208,0.278,0.301,0.415,1,3600.0,447.5,283.4,164.1,410.5,447.5,938.7,420.0,266.0,154.0,410.5,420.0,881.1,Tracheophyta; Magnoliopsida
2013,2013-09-24,Vila Real,Mondim de Basto,Bilhó,BILHÓ,41.4077479998271,-7.85687299993303,Reacendimento,588.0,2013-09-24T22:00,17.2,87,15.0,18.6,0.0,0.0,0.0,0.0,2,1013.6,946.3,61,8,43,94,0.0,0.25,2.2,5.0,279,270,15.8,20.2,22.9,21.2,19.0,0.113,0.134,0.173,0.312,0,0.0,0.0,0.0,0.0,0.0,0.0,0.0,0.0,0.0,0.0,0.0,0.0,0.0,Magnoliopsida; Vitis vinifera L.; Pinus pinaster Aiton; Tracheophyta; Quercus L.
2013,2013-09-24,Vila Real,Montalegre,Cabril,Fontainho - PARQUE N. GERES,41.7240590000153,-8.02858700010512,NC,342.0,2013-09-24T20:00,19.2,84,16.4,21.1,0.0,0.0,0.0,0.0,3,1013.9,974.3,91,47,33,96,0.0,0.36,2.5,4.0,188,185,14.4,22.8,24.2,22.6,20.3,0.1,0.135,0.185,0.309,0,0.0,0.0,0.0,0.0,0.0,0.0,0.0,0.0,0.0,0.0,0.0,0.0,0.0,Magnoliopsida; Pinus pinaster Aiton; Tracheophyta
2013,2013-09-24,Vila Real,Mondim de Basto,Bilhó,BILHÓ,41.4077479998271,-7.85687299993303,NC,588.0,2013-09-24T20:00,18.0,80,14.5,18.7,0.0,0.0,0.0,0.0,2,1013.9,946.7,56,5,38,97,0.0,0.42,5.4,9.4,266,270,19.4,21.9,23.2,21.2,19.0,0.113,0.134,0.173,0.312,0,0.0,0.0,0.0,0.0,0.0,0.0,0.0,0.0,0.0,0.0,0.0,0.0,0.0,Magnoliopsida; Vitis vinifera L.; Pinus pinaster Aiton; Tracheophyta; Quercus L.
2013,2013-09-24,Vila Real,Valpaços,Friões,FRIÕES,41.6677049999767,-7.39228299988641,NC,733.0,2013-09-24T21:00,18.8,66,12.4,18.8,0.0,0.0,0.0,0.0,2,1013.6,930.9,55,1,43,93,0.01,0.73,4.8,8.9,257,256,13.3,21.4,22.8,20.8,19.1,0.1,0.143,0.204,0.324,0,0.0,0.0,0.0,0.0,0.0,0.0,0.0,0.0,0.0,0.0,0.0,0.0,0.0,Magnoliopsida; Castanea sativa Mill.
2013,2013-09-24,Vila Real,Montalegre,Vilar de Perdizes (São Miguel),VILAR DE PERDIZES (S.Miguel),41.8544459999932,-7.62736799981859,NC,752.0,2013-09-24T20:00,19.2,64,12.3,19.0,0.0,0.0,0.0,0.0,2,1014.0,929.4,57,2,44,97,0.02,0.8,6.4,11.4,243,246,22.0,21.3,21.5,19.4,17.9,0.116,0.148,0.214,0.327,0,0.0,0.0,0.0,0.0,0.0,0.0,0.0,0.0,0.0,0.0,0.0,0.0,0.0,Castanea sativa Mill.; Magnoliopsida; Tracheophyta
2013,2013-09-24,Vila Real,Boticas,São Salvador de Viveiro,Agrelos,41.6597270001305,-7.80897999975416,NC,822.0,2013-09-24T14:00,23.3,44,10.3,21.8,0.0,0.0,0.0,0.0,1,1013.6,922.8,45,8,13,99,0.44,1.61,13.2,17.3,197,197,37.1,26.9,21.2,19.6,18.0,0.109,0.143,0.205,0.322,1,3600.0,582.2,425.7,156.5,632.1,582.2,915.8,610.0,446.0,164.0,632.1,610.0,959.5,Magnoliopsida; Tracheophyta; Pinus pinaster Aiton
2013,2013-09-24,Vila Real,Montalegre,Viade de Baixo,Pisões,41.7280433336894,-7.86562833362155,Reacendimento,849.0,2013-09-24T12:00,21.2,53,11.1,19.9,0.0,0.0,0.0,0.0,2,1014.7,920.3,61,22,20,97,0.4,1.19,12.6,16.9,183,182,34.6,24.6,20.7,19.6,17.8,0.103,0.143,0.207,0.323,1,3600.0,613.2,385.6,227.7,524.6,613.2,999.4,598.0,376.0,222.0,524.6,598.0,974.6,Tracheophyta; Magnoliopsida; Quercus L.
2013,2013-09-24,Vila Real,Valpaços,Padrela e Tazem,VALE DO CASAL DOS FETOS-RIO BOM,41.5769683329264,-7.4899883333842,NC,900.0,2013-09-24T14:00,23.9,39,9.0,22.0,0.0,0.0,0.0,0.0,1,1013.6,914.9,45,8,13,99,0.45,1.82,13.2,17.3,197,197,37.1,27.8,21.5,19.9,18.1,0.11,0.135,0.185,0.318,1,3600.0,581.8,425.4,156.4,632.3,581.8,914.8,610.0,446.0,164.0,632.3,610.0,959.2,Castanea sativa Mill.; Tracheophyta
2013,2013-09-24,Vila Real,Montalegre,Covelo do Gerês,S.BENTO,41.7279029994541,-7.98269900004069,Reacendimento,786.0,2013-09-24T14:00,22.9,47,10.8,21.3,0.0,0.0,0.0,0.0,1,1013.9,926.7,47,10,15,98,0.42,1.49,13.8,18.4,208,206,39.2,26.0,21.4,19.8,17.4,0.233,0.25,0.27,0.405,1,3600.0,566.4,410.7,155.7,609.2,566.4,916.7,593.0,430.0,163.0,609.2,593.0,959.8,Tracheophyta; Magnoliopsida; Pinus pinaster Aiton
2013,2013-09-25,Vila Real,Montalegre,Viade de Baixo,Antigo de Viade,41.7612833330366,-7.85858500003815,Reacendimento,911.0,2013-09-25T09:00,17.6,70,12.0,16.8,0.0,0.0,0.0,0.0,1,1012.0,910.2,44,15,40,20,0.16,0.61,9.7,13.3,182,182,32.4,17.8,19.0,19.1,17.2,0.139,0.141,0.203,0.32,1,3600.0,323.3,215.5,107.8,466.7,323.3,628.2,267.0,178.0,89.0,466.7,267.0,518.8,Tracheophyta; Magnoliopsida; Quercus L.
2013,2013-09-25,Vila Real,Vila Pouca de Aguiar,Santa Marta da Montanha,Viduedo,41.4885469998254,-7.771513999833,Reacendimento,951.0,2013-09-25T12:00,20.7,48,9.2,18.0,0.9,0.9,0.0,0.0,53,1012.0,907.1,49,25,40,7,0.27,1.28,17.2,23.8,200,198,42.8,23.1,19.8,19.5,17.5,0.127,0.134,0.175,0.32,1,3600.0,288.0,135.3,152.7,184.5,288.0,997.6,281.0,132.0,149.0,184.5,281.0,973.3,Magnoliopsida; Tracheophyta
2013,2013-09-25,Vila Real,Montalegre,Cervos,Alto do Fontão,41.7283000002967,-7.68604500002331,NC,879.0,2013-09-25T11:00,19.6,60,11.5,17.9,0.1,0.1,0.0,0.0,51,1011.9,914.2,46,23,31,24,0.28,0.92,14.8,20.2,186,185,40.3,20.7,19.4,19.3,17.6,0.138,0.143,0.205,0.321,1,3600.0,432.7,272.8,159.9,397.6,432.7,933.6,406.0,256.0,150.0,397.6,406.0,876.1,Magnoliopsida; Quercus L.; Eucalyptus L'Hér.; Pinus pinaster Aiton
2013,2013-09-25,Vila Real,Montalegre,Cervos,Arcos,41.759206000434,-7.67380700005425,Reacendimento,900.0,2013-09-25T19:00,17.6,74,12.9,17.2,0.1,0.1,0.0,0.0,51,1012.4,911.8,100,100,37,90,0.05,0.53,8.9,12.9,212,210,29.9,20.0,20.1,19.2,17.1,0.241,0.264,0.292,0.407,0,0.0,0.0,0.0,0.0,0.0,0.0,0.0,1.0,0.0,1.0,0.0,1.0,30.2,Tracheophyta; Magnoliopsida
2013,2013-09-25,Vila Real,Chaves,Redondelo,São Domingos,41.7110779995388,-7.58042799949646,NC,528.0,2013-09-25T21:00,19.3,78,15.3,20.3,0.0,0.0,0.0,0.0,2,1011.9,951.7,61,23,17,99,0.0,0.49,5.3,7.3,242,250,13.7,20.9,22.3,21.4,19.9,0.112,0.146,0.213,0.325,0,0.0,0.0,0.0,0.0,0.0,0.0,0.0,0.0,0.0,0.0,0.0,0.0,0.0,Magnoliopsida; Pinus pinaster Aiton; Tracheophyta
2013,2013-09-25,Vila Real,Chaves,Nogueira da Montanha,ALANHOSA,41.6673349999719,-7.44766199959649,NC,795.0,2013-09-25T13:00,22.4,44,9.5,19.8,0.2,0.2,0.0,0.0,51,1011.6,923.5,56,26,39,32,0.35,1.52,17.4,23.9,198,198,40.7,24.8,20.8,20.4,18.7,0.112,0.143,0.204,0.324,1,3600.0,425.3,283.9,141.4,392.0,425.3,985.3,430.0,287.0,143.0,392.0,430.0,996.2,Magnoliopsida; Acacia Mill.; Tracheophyta; Quercus L.; Castanea sativa Mill.
2013,2013-09-25,Vila Real,Chaves,Soutelinho da Raia,SOUTELINHO DA RAIA,41.8289810000526,-7.57219500011868,NC,859.0,2013-09-25T14:00,21.8,49,10.6,19.4,0.0,0.0,0.0,0.0,1,1011.0,916.1,37,12,15,57,0.4,1.34,18.8,25.3,192,191,50.8,23.2,20.1,19.4,17.4,0.242,0.264,0.292,0.407,1,3600.0,538.8,414.8,124.0,623.2,538.8,905.7,565.0,435.0,130.0,623.2,565.0,949.7,Magnoliopsida; Castanea sativa Mill.; Tracheophyta
2013,2013-09-25,Vila Real,Mesão frio,Vila Marim,BRUNHAIS,41.1745889997482,-7.87691699981689,Reacendimento,569.0,2013-09-25T14:00,22.7,47,11.0,20.9,0.0,0.0,0.0,0.0,3,1011.3,947.4,100,100,64,81,0.32,1.45,14.8,20.8,214,214,37.8,25.2,21.4,20.7,18.8,0.118,0.134,0.18,0.316,1,3600.0,366.4,175.5,190.8,260.5,366.4,917.1,384.0,184.0,200.0,260.5,384.0,961.2,Eucalyptus L'Hér.; Vitis vinifera L.; Pinus pinaster Aiton; Quercus L.; Magnoliopsida; Tracheophyta
2013,2013-09-26,Vila Real,Ribeira De Pena,Ribeira de Pena (Salvador),Bustelo,41.508363000022,-7.77379899978638,Reacendimento,872.0,2013-09-26T11:00,19.9,55,10.6,17.0,0.0,0.0,0.0,0.0,2,1011.4,914.5,79,61,0,79,0.31,1.04,20.5,29.2,178,178,51.8,21.3,19.6,20.0,18.1,0.129,0.134,0.175,0.319,1,3600.0,479.4,310.0,169.4,452.5,479.4,932.7,450.0,291.0,159.0,452.5,450.0,875.4,Tracheophyta; Pinus pinaster Aiton; Pinales; Magnoliopsida
2013,2013-09-26,Vila Real,Chaves,Vilarelho da Raia,Vila Meã,41.8246279997296,-7.44021299997966,NC,374.0,2013-09-26T18:00,24.8,40,10.1,22.6,0.0,0.0,0.0,0.0,2,1009.1,966.9,66,22,27,100,0.17,1.9,15.4,25.3,191,191,44.3,25.5,23.5,23.0,21.1,0.121,0.133,0.164,0.31,1,1785.41,21.3,6.9,14.4,78.9,19.8,68.4,62.0,20.0,42.0,127.3,62.0,198.9,Pinus pinaster Aiton; Magnoliopsida; Quercus L.; Tracheophyta; Vitis vinifera L.
2013,2013-09-26,Vila Real,Vila Real,Campeã,Montes,41.2664460002051,-7.88372099998924,Reacendimento,860.0,2013-09-26T13:00,21.9,44,9.0,18.8,0.0,0.0,0.0,0.0,3,1010.3,915.4,100,64,45,93,0.34,1.48,19.6,27.9,173,173,49.3,23.0,19.5,19.7,17.8,0.129,0.134,0.173,0.318,1,3600.0,386.9,146.5,240.5,202.2,386.9,986.0,391.0,148.0,243.0,202.2,391.0,996.4,Pinus pinaster Aiton; Magnoliopsida
2013,2013-03-20,Vila Real,Santa Marta de Penaguião,Louredo,Carvalhais,41.2627199999491,-7.83122900009155,NC,486.0,2013-03-20T17:00,11.6,52,2.1,8.0,0.0,0.0,0.0,0.0,1,1016.0,958.8,45,42,6,11,0.16,0.65,12.0,17.2,237,237,33.5,11.0,7.8,7.3,8.5,0.383,0.393,0.413,0.41,1,3600.0,211.7,95.2,116.5,302.0,211.7,435.1,269.0,121.0,148.0,302.0,269.0,552.9,Magnoliopsida; Pinus pinaster Aiton; Vitis vinifera L.; Olea europaea L.
2013,2013-05-14,Vila Real,Vila Real,Folhadela,VILA NOVA,41.2777079995473,-7.72732000033061,NC,541.0,2013-05-14T19:00,12.7,76,8.5,9.9,0.0,0.0,0.0,0.0,1,1009.4,946.6,26,27,3,1,0.08,0.35,16.2,24.7,291,293,47.9,16.9,16.2,12.3,9.6,0.244,0.264,0.303,0.398,1,3600.0,66.2,35.8,30.4,325.6,66.2,147.2,122.0,66.0,56.0,325.6,122.0,271.5,Magnoliopsida; Tracheophyta; Pinus pinaster Aiton; Vitis vinifera L.
2013,2013-09-27,Vila Real,Chaves,Sanjurge,SANJURGE,41.7746560001373,-7.51253099971347,NC,459.0,2013-09-27T00:00,18.4,68,12.3,18.1,0.0,0.0,0.0,0.0,3,1009.9,957.3,94,35,54,100,0.02,0.69,6.9,17.6,129,149,19.1,19.4,21.8,21.5,19.8,0.128,0.136,0.176,0.318,0,0.0,0.0,0.0,0.0,0.0,0.0,0.0,0.0,0.0,0.0,0.0,0.0,0.0,Tracheophyta; Magnoliopsida; Castanea sativa Mill.; Vitis vinifera L.
2013,2013-10-07,Vila Real,Alijó,Vila Verde,VILAR DE MACADA,41.3508479999834,-7.55946800020006,NC,746.0,2013-10-07T13:00,18.9,55,9.8,18.5,0.0,0.0,0.0,0.0,0,1021.6,936.9,0,0,0,0,0.42,0.98,8.7,11.6,97,95,25.6,19.9,15.6,18.0,19.1,0.33,0.333,0.218,0.316,1,3600.0,694.4,605.6,88.8,905.4,694.4,916.3,704.0,614.0,90.0,905.4,704.0,929.0,Tracheophyta; Magnoliopsida; Pinus pinaster Aiton
2013,2013-10-07,Vila Real,Montalegre,Sarraquinhos,Costa de Anelhe,41.810998000039,-7.62954799969991,NC,969.0,2013-10-07T15:00,19.2,53,9.3,18.7,0.0,0.0,0.0,0.0,0,1020.8,912.6,0,0,0,0,0.33,1.05,2.2,2.5,90,82,16.6,20.0,15.0,16.4,17.2,0.366,0.381,0.271,0.358,1,3600.0,500.7,427.0,73.7,856.1,500.7,683.3,557.0,475.0,82.0,856.1,557.0,760.2,Magnoliopsida; Tracheophyta
2013,2013-10-08,Vila Real,Chaves,Santa Maria Maior,BRº DA VARGEM,41.7428030003442,-7.47702200041877,NC,359.0,2013-10-08T19:00,20.6,54,10.9,20.4,0.0,0.0,0.0,0.0,0,1021.1,979.5,0,0,0,0,0.01,1.12,3.3,4.9,6,73,8.3,18.2,18.7,19.2,20.5,0.298,0.309,0.198,0.316,0,0.0,0.0,0.0,0.0,0.0,0.0,0.0,0.0,0.0,0.0,0.0,0.0,0.0,Tracheophyta
2013,2013-10-10,Vila Real,Vila Real,Vila Real (Nossa Senhora da Conceição),QUINTA DRº VAZ DE CARVALHO,41.3092469999525,-7.73429000000159,NC,450.0,2013-10-10T17:00,20.9,51,10.3,20.6,0.0,0.0,0.0,0.0,0,1014.8,963.4,0,0,0,0,0.12,1.22,2.8,5.9,310,317,13.3,20.2,17.1,18.2,20.2,0.291,0.305,0.205,0.313,1,3600.0,147.1,111.1,36.0,663.0,147.1,230.0,225.0,170.0,55.0,663.0,225.0,351.9,Pinales; Tracheophyta; Magnoliopsida; Pinus pinaster Aiton
2013,2013-11-12,Vila Real,Santa Marta de Penaguião,Sever,Ribeira d Elas,41.2330060005188,-7.79559599982368,NC,488.0,2013-11-12T14:00,16.3,65,9.8,15.4,0.0,0.0,0.0,0.0,0,1024.3,967.3,0,0,0,0,0.26,0.65,6.0,7.9,73,74,20.5,15.7,11.8,14.1,17.8,0.364,0.371,0.347,0.314,1,3600.0,444.8,376.1,68.7,853.4,444.8,615.5,479.0,405.0,74.0,853.4,479.0,662.7,Vitis vinifera L.; Olea europaea L.; Tracheophyta; Magnoliopsida; Quercus L.
2013,2013-11-20,Vila Real,Santa Marta de Penaguião,Louredo,Fiolhais,41.2528149999513,-7.83127500004239,NC,450.0,2013-11-20T13:00,8.8,56,0.4,6.0,0.0,0.0,0.0,0.0,0,1021.9,967.9,1,0,0,2,0.22,0.5,5.1,6.5,82,84,21.2,10.5,7.5,11.8,17.5,0.322,0.33,0.322,0.311,1,3600.0,492.4,421.8,70.6,893.6,492.4,661.4,502.0,430.0,72.0,893.6,502.0,674.3,Magnoliopsida; Pinus pinaster Aiton; Olea europaea L.; Tracheophyta; Vitis vinifera L.
2013,2013-11-21,Vila Real,Vila Pouca de Aguiar,Vreia de Jales,Quintã,41.434880999989,-7.62704099973043,NC,884.0,2013-11-21T15:00,7.1,66,1.2,3.3,0.0,0.0,0.0,0.0,2,1014.1,911.5,61,66,2,0,0.1,0.34,12.3,18.3,291,292,41.4,6.9,5.3,9.8,15.5,0.33,0.336,0.34,0.316,1,3600.0,165.8,74.8,91.0,244.7,165.8,428.7,195.0,88.0,107.0,244.7,195.0,504.2,Magnoliopsida; Quercus L.; Tracheophyta; Pinus pinaster Aiton
2013,2013-11-22,Vila Real,Vila Real,Adoufe,Paredes,41.3605555555556,-7.72944444444444,NC,684.0,2013-11-22T12:00,8.2,67,2.5,5.3,0.0,0.0,0.0,0.0,0,1013.3,933.1,1,0,0,4,0.19,0.36,7.9,10.4,87,90,23.4,8.7,6.3,10.2,16.0,0.357,0.364,0.382,0.343,1,3600.0,475.1,379.1,96.1,800.6,475.1,664.0,460.0,367.0,93.0,800.6,460.0,642.9,Magnoliopsida; Tracheophyta; Pinus pinaster Aiton
2013,2013-11-26,Vila Real,Alijó,Vila Chã,Carvalho,41.3468629995982,-7.49031699975332,NC,741.0,2013-11-26T19:00,4.6,58,-2.9,-0.0,0.0,0.0,0.0,0.0,0,1026.2,937.6,0,0,0,0,0.04,0.36,14.5,30.4,83,85,45.7,3.9,4.6,8.7,15.6,0.299,0.306,0.307,0.309,0,0.0,0.0,0.0,0.0,0.0,0.0,0.0,0.0,0.0,0.0,0.0,0.0,0.0,Magnoliopsida; Pinus pinaster Aiton; Olea europaea L.; Tracheophyta
2013,2013-11-27,Vila Real,Montalegre,Chã,Castanheira da Chã,41.7832839997609,-7.80717099984487,NC,1006.0,2013-11-27T11:00,4.6,63,-1.8,0.0,0.0,0.0,0.0,0.0,0,1026.7,908.5,0,0,0,0,0.14,0.31,15.0,21.7,80,83,47.2,0.8,2.7,7.9,14.4,0.423,0.433,0.464,0.453,1,3600.0,412.9,341.4,71.6,825.5,412.9,581.0,375.0,310.0,65.0,825.5,375.0,527.6,Magnoliopsida; Quercus L.; Tracheophyta
2013,2013-11-27,Vila Real,Montalegre,Cabril,LAPELA-(PNPG),41.7492349995507,-7.99608499950833,NC,692.0,2013-11-27T15:00,8.0,51,-1.4,4.1,0.0,0.0,0.0,0.0,0,1024.2,942.2,0,0,0,0,0.15,0.52,10.6,14.7,62,65,30.6,7.5,5.2,8.4,14.9,0.345,0.358,0.382,0.375,1,3600.0,280.9,228.3,52.6,781.3,280.9,410.5,331.0,269.0,62.0,781.3,331.0,483.8,Magnoliopsida; Tracheophyta; Pinus pinaster Aiton
2013,2013-11-27,Vila Real,Montalegre,Chã,Gralhós,41.7855720000797,-7.74338999960158,NC,943.0,2013-11-27T16:00,6.9,56,-1.2,3.0,0.0,0.0,0.0,0.0,0,1023.6,913.5,0,0,0,0,0.09,0.43,10.2,19.1,72,74,42.1,3.4,2.5,7.6,14.3,0.419,0.431,0.46,0.434,1,3600.0,138.1,104.4,33.7,679.9,138.1,215.8,201.0,152.0,49.0,679.9,201.0,314.1,Magnoliopsida; Tracheophyta; Pinales; Quercus L.
2013,2013-11-26,Vila Real,Santa Marta de Penaguião,Sever,Bairro Novo,41.2259000004662,-7.78402599996991,NC,261.0,2013-11-26T13:00,8.9,57,0.9,3.7,0.0,0.0,0.0,0.0,1,1025.6,993.8,27,0,0,91,0.19,0.49,21.9,32.5,81,80,61.2,7.9,5.8,10.9,18.0,0.309,0.317,0.32,0.311,1,3600.0,431.5,299.1,132.4,659.3,431.5,637.2,440.0,305.0,135.0,659.3,440.0,649.7,Vitis vinifera L.; Olea europaea L.; Magnoliopsida
2013,2013-10-11,Vila Real,Alijó,Vila Verde,VILA VERDE,41.3733089998033,-7.55340799993939,NC,729.0,2013-10-11T13:00,18.5,60,10.6,19.2,0.0,0.0,0.0,0.0,0,1013.6,931.3,0,0,0,0,0.4,0.85,2.3,2.9,231,240,15.8,20.1,15.4,17.3,19.1,0.291,0.3,0.221,0.315,1,3600.0,674.7,588.0,86.7,907.2,674.7,890.0,685.0,597.0,88.0,907.2,685.0,903.6,Pinus pinaster Aiton; Magnoliopsida; Tracheophyta
2013,2013-10-12,Vila Real,Chaves,Santo António de Monforte,Nogueirinhas,41.7766139994727,-7.38742499987284,NC,486.0,2013-10-12T22:00,11.5,88,9.6,10.4,0.0,0.0,0.0,0.0,1,1019.4,961.9,26,29,0,0,0.0,0.16,6.8,14.8,238,247,16.9,13.7,16.4,18.3,20.3,0.254,0.272,0.183,0.307,0,0.0,0.0,0.0,0.0,0.0,0.0,0.0,0.0,0.0,0.0,0.0,0.0,0.0,Quercus L.; Magnoliopsida; Pinus pinaster Aiton; Tracheophyta
2013,2013-10-12,Vila Real,Vila Real,Vale de Nogueiras,Galegos,41.2877483333482,-7.6529983332422,NC,677.0,2013-10-12T15:00,17.0,56,8.3,15.1,0.0,0.0,0.0,0.0,0,1016.4,939.1,14,15,0,1,0.27,0.85,10.0,13.1,232,233,27.0,18.5,15.1,16.7,18.6,0.284,0.295,0.224,0.316,1,3600.0,418.1,272.4,145.6,572.1,418.1,654.3,468.0,305.0,163.0,572.1,468.0,732.4,Magnoliopsida; Pinus pinaster Aiton; Pinales
2013,2013-10-12,Vila Real,Valpaços,Santa Maria de Emeres,Rendufe,41.5381329997381,-7.40454699993134,NC,649.0,2013-10-12T16:00,16.9,55,7.8,14.8,0.0,0.0,0.0,0.0,1,1016.4,942.1,22,24,0,0,0.21,0.87,10.1,13.5,243,241,24.1,17.8,15.1,16.8,19.0,0.285,0.297,0.208,0.318,1,3600.0,278.7,202.3,76.4,619.3,278.7,448.9,343.0,249.0,94.0,619.3,343.0,552.5,Olea europaea L.; Magnoliopsida; Vitis vinifera L.; Pinus pinaster Aiton; Castanea sativa Mill.
2013,2013-10-30,Vila Real,Vila Real,Andrães,Vessadios,41.2584709999296,-7.64271999994914,NC,595.0,2013-10-30T16:00,12.7,51,2.8,10.5,0.0,0.0,0.0,0.0,0,1023.7,953.9,0,0,0,0,0.14,0.73,4.1,5.4,52,53,13.3,13.9,11.6,14.9,18.3,0.356,0.359,0.307,0.313,1,3600.0,227.0,179.5,47.6,732.4,227.0,340.1,296.0,234.0,62.0,732.4,296.0,443.4,Magnoliopsida; Pinus pinaster Aiton; Tracheophyta; Vitis vinifera L.
2013,2013-11-13,Vila Real,Montalegre,Salto,Tabuadela,41.6275400002797,-7.90274100012249,NC,974.0,2013-11-13T17:00,12.0,70,6.6,9.7,0.0,0.0,0.0,0.0,0,1025.1,913.4,0,0,0,0,0.05,0.42,9.7,21.7,27,29,34.6,11.7,10.6,11.7,15.1,0.382,0.392,0.405,0.368,1,2607.88,17.7,11.1,6.6,127.5,14.6,34.7,78.0,49.0,29.0,369.2,78.0,153.1,Pinus pinaster Aiton; Magnoliopsida; Tracheophyta
2013,2013-11-16,Vila Real,Alijó,Vilar de Maçada,VILAR DE MAÇADA,41.3278149996863,-7.57128699991438,NC,534.0,2013-11-16T14:00,8.6,52,-0.6,4.2,0.0,0.0,0.0,0.0,3,1020.6,957.0,89,0,99,100,0.17,0.53,15.0,21.0,55,55,45.7,9.4,8.3,12.9,17.5,0.336,0.339,0.325,0.313,1,3600.0,310.5,114.9,195.6,270.6,310.5,594.2,335.0,124.0,211.0,270.6,335.0,641.1,Tracheophyta; Vitis vinifera L.; Pinus pinaster Aiton; Magnoliopsida; Olea europaea L.
2013,2013-11-17,Vila Real,Vila Real,Lamas de Olo,LAMAS DE OLO(P.N.ALVÃO),41.3733959998025,-7.8044230000178,NC,971.0,2013-11-17T11:00,6.8,72,2.1,3.7,0.0,0.0,0.0,0.0,1,1018.7,906.1,38,12,22,46,0.16,0.28,9.0,12.2,23,24,27.4,7.1,5.5,10.6,15.3,0.359,0.363,0.369,0.322,1,3600.0,438.4,340.2,98.1,748.6,438.4,636.1,402.0,312.0,90.0,748.6,402.0,583.3,Pinales; Magnoliopsida; Tracheophyta
2013,2013-11-24,Vila Real,Vila Real,Mouçós,Abobeleira,41.3280555555556,-7.69222222222222,NC,636.0,2013-11-24T15:00,9.3,58,1.3,5.6,0.0,0.0,0.0,0.0,0,1020.5,945.5,13,14,0,0,0.15,0.5,12.4,18.5,60,61,33.5,8.0,5.2,9.7,16.0,0.331,0.338,0.348,0.319,1,3600.0,263.3,186.9,76.4,620.5,263.3,422.7,310.0,220.0,90.0,620.5,310.0,497.7,Tracheophyta; Magnoliopsida; Pinus pinaster Aiton
2013,2013-11-24,Vila Real,Peso da Régua,Sedielos,SEDIELOS,41.2033669998911,-7.86130700005425,NC,482.0,2013-11-24T19:00,6.0,70,1.0,2.4,0.0,0.0,0.0,0.0,0,1021.8,963.6,0,0,0,0,0.02,0.28,11.1,17.2,61,64,30.6,4.5,6.3,10.2,16.5,0.336,0.344,0.358,0.318,0,0.0,0.0,0.0,0.0,0.0,0.0,0.0,0.0,0.0,0.0,0.0,0.0,0.0,Tracheophyta; Magnoliopsida; Vitis vinifera L.; Pinus pinaster Aiton; Pinales
2013,2013-11-25,Vila Real,Montalegre,Chã,Castanheira da Chã,41.7832839997609,-7.80717099984487,NC,1006.0,2013-11-25T11:00,6.4,67,0.8,2.9,0.0,0.0,0.0,0.0,0,1028.0,910.4,0,0,0,0,0.15,0.31,10.0,14.3,77,80,33.1,1.1,3.1,8.5,14.7,0.427,0.436,0.465,0.453,1,3600.0,423.2,350.6,72.5,835.5,423.2,589.2,385.0,319.0,66.0,835.5,385.0,536.0,Magnoliopsida; Quercus L.; Tracheophyta
2013,2013-11-28,Vila Real,Montalegre,Salto,Amiar,41.6690220001009,-7.93861700005001,NC,792.0,2013-11-28T15:00,6.2,56,-1.9,1.7,0.0,0.0,0.0,0.0,0,1026.5,932.6,0,0,0,0,0.14,0.42,14.8,21.6,90,91,45.0,4.0,3.1,7.8,14.7,0.348,0.358,0.378,0.362,1,3600.0,284.8,232.2,52.5,800.3,284.8,407.8,336.0,274.0,62.0,800.3,336.0,481.2,Tracheophyta; Magnoliopsida; Quercus L.; Pinales
2013,2013-11-28,Vila Real,Mondim de Basto,Paradança,PARADANCA,41.3764220004612,-7.95143899997075,NC,303.0,2013-11-28T17:00,7.4,57,-0.6,4.0,0.0,0.0,0.0,0.0,0,1026.0,989.0,0,0,0,0,0.04,0.45,8.6,21.5,75,81,28.1,7.4,7.0,9.9,16.5,0.332,0.348,0.374,0.35,1,2001.73,0.0,0.0,0.0,0.0,0.0,0.0,60.0,39.0,21.0,333.6,60.0,113.7,Tracheophyta; Pinus pinaster Aiton; Magnoliopsida
2013,2013-11-29,Vila Real,Alijó,Vila Verde,VILA VERDE,41.3733089998033,-7.55340799993939,NC,729.0,2013-11-29T13:00,8.0,48,-2.4,4.4,0.0,0.0,0.0,0.0,0,1030.1,943.5,0,0,0,0,0.2,0.56,7.3,9.6,79,77,23.8,4.4,3.5,8.4,15.5,0.315,0.322,0.335,0.316,1,3600.0,449.3,378.7,70.6,853.0,449.3,624.1,458.0,386.0,72.0,853.0,458.0,636.2,Pinus pinaster Aiton; Magnoliopsida; Tracheophyta
2013,2013-12-01,Vila Real,Santa Marta de Penaguião,Fontes,JUSTOS,41.232369000117,-7.84654099994236,NC,712.0,2013-12-01T14:00,8.1,53,-0.9,3.7,0.0,0.0,0.0,0.0,0,1022.4,938.4,0,0,0,0,0.18,0.51,14.8,20.9,72,71,38.5,7.1,4.1,7.9,14.9,0.312,0.323,0.343,0.315,1,3600.0,388.0,322.3,65.7,830.8,388.0,545.7,419.0,348.0,71.0,830.8,419.0,589.3,Tracheophyta; Magnoliopsida; Pinus pinaster Aiton; Pinales
2013,2013-12-01,Vila Real,Vila Pouca de Aguiar,Bornes de Aguiar,VALOURA/EN206,41.5391969998678,-7.59866799990336,NC,644.0,2013-12-01T19:00,5.7,60,-1.5,2.0,0.0,0.0,0.0,0.0,0,1022.4,945.4,0,0,0,0,0.02,0.37,9.1,14.1,72,93,22.7,2.1,3.8,7.3,14.8,0.336,0.345,0.366,0.338,0,0.0,0.0,0.0,0.0,0.0,0.0,0.0,0.0,0.0,0.0,0.0,0.0,0.0,Pinus pinaster Aiton; Magnoliopsida; Tracheophyta; Pinales; Quercus L.
2013,2013-05-20,Vila Real,Chaves,Vilarinho das Paranheiras,VILARINHO DAS PARANHEIRAS,41.6633390002781,-7.57603299988641,NC,317.0,2013-05-20T21:00,11.8,59,4.0,9.3,0.0,0.0,0.0,0.0,1,1019.0,981.1,24,0,15,50,0.02,0.57,7.6,18.8,335,343,20.2,12.6,13.4,12.5,11.1,0.327,0.32,0.329,0.389,0,0.0,0.0,0.0,0.0,0.0,0.0,0.0,0.0,0.0,0.0,0.0,0.0,0.0,Tracheophyta; Magnoliopsida; Vitis vinifera L.; Pinus pinaster Aiton
2013,2013-12-01,Vila Real,Montalegre,Cabril,Fafião (PNG),41.7006910000245,-8.09469900025262,NC,487.0,2013-12-01T14:00,10.7,49,0.3,6.9,0.0,0.0,0.0,0.0,0,1021.7,963.8,0,0,0,0,0.2,0.66,11.6,16.6,54,56,29.2,9.2,5.7,8.7,15.3,0.338,0.35,0.378,0.383,1,3600.0,392.0,329.0,63.0,860.3,392.0,538.0,423.0,355.0,68.0,860.3,423.0,580.6,Pinus pinaster Aiton; Magnoliopsida
2013,2013-12-01,Vila Real,Santa Marta De Penaguião,Fornelos,FORNELOS,41.2469444444444,-7.80777777777778,NC,365.0,2013-12-01T18:00,5.8,65,-0.2,2.3,0.0,0.0,0.0,0.0,0,1021.6,977.1,0,0,0,0,0.02,0.32,9.7,15.5,86,86,31.3,5.2,5.3,8.8,16.5,0.297,0.307,0.318,0.311,0,0.0,0.0,0.0,0.0,0.0,0.0,0.0,0.0,0.0,0.0,0.0,0.0,0.0,Olea europaea L.; Vitis vinifera L.; Pinus pinaster Aiton; Castanea sativa Mill.; Magnoliopsida
2013,2013-12-01,Vila Real,Sabrosa,São Martinho de Antas,Antas,41.2719410000907,-7.63426599999269,NC,615.0,2013-12-01T11:00,5.5,65,-0.6,1.0,0.0,0.0,0.0,0.0,0,1025.2,951.2,0,0,0,0,0.13,0.32,15.5,22.5,78,78,45.0,1.1,2.8,7.8,15.2,0.303,0.31,0.32,0.313,1,3600.0,404.8,328.7,76.1,801.4,404.8,577.1,367.0,298.0,69.0,801.4,367.0,523.2,Magnoliopsida; Tracheophyta; Castanea sativa Mill.; Pinus pinaster Aiton; Vitis vinifera L.
2013,2013-12-01,Vila Real,Montalegre,Viade de Baixo,Viade de Cima,41.7688100000222,-7.86375500043233,NC,1023.0,2013-12-01T11:00,5.4,69,0.1,1.9,0.0,0.0,0.0,0.0,0,1025.2,905.6,0,0,0,0,0.13,0.28,9.1,12.4,72,73,29.5,0.7,2.3,6.7,13.8,0.423,0.435,0.47,0.472,1,3600.0,403.5,332.7,70.7,827.7,403.5,565.5,365.0,301.0,64.0,827.7,365.0,511.6,Tracheophyta; Magnoliopsida; Quercus L.
2013,2013-12-02,Vila Real,Peso da Régua,Covelinhas,COVELINHAS (N313-1. 5050. Portugal),41.1569444444444,-7.68194444444444,NC,88.0,2013-12-02T12:00,7.7,64,1.4,4.1,0.0,0.0,0.0,0.0,0,1023.1,1012.2,1,1,0,0,0.18,0.38,12.3,16.9,93,92,36.0,4.1,5.1,10.5,18.3,0.287,0.295,0.299,0.311,1,3600.0,463.3,388.7,74.6,865.8,463.3,631.8,447.0,375.0,72.0,865.8,447.0,609.6,Olea europaea L.; Pinales; Magnoliopsida; Vitis vinifera L.
2013,2013-12-03,Vila Real,Alijó,Favaios,FAVAIOS,41.2676719999976,-7.49825300004747,NC,664.0,2013-12-03T13:00,6.7,67,1.1,3.8,0.0,0.0,0.0,0.0,0,1026.8,947.5,0,0,0,0,0.18,0.32,6.6,8.4,99,97,22.7,2.3,2.5,7.4,15.2,0.289,0.296,0.305,0.309,1,3600.0,449.0,379.2,69.8,868.5,449.0,614.7,457.0,386.0,71.0,868.5,457.0,625.7,Pinus pinaster Aiton; Vitis vinifera L.; Tracheophyta; Pinales; Magnoliopsida; Olea europaea L.
2013,2013-12-03,Vila Real,Murça,Valongo de Milhais,RIBEIRINHA - VALONGO DE MILHAIS,41.4474730004205,-7.44983700010512,NC,577.0,2013-12-03T14:00,7.5,63,1.0,4.8,0.0,0.0,0.0,0.0,0,1026.9,957.7,0,0,0,0,0.17,0.38,5.1,6.6,98,99,18.4,4.0,2.4,7.2,15.1,0.29,0.297,0.303,0.312,1,3600.0,383.4,320.6,62.8,845.9,383.4,533.5,415.0,347.0,68.0,845.9,415.0,577.5,Magnoliopsida; Pinus pinaster Aiton; Castanea sativa Mill.; Olea europaea L.; Pinales; Tracheophyta; Eucalyptus L'Hér.; Vitis vinifera L.; 
2013,2013-12-03,Vila Real,Vila Pouca de Aguiar,Bornes de Aguiar,Valugas,41.5345460000303,-7.5675509999858,NC,982.0,2013-12-03T18:00,3.7,77,0.0,0.9,0.0,0.0,0.0,0.0,0,1027.3,911.3,0,0,0,0,0.0,0.18,4.8,7.5,103,107,17.6,1.5,2.0,5.8,13.2,0.327,0.333,0.353,0.325,0,0.0,0.0,0.0,0.0,0.0,0.0,0.0,0.0,0.0,0.0,0.0,0.0,0.0,Tracheophyta; Magnoliopsida; Pinus pinaster Aiton
2013,2013-05-21,Vila Real,Chaves,Santa Cruz/Trindade,Santa Cruz,41.7580555555556,-7.46527777777778,NC,390.0,2013-05-21T17:00,18.2,49,7.3,16.6,0.0,0.0,0.0,0.0,2,1017.0,971.7,69,8,89,27,0.17,1.07,5.9,8.0,322,324,19.1,17.9,14.2,12.0,10.7,0.308,0.316,0.328,0.389,1,0.0,180.8,12.0,168.8,24.5,180.8,652.6,211.0,14.0,197.0,24.5,211.0,761.6,Tracheophyta; Magnoliopsida; Pinus pinaster Aiton
2013,2013-12-04,Vila Real,Vila Real,Torgueda,Arrabães,41.281021999783,-7.8135760000017,NC,671.0,2013-12-04T16:00,9.8,61,2.6,7.4,0.0,0.0,0.0,0.0,0,1028.1,948.7,0,0,0,0,0.08,0.48,4.7,6.8,67,65,13.3,6.6,3.5,6.9,14.3,0.325,0.333,0.354,0.326,1,3600.0,128.8,95.7,33.1,626.2,128.8,215.3,187.0,139.0,48.0,626.2,187.0,312.6,Magnoliopsida; Tracheophyta; Pinus pinaster Aiton
2013,2013-12-04,Vila Real,Montalegre,Covelães,COVELÃES (PNP GERÊS) (COVELÃES),41.8025,-7.89861111111111,NC,953.0,2013-12-04T14:00,10.6,53,1.4,8.1,0.0,0.0,0.0,0.0,0,1027.7,917.4,0,0,0,0,0.19,0.6,4.0,5.4,100,98,16.6,2.0,2.1,6.5,13.8,0.418,0.432,0.467,0.471,1,3600.0,375.0,312.0,63.0,831.6,375.0,528.3,405.0,337.0,68.0,831.6,405.0,570.6,Magnoliopsida; Tracheophyta; Quercus L.
2013,2013-12-04,Vila Real,Ribeira de Pena,Cerva,Agunchos,41.4906730000178,-7.89723599963718,NC,235.0,2013-12-04T13:00,13.6,55,4.6,11.3,0.0,0.0,0.0,0.0,0,1028.2,999.9,0,0,0,0,0.22,0.71,6.8,9.4,87,88,19.1,9.2,5.3,9.3,16.4,0.334,0.344,0.371,0.365,1,3600.0,438.0,367.1,70.9,849.1,438.0,608.8,445.0,373.0,72.0,849.1,445.0,618.6,Eucalyptus L'Hér.; Magnoliopsida; Vitis vinifera L.; Pinus pinaster Aiton; Tracheophyta
2013,2013-12-04,Vila Real,Montalegre,Paradela,PARADELA,41.7630555555556,-7.94527777777778,NC,779.0,2013-12-04T17:00,10.1,61,2.9,7.5,0.0,0.0,0.0,0.0,0,1028.1,936.7,0,0,0,0,0.03,0.49,6.8,8.9,58,58,12.2,3.7,2.9,6.8,14.3,0.406,0.417,0.45,0.45,1,1804.07,0.0,0.0,0.0,0.0,0.0,0.0,49.0,31.0,18.0,277.9,49.0,101.3,Quercus L.; Magnoliopsida; Tracheophyta
2013,2013-12-05,Vila Real,Sabrosa,Souto Maior,Feitais,41.284364000029,-7.59358599980672,NC,736.0,2013-12-05T10:00,3.8,80,0.8,0.9,0.0,0.0,0.0,0.0,0,1031.5,942.7,1,1,0,0,0.07,0.16,6.6,11.2,81,92,19.1,0.3,2.1,6.6,14.4,0.288,0.294,0.305,0.309,1,3600.0,274.3,203.0,71.3,645.1,274.3,443.1,223.0,165.0,58.0,645.1,223.0,360.3,Magnoliopsida; Pinus pinaster Aiton
2013,2013-12-05,Vila Real,Boticas,Sapiãos,Sapelos,41.722861000167,-7.59715200000339,NC,540.0,2013-12-05T17:00,8.5,81,5.4,6.5,0.0,0.0,0.0,0.0,0,1029.1,964.2,0,0,0,0,0.01,0.21,5.8,4.8,184,167,7.9,6.1,4.1,6.7,14.7,0.324,0.334,0.356,0.334,0,1680.03,0.0,0.0,0.0,0.0,0.0,0.0,43.0,27.0,16.0,247.9,43.0,93.9,Magnoliopsida; Tracheophyta; Castanea sativa Mill.; Pinus pinaster Aiton
2013,2013-12-06,Vila Real,Montalegre,Cabril,Pincães-(PNPG),41.707875000106,-8.05624700016446,NC,483.0,2013-12-06T13:00,11.5,55,2.7,8.4,0.0,0.0,0.0,0.0,0,1026.6,969.1,0,0,0,0,0.21,0.62,10.1,14.1,84,84,27.7,9.2,5.7,8.2,14.6,0.333,0.344,0.372,0.382,1,3600.0,442.5,373.5,69.0,877.0,442.5,600.1,449.0,379.0,70.0,877.0,449.0,608.9,Magnoliopsida; Pinus pinaster Aiton
2013,2013-12-07,Vila Real,Ribeira De Pena,Cerva,MATA LOBA-AGUNCHOS (CERVA),41.4716666666667,-7.84666666666667,NC,322.0,2013-12-07T02:00,1.1,83,-1.5,-2.7,0.0,0.0,0.0,0.0,0,1025.7,985.5,0,0,0,0,0.0,0.11,10.1,20.2,92,90,28.4,2.3,5.3,8.6,15.7,0.332,0.342,0.367,0.36,0,0.0,0.0,0.0,0.0,0.0,0.0,0.0,0.0,0.0,0.0,0.0,0.0,0.0,Magnoliopsida; Pinus pinaster Aiton; Tracheophyta
2013,2013-12-08,Vila Real,Chaves,São Julião De Montenegro,SÃO JULIÃO,41.7175,-7.395,NC,714.0,2013-12-08T18:00,4.8,73,0.3,2.0,0.0,0.0,0.0,0.0,0,1026.8,941.2,0,0,0,0,0.0,0.24,4.7,6.1,176,152,10.4,1.2,2.0,5.6,13.6,0.294,0.3,0.314,0.309,0,0.0,0.0,0.0,0.0,0.0,0.0,0.0,0.0,0.0,0.0,0.0,0.0,0.0,Castanea sativa Mill.; Tracheophyta; Magnoliopsida; Quercus L.; Pinus pinaster Aiton
2013,2013-12-08,Vila Real,Alijó,Vila Verde,Perafita,41.3883333333333,-7.5425,NC,757.0,2013-12-08T16:00,7.0,65,0.9,4.3,0.0,0.0,0.0,0.0,0,1026.0,936.3,0,0,0,0,0.07,0.35,5.4,5.9,132,137,10.4,3.4,1.8,6.0,13.8,0.283,0.29,0.304,0.309,1,3600.0,129.0,97.0,32.1,656.8,129.0,208.1,189.0,142.0,47.0,656.8,189.0,304.8,Tracheophyta; Magnoliopsida
2013,2013-12-10,Vila Real,Santa Marta de Penaguião,Fontes,Barreiro,41.2502777777778,-7.76972222222222,NC,396.0,2013-12-10T13:00,7.0,63,0.4,3.0,0.0,0.0,0.0,0.0,1,1028.3,980.0,29,0,0,98,0.17,0.37,13.3,18.4,92,93,37.1,0.7,1.8,6.7,14.9,0.289,0.297,0.315,0.311,1,3600.0,439.5,364.6,74.9,853.8,439.5,602.3,446.0,370.0,76.0,853.8,446.0,611.2,Olea europaea L.; Pinus pinaster Aiton; Vitis vinifera L.; Magnoliopsida; Tracheophyta
2013,2013-12-11,Vila Real,Mondim de Basto,Vilar de Ferreiros,Pedreira,41.4052777777778,-7.89694444444444,Reacendimento,436.0,2013-12-11T01:00,2.6,74,-1.7,-1.4,0.0,0.0,0.0,0.0,1,1025.5,971.8,29,0,0,96,0.01,0.2,11.2,25.0,92,96,39.2,2.0,3.6,7.0,14.2,0.327,0.337,0.365,0.365,0,0.0,0.0,0.0,0.0,0.0,0.0,0.0,0.0,0.0,0.0,0.0,0.0,0.0,Vitis vinifera L.; Magnoliopsida; Eucalyptus L'Hér.; Pinus pinaster Aiton
2013,2013-12-10,Vila Real,Murça,Jou,JOU,41.4875,-7.39916666666667,NC,717.0,2013-12-10T17:00,4.8,79,1.5,1.8,0.0,0.0,0.0,0.0,1,1027.8,941.8,29,0,0,96,0.02,0.18,7.7,10.7,139,132,20.5,1.5,1.5,5.5,13.5,0.306,0.315,0.335,0.323,1,1697.25,0.0,0.0,0.0,0.0,0.0,0.0,42.0,21.0,21.0,192.5,42.0,94.8,Castanea sativa Mill.; Magnoliopsida; Olea europaea L.; Tracheophyta; Vitis vinifera L.; Pinus pinaster Aiton; Pinales; Quercus suber L.; 
2013,2013-12-10,Vila Real,Vila Real,Mondrões,Bisalhães,41.2875,-7.77888888888889,NC,456.0,2013-12-10T13:00,6.7,63,0.1,2.6,0.0,0.0,0.0,0.0,1,1028.3,972.9,29,0,0,98,0.17,0.37,13.3,18.4,92,93,37.1,0.4,1.5,6.3,14.5,0.289,0.297,0.315,0.311,1,3600.0,439.3,364.4,74.9,856.0,439.3,600.4,446.0,370.0,76.0,856.0,446.0,609.6,Pinus pinaster Aiton; Vitis vinifera L.; Magnoliopsida; Tracheophyta
2013,2013-12-10,Vila Real,Montalegre,Tourém,JUNTO À PISTA AUTOMÓVEL (TOURÉM),41.9061111111111,-7.89722222222222,NC,863.0,2013-12-10T17:00,5.6,70,0.6,2.6,0.0,0.0,0.0,0.0,1,1026.6,924.6,29,0,0,97,0.02,0.27,7.0,16.4,102,105,26.3,1.4,1.7,5.6,13.3,0.418,0.43,0.462,0.453,1,844.91,0.0,0.0,0.0,0.0,0.0,0.0,40.0,13.0,27.0,119.4,40.0,95.5,Magnoliopsida; Quercus L.; Tracheophyta
2013,2013-12-10,Vila Real,Montalegre,Ferral,Ferral,41.6938888888889,-7.99805555555556,NC,675.0,2013-12-10T22:00,1.0,80,-2.0,-2.9,0.0,0.0,0.0,0.0,1,1027.1,944.9,30,0,0,100,0.0,0.13,9.6,16.6,77,92,28.8,0.9,2.3,5.9,13.1,0.333,0.342,0.368,0.375,0,0.0,0.0,0.0,0.0,0.0,0.0,0.0,0.0,0.0,0.0,0.0,0.0,0.0,Tracheophyta; Magnoliopsida
2013,2013-12-10,Vila Real,Montalegre,Salto,Linharelhos,41.6605555555556,-7.99277777777778,NC,853.0,2013-12-10T20:00,1.7,79,-1.5,-1.8,0.0,0.0,0.0,0.0,1,1025.9,923.7,28,0,0,94,0.0,0.14,7.6,17.2,98,110,29.9,1.0,1.8,5.5,12.5,0.338,0.346,0.37,0.379,0,0.0,0.0,0.0,0.0,0.0,0.0,0.0,0.0,0.0,0.0,0.0,0.0,0.0,Tracheophyta
2013,2013-12-11,Vila Real,Montalegre,Salto,Pereira,41.6694444444444,-7.91444444444444,NC,865.0,2013-12-11T02:00,-0.3,83,-2.9,-4.1,0.0,0.0,0.0,0.0,1,1024.7,920.5,29,0,0,97,0.0,0.1,8.4,19.8,100,115,34.2,0.4,1.6,5.3,12.4,0.339,0.347,0.369,0.374,0,0.0,0.0,0.0,0.0,0.0,0.0,0.0,0.0,0.0,0.0,0.0,0.0,0.0,Magnoliopsida; Tracheophyta; Pinales; Quercus L.
2013,2013-12-11,Vila Real,Ribeira De Pena,Cerva,Cabriz,41.4652777777778,-7.80805555555556,NC,434.0,2013-12-11T07:00,1.3,75,-2.6,-2.8,0.0,0.0,0.0,0.0,1,1025.0,971.4,27,0,8,74,0.01,0.17,11.5,24.1,92,99,41.4,1.4,3.0,7.0,14.3,0.329,0.338,0.364,0.36,0,0.0,0.0,0.0,0.0,0.0,0.0,0.0,0.0,0.0,0.0,0.0,0.0,0.0,Magnoliopsida; Pinus pinaster Aiton; Tracheophyta
2013,2013-12-11,Vila Real,Montalegre,Pondras,Pai Afonso,41.6888888888889,-7.91583333333333,NC,954.0,2013-12-11T15:00,8.2,60,0.9,5.1,0.0,0.0,0.0,0.0,1,1025.0,914.0,34,0,9,96,0.1,0.43,7.6,12.4,121,120,30.2,2.9,1.3,4.6,11.8,0.338,0.346,0.369,0.374,1,2901.21,173.6,43.2,130.4,156.7,173.6,388.9,205.0,51.0,154.0,156.7,205.0,459.1,Tracheophyta; Magnoliopsida; Pinus pinaster Aiton
2013,2013-12-11,Vila Real,Montalegre,Sezelhe,Sezelhe,41.8122222222222,-7.87444444444444,NC,993.0,2013-12-11T16:00,7.8,67,1.9,5.1,0.0,0.0,0.0,0.0,1,1025.4,910.0,47,0,30,97,0.06,0.35,6.1,13.6,118,122,28.1,3.2,1.9,5.2,12.7,0.414,0.427,0.461,0.471,1,172.78,69.1,9.6,59.5,65.8,69.1,205.4,101.0,14.0,87.0,65.8,101.0,300.4,Tracheophyta; Quercus L.; Magnoliopsida
2013,2013-12-11,Vila Real,Ribeira de Pena,Santa Marinha,Paço,41.5436111111111,-7.77527777777778,NC,241.0,2013-12-11T16:00,10.6,66,4.5,8.3,0.0,0.0,0.0,0.0,2,1025.0,995.8,60,0,51,99,0.07,0.43,6.5,16.2,93,102,31.0,8.2,5.7,8.2,15.5,0.326,0.337,0.363,0.36,1,1255.43,80.4,15.1,65.2,101.8,80.4,209.3,117.0,22.0,95.0,101.8,117.0,304.7,Pinus pinaster Aiton; Magnoliopsida; Eucalyptus L'Hér.
2013,2013-12-11,Vila Real,Montalegre,Vila da Ponte,VILA DA PONTE,41.7202777777778,-7.89583333333333,NC,739.0,2013-12-11T18:00,5.4,75,1.3,2.6,0.0,0.0,0.0,0.0,2,1026.0,937.8,78,0,83,95,0.0,0.22,6.3,14.0,114,125,24.5,3.9,3.2,5.4,12.5,0.331,0.341,0.367,0.375,0,0.0,0.0,0.0,0.0,0.0,0.0,0.0,0.0,0.0,0.0,0.0,0.0,0.0,Tracheophyta; Magnoliopsida; Pinus pinaster Aiton
2013,2013-12-11,Vila Real,Montalegre,Covelo do Gerês,Covelo do Gerês,41.7175,-7.985,NC,531.0,2013-12-11T18:00,7.3,72,2.6,4.6,0.0,0.0,0.0,0.0,2,1025.1,961.3,77,0,83,90,0.01,0.29,6.5,15.1,96,118,27.7,6.0,5.3,7.1,13.9,0.328,0.339,0.366,0.378,0,0.0,0.0,0.0,0.0,0.0,0.0,0.0,0.0,0.0,0.0,0.0,0.0,0.0,Pinus pinaster Aiton; Magnoliopsida; Tracheophyta
2013,2013-12-11,Vila Real,Chaves,Roriz,RORIZ,41.8219444444444,-7.265,NC,849.0,2013-12-11T19:00,3.8,71,-0.9,0.3,0.0,0.0,0.0,0.0,2,1027.3,926.1,76,0,80,93,0.01,0.23,8.7,22.4,114,135,25.2,1.7,1.8,4.8,12.4,0.322,0.329,0.349,0.325,0,0.0,0.0,0.0,0.0,0.0,0.0,0.0,0.0,0.0,0.0,0.0,0.0,0.0,Tracheophyta; Magnoliopsida; Castanea sativa Mill.; Quercus L.
2013,2013-12-11,Vila Real,Montalegre,Cabril,Pincães-(PNP GERÊS) (Pincães),41.7072222222222,-8.0525,NC,507.0,2013-12-11T22:00,4.9,79,1.6,2.0,0.0,0.0,0.0,0.0,2,1026.3,964.7,72,0,81,77,0.0,0.18,7.6,15.9,93,123,28.1,4.7,5.9,7.4,13.8,0.325,0.337,0.366,0.382,0,0.0,0.0,0.0,0.0,0.0,0.0,0.0,0.0,0.0,0.0,0.0,0.0,0.0,Magnoliopsida; Pinus pinaster Aiton
2013,2013-12-11,Vila Real,Chaves,Vilarelho da Raia,Cambedo,41.8577777777778,-7.4925,NC,501.0,2013-12-11T22:00,4.3,76,0.4,1.4,0.0,0.0,0.0,0.0,2,1028.5,967.3,52,0,46,81,0.0,0.2,5.9,12.9,79,113,15.8,2.0,2.8,5.8,13.6,0.327,0.334,0.352,0.331,0,0.0,0.0,0.0,0.0,0.0,0.0,0.0,0.0,0.0,0.0,0.0,0.0,0.0,Quercus L.; Magnoliopsida; Pinus pinaster Aiton
2013,2013-12-12,Vila Real,Ribeira De Pena,Cerva,Agunchos,41.49,-7.89138888888889,NC,293.0,2013-12-12T08:00,6.2,81,3.1,3.1,0.0,0.0,0.0,0.0,2,1027.1,991.1,60,2,57,81,0.03,0.19,10.3,21.1,102,110,27.4,5.1,5.8,8.0,14.9,0.33,0.336,0.363,0.365,1,0.0,0.0,0.0,0.0,0.0,0.0,21.0,0.0,0.0,0.0,0.0,0.0,0.3,Magnoliopsida; Vitis vinifera L.; Pinus pinaster Aiton; Tracheophyta
2013,2013-12-12,Vila Real,Montalegre,Padornelos,Serra do Larouco,41.8775,-7.72666666666667,NC,1382.0,2013-12-12T09:00,0.2,87,-1.8,-3.5,0.0,0.0,0.0,0.0,1,1027.9,867.2,46,11,21,80,0.01,0.08,9.1,13.7,108,125,26.6,-1.4,-0.5,2.6,10.1,0.421,0.421,0.452,0.453,1,2277.72,90.4,43.4,47.0,260.3,69.1,235.2,50.0,24.0,26.0,199.1,50.0,130.1,Magnoliopsida; Tracheophyta
2013,2013-12-12,Vila Real,Montalegre,Covelo do Gerês,Covelo do Gerês,41.7175,-7.985,NC,531.0,2013-12-12T13:00,12.4,61,5.1,10.1,0.0,0.0,0.0,0.0,3,1026.2,963.4,100,36,73,92,0.14,0.56,7.4,12.0,133,141,28.4,9.1,5.7,7.2,13.8,0.334,0.34,0.366,0.378,1,3600.0,241.9,106.6,135.2,255.2,241.9,589.6,245.0,108.0,137.0,255.2,245.0,597.2,Pinus pinaster Aiton; Magnoliopsida; Tracheophyta
2013,2013-12-12,Vila Real,Montalegre,Cabril,CABRIL (PNP GERÊS) (CABRIL),41.7133333333333,-8.03666666666667,NC,287.0,2013-12-12T18:00,11.8,77,7.9,10.4,0.0,0.0,0.0,0.0,3,1026.3,991.7,100,100,85,94,0.0,0.32,5.8,12.5,86,123,14.8,9.9,8.4,8.8,15.3,0.333,0.339,0.366,0.378,0,0.0,0.0,0.0,0.0,0.0,0.0,0.0,0.0,0.0,0.0,0.0,0.0,0.0,Pinus pinaster Aiton; Magnoliopsida
2013,2013-12-12,Vila Real,Montalegre,Donões,DONÕES,41.8336111111111,-7.8175,NC,977.0,2013-12-12T17:00,8.3,73,3.8,6.0,0.0,0.0,0.0,0.0,3,1026.8,913.2,100,81,59,92,0.03,0.29,5.6,12.6,140,153,24.1,6.0,3.5,5.3,12.7,0.419,0.421,0.451,0.453,1,0.0,0.0,0.0,0.0,0.0,0.0,0.0,11.0,2.0,9.0,18.5,11.0,93.0,Tracheophyta; Magnoliopsida
2013,2013-12-13,Vila Real,Alijó,Pegarinhos,PEGARINHOS,41.3555555555556,-7.445,NC,504.0,2013-12-13T18:00,8.8,92,7.7,7.4,0.0,0.0,0.0,0.0,2,1028.2,967.6,76,43,46,33,0.0,0.09,5.9,7.9,317,330,16.6,7.6,6.6,6.4,14.0,0.29,0.289,0.301,0.312,0,0.0,0.0,0.0,0.0,0.0,0.0,0.0,0.0,0.0,0.0,0.0,0.0,0.0,Vitis vinifera L.; Magnoliopsida; Pinus pinaster Aiton; Olea europaea L.; Tracheophyta
2013,2013-05-26,Vila Real,Chaves,Anelhe,ANELHE,41.675960000356,-7.57952699979146,NC,360.0,2013-05-26T10:00,17.5,64,10.7,17.8,0.0,0.0,0.0,0.0,2,1015.0,973.1,50,24,3,89,0.39,0.72,4.4,5.5,189,191,17.6,18.8,14.6,13.1,11.0,0.249,0.284,0.321,0.386,1,3600.0,720.8,481.6,239.2,603.5,720.8,1063.8,666.0,445.0,221.0,603.5,666.0,982.9,Pinus pinaster Aiton; Vitis vinifera L.; Magnoliopsida; Tracheophyta
2013,2013-05-26,Vila Real,Vila Pouca de Aguiar,Tresminas,galhufo - COVAS,41.4879979997211,-7.52237800015344,Desconhecida,809.0,2013-05-26T20:00,12.0,60,4.4,9.2,0.0,0.0,0.0,0.0,1,1013.9,921.0,24,27,0,0,0.05,0.57,10.0,18.8,339,343,32.4,14.5,14.6,11.4,9.0,0.261,0.284,0.316,0.385,0,599.2,0.0,0.0,0.0,0.0,0.0,0.0,28.0,12.0,16.0,112.6,28.0,83.1,Pinus pinaster Aiton; Magnoliopsida; Castanea sativa Mill.; Tracheophyta
2013,2013-05-26,Vila Real,Chaves,Santa Cruz/Trindade,Rua Mãestro de Agua (Rua Madre Maria de Aquino),41.7591666666667,-7.47666666666667,NC,394.0,2013-05-26T17:00,17.6,54,8.0,14.8,0.0,0.0,0.0,0.0,0,1012.0,966.4,15,9,1,21,0.31,0.94,15.8,22.0,300,302,39.6,19.9,16.2,13.0,10.8,0.246,0.28,0.32,0.386,1,3600.0,452.4,356.9,95.5,716.1,452.4,664.4,526.0,415.0,111.0,716.1,526.0,772.5,Tracheophyta; Pinus pinaster Aiton; Magnoliopsida
2013,2013-05-26,Vila Real,Chaves,Santa Cruz/Trindade,Santa Cruz,41.7580555555556,-7.46527777777778,NC,390.0,2013-05-26T16:00,18.0,55,8.9,15.5,0.4,0.4,0.0,0.0,51,1012.1,967.0,28,3,16,52,0.36,0.92,16.7,22.9,289,289,39.6,20.4,16.0,13.0,10.8,0.247,0.281,0.32,0.386,1,3600.0,550.2,393.4,156.8,599.0,550.2,875.3,607.0,434.0,173.0,599.0,607.0,965.7,Tracheophyta; Magnoliopsida; Pinus pinaster Aiton
2013,2013-03-21,Vila Real,Montalegre,Ferral,Santa Marinha,41.693414999644,-7.9974039999644,Reacendimento,675.0,2013-03-21T11:00,11.5,64,4.9,7.6,0.0,0.0,0.0,0.0,2,1012.7,934.5,61,56,0,34,0.27,0.49,20.3,28.0,192,192,44.6,10.7,6.8,6.4,7.5,0.381,0.389,0.401,0.423,1,3600.0,653.5,495.3,158.3,726.4,653.5,940.3,607.0,460.0,147.0,726.4,607.0,873.4,Tracheophyta; Magnoliopsida; Pinales
2013,2013-05-27,Vila Real,Vila Pouca de Aguiar,Tresminas,GALHUFOS - Covas,41.4920620001687,-7.53438999997245,Reacendimento,752.0,2013-05-27T14:00,16.8,38,2.5,14.7,0.0,0.0,0.0,0.0,2,1010.4,925.4,62,50,28,0,0.5,1.19,14.5,18.8,289,290,38.9,19.1,13.6,11.8,9.4,0.255,0.28,0.314,0.385,1,3600.0,839.9,657.8,182.1,745.3,839.9,1176.1,867.0,679.0,188.0,745.3,867.0,1214.0,Pinus pinaster Aiton; Magnoliopsida; Castanea sativa Mill.; Tracheophyta
2013,2013-05-27,Vila Real,Montalegre,Montalegre,Bairro do Castro,41.8262809997135,-7.80573700004154,NC,941.0,2013-05-27T22:00,8.0,84,5.4,5.0,0.0,0.0,0.0,0.0,3,1013.6,905.2,100,100,93,0,0.01,0.18,13.0,19.3,246,246,42.1,11.0,12.4,10.4,8.4,0.317,0.385,0.39,0.481,0,0.0,0.0,0.0,0.0,0.0,0.0,0.0,0.0,0.0,0.0,0.0,0.0,0.0,Tracheophyta; Magnoliopsida
2013,2013-05-29,Vila Real,Murça,Jou,ribeira de santarém - castelo,41.5161809995439,-7.42177800019582,NC,711.0,2013-05-29T19:00,10.2,84,7.6,7.2,0.0,0.0,0.0,0.0,1,1016.1,933.3,47,37,23,0,0.05,0.2,15.9,26.6,303,306,40.7,10.9,11.2,11.8,9.6,0.253,0.277,0.322,0.386,1,2614.53,44.5,21.6,22.9,147.2,44.5,195.9,72.0,35.0,37.0,147.2,72.0,316.7,Castanea sativa Mill.; Magnoliopsida; Olea europaea L.; Tracheophyta; Vitis vinifera L.; Pinus pinaster Aiton; Pinales; Quercus suber L.; 
2013,2013-05-30,Vila Real,Alijó,Vila Verde,VILA VERDE,41.3733089998033,-7.55340799993939,NC,729.0,2013-05-30T13:00,16.0,46,4.5,14.2,0.0,0.0,0.0,0.0,1,1021.9,938.2,32,35,0,0,0.46,0.97,13.5,18.3,9,10,39.6,16.5,11.2,11.9,9.9,0.258,0.271,0.313,0.387,1,3600.0,827.6,563.0,264.6,601.9,827.6,1245.2,832.0,566.0,266.0,601.9,832.0,1251.8,Pinus pinaster Aiton; Magnoliopsida; Tracheophyta
2013,2013-05-31,Vila Real,Vila Real,Andrães,PONTE DA PASSAGEM,41.2544699997372,-7.67752200020684,NC,513.0,2013-05-31T15:00,21.0,38,6.1,19.6,0.0,0.0,0.0,0.0,0,1020.7,962.0,0,0,0,0,0.55,1.54,14.8,19.8,1,3,37.8,21.9,14.2,12.4,10.5,0.221,0.239,0.283,0.387,1,3600.0,820.2,721.3,98.9,904.5,820.2,1061.1,871.0,766.0,105.0,904.5,871.0,1126.9,Magnoliopsida; Tracheophyta; Pinus pinaster Aiton; Olea europaea L.
2013,2013-06-02,Vila Real,Ribeira de Pena,Cerva,Agunchos,41.4906730000178,-7.89723599963718,Reacendimento,235.0,2013-06-02T21:00,19.8,50,9.2,18.9,0.0,0.0,0.0,0.0,0,1017.8,990.4,0,0,0,0,0.03,1.15,5.2,7.6,56,59,13.0,18.3,18.6,14.4,12.1,0.18,0.249,0.311,0.386,0,0.0,0.0,0.0,0.0,0.0,0.0,0.0,0.0,0.0,0.0,0.0,0.0,0.0,Eucalyptus L'Hér.; Magnoliopsida; Vitis vinifera L.; Pinus pinaster Aiton; Tracheophyta
2013,2013-06-02,Vila Real,Vila Real,Guiães,GUIÃES,41.208115000195,-7.65859600014157,NC,550.0,2013-06-02T15:00,21.8,37,6.6,21.0,0.0,0.0,0.0,0.0,0,1019.3,956.8,0,0,0,0,0.56,1.64,12.0,15.7,69,70,36.0,22.8,15.9,12.7,10.5,0.214,0.249,0.307,0.384,1,3600.0,826.2,723.5,102.7,904.6,826.2,1063.6,877.0,768.0,109.0,904.6,877.0,1129.0,Magnoliopsida; Vitis vinifera L.; Olea europaea L.; Tracheophyta
2013,2013-06-02,Vila Real,Ribeira de Pena,Cerva,Agunchos,41.4906730000178,-7.89723599963718,Reacendimento,235.0,2013-06-02T16:00,24.2,39,9.4,23.8,0.0,0.0,0.0,0.0,0,1018.0,991.0,0,0,0,0,0.51,1.85,9.6,12.5,70,72,27.7,25.2,18.1,14.3,12.1,0.182,0.25,0.312,0.386,1,3600.0,676.9,578.7,98.3,859.5,676.9,895.3,744.0,636.0,108.0,859.5,744.0,984.0,Eucalyptus L'Hér.; Magnoliopsida; Vitis vinifera L.; Pinus pinaster Aiton; Tracheophyta
2013,2013-06-02,Vila Real,Vila Pouca de Aguiar,Bragado,Vilela da Cabugueira,41.5979669994778,-7.61952299992243,Desconhecida,654.0,2013-06-02T11:00,17.5,52,7.5,16.6,0.0,0.0,0.0,0.0,0,1021.9,946.8,0,0,0,0,0.49,0.96,13.7,18.0,87,87,37.1,18.7,13.8,12.1,10.0,0.229,0.27,0.317,0.386,1,3600.0,919.5,804.2,115.3,901.2,919.5,1186.8,877.0,767.0,110.0,901.2,877.0,1131.9,Pinus pinaster Aiton; Magnoliopsida; Quercus L.; Tracheophyta
2013,2013-04-14,Vila Real,Chaves,Santa Cruz/Trindade,BAIRO DOS RETORNADOS (VILARELHO DA RAIA),41.8433333333333,-7.45111111111111,NC,380.0,2013-04-14T14:00,20.9,48,9.5,18.8,0.0,0.0,0.0,0.0,1,1016.7,973.0,44,18,46,0,0.45,1.29,18.5,25.5,213,213,43.6,18.7,12.5,9.9,9.1,0.384,0.396,0.409,0.402,1,3600.0,656.0,412.9,243.1,522.8,656.0,1074.3,680.0,428.0,252.0,522.8,680.0,1113.5,Magnoliopsida; Pinus pinaster Aiton; Tracheophyta
2013,2013-06-02,Vila Real,Alijó,Vila Verde,Vale de Agodim,41.3471600002713,-7.57724999957614,Reacendimento,598.0,2013-06-02T20:00,18.3,42,5.3,15.6,0.0,0.0,0.0,0.0,0,1018.5,950.0,0,0,0,0,0.08,1.21,10.5,16.9,74,78,21.6,18.2,16.5,12.5,10.2,0.21,0.247,0.306,0.384,0,1642.21,0.0,0.0,0.0,0.0,0.0,0.0,38.0,21.0,17.0,185.6,38.0,91.4,Pinus pinaster Aiton; Magnoliopsida
2013,2013-06-01,Vila Real,Sabrosa,Paços,Sabica,41.2682229999701,-7.60803899976942,NC,662.0,2013-06-01T22:00,13.1,73,8.3,11.4,0.0,0.0,0.0,0.0,0,1021.1,944.1,5,0,9,0,0.02,0.41,8.8,14.8,12,18,19.8,14.2,15.2,11.9,9.8,0.221,0.253,0.308,0.385,0,0.0,0.0,0.0,0.0,0.0,0.0,0.0,0.0,0.0,0.0,0.0,0.0,0.0,Pinus pinaster Aiton; Vitis vinifera L.; Tracheophyta; Magnoliopsida; Pinales
2013,2013-06-02,Vila Real,Ribeira de Pena,Cerva,Agunchos,41.4906730000178,-7.89723599963718,Reacendimento,235.0,2013-06-02T10:00,19.0,56,10.1,17.6,0.0,0.0,0.0,0.0,0,1020.8,993.2,0,0,0,0,0.42,0.96,17.3,23.4,89,89,42.5,19.9,16.2,14.2,12.1,0.196,0.254,0.313,0.387,1,3600.0,806.7,693.0,113.7,865.8,806.7,1064.5,745.0,640.0,105.0,865.8,745.0,983.1,Eucalyptus L'Hér.; Magnoliopsida; Vitis vinifera L.; Pinus pinaster Aiton; Tracheophyta
2013,2013-06-02,Vila Real,Chaves,Santa Cruz/Trindade,Santa Cruz Trindade (Outeiro da Santa),41.7775,-7.38694444444444,NC,491.0,2013-06-02T14:00,21.6,38,6.7,21.5,0.0,0.0,0.0,0.0,0,1020.0,963.9,0,0,0,0,0.61,1.6,10.6,14.0,72,72,32.8,23.8,16.1,13.1,10.9,0.193,0.235,0.3,0.366,1,3600.0,925.8,814.3,111.5,917.9,925.8,1179.8,955.0,840.0,115.0,917.9,955.0,1217.0,Quercus L.; Magnoliopsida; Pinus pinaster Aiton; Tracheophyta
2013,2013-06-02,Vila Real,Montalegre,Viade de Baixo,Parafita,41.7642580000559,-7.84332999971178,NC,1001.0,2013-06-02T14:00,18.8,44,6.3,18.8,0.0,0.0,0.0,0.0,0,1020.4,908.8,1,1,0,0,0.57,1.22,9.6,12.1,77,78,31.7,20.8,13.1,10.5,8.6,0.314,0.364,0.382,0.47,1,3600.0,926.7,811.2,115.5,911.9,926.7,1183.0,955.0,836.0,119.0,911.9,955.0,1219.2,Tracheophyta; Magnoliopsida; Quercus L.
2013,2013-06-02,Vila Real,Ribeira De Pena,Ribeira de Pena (Salvador),Reboriça,41.5179440000322,-7.81439499961005,Reacendimento,487.0,2013-06-02T16:00,22.3,39,7.9,21.4,0.0,0.0,0.0,0.0,0,1018.4,962.9,0,0,0,0,0.49,1.64,10.2,13.6,72,73,31.3,23.4,16.6,12.8,10.6,0.197,0.258,0.314,0.387,1,3600.0,676.7,582.1,94.6,866.2,676.7,893.6,744.0,640.0,104.0,866.2,744.0,982.6,Tracheophyta; Magnoliopsida; Eucalyptus L'Hér.; Pinus pinaster Aiton
2013,2013-06-02,Vila Real,Chaves,Santa Cruz/Trindade,Bairro dos Retornados (Bairro),41.7477777777778,-7.42555555555556,NC,395.0,2013-06-02T17:00,22.9,34,6.3,20.5,0.0,0.0,0.0,0.0,0,1018.3,973.1,0,0,0,0,0.4,1.83,10.5,13.8,74,75,27.7,23.6,17.4,13.4,11.1,0.188,0.237,0.295,0.372,1,3600.0,490.0,411.4,78.6,804.3,490.0,680.1,567.0,476.0,91.0,804.3,567.0,787.0,Pinus pinaster Aiton; Tracheophyta; Vitis vinifera L.; Magnoliopsida; Olea europaea L.; Pinales
2013,2013-04-14,Vila Real,Valpaços,Valpaços,Bairro Barreiro,41.6021229999595,-7.29826599968804,NC,437.0,2013-04-14T15:00,20.3,50,9.7,17.7,0.0,0.0,0.0,0.0,1,1016.7,966.5,43,6,63,0,0.31,1.19,17.8,25.0,222,221,43.6,17.7,12.3,9.4,8.5,0.368,0.387,0.399,0.382,1,3600.0,377.7,155.4,222.3,223.7,377.7,944.8,406.0,167.0,239.0,223.7,406.0,1015.6,Tracheophyta; Olea europaea L.; Acacia Mill.; Magnoliopsida; Pinus pinaster Aiton
2013,2013-06-01,Vila Real,Valpaços,Santiago da Ribeira de Alhariz,Cancelo,41.6153719997406,-7.37488500012292,NC,469.0,2013-06-01T18:00,21.0,45,8.7,20.2,0.0,0.0,0.0,0.0,0,1019.2,965.4,3,0,5,0,0.21,1.36,3.3,4.7,347,351,23.0,21.0,16.2,12.7,10.5,0.198,0.242,0.297,0.373,1,3600.0,262.7,173.6,89.2,523.9,262.7,440.7,333.0,220.0,113.0,523.9,333.0,558.6,Magnoliopsida; Olea europaea L.; Castanea sativa Mill.; Pinus pinaster Aiton; Tracheophyta; Pinales; Vitis vinifera L.
2013,2013-06-03,Vila Real,Ribeira de Pena,Cerva,Agunchos,41.4906730000178,-7.89723599963718,Reacendimento,235.0,2013-06-03T15:00,24.2,33,7.1,24.7,0.0,0.0,0.0,0.0,0,1015.3,988.3,0,0,0,0,0.6,2.02,6.1,8.0,93,95,24.8,25.6,18.0,14.6,12.2,0.169,0.245,0.31,0.386,1,3600.0,834.5,732.7,101.8,913.4,834.5,1066.4,885.0,777.0,108.0,913.4,885.0,1130.9,Eucalyptus L'Hér.; Magnoliopsida; Vitis vinifera L.; Pinus pinaster Aiton; Tracheophyta
2013,2013-06-03,Vila Real,Alijó,Vila Verde,Vale de Agodim,41.3733089998033,-7.55340799993939,Reacendimento,729.0,2013-06-03T13:00,20.1,36,4.4,19.3,0.0,0.0,0.0,0.0,0,1017.7,935.5,0,0,0,0,0.62,1.51,13.0,17.4,96,97,41.4,21.4,15.2,12.4,10.0,0.211,0.249,0.306,0.384,1,3600.0,998.0,885.6,112.4,943.3,998.0,1248.0,1003.0,890.0,113.0,943.3,1003.0,1254.3,Pinus pinaster Aiton; Magnoliopsida; Tracheophyta
