year,date,district,municipality,parish,local,latitude,longitude,cause,elevation,hourly.time,hourly.temperature_2m,hourly.relative_humidity_2m,hourly.dew_point_2m,hourly.apparent_temperature,hourly.precipitation,hourly.rain,hourly.snowfall,hourly.snow_depth,hourly.weather_code,hourly.pressure_msl,hourly.surface_pressure,hourly.cloud_cover,hourly.cloud_cover_low,hourly.cloud_cover_mid,hourly.cloud_cover_high,hourly.et0_fao_evapotranspiration,hourly.vapour_pressure_deficit,hourly.wind_speed_10m,hourly.wind_speed_100m,hourly.wind_direction_10m,hourly.wind_direction_100m,hourly.wind_gusts_10m,hourly.soil_temperature_0_to_7cm,hourly.soil_temperature_7_to_28cm,hourly.soil_temperature_28_to_100cm,hourly.soil_temperature_100_to_255cm,hourly.soil_moisture_0_to_7cm,hourly.soil_moisture_7_to_28cm,hourly.soil_moisture_28_to_100cm,hourly.soil_moisture_100_to_255cm,hourly.is_day,hourly.sunshine_duration,hourly.shortwave_radiation_instant,hourly.direct_radiation_instant,hourly.diffuse_radiation_instant,hourly.direct_normal_irradiance_instant,hourly.global_tilted_irradiance_instant,hourly.terrestrial_radiation_instant,hourly.shortwave_radiation,hourly.direct_radiation,hourly.diffuse_radiation,hourly.direct_normal_irradiance,hourly.global_tilted_irradiance,hourly.terrestrial_radiation,scientificNames
2014,2014-04-15,Porto,Gondomar,Melres,CORGOS (MELRES),41.0697222222222,-8.39722222222222,NC,66.0,2014-04-15T16:00,21.4,74,16.5,21.6,0.0,0.0,0.0,0.0,0,1014.5,1006.8,2,2,0,0,0.33,0.67,14.8,18.4,271,272,26.6,23.3,18.6,14.8,12.2,0.34,0.352,0.389,0.41,1,3600.0,491.8,383.1,108.7,666.3,491.8,781.8,552.0,430.0,122.0,666.3,552.0,877.5,Eucalyptus L'Hér.; Magnoliopsida; Pinus pinaster Aiton; Tracheophyta
2014,2014-10-01,Porto,Gondomar,Baguim do Monte (Rio Tinto),R ADAO E EVA,41.1921970001857,-8.53588900009791,NC,168.0,2014-10-01T06:00,13.4,91,12.0,12.5,0.0,0.0,0.0,0.0,0,1022.5,1002.3,5,0,8,0,0.0,0.14,10.6,16.8,72,67,21.2,14.8,17.7,18.9,19.4,0.319,0.326,0.26,0.331,0,0.0,0.0,0.0,0.0,0.0,0.0,0.0,0.0,0.0,0.0,0.0,0.0,0.0,Tracheophyta; Magnoliopsida
2014,2014-10-01,Porto,Vila Nova de Gaia,Madalena,LUGAR ENTREMUROS,41.1063579999076,-8.64618199984233,NC,31.0,2014-10-01T16:00,26.0,59,17.3,26.0,0.0,0.0,0.0,0.0,1,1020.5,1016.9,21,0,35,0,0.34,1.39,18.0,24.9,344,349,28.1,24.8,20.8,19.9,20.2,0.315,0.326,0.268,0.337,1,3600.0,379.4,311.8,67.6,771.2,379.4,551.9,449.0,369.0,80.0,771.2,449.0,653.2,Tracheophyta; Magnoliopsida; Eucalyptus L'Hér.; Pinus pinaster Aiton
2014,2014-10-01,Porto,Santo Tirso,Água Longa,PORTELA ALTA,41.2631319999695,-8.49909799999661,NC,121.0,2014-10-01T16:00,25.5,53,15.3,25.7,0.0,0.0,0.0,0.0,0,1021.0,1007.0,1,0,1,0,0.32,1.53,10.9,16.9,343,349,16.6,24.2,19.9,19.0,19.5,0.311,0.322,0.27,0.333,1,3600.0,370.7,299.7,70.9,745.4,370.7,549.0,439.0,355.0,84.0,745.4,439.0,650.2,Eucalyptus L'Hér.; Tracheophyta; Pinales; Vitis vinifera L.; Pinus pinaster Aiton
2014,2014-10-01,Porto,Gondomar,São Pedro da Cova,LUGAR DAS MINAS,41.1556630002128,-8.50107699996895,NC,108.0,2014-10-01T18:00,23.1,66,16.4,23.7,0.0,0.0,0.0,0.0,0,1021.3,1008.7,2,0,3,0,0.09,0.96,10.6,20.2,342,349,17.6,22.2,20.3,19.3,19.8,0.301,0.319,0.26,0.33,1,2972.16,26.3,16.9,9.4,193.6,23.4,52.7,92.0,59.0,33.0,388.6,92.0,184.4,Eucalyptus L'Hér.; Tracheophyta; Magnoliopsida; Pinus pinaster Aiton
2014,2014-10-01,Porto,Gondomar,Melres,LG DE MONTEZELO,41.071009999911,-8.39965300030178,NC,23.0,2014-10-01T19:00,22.7,71,17.1,22.6,0.0,0.0,0.0,0.0,0,1021.1,1018.4,3,0,5,0,0.08,0.8,17.7,31.7,358,1,27.7,21.8,21.1,20.0,20.4,0.309,0.32,0.256,0.334,0,0.0,0.0,0.0,0.0,0.0,0.0,0.0,2.0,0.0,2.0,0.0,2.0,16.3,Eucalyptus L'Hér.; Magnoliopsida; Tracheophyta
2014,2014-10-01,Porto,Vila Nova De Gaia,Gulpilhares,LG. DA IGREJA (Largo da Igreja),41.0763888888889,-8.62916666666667,Desconhecida,71.0,2014-10-01T19:00,22.1,75,17.4,22.1,0.0,0.0,0.0,0.0,0,1021.1,1012.8,3,0,5,0,0.07,0.67,17.7,31.7,358,1,27.7,21.6,20.8,19.7,20.0,0.314,0.326,0.268,0.337,0,0.0,0.0,0.0,0.0,0.0,0.0,0.0,2.0,0.0,2.0,0.0,2.0,17.4,Tracheophyta; Magnoliopsida; Eucalyptus L'Hér.
2014,2014-04-15,Porto,Lousada,Casais,PENEDO SANTO (Penedo de Baixo),41.2647222222222,-8.31305555555556,NC,202.0,2014-04-15T16:00,21.1,64,14.1,21.5,0.2,0.2,0.0,0.0,51,1014.0,990.5,23,0,10,56,0.33,0.9,6.6,8.4,279,280,22.0,22.2,17.4,13.7,11.0,0.328,0.353,0.391,0.411,1,3600.0,462.0,315.2,146.9,551.0,462.0,777.6,519.0,354.0,165.0,551.0,519.0,873.5,Tracheophyta; Magnoliopsida; Eucalyptus L'Hér.; Pinus pinaster Aiton
2014,2014-10-02,Porto,Vila Do Conde,Touguinha,MONTE PICOUTOS (Bouça do Monte),41.3772222222222,-8.72416666666667,NC,34.0,2014-10-02T14:00,26.6,54,16.5,28.9,0.0,0.0,0.0,0.0,0,1021.1,1017.2,0,0,0,0,0.44,1.61,4.3,3.2,336,360,15.8,25.5,20.3,19.5,19.8,0.295,0.322,0.295,0.326,1,3600.0,614.5,517.3,97.2,806.3,614.5,876.3,645.0,543.0,102.0,806.3,645.0,919.8,Tracheophyta; Eucalyptus L'Hér.; Magnoliopsida; Pinus pinaster Aiton
2014,2014-10-02,Porto,Vila Do Conde,Rio Mau,LG DE MADEIAS (RIO MAU),41.4030555555556,-8.67916666666667,NC,56.0,2014-10-02T17:00,24.4,70,18.6,26.2,0.0,0.0,0.0,0.0,0,1020.7,1014.2,1,0,1,0,0.17,0.91,9.8,13.9,332,339,18.7,24.0,20.9,19.4,19.7,0.291,0.32,0.295,0.326,1,3600.0,176.9,128.7,48.2,571.8,176.9,307.5,246.0,179.0,67.0,571.8,246.0,427.6,Pinus pinaster Aiton; Tracheophyta; Eucalyptus L'Hér.
2014,2014-04-16,Porto,Paços de Ferreira,Lamoso,Condominhas,41.3151220003764,-8.35407299995422,NC,347.0,2014-04-16T12:00,18.9,72,13.7,20.5,0.0,0.0,0.0,0.0,2,1018.3,977.9,77,56,4,80,0.45,0.61,6.6,7.4,257,256,19.1,20.6,15.2,13.0,10.3,0.325,0.349,0.388,0.409,1,3600.0,809.3,639.8,169.5,754.2,809.3,1152.8,788.0,623.0,165.0,754.2,788.0,1122.5,Magnoliopsida; Eucalyptus L'Hér.; Pinus pinaster Aiton; Tracheophyta; Quercus suber L.; 
2014,2014-10-03,Porto,Lousada,Covas,Sra. Amparo (Senhora do Amparo),41.2905555555556,-8.32027777777778,NC,361.0,2014-10-03T10:00,21.6,61,13.7,22.3,0.0,0.0,0.0,0.0,0,1021.8,980.1,18,16,2,8,0.25,1.01,3.9,5.4,112,110,13.7,19.6,16.9,17.4,18.0,0.288,0.312,0.289,0.335,1,3600.0,455.4,289.7,165.7,513.9,455.4,770.3,404.0,257.0,147.0,513.9,404.0,683.4,Eucalyptus L'Hér.; Tracheophyta; Magnoliopsida
2014,2014-10-03,Porto,Maia,Moreira,LUGAR DE PEDRAS RUBRAS,41.2415829997593,-8.66283299975925,NC,84.0,2014-10-03T13:00,25.7,61,17.6,28.2,0.0,0.0,0.0,0.0,1,1020.2,1010.5,26,0,0,85,0.44,1.29,6.1,5.8,273,270,15.1,25.5,20.5,19.7,19.9,0.299,0.313,0.269,0.337,1,3600.0,646.5,493.0,153.4,710.4,646.5,948.5,653.0,498.0,155.0,710.4,653.0,958.1,Magnoliopsida; Eucalyptus L'Hér.; Tracheophyta; Pinus pinaster Aiton; 
2014,2014-10-03,Porto,Vila do Conde,Vairão,RUA PIAS,41.3317020003001,-8.65325200001399,NC,79.0,2014-10-03T16:00,24.1,70,18.3,25.6,0.0,0.0,0.0,0.0,0,1019.3,1010.1,17,0,0,58,0.26,0.9,10.4,12.5,316,319,19.8,24.5,20.8,19.5,19.7,0.283,0.315,0.291,0.33,1,3600.0,326.4,216.2,110.2,551.5,326.4,535.8,388.0,257.0,131.0,551.5,388.0,636.9,Eucalyptus L'Hér.; Tracheophyta
2014,2014-10-04,Porto,Gondomar,Baguim do Monte (Rio Tinto),Lg Miguel Torga,41.192970000373,-8.53459199998114,NC,162.0,2014-10-04T06:00,15.5,100,15.4,16.3,0.0,0.0,0.0,0.0,3,1019.8,1000.5,100,100,0,98,0.0,0.01,6.8,12.1,342,337,18.0,16.5,18.7,19.2,19.5,0.281,0.302,0.26,0.33,0,0.0,0.0,0.0,0.0,0.0,0.0,0.0,0.0,0.0,0.0,0.0,0.0,0.0,Tracheophyta; Magnoliopsida
2014,2014-04-16,Porto,Paços de Ferreira,Seroa,LG. COSTA,41.2645229996575,-8.43146899965074,NC,343.0,2014-04-16T20:00,13.9,89,12.1,13.6,0.0,0.0,0.0,0.0,1,1019.9,979.3,20,20,4,0,0.02,0.18,6.5,7.8,270,292,10.8,15.9,16.3,13.1,10.3,0.319,0.346,0.387,0.409,0,0.0,0.0,0.0,0.0,0.0,0.0,0.0,1.0,0.0,1.0,0.0,1.0,11.7,Tracheophyta; Magnoliopsida; Eucalyptus L'Hér.; 
2014,2014-10-04,Porto,Santo Tirso,Burgães,S.JOÃO (São João de Carvalhido),41.3505555555556,-8.44138888888889,NC,256.0,2014-10-04T06:00,14.2,98,13.9,15.2,0.0,0.0,0.0,0.0,3,1019.9,989.4,100,100,0,96,0.0,0.04,1.6,2.7,117,293,6.8,14.8,17.4,18.0,18.4,0.29,0.312,0.304,0.335,0,0.0,0.0,0.0,0.0,0.0,0.0,0.0,0.0,0.0,0.0,0.0,0.0,0.0,Tracheophyta; Pinus pinaster Aiton; Eucalyptus L'Hér.; Magnoliopsida
2014,2014-10-04,Porto,Gondomar,Gondomar (São Cosme),Lugar Jovim,41.1156620004442,-8.53936700026194,NC,10.0,2014-10-04T21:00,17.6,92,16.4,17.3,0.0,0.0,0.0,0.0,0,1020.8,1019.6,14,2,0,40,0.0,0.15,17.4,25.5,342,344,27.7,19.2,20.9,20.5,20.6,0.247,0.27,0.233,0.303,0,0.0,0.0,0.0,0.0,0.0,0.0,0.0,0.0,0.0,0.0,0.0,0.0,0.0,Tracheophyta; Vitis vinifera L.; Magnoliopsida
2014,2014-10-05,Porto,Vila Nova De Gaia,Pedroso,LG PISÃO (Largo do Pisão),41.0638888888889,-8.54027777777778,NC,120.0,2014-10-05T06:00,14.2,97,13.7,14.7,0.0,0.0,0.0,0.0,3,1017.8,1003.4,89,68,0,94,0.0,0.05,4.3,6.5,5,3,11.9,16.0,18.7,19.6,19.8,0.283,0.297,0.256,0.333,0,0.0,0.0,0.0,0.0,0.0,0.0,0.0,0.0,0.0,0.0,0.0,0.0,0.0,Tracheophyta; Eucalyptus L'Hér.; Magnoliopsida
2014,2014-10-05,Porto,Vila do Conde,Vairão,LG DE CASTRO,41.3317020003001,-8.65325200001399,NC,79.0,2014-10-05T17:00,18.2,69,12.4,16.0,0.0,0.0,0.0,0.0,1,1016.0,1006.6,42,19,0,82,0.15,0.65,20.1,26.1,327,327,35.3,19.9,19.1,19.5,19.7,0.271,0.304,0.291,0.33,1,3600.0,156.8,99.8,56.9,478.6,156.8,285.4,223.0,142.0,81.0,478.6,223.0,406.0,Eucalyptus L'Hér.; Tracheophyta
2014,2014-10-22,Porto,Paredes,Astromil,RUA DE SANTA MARINHA,41.2026930001047,-8.41462199952867,NC,278.0,2014-10-22T22:00,17.3,87,15.1,18.2,0.0,0.0,0.0,0.0,1,1025.3,992.4,29,0,0,96,0.0,0.26,5.6,6.5,105,87,13.3,17.0,18.9,17.6,18.2,0.364,0.373,0.379,0.336,0,0.0,0.0,0.0,0.0,0.0,0.0,0.0,0.0,0.0,0.0,0.0,0.0,0.0,Magnoliopsida; Pinus pinaster Aiton; Eucalyptus L'Hér.; Tracheophyta; Vitis vinifera L.
2014,2014-10-24,Porto,Paredes,Lordelo,ZONA INDUSTRIAL,41.2321630001068,-8.40985100004408,NC,198.0,2014-10-24T13:00,25.8,55,16.0,27.0,0.0,0.0,0.0,0.0,0,1018.0,995.3,2,0,1,6,0.39,1.5,6.5,8.4,56,59,12.2,22.7,18.3,18.2,18.7,0.356,0.365,0.377,0.337,1,3600.0,555.2,432.1,123.0,734.6,555.2,813.6,564.0,439.0,125.0,734.6,564.0,826.5,Magnoliopsida; Pinus pinaster Aiton; Eucalyptus L'Hér.; Tracheophyta; Vitis vinifera L.
2014,2014-10-24,Porto,Gondomar,Rio Tinto,RUA SÃO MAMEDE,41.1830940002865,-8.55624199973212,NC,90.0,2014-10-24T16:00,26.6,59,17.9,28.6,0.0,0.0,0.0,0.0,0,1016.7,1006.3,2,0,0,5,0.22,1.43,5.9,9.4,346,353,10.1,23.8,20.4,19.2,19.5,0.351,0.362,0.371,0.334,1,3600.0,243.9,185.3,58.6,656.5,243.9,390.3,308.0,234.0,74.0,656.5,308.0,493.0,Tracheophyta; Magnoliopsida
2014,2014-04-16,Porto,Vila Do Conde,Aveleda,OUTEIRO FIGUEIRA (Outeiro),41.2652777777778,-8.69305555555556,NC,36.0,2014-04-16T23:00,13.3,96,12.7,12.6,0.0,0.0,0.0,0.0,0,1020.7,1016.3,6,7,0,0,0.0,0.06,10.3,16.6,335,336,17.3,15.2,17.2,14.8,12.4,0.313,0.343,0.386,0.405,0,0.0,0.0,0.0,0.0,0.0,0.0,0.0,0.0,0.0,0.0,0.0,0.0,0.0,Tracheophyta; Eucalyptus L'Hér.
2014,2014-10-25,Porto,Gondomar,São Pedro da Cova,ZONA INDUSTRIAL DAS MIMOSAS,41.1553660000695,-8.5024519999822,NC,98.0,2014-10-25T17:00,24.9,71,19.3,27.9,0.0,0.0,0.0,0.0,0,1017.0,1005.7,12,0,0,41,0.09,0.91,3.9,5.8,34,60,10.4,22.6,20.1,19.1,19.5,0.337,0.354,0.37,0.332,1,3600.0,80.6,56.5,24.1,532.1,80.6,146.9,147.0,103.0,44.0,532.1,147.0,267.9,Eucalyptus L'Hér.; Tracheophyta; Magnoliopsida; Pinus pinaster Aiton
2014,2014-10-26,Porto,Paredes,Cete,Marco,41.1732280000051,-8.36805800000826,NC,185.0,2014-10-26T01:00,14.3,94,13.3,14.7,0.0,0.0,0.0,0.0,0,1019.5,997.4,6,0,0,19,0.0,0.1,5.1,7.6,98,115,15.8,15.8,18.3,18.4,18.8,0.347,0.357,0.374,0.337,0,0.0,0.0,0.0,0.0,0.0,0.0,0.0,0.0,0.0,0.0,0.0,0.0,0.0,Magnoliopsida; Pinus pinaster Aiton; Eucalyptus L'Hér.; Tracheophyta; Vitis vinifera L.
2014,2014-10-26,Porto,Vila Nova De Gaia,Crestuma,Rua Central,41.0583333333333,-8.49972222222222,NC,155.0,2014-10-26T18:00,20.0,87,17.8,22.0,0.0,0.0,0.0,0.0,1,1018.8,1000.6,28,0,0,94,0.02,0.3,5.2,5.6,304,310,9.7,20.1,19.5,18.9,19.2,0.338,0.35,0.368,0.335,0,0.0,0.0,0.0,0.0,0.0,0.0,0.0,12.0,2.0,10.0,22.9,12.0,60.9,Eucalyptus L'Hér.; Tracheophyta; Magnoliopsida
2014,2014-10-27,Porto,Paredes,Baltar,CRUZEIRO,41.1976419999864,-8.39214700010088,NC,475.0,2014-10-27T11:00,20.1,61,12.5,20.2,0.0,0.0,0.0,0.0,0,1018.4,963.9,12,0,15,11,0.28,0.91,5.3,7.1,118,120,17.3,17.9,14.9,16.2,16.8,0.35,0.363,0.391,0.356,1,3600.0,507.5,380.4,127.2,696.9,507.5,756.0,471.0,353.0,118.0,696.9,471.0,701.6,Magnoliopsida; Pinus pinaster Aiton; Eucalyptus L'Hér.; Tracheophyta; Vitis vinifera L.
2014,2014-04-16,Porto,Paredes,Aguiar de Sousa,LG. TRAVISQUEIRO (CETE),41.1808333333333,-8.36638888888889,NC,168.0,2014-04-16T23:00,12.9,98,12.6,13.0,0.0,0.0,0.0,0.0,0,1020.7,1000.5,5,6,0,0,0.0,0.03,4.6,9.8,342,336,10.4,15.0,16.9,14.3,11.5,0.333,0.347,0.384,0.409,0,0.0,0.0,0.0,0.0,0.0,0.0,0.0,0.0,0.0,0.0,0.0,0.0,0.0,Magnoliopsida; Pinus pinaster Aiton; Eucalyptus L'Hér.; Tracheophyta; Vitis vinifera L.
2014,2014-10-27,Porto,Gondomar,Valbom,RUA TRONCO (VALBOM),41.1294444444444,-8.56083333333333,NC,61.0,2014-10-27T13:00,22.5,70,16.8,23.9,0.0,0.0,0.0,0.0,1,1017.1,1010.0,23,0,0,78,0.36,0.81,7.8,9.8,202,197,24.8,22.6,19.0,19.5,19.7,0.341,0.352,0.37,0.339,1,3600.0,569.8,480.3,89.6,835.4,569.8,796.4,579.0,488.0,91.0,835.4,579.0,809.2,Tracheophyta; Magnoliopsida; Pinus pinaster Aiton; Eucalyptus L'Hér.
2014,2014-10-27,Porto,Penafiel,Perozelo,LG. VALQUEIRA,41.1495750003391,-8.27131800015767,NC,311.0,2014-10-27T13:00,23.3,54,13.6,23.9,0.0,0.0,0.0,0.0,0,1017.2,981.5,16,0,0,55,0.38,1.3,5.4,7.0,160,159,20.9,21.6,16.9,17.6,18.2,0.345,0.36,0.387,0.351,1,3600.0,575.3,490.7,84.6,854.5,575.3,795.5,585.0,499.0,86.0,854.5,585.0,808.9,Eucalyptus L'Hér.; Tracheophyta; Pinus pinaster Aiton
2014,2014-10-27,Porto,Lousada,Barrosas (Santo Estêvão),Bofareira,41.3328719997406,-8.27423199971517,NC,412.0,2014-10-27T16:00,19.1,75,14.6,19.6,0.0,0.0,0.0,0.0,1,1016.9,969.3,37,0,12,98,0.11,0.54,7.0,9.9,258,260,25.9,19.1,16.7,16.7,17.3,0.344,0.362,0.391,0.359,1,868.84,131.8,23.4,108.4,89.0,131.8,364.3,169.0,30.0,139.0,89.0,169.0,467.2,Eucalyptus L'Hér.; Magnoliopsida; Tracheophyta
2014,2014-10-27,Porto,Santo Tirso,Negrelos (São Tomé),AGRA,41.3479130003187,-8.39614800029331,NC,256.0,2014-10-27T18:00,18.0,87,15.8,19.7,0.0,0.0,0.0,0.0,2,1016.5,986.5,62,0,54,97,0.02,0.27,2.2,2.4,99,117,9.0,18.0,17.8,17.7,18.2,0.343,0.36,0.389,0.351,0,0.0,0.0,0.0,0.0,0.0,0.0,0.0,7.0,0.0,7.0,0.0,7.0,55.9,Magnoliopsida; Tracheophyta; Vitis vinifera L.; Eucalyptus L'Hér.; Quercus suber L.
2014,2014-10-28,Porto,Santo Tirso,Monte Córdova,LG. CURTINHAS,41.31850900001,-8.44604699982537,NC,394.0,2014-10-28T18:00,16.3,81,13.0,15.9,0.0,0.0,0.0,0.0,1,1012.1,966.3,45,0,57,37,0.03,0.36,9.1,15.1,108,115,20.2,16.2,16.4,16.7,17.3,0.37,0.361,0.388,0.356,0,0.0,0.0,0.0,0.0,0.0,0.0,0.0,11.0,4.0,7.0,49.5,11.0,52.0,Pinus pinaster Aiton; Tracheophyta; Eucalyptus L'Hér.; Vitis vinifera L.; Magnoliopsida
2014,2014-10-28,Porto,Valongo,Valongo,LG. GALILHEIRO,41.1939949999915,-8.49267699983385,NC,136.0,2014-10-28T21:00,18.3,80,14.8,19.5,0.0,0.0,0.0,0.0,0,1012.2,996.2,5,0,3,11,0.0,0.43,2.7,2.7,113,157,9.0,16.7,18.3,18.7,19.2,0.348,0.345,0.366,0.333,0,0.0,0.0,0.0,0.0,0.0,0.0,0.0,0.0,0.0,0.0,0.0,0.0,0.0,Tracheophyta; Eucalyptus L'Hér.; Magnoliopsida
2014,2014-10-26,Porto,Vila Nova De Gaia,São Félix da Marinha,PADRE TORRES MAIA,41.0301250002119,-8.62918899959988,NC,30.0,2014-10-26T15:00,23.3,70,17.5,25.2,0.0,0.0,0.0,0.0,1,1018.4,1014.9,27,0,0,89,0.23,0.85,5.4,5.4,270,262,14.4,23.5,20.2,19.8,20.1,0.307,0.322,0.346,0.308,1,3600.0,315.0,150.9,164.1,361.0,315.0,578.7,357.0,171.0,186.0,361.0,357.0,655.9,Eucalyptus L'Hér.; Magnoliopsida; Tracheophyta; Pinales; Pinus pinaster Aiton
2014,2014-10-29,Porto,Vila do Conde,Mindelo,LG. ESPAÇO DE NATUREZA,41.3147310002645,-8.72070500002967,NC,31.0,2014-10-29T10:00,20.5,73,15.5,20.9,0.0,0.0,0.0,0.0,0,1014.0,1010.4,2,0,4,0,0.2,0.66,9.8,16.1,114,117,21.2,18.9,17.7,19.1,19.6,0.347,0.356,0.381,0.34,1,3600.0,384.2,283.5,100.7,633.8,384.2,620.3,332.0,245.0,87.0,633.8,332.0,536.0,Eucalyptus L'Hér.; Tracheophyta; Pinus pinaster Aiton; Magnoliopsida
2014,2014-04-17,Porto,Vila Nova de Gaia,Avintes,Av. Vasco da Gama,41.105347000228,-8.54715499983893,NC,102.0,2014-04-17T13:00,23.7,66,16.9,28.1,0.0,0.0,0.0,0.0,0,1017.0,1005.1,1,0,2,0,0.58,1.0,1.6,1.8,333,11,13.0,24.1,17.3,15.0,12.2,0.326,0.344,0.382,0.408,1,3600.0,880.2,774.5,105.7,904.5,880.2,1163.1,883.0,777.0,106.0,904.5,883.0,1166.8,Magnoliopsida; Pinales; Pinus pinea L.; Tracheophyta
2014,2014-10-30,Porto,Baião,Santa Cruz Do Douro,Caminho da Escola de Queixomil,41.1280555555556,-8.00333333333333,Desconhecida,413.0,2014-10-30T01:00,11.8,91,10.4,11.1,0.0,0.0,0.0,0.0,0,1017.8,968.9,0,0,0,0,0.0,0.12,6.3,6.8,103,115,17.3,13.4,16.4,17.3,18.2,0.355,0.358,0.376,0.342,0,0.0,0.0,0.0,0.0,0.0,0.0,0.0,0.0,0.0,0.0,0.0,0.0,0.0,Magnoliopsida; Pinus pinaster Aiton; Vitis vinifera L.; Quercus L.; Tracheophyta; Eucalyptus L'Hér.; Olea europaea L.; 
2014,2014-10-30,Porto,Vila Nova De Gaia,Perosinho,R.AMIEROS (Rua de São Salvador de Perosinho),41.0633333333333,-8.58666666666667,NC,139.0,2014-10-30T03:00,14.5,92,13.3,14.4,0.0,0.0,0.0,0.0,0,1016.8,1000.2,4,5,0,0,0.0,0.13,7.8,9.7,103,138,16.9,15.4,17.9,18.8,19.2,0.338,0.346,0.367,0.339,0,0.0,0.0,0.0,0.0,0.0,0.0,0.0,0.0,0.0,0.0,0.0,0.0,0.0,Eucalyptus L'Hér.; Tracheophyta; Magnoliopsida
2014,2014-10-30,Porto,Maia,São Pedro Fins,R.CARDOSAS,41.2456080002255,-8.56455300013224,NC,111.0,2014-10-30T05:00,14.2,95,13.5,14.1,0.0,0.0,0.0,0.0,0,1017.0,1003.7,0,0,0,0,0.0,0.08,8.6,9.3,92,103,18.4,15.2,17.6,18.9,19.3,0.336,0.344,0.364,0.335,0,0.0,0.0,0.0,0.0,0.0,0.0,0.0,0.0,0.0,0.0,0.0,0.0,0.0,Vitis vinifera L.; Eucalyptus L'Hér.; Tracheophyta; Magnoliopsida; Pinus pinaster Aiton; 
2014,2014-10-30,Porto,Valongo,Sobrado,LUGAR DAS VINHAS,41.2015320000384,-8.46837500002649,NC,113.0,2014-10-30T18:00,23.1,63,15.6,24.3,0.0,0.0,0.0,0.0,0,1016.7,1003.6,0,0,0,0,0.04,1.05,5.1,8.2,141,151,10.8,19.5,19.0,18.7,19.3,0.325,0.34,0.363,0.334,0,7.2,0.0,0.0,0.0,0.0,0.0,0.0,10.0,5.0,5.0,63.8,10.0,48.6,Pinus pinaster Aiton; Tracheophyta; Eucalyptus L'Hér.
2014,2014-10-30,Porto,Matosinhos,Lavra,RUA DAS POÇAS,41.2589019997915,-8.72139699988895,NC,7.0,2014-10-30T18:00,22.3,76,17.9,24.0,0.0,0.0,0.0,0.0,0,1016.5,1015.7,0,0,0,0,0.04,0.63,8.1,12.4,159,163,11.9,20.1,19.4,19.2,19.7,0.33,0.35,0.378,0.34,0,6.84,0.0,0.0,0.0,0.0,0.0,0.0,10.0,5.0,5.0,63.2,10.0,49.7,Magnoliopsida; Tracheophyta
2014,2014-04-17,Porto,Vila Nova De Gaia,Crestuma,LG. LEGOAS (CRESTUMA),41.0641666666667,-8.5,NC,75.0,2014-04-17T13:00,23.8,66,17.0,26.6,0.0,0.0,0.0,0.0,0,1017.3,1008.6,5,2,5,0,0.55,1.01,11.0,10.9,308,314,22.3,24.3,17.5,15.1,12.4,0.326,0.344,0.382,0.408,1,3600.0,875.2,747.6,127.6,873.0,875.2,1163.1,878.0,750.0,128.0,873.0,878.0,1166.8,Magnoliopsida; Eucalyptus L'Hér.; Tracheophyta
2014,2014-12-30,Porto,Gondomar,São Pedro da Cova,LG. FEIRA,41.1553660000695,-8.5024519999822,NC,98.0,2014-12-30T22:00,1.7,89,0.1,-1.7,0.0,0.0,0.0,0.0,0,1033.8,1021.3,6,0,0,20,0.0,0.08,9.0,15.2,95,104,20.9,3.6,7.0,10.3,14.9,0.356,0.367,0.388,0.398,0,0.0,0.0,0.0,0.0,0.0,0.0,0.0,0.0,0.0,0.0,0.0,0.0,0.0,Eucalyptus L'Hér.; Tracheophyta; Magnoliopsida; Pinus pinaster Aiton
2014,2014-12-31,Porto,Vila Nova de Gaia,Serzedo,ESTRADA NOVA DO ALQUEBRE,41.0459920003679,-8.61601700041029,NC,72.0,2014-12-31T13:00,12.1,46,0.9,9.8,0.0,0.0,0.0,0.0,2,1033.5,1024.6,52,0,47,78,0.2,0.76,1.8,2.2,360,9,9.7,10.5,6.6,10.5,15.1,0.317,0.327,0.343,0.373,1,3600.0,428.0,332.2,95.8,766.3,428.0,613.2,429.0,333.0,96.0,766.3,429.0,614.6,Tracheophyta; Eucalyptus L'Hér.; Pinales; Magnoliopsida
2014,2014-04-17,Porto,Penafiel,Perozelo,Giesteira,41.1244444444444,-8.31305555555556,NC,310.0,2014-04-17T14:00,25.0,48,13.2,27.1,0.0,0.0,0.0,0.0,0,1016.3,981.0,12,0,20,0,0.54,1.66,3.7,5.2,119,115,17.6,23.6,17.0,13.8,10.7,0.329,0.35,0.385,0.411,1,3600.0,770.2,629.1,141.1,778.6,770.2,1097.5,797.0,651.0,146.0,778.6,797.0,1135.6,Eucalyptus L'Hér.; Tracheophyta; Magnoliopsida
2014,2014-03-10,Porto,Penafiel,Boelhe,Estremadouro,41.1272222222222,-8.235,Desconhecida,141.0,2014-03-10T14:00,20.7,39,6.2,19.6,0.0,0.0,0.0,0.0,0,1019.0,1002.5,0,0,0,0,0.46,1.5,9.0,12.5,53,57,20.2,18.0,12.4,11.3,11.2,0.359,0.376,0.399,0.424,1,3600.0,714.1,625.3,88.8,942.7,714.1,920.4,740.0,648.0,92.0,942.7,740.0,953.7,Magnoliopsida; Quercus L.; Tracheophyta; Vitis vinifera L.
2014,2014-04-17,Porto,Penafiel,Penafiel,LG. RANDE (BUSTÊLO),41.2297222222222,-8.27111111111111,NC,241.0,2014-04-17T15:00,24.6,52,14.1,26.6,0.0,0.0,0.0,0.0,0,1015.8,988.2,10,0,17,0,0.47,1.48,2.1,1.8,239,217,16.6,23.7,17.3,13.9,10.9,0.325,0.346,0.383,0.409,1,3600.0,648.6,545.9,102.7,766.2,648.6,967.7,695.0,585.0,110.0,766.2,695.0,1037.0,Tracheophyta; Vitis vinifera L.; Magnoliopsida
2014,2014-04-17,Porto,Paços de Ferreira,Freamunde,CACHOPADRE,41.2887509997686,-8.34130900012122,NC,361.0,2014-04-17T17:00,21.5,73,16.3,22.2,0.0,0.0,0.0,0.0,0,1015.5,974.0,15,3,21,0,0.21,0.7,10.5,14.8,286,288,23.0,21.5,17.1,13.1,10.1,0.31,0.343,0.384,0.41,1,3600.0,270.4,183.3,87.1,443.5,270.4,561.4,326.0,221.0,105.0,443.5,326.0,676.7,Tracheophyta; Eucalyptus L'Hér.; Magnoliopsida; Pinus pinaster Aiton; 
2014,2014-04-17,Porto,Maia,Milheirós,Rua da Bajouca,41.2738888888889,-8.63361111111111,NC,95.0,2014-04-17T18:00,20.5,83,17.5,21.6,0.0,0.0,0.0,0.0,0,1016.0,1004.8,8,0,13,0,0.14,0.41,11.4,16.9,325,333,19.8,21.2,18.3,14.8,12.1,0.311,0.339,0.382,0.406,1,3600.0,168.6,117.4,51.2,507.6,168.6,314.1,237.0,165.0,72.0,507.6,237.0,441.5,Tracheophyta; Magnoliopsida; Eucalyptus L'Hér.; ; Pinus pinaster Aiton
2014,2014-04-18,Porto,Paços de Ferreira,Frazão,R. MONTE,41.2600260003408,-8.40469900025262,NC,268.0,2014-04-18T14:00,18.3,82,15.2,18.9,0.2,0.2,0.0,0.0,51,1015.9,984.6,100,97,43,0,0.36,0.38,13.4,17.9,278,279,33.5,21.1,16.6,13.9,10.9,0.31,0.338,0.381,0.409,1,3600.0,673.8,496.9,176.9,613.1,673.8,1100.2,697.0,514.0,183.0,613.1,697.0,1138.0,Eucalyptus L'Hér.; Tracheophyta; Magnoliopsida; Vitis vinifera L.; 
2014,2014-04-18,Porto,Maia,Águas Santas,RETUNDA DO MAIA SHOPPING (Rua Alberto Campos da Costa Maia),41.2461111111111,-8.6675,NC,78.0,2014-04-18T16:00,15.9,82,12.8,14.5,0.0,0.0,0.0,0.0,2,1016.0,1006.7,74,63,28,0,0.21,0.33,15.9,18.9,303,305,31.3,19.2,17.3,15.2,12.5,0.327,0.343,0.38,0.407,1,3600.0,387.6,217.9,169.7,372.8,387.6,793.4,434.0,244.0,190.0,372.8,434.0,888.4,Tracheophyta; Pinus pinaster Aiton; Magnoliopsida; Eucalyptus L'Hér.; 
2014,2014-04-19,Porto,Amarante,Aboim,Pinheiro,41.3197222222222,-8.065,Desconhecida,163.0,2014-04-19T21:00,10.9,91,9.4,9.5,0.0,0.0,0.0,0.0,2,1008.7,989.2,73,49,8,81,0.0,0.12,8.7,16.4,277,285,26.6,13.4,15.2,14.7,11.5,0.36,0.348,0.379,0.409,0,0.0,0.0,0.0,0.0,0.0,0.0,0.0,0.0,0.0,0.0,0.0,0.0,0.0,Tracheophyta; Eucalyptus L'Hér.; Pinus pinaster Aiton; Magnoliopsida; Vitis vinifera L.; 
2014,2014-04-20,Porto,Lousada,Sousela,SANTA AGUEDA,41.2990000004239,-8.30387200011147,NC,274.0,2014-04-20T10:00,12.9,68,7.1,11.8,0.0,0.0,0.0,0.0,2,1005.5,973.2,63,62,0,23,0.29,0.48,2.6,2.9,326,330,15.8,15.6,13.5,13.9,10.9,0.344,0.343,0.377,0.409,1,3600.0,615.7,451.6,164.1,634.2,615.7,965.6,559.0,410.0,149.0,634.2,559.0,876.6,Vitis vinifera L.; Tracheophyta; Pinus pinaster Aiton; Magnoliopsida; Eucalyptus L'Hér.
2014,2014-04-20,Porto,Maia,Águas Santas,Rebordãos,41.2183333333333,-8.57,NC,84.0,2014-04-20T17:00,15.7,66,9.4,13.6,0.3,0.3,0.0,0.0,51,1003.1,993.2,77,33,47,64,0.21,0.61,13.5,17.6,312,314,25.6,18.5,16.1,15.0,12.6,0.324,0.334,0.374,0.404,1,3600.0,317.5,222.5,95.0,525.1,317.5,574.4,381.0,267.0,114.0,525.1,381.0,689.4,Tracheophyta; Pinus pinaster Aiton; Magnoliopsida; Eucalyptus L'Hér.; 
2014,2014-04-20,Porto,Lousada,Meinedo,Romariz,41.2518219999472,-8.25196799993515,NC,201.0,2014-04-20T19:00,12.9,77,8.9,11.6,0.0,0.0,0.0,0.0,2,1003.1,979.4,55,18,38,54,0.04,0.34,7.1,14.2,319,324,24.5,15.4,15.6,14.4,11.4,0.341,0.341,0.376,0.409,1,3049.0,24.8,11.8,13.0,135.4,22.5,58.7,80.0,38.0,42.0,246.4,80.0,189.1,Magnoliopsida; Tracheophyta; Vitis vinifera L.
2014,2014-03-10,Porto,Felgueiras,Pinheiro,Ouro,41.375,-8.14333333333333,NC,529.0,2014-03-10T13:00,17.3,42,4.1,16.2,0.0,0.0,0.0,0.0,0,1020.0,958.8,0,0,0,0,0.43,1.15,6.4,8.7,47,48,28.1,15.0,9.4,8.7,8.6,0.365,0.379,0.402,0.423,1,3600.0,753.1,663.0,90.1,947.1,753.1,971.3,752.0,662.0,90.0,947.1,752.0,969.9,Pinus pinaster Aiton; Magnoliopsida; Eucalyptus L'Hér.
2014,2014-04-21,Porto,Vila Nova De Gaia,Sandim,Mosteiro,41.0177777777778,-8.50861111111111,NC,143.0,2014-04-21T11:00,15.0,69,9.4,13.9,0.2,0.2,0.0,0.0,51,1005.6,988.7,44,25,35,0,0.35,0.53,12.5,15.8,303,305,27.7,17.7,14.3,14.8,12.3,0.294,0.3,0.334,0.377,1,3600.0,759.5,612.2,147.2,752.0,759.5,1103.3,717.0,578.0,139.0,752.0,717.0,1041.6,Tracheophyta; Eucalyptus L'Hér.; Quercus L.; Magnoliopsida
2014,2014-04-21,Porto,Gondomar,Fânzeres,SEIXIDRO (Seixo),41.1844444444444,-8.52111111111111,NC,169.0,2014-04-21T14:00,15.5,63,8.4,14.0,0.0,0.0,0.0,0.0,1,1006.0,986.1,33,25,18,0,0.38,0.65,14.9,19.1,290,290,31.7,18.4,14.7,14.4,11.9,0.319,0.332,0.372,0.405,1,3600.0,723.4,554.2,169.3,675.8,723.4,1111.3,748.0,573.0,175.0,675.8,748.0,1149.0,Tracheophyta; Eucalyptus L'Hér.; Pinus pinaster Aiton; Castanea sativa Mill.
2014,2014-04-21,Porto,Paredes,Lordelo,R. DO AGRELO (LORDELO),41.2305555555556,-8.40694444444445,NC,229.0,2014-04-21T16:00,14.6,65,8.0,11.9,0.0,0.0,0.0,0.0,0,1006.5,979.6,18,17,4,0,0.27,0.59,15.3,19.8,294,295,32.0,17.4,14.6,14.0,11.4,0.333,0.338,0.371,0.407,1,3600.0,478.1,363.7,114.4,616.2,478.1,799.9,535.0,407.0,128.0,616.2,535.0,895.1,Magnoliopsida; Pinus pinaster Aiton; Eucalyptus L'Hér.; Tracheophyta; Vitis vinifera L.
2014,2014-04-21,Porto,Paços de Ferreira,Paços de Ferreira,R. ALTO DAS QUINTÃS,41.2687820000119,-8.37953799989488,NC,299.0,2014-04-21T16:00,14.1,64,7.3,11.2,0.0,0.0,0.0,0.0,1,1006.3,971.3,30,28,8,0,0.24,0.58,14.9,19.7,290,291,36.7,16.9,14.1,13.6,10.9,0.324,0.337,0.374,0.407,1,3600.0,409.3,283.3,126.0,480.1,409.3,799.7,458.0,317.0,141.0,480.1,458.0,894.7,Tracheophyta; Magnoliopsida; Eucalyptus L'Hér.
2014,2014-04-22,Porto,Vila Nova De Gaia,Mafamude,LINHARES (Largo de Soares dos Reis),41.1225,-8.6125,NC,126.0,2014-04-22T15:00,16.3,60,8.5,12.6,0.0,0.0,0.0,0.0,1,1015.8,1000.8,50,42,20,0,0.29,0.74,22.5,30.3,219,217,41.8,17.8,15.0,14.5,12.4,0.323,0.334,0.371,0.405,1,3600.0,474.1,276.8,197.3,379.2,474.1,988.7,507.0,296.0,211.0,379.2,507.0,1057.3,Tracheophyta; Magnoliopsida; Eucalyptus L'Hér.
2014,2014-04-22,Porto,Felgueiras,Pinheiro,Rua Srª.Aparecida,41.3666560003493,-8.15704099973043,NC,462.0,2014-04-22T17:00,13.3,65,6.8,10.3,0.0,0.0,0.0,0.0,1,1016.0,961.8,48,41,19,0,0.17,0.54,15.5,22.7,234,234,45.0,14.5,12.9,12.7,10.0,0.329,0.338,0.372,0.409,1,3600.0,237.6,91.7,145.9,215.8,237.6,575.4,285.0,110.0,175.0,215.8,285.0,690.2,Pinus pinaster Aiton; Tracheophyta; Magnoliopsida; Eucalyptus L'Hér.; Vitis vinifera L.
2014,2014-03-10,Porto,Felgueiras,Pinheiro,Oro,41.3744444444444,-8.14388888888889,NC,523.0,2014-03-10T20:00,14.2,49,3.7,11.7,0.0,0.0,0.0,0.0,0,1019.3,958.2,0,0,0,0,0.03,0.82,6.8,9.5,87,81,22.3,10.2,10.9,8.8,8.7,0.359,0.376,0.4,0.423,0,0.0,0.0,0.0,0.0,0.0,0.0,0.0,0.0,0.0,0.0,0.0,0.0,0.0,Pinus pinaster Aiton; Magnoliopsida; Eucalyptus L'Hér.
2014,2014-04-22,Porto,Valongo,Valongo,QUINTA LOUSA,41.1919559997982,-8.49829499986437,NC,150.0,2014-04-22T20:00,13.3,78,9.6,10.6,0.2,0.2,0.0,0.0,51,1016.5,998.5,42,19,29,24,0.05,0.34,17.7,29.9,204,206,31.7,14.6,15.1,14.4,12.1,0.312,0.328,0.368,0.405,0,0.0,0.0,0.0,0.0,0.0,0.0,0.0,3.0,0.0,3.0,0.0,3.0,25.8,Tracheophyta; Magnoliopsida
2014,2014-04-23,Porto,Gondomar,Lomba,RUA DA PÓVOA (Rua de João de Deus),41.1575,-8.55888888888889,NC,82.0,2014-04-23T16:00,15.6,57,7.2,13.1,0.0,0.0,0.0,0.0,1,1020.8,1011.0,43,26,33,0,0.29,0.76,12.1,15.1,282,282,25.6,18.8,16.0,14.7,12.7,0.361,0.346,0.367,0.403,1,3600.0,477.0,318.6,158.4,533.5,477.0,808.4,533.0,356.0,177.0,533.5,533.0,903.2,Magnoliopsida; Eucalyptus L'Hér.; Vitis vinifera L.; Pinus pinaster Aiton; Tracheophyta; 
2014,2014-04-26,Porto,Paredes,Sobreira,Castromil,41.1577777777778,-8.38888888888889,NC,163.0,2014-04-26T16:00,15.4,84,12.6,13.6,0.0,0.0,0.0,0.0,3,1021.3,1001.8,83,91,0,5,0.23,0.29,17.6,23.5,296,295,37.4,17.2,14.3,13.6,12.1,0.418,0.419,0.379,0.404,1,3600.0,438.1,269.7,168.4,446.7,438.1,816.0,489.0,301.0,188.0,446.7,489.0,910.7,Magnoliopsida; Pinus pinaster Aiton; Eucalyptus L'Hér.; Tracheophyta; Vitis vinifera L.
2014,2014-04-27,Porto,Penafiel,Rio de Moinhos,Quintandona,41.1338888888889,-8.38,NC,132.0,2014-04-27T20:00,12.2,80,8.9,10.8,0.0,0.0,0.0,0.0,1,1022.8,1006.8,40,16,0,85,0.02,0.28,7.2,12.5,307,316,18.0,14.3,15.1,13.9,12.4,0.387,0.398,0.384,0.405,0,0.0,0.0,0.0,0.0,0.0,0.0,0.0,6.0,1.0,5.0,14.3,6.0,35.5,Eucalyptus L'Hér.; Tracheophyta; Magnoliopsida
2014,2014-04-27,Porto,Felgueiras,Macieira Da Lixa,Passarias,41.34,-8.14305555555556,NC,385.0,2014-04-27T20:00,10.6,81,7.3,8.9,0.0,0.0,0.0,0.0,1,1022.9,976.8,32,9,0,79,0.02,0.25,6.9,11.0,309,319,22.3,12.4,13.2,11.9,10.4,0.387,0.4,0.391,0.406,0,0.0,0.0,0.0,0.0,0.0,0.0,0.0,5.0,1.0,4.0,14.5,5.0,34.3,Eucalyptus L'Hér.; Tracheophyta; Pinus pinaster Aiton; Magnoliopsida; Vitis vinifera L.
2014,2014-04-29,Porto,Paredes,Aguiar de Sousa,TRAVISQUEIRA (Trigueiras),41.2288888888889,-8.32916666666667,NC,172.0,2014-04-29T07:00,10.5,94,9.5,9.8,0.0,0.0,0.0,0.0,3,1020.1,999.2,100,79,76,68,0.03,0.08,4.0,4.8,85,63,10.8,11.7,13.1,13.3,11.9,0.381,0.388,0.389,0.405,1,372.94,92.1,19.1,73.0,74.2,90.4,346.7,58.0,12.0,46.0,72.8,58.0,218.4,Magnoliopsida; Pinus pinaster Aiton; Eucalyptus L'Hér.; Tracheophyta; Vitis vinifera L.; Quercus L.
2014,2014-04-29,Porto,Vila Do Conde,Rio Mau,R.FONTE COVA (RIO MAU),41.4030555555556,-8.67916666666667,NC,56.0,2014-04-29T16:00,17.2,77,13.1,16.2,0.0,0.0,0.0,0.0,3,1019.1,1012.4,100,93,11,59,0.22,0.46,14.0,17.7,282,282,28.4,18.6,15.6,14.0,12.8,0.361,0.374,0.372,0.4,1,3600.0,354.0,133.9,220.1,218.2,354.0,827.9,394.0,149.0,245.0,218.2,394.0,921.5,Pinus pinaster Aiton; Tracheophyta; Eucalyptus L'Hér.
2014,2014-03-11,Porto,Gondomar,São Pedro Da Cova,TV. POÇO DE FATIMA (SÃO PEDRO DA COVA),41.1555555555556,-8.50361111111111,NC,106.0,2014-03-11T00:00,8.8,84,6.2,6.8,0.0,0.0,0.0,0.0,0,1019.1,1006.1,0,0,0,0,0.0,0.18,7.4,12.2,76,62,16.6,10.3,13.2,11.8,11.7,0.359,0.373,0.4,0.422,0,0.0,0.0,0.0,0.0,0.0,0.0,0.0,0.0,0.0,0.0,0.0,0.0,0.0,Eucalyptus L'Hér.; Tracheophyta; Magnoliopsida; Pinus pinaster Aiton
2014,2014-05-01,Porto,Gondomar,Melres,Póvoa (MELRES),41.0697222222222,-8.39722222222222,NC,66.0,2014-05-01T14:00,20.5,62,12.9,19.5,0.0,0.0,0.0,0.0,0,1019.4,1011.6,2,0,0,6,0.49,0.92,24.7,30.3,341,344,42.5,22.2,16.7,14.5,12.9,0.354,0.368,0.38,0.404,1,3600.0,880.6,763.5,117.1,903.3,880.6,1139.4,910.0,789.0,121.0,903.3,910.0,1177.4,Eucalyptus L'Hér.; Magnoliopsida; Pinus pinaster Aiton; Tracheophyta
2014,2014-05-02,Porto,Santo Tirso,Vilarinho,ALTO DE PARADELA (Alto Catorze),41.245,-8.50277777777778,NC,211.0,2014-05-02T12:00,21.7,51,11.0,22.4,0.0,0.0,0.0,0.0,0,1019.2,994.6,5,0,0,16,0.56,1.28,10.5,13.8,38,43,22.3,20.5,15.2,13.8,12.1,0.338,0.356,0.37,0.401,1,3600.0,923.6,804.8,118.8,900.4,923.6,1204.2,902.0,786.0,116.0,900.4,902.0,1176.1,Eucalyptus L'Hér.; Magnoliopsida; Tracheophyta; Pinus pinaster Aiton; Vitis vinifera L.
2014,2014-05-02,Porto,Marco De Canaveses,Paços de Gaiolo,Carrapatelo,41.0911111111111,-8.13277777777778,Desconhecida,240.0,2014-05-02T13:00,22.8,47,11.0,23.8,0.0,0.0,0.0,0.0,0,1018.4,990.6,8,0,0,26,0.6,1.46,10.6,13.5,24,29,28.8,21.4,15.2,13.3,11.5,0.343,0.363,0.385,0.404,1,3600.0,932.6,825.1,107.5,921.6,932.6,1206.3,937.0,829.0,108.0,921.6,937.0,1211.9,Magnoliopsida; Pinus pinaster Aiton; Tracheophyta; Quercus suber L.; Vitis vinifera L.; Eucalyptus L'Hér.; Olea europaea L.; 
2014,2014-05-02,Porto,Paredes,Sobreira,STª. COMBA (Santa Comba),41.1119444444444,-8.39777777777778,NC,127.0,2014-05-02T14:00,24.2,47,12.2,25.1,0.0,0.0,0.0,0.0,0,1018.1,1003.4,3,0,0,11,0.6,1.61,12.4,15.6,10,15,26.6,23.0,16.5,14.3,12.6,0.338,0.358,0.377,0.403,1,3600.0,876.6,774.1,102.6,914.0,876.6,1141.0,906.0,800.0,106.0,914.0,906.0,1179.2,Magnoliopsida; Pinus pinaster Aiton; Eucalyptus L'Hér.; Tracheophyta; Vitis vinifera L.
2014,2014-05-02,Porto,Felgueiras,Idães,LUG. DE BARROSAS,41.3386859999763,-8.25021599999732,NC,345.0,2014-05-02T14:00,22.8,45,10.3,24.0,0.0,0.0,0.0,0.0,0,1018.3,978.7,4,0,0,15,0.59,1.53,7.5,9.5,35,37,23.8,21.6,15.1,12.8,10.9,0.335,0.361,0.385,0.404,1,3600.0,881.4,777.9,103.5,921.0,881.4,1137.9,911.0,804.0,107.0,921.0,911.0,1176.1,Pinus pinaster Aiton; Tracheophyta; Eucalyptus L'Hér.; Magnoliopsida; Vitis vinifera L.
2014,2014-05-02,Porto,Lousada,Lustosa,Rua de São Gonçalo,41.3261111111111,-8.32194444444444,NC,440.0,2014-05-02T15:00,22.7,43,9.6,22.8,0.0,0.0,0.0,0.0,0,1017.8,967.6,2,0,0,8,0.53,1.57,9.4,12.3,18,21,28.1,21.3,14.9,12.2,10.4,0.335,0.361,0.386,0.405,1,3600.0,769.6,674.1,95.5,899.3,769.6,1009.9,822.0,720.0,102.0,899.3,822.0,1078.6,Pinus pinaster Aiton; Vitis vinifera L.; Eucalyptus L'Hér.; Tracheophyta; Magnoliopsida
2014,2014-05-02,Porto,Penafiel,Luzim,SÃO ROMÃO (São Roque),41.2094444444444,-8.29722222222222,Desconhecida,204.0,2014-05-02T19:00,20.8,57,11.8,20.0,0.0,0.0,0.0,0.0,0,1017.6,993.8,0,0,0,0,0.1,1.07,9.0,15.5,355,5,18.0,19.5,17.2,13.7,11.8,0.336,0.358,0.381,0.403,1,3600.0,58.4,38.5,19.9,441.5,58.4,110.1,126.0,83.0,43.0,470.7,126.0,237.5,Vitis vinifera L.; Tracheophyta
2014,2014-05-02,Porto,Vila Nova De Gaia,Pedroso,LG. AZENHA (Rua da Azenha),41.0594444444444,-8.55083333333333,NC,138.0,2014-05-02T20:00,18.3,67,12.0,16.9,0.0,0.0,0.0,0.0,0,1017.6,1001.3,2,0,0,5,0.07,0.7,14.0,24.9,1,5,26.3,18.4,17.5,14.4,12.6,0.335,0.354,0.368,0.401,0,0.0,0.0,0.0,0.0,0.0,0.0,0.0,9.0,4.0,5.0,50.5,9.0,47.6,Eucalyptus L'Hér.; Magnoliopsida; Tracheophyta
2014,2014-05-02,Porto,Maia,Pedrouços,TRAV. ARROTEIA (Travessa da Arroteia),41.1869444444444,-8.595,NC,105.0,2014-05-02T23:00,15.9,70,10.4,14.4,0.0,0.0,0.0,0.0,0,1018.0,1005.5,2,0,0,5,0.03,0.54,10.9,23.0,34,41,24.5,16.3,17.4,14.6,12.8,0.332,0.351,0.365,0.399,0,0.0,0.0,0.0,0.0,0.0,0.0,0.0,0.0,0.0,0.0,0.0,0.0,0.0,Tracheophyta; Magnoliopsida; 
2014,2014-05-02,Porto,Paredes,Aguiar de Sousa,TRAVISQUEIRO (CETE),41.1808333333333,-8.36638888888889,NC,168.0,2014-05-02T23:00,15.0,71,9.9,13.6,0.0,0.0,0.0,0.0,0,1018.4,998.4,1,0,0,4,0.02,0.49,10.1,24.2,35,44,24.1,15.6,17.1,14.2,12.2,0.338,0.354,0.374,0.402,0,0.0,0.0,0.0,0.0,0.0,0.0,0.0,0.0,0.0,0.0,0.0,0.0,0.0,Magnoliopsida; Pinus pinaster Aiton; Eucalyptus L'Hér.; Tracheophyta; Vitis vinifera L.
2014,2014-05-03,Porto,Amarante,Candemil,Espinheiro,41.255,-7.96944444444444,Desconhecida,572.0,2014-05-03T01:00,11.2,69,5.8,8.8,0.0,0.0,0.0,0.0,0,1019.0,951.8,4,0,0,15,0.02,0.41,9.8,26.1,82,84,36.0,11.7,14.3,11.7,9.6,0.335,0.357,0.382,0.404,0,0.0,0.0,0.0,0.0,0.0,0.0,0.0,0.0,0.0,0.0,0.0,0.0,0.0,Magnoliopsida; Quercus L.; Tracheophyta; Eucalyptus L'Hér.; Pinus pinaster Aiton; 
2014,2014-05-03,Porto,Paredes,Aguiar de Sousa,TRAVISQUEIRO (CETE),41.1808333333333,-8.36638888888889,NC,168.0,2014-05-03T01:00,13.8,74,9.2,12.2,0.0,0.0,0.0,0.0,0,1018.1,998.0,2,0,0,7,0.02,0.42,10.2,24.0,58,71,23.0,14.3,16.7,14.2,12.2,0.338,0.354,0.374,0.402,0,0.0,0.0,0.0,0.0,0.0,0.0,0.0,0.0,0.0,0.0,0.0,0.0,0.0,Magnoliopsida; Pinus pinaster Aiton; Eucalyptus L'Hér.; Tracheophyta; Vitis vinifera L.
2014,2014-05-03,Porto,Felgueiras,Idães,TAMARIM (JUGUEIROS),41.4002777777778,-8.21722222222222,NC,180.0,2014-05-03T14:00,22.7,43,9.4,24.2,0.0,0.0,0.0,0.0,0,1017.5,996.6,0,0,0,0,0.59,1.57,4.5,5.9,76,76,23.4,22.2,16.4,14.0,12.0,0.319,0.353,0.385,0.405,1,3600.0,889.4,784.9,104.5,926.3,889.4,1141.1,919.0,811.0,108.0,926.3,919.0,1179.0,Magnoliopsida; Vitis vinifera L.; Pinus pinaster Aiton; Eucalyptus L'Hér.; Tracheophyta
2014,2014-05-03,Porto,Vila Nova de Gaia,Pedroso,Avenida de João XXI (Avenida João XXI 123. 4415-254 Pedroso. Portugal),41.0633277776506,-8.55785000006358,NC,134.0,2014-05-03T14:00,22.6,43,9.4,23.3,0.0,0.0,0.0,0.0,0,1017.1,1001.5,0,0,0,0,0.59,1.56,9.1,11.9,56,61,24.5,22.5,17.1,14.6,12.7,0.324,0.347,0.366,0.401,1,3600.0,891.7,788.1,103.6,926.9,891.7,1144.9,921.0,814.0,107.0,926.9,921.0,1182.6,Magnoliopsida; Eucalyptus L'Hér.; Tracheophyta
2014,2014-05-03,Porto,Gondomar,Melres,Moreira,41.0561111111111,-8.38833333333333,Desconhecida,84.0,2014-05-03T15:00,23.6,41,9.6,23.5,0.0,0.0,0.0,0.0,0,1016.1,1006.3,0,0,0,0,0.55,1.72,11.2,12.8,356,10,21.6,23.2,17.6,14.9,12.9,0.318,0.347,0.374,0.403,1,3600.0,781.4,685.8,95.6,908.8,781.4,1016.2,834.0,732.0,102.0,908.8,834.0,1084.6,Eucalyptus L'Hér.; Magnoliopsida; Pinus pinaster Aiton; Tracheophyta
2014,2014-05-03,Porto,Felgueiras,Torrados,RUA SENHOR DOS PERDIDOS,41.353125,-8.24143900023566,NC,287.0,2014-05-03T17:00,22.7,39,8.2,21.3,0.0,0.0,0.0,0.0,0,1015.8,982.8,0,0,0,0,0.34,1.67,6.0,8.2,57,61,20.2,21.3,16.7,13.5,11.4,0.313,0.349,0.382,0.404,1,3600.0,441.1,370.1,71.0,811.4,441.1,614.2,522.0,438.0,84.0,811.4,522.0,726.9,Tracheophyta; Vitis vinifera L.; Eucalyptus L'Hér.; Magnoliopsida
2014,2014-05-03,Porto,Baião,Valadares,TORNA O REGO (Torna-o-Rego),41.1438888888889,-7.99083333333333,Desconhecida,581.0,2014-05-03T17:00,20.8,40,6.7,18.5,0.0,0.0,0.0,0.0,0,1016.2,950.3,0,0,0,0,0.34,1.47,9.8,13.4,62,63,27.4,20.4,15.9,12.8,10.6,0.309,0.344,0.373,0.402,1,3600.0,439.3,369.3,70.0,815.6,439.3,609.8,521.0,438.0,83.0,815.6,521.0,723.1,Magnoliopsida; Pinus pinaster Aiton; Tracheophyta; Eucalyptus L'Hér.; Vitis vinifera L.; Pinales; Quercus L.; 
2014,2014-05-03,Porto,Lousada,Pias,Lugar dos Maragoutos,41.2691666666667,-8.27277777777778,NC,243.0,2014-05-03T19:00,20.3,61,12.5,20.2,0.0,0.0,0.0,0.0,0,1015.5,987.2,0,0,0,0,0.09,0.93,5.9,6.9,346,6,12.6,19.2,17.2,13.8,11.6,0.308,0.347,0.381,0.404,1,3600.0,62.7,42.3,20.4,484.9,62.7,114.8,132.0,89.0,43.0,495.4,132.0,241.9,Eucalyptus L'Hér.; Magnoliopsida; Pinus pinaster Aiton; Tracheophyta
2014,2014-05-04,Porto,Vila Nova De Gaia,Pedroso,LG. PISÃO (Largo do Pisão),41.0638888888889,-8.54027777777778,NC,120.0,2014-05-04T00:00,13.6,81,10.4,12.9,0.0,0.0,0.0,0.0,0,1015.6,1001.2,0,0,0,0,0.0,0.29,5.9,11.8,76,52,15.1,14.9,17.5,14.9,12.8,0.316,0.339,0.365,0.401,0,0.0,0.0,0.0,0.0,0.0,0.0,0.0,0.0,0.0,0.0,0.0,0.0,0.0,Tracheophyta; Eucalyptus L'Hér.; Magnoliopsida
2014,2014-05-04,Porto,Gondomar,Rio Tinto,RUA VARZIELA,41.1793020004696,-8.56010199970669,NC,80.0,2014-05-04T05:00,14.5,63,7.5,12.0,0.0,0.0,0.0,0.0,1,1014.8,1005.2,28,0,0,94,0.05,0.62,13.3,27.2,92,98,28.4,14.4,16.7,15.1,13.0,0.318,0.339,0.362,0.399,0,0.0,0.0,0.0,0.0,0.0,0.0,0.0,0.0,0.0,0.0,0.0,0.0,0.0,Tracheophyta
2014,2014-05-04,Porto,TROFA,Muro,QUINTA DO SARDÃO (Costa da Quinta),41.2963888888889,-8.48138888888889,NC,250.0,2014-05-04T11:00,20.8,47,9.2,20.2,0.0,0.0,0.0,0.0,1,1014.3,985.3,26,0,0,85,0.49,1.29,12.1,15.7,100,101,29.2,19.4,15.5,13.9,11.8,0.317,0.338,0.366,0.401,1,3600.0,848.9,731.9,117.1,862.9,848.9,1141.6,805.0,694.0,111.0,862.9,805.0,1082.6,Eucalyptus L'Hér.; Pinus pinaster Aiton; Tracheophyta; Magnoliopsida; Vitis vinifera L.
2014,2014-05-04,Porto,Paredes,Bitarães,VIDIGUEIRA (Valdeira),41.1191666666667,-8.41111111111111,NC,87.0,2014-05-04T17:00,24.2,50,13.2,23.2,0.0,0.0,0.0,0.0,0,1012.0,1001.9,10,0,0,35,0.36,1.5,13.8,17.3,313,313,27.0,23.7,18.5,15.1,12.9,0.3,0.335,0.371,0.402,1,3600.0,423.7,319.7,104.0,695.3,423.7,618.8,501.0,378.0,123.0,695.3,501.0,731.7,Magnoliopsida; Pinus pinaster Aiton; Eucalyptus L'Hér.; Tracheophyta; Vitis vinifera L.
2014,2014-05-04,Porto,Maia,Águas Santas,TR.LIDADOR DA MAIA (ALFENA),41.2347222222222,-8.52583333333333,NC,93.0,2014-05-04T18:00,22.1,61,14.2,22.2,0.0,0.0,0.0,0.0,0,1011.7,1000.9,0,0,0,0,0.21,1.04,8.7,13.2,312,315,18.4,22.3,18.7,15.1,12.9,0.29,0.329,0.363,0.4,1,3600.0,243.0,185.0,57.9,662.0,243.0,376.2,323.0,246.0,77.0,662.0,323.0,500.1,Tracheophyta; Pinus pinaster Aiton; Magnoliopsida; Eucalyptus L'Hér.; 
2014,2014-03-11,Porto,Felgueiras,Regilde,Rua N.ª Sra. das Vitórias,41.3680555555556,-8.26694444444444,NC,189.0,2014-03-11T09:00,11.9,68,6.2,9.4,0.0,0.0,0.0,0.0,0,1020.6,997.8,0,0,0,0,0.13,0.45,11.3,21.6,83,86,30.2,10.1,10.5,11.0,10.8,0.358,0.371,0.396,0.423,1,3600.0,359.6,282.0,77.6,748.0,359.6,522.8,278.0,218.0,60.0,748.0,278.0,404.2,Magnoliopsida; Tracheophyta
2014,2014-05-05,Porto,Penafiel,Recezinhos (São Mamede),ARREGADAS (Arreigada),41.1794444444444,-8.29444444444444,NC,246.0,2014-05-05T01:00,13.0,86,10.7,12.5,0.0,0.0,0.0,0.0,0,1011.9,982.7,15,0,0,51,0.0,0.21,4.7,4.5,122,166,10.1,13.3,16.4,14.0,11.7,0.309,0.337,0.374,0.403,0,0.0,0.0,0.0,0.0,0.0,0.0,0.0,0.0,0.0,0.0,0.0,0.0,0.0,Tracheophyta; Eucalyptus L'Hér.; Vitis vinifera L.; Magnoliopsida
2014,2014-05-05,Porto,Penafiel,Canelas,LUGAR DE VILARINHO (Lugar da Bouça),41.1027777777778,-8.26861111111111,NC,165.0,2014-05-05T13:00,23.1,55,13.7,24.8,0.0,0.0,0.0,0.0,0,1013.3,994.2,13,1,0,41,0.59,1.26,11.7,13.8,281,279,26.6,23.6,17.1,14.6,12.3,0.297,0.333,0.374,0.403,1,3600.0,929.6,762.4,167.2,845.5,929.6,1212.9,934.0,766.0,168.0,845.5,934.0,1218.7,Eucalyptus L'Hér.; Tracheophyta; Vitis vinifera L.; Magnoliopsida
2014,2014-05-05,Porto,Penafiel,Croca,ALTO DE CRASTO (Alto),41.2266666666667,-8.20361111111111,NC,270.0,2014-05-05T13:00,22.9,53,12.9,24.6,0.0,0.0,0.0,0.0,0,1012.9,981.9,16,0,0,55,0.6,1.31,10.5,13.1,264,262,27.7,22.8,16.2,13.7,11.4,0.302,0.335,0.375,0.403,1,3600.0,936.6,760.4,176.2,844.3,936.6,1211.6,941.0,764.0,177.0,844.3,941.0,1217.3,Magnoliopsida; Eucalyptus L'Hér.; Vitis vinifera L.; Tracheophyta
2014,2014-05-05,Porto,Paredes,Vilela,Pena,41.2133333333333,-8.33694444444444,NC,153.0,2014-05-05T14:00,22.4,60,14.2,24.4,0.0,0.0,0.0,0.0,1,1013.3,995.6,27,0,0,90,0.57,1.09,10.5,12.6,274,273,30.2,23.6,17.4,14.6,12.3,0.302,0.332,0.372,0.402,1,3600.0,898.2,770.4,127.8,903.9,898.2,1146.6,928.0,796.0,132.0,903.9,928.0,1184.7,Magnoliopsida; Pinus pinaster Aiton; Eucalyptus L'Hér.; Tracheophyta; Vitis vinifera L.
2014,2014-05-05,Porto,Paredes,Lordelo,Rua Capela S.Pedro (LORDELO),41.2305555555556,-8.40694444444445,NC,229.0,2014-05-05T15:00,20.2,65,13.3,21.1,0.0,0.0,0.0,0.0,1,1013.3,986.7,29,0,0,98,0.48,0.84,12.0,14.2,291,291,28.8,22.7,17.3,14.3,12.0,0.303,0.327,0.365,0.401,1,3600.0,786.5,671.2,115.3,885.1,786.5,1020.2,839.0,716.0,123.0,885.1,839.0,1088.2,Magnoliopsida; Pinus pinaster Aiton; Eucalyptus L'Hér.; Tracheophyta; Vitis vinifera L.
2014,2014-05-05,Porto,Vila Nova De Gaia,Oliveira Do Douro,Travessa do Regato,41.1352777777778,-8.58472222222222,NC,8.0,2014-05-05T18:00,18.0,68,12.1,17.0,0.0,0.0,0.0,0.0,1,1013.4,1012.4,32,0,3,100,0.17,0.66,11.9,14.4,305,307,20.2,21.1,19.1,15.9,13.6,0.299,0.327,0.361,0.4,1,3600.0,212.9,116.3,96.6,410.0,212.9,381.4,282.0,154.0,128.0,410.0,282.0,505.2,Tracheophyta; Magnoliopsida
2014,2014-05-05,Porto,Marco de Canaveses,Sobretâmega,Macade,41.2036111111111,-8.17083333333333,Desconhecida,141.0,2014-05-05T22:00,13.8,90,12.3,13.7,0.0,0.0,0.0,0.0,3,1014.6,997.7,85,0,92,98,0.0,0.15,5.6,8.0,105,98,16.2,16.2,18.1,14.9,12.5,0.291,0.33,0.373,0.403,0,0.0,0.0,0.0,0.0,0.0,0.0,0.0,0.0,0.0,0.0,0.0,0.0,0.0,Vitis vinifera L.; Tracheophyta; Pinus pinaster Aiton; Magnoliopsida; Quercus L.; ; Eucalyptus L'Hér.
2014,2014-05-06,Porto,Felgueiras,Macieira Da Lixa,Passarias,41.34,-8.14305555555556,NC,385.0,2014-05-06T18:00,16.6,82,13.4,15.9,0.0,0.0,0.0,0.0,3,1018.0,973.0,100,98,0,98,0.12,0.35,12.3,17.3,310,312,38.2,19.0,16.9,13.5,10.9,0.28,0.324,0.371,0.402,1,3600.0,164.3,61.0,103.2,217.4,164.3,377.4,218.0,81.0,137.0,217.4,218.0,500.8,Eucalyptus L'Hér.; Tracheophyta; Pinus pinaster Aiton; Magnoliopsida; Vitis vinifera L.
2014,2014-05-07,Porto,Penafiel,Fonte Arcada,Igreja,41.1122222222222,-8.34472222222222,NC,298.0,2014-05-07T15:00,20.0,61,12.3,19.7,0.0,0.0,0.0,0.0,3,1019.7,985.0,96,74,0,97,0.42,0.9,13.2,16.7,305,307,32.0,22.3,17.1,14.2,11.6,0.277,0.319,0.368,0.402,1,3600.0,671.2,464.1,207.2,608.9,671.2,1024.2,716.0,495.0,221.0,608.9,716.0,1092.4,Tracheophyta; Eucalyptus L'Hér.; Magnoliopsida
2014,2014-05-07,Porto,Paços de Ferreira,Meixomil,ÁGUAS ALTAS (MEIXOMIL),41.2872222222222,-8.38527777777778,NC,314.0,2014-05-07T15:00,19.9,63,12.7,20.0,0.0,0.0,0.0,0.0,3,1019.5,983.0,90,69,0,94,0.43,0.86,12.5,16.0,303,306,32.0,22.3,17.0,14.1,11.4,0.27,0.317,0.366,0.401,1,3600.0,696.9,480.2,216.7,630.0,696.9,1024.5,743.0,512.0,231.0,630.0,743.0,1092.2,Eucalyptus L'Hér.; Quercus L.; Tracheophyta; Magnoliopsida; Pinus pinaster Aiton; 
2014,2014-05-07,Porto,Penafiel,Valpedre,Pousada,41.135,-8.31194444444444,Desconhecida,305.0,2014-05-07T15:00,20.6,60,12.5,20.4,0.0,0.0,0.0,0.0,3,1019.7,984.3,96,74,0,97,0.43,0.98,13.2,16.7,305,307,32.0,22.8,17.4,14.3,11.7,0.276,0.319,0.368,0.403,1,3600.0,671.3,464.1,207.2,609.2,671.3,1023.8,716.0,495.0,221.0,609.2,716.0,1092.0,Eucalyptus L'Hér.; Magnoliopsida; Tracheophyta
2014,2014-05-07,Porto,Vila Nova De Gaia,Sandim,Rua do Estudante,41.0505555555556,-8.5125,NC,239.0,2014-05-07T16:00,18.9,71,13.5,17.5,0.0,0.0,0.0,0.0,1,1020.3,992.2,47,31,0,65,0.32,0.64,19.0,24.5,323,324,40.3,22.1,17.9,15.0,12.4,0.267,0.312,0.363,0.401,1,3600.0,531.6,376.6,155.0,596.4,531.6,848.5,590.0,418.0,172.0,596.4,590.0,941.8,Magnoliopsida; Tracheophyta; Eucalyptus L'Hér.
2014,2014-03-11,Porto,Vila do Conde,Fajozes,CAMINHO RURAL (RIO MAU),41.4030555555556,-8.67916666666667,NC,56.0,2014-03-11T16:00,20.1,43,7.2,18.2,0.0,0.0,0.0,0.0,0,1017.8,1011.2,0,0,0,0,0.33,1.33,8.0,9.1,342,353,19.1,18.3,13.8,12.1,11.9,0.339,0.363,0.392,0.417,1,3600.0,463.5,392.2,71.3,868.2,463.5,626.4,533.0,451.0,82.0,868.2,533.0,720.4,Pinus pinaster Aiton; Tracheophyta; Eucalyptus L'Hér.
2014,2014-05-07,Porto,Felgueiras,Idães,Vilar,41.3366666666667,-8.25694444444444,NC,459.0,2014-05-07T17:00,18.1,70,12.6,17.2,0.0,0.0,0.0,0.0,1,1019.2,966.1,29,0,0,98,0.25,0.62,12.1,16.6,293,297,37.4,20.4,16.8,13.2,10.5,0.275,0.319,0.37,0.402,1,3600.0,371.4,206.0,165.3,443.5,371.4,624.3,438.0,243.0,195.0,443.5,438.0,736.3,Eucalyptus L'Hér.; Pinus pinaster Aiton; Tracheophyta; Magnoliopsida
2014,2014-05-07,Porto,Vila Do Conde,Rio Mau,TRAV PIAS (RIO MAU),41.4030555555556,-8.67916666666667,NC,56.0,2014-05-07T21:00,14.6,93,13.5,13.4,0.0,0.0,0.0,0.0,0,1021.2,1014.4,13,0,0,44,0.0,0.11,16.3,25.3,332,336,27.0,16.6,17.7,15.4,13.1,0.263,0.309,0.356,0.397,0,0.0,0.0,0.0,0.0,0.0,0.0,0.0,0.0,0.0,0.0,0.0,0.0,0.0,Pinus pinaster Aiton; Tracheophyta; Eucalyptus L'Hér.
2014,2014-05-07,Porto,Penafiel,Penafiel,RUA SANTO ANTONIO (BUSTÊLO),41.2297222222222,-8.27111111111111,Desconhecida,241.0,2014-05-07T22:00,13.1,98,12.8,13.5,0.0,0.0,0.0,0.0,2,1021.4,992.5,76,75,0,29,0.0,0.03,4.0,7.4,265,293,10.1,15.6,17.4,14.6,11.9,0.286,0.318,0.365,0.401,0,0.0,0.0,0.0,0.0,0.0,0.0,0.0,0.0,0.0,0.0,0.0,0.0,0.0,Tracheophyta; Vitis vinifera L.; Magnoliopsida
2014,2014-05-08,Porto,Póvoa de Varzim,Balazar,LG. CAMINHO (ESTELA),41.4472222222222,-8.75333333333333,NC,16.0,2014-05-08T12:00,18.8,66,12.3,18.2,0.0,0.0,0.0,0.0,0,1022.4,1020.5,14,0,5,35,0.45,0.74,19.7,24.5,329,332,38.5,21.1,17.0,15.8,13.4,0.258,0.306,0.355,0.396,1,3600.0,882.2,707.2,175.0,781.7,882.2,1215.3,862.0,691.0,171.0,781.7,862.0,1187.4,Tracheophyta
2014,2014-05-08,Porto,Penafiel,Rio de Moinhos,Igreja,41.1122222222222,-8.34472222222222,NC,298.0,2014-05-08T13:00,19.0,66,12.6,20.4,0.0,0.0,0.0,0.0,0,1021.2,986.3,18,0,14,33,0.52,0.74,10.8,13.5,300,304,28.1,21.7,16.4,14.4,11.7,0.274,0.315,0.366,0.401,1,3600.0,924.6,810.1,114.5,892.7,924.6,1219.0,929.0,814.0,115.0,892.7,929.0,1224.9,Tracheophyta; Eucalyptus L'Hér.; Magnoliopsida
2014,2014-05-08,Porto,Gondomar,Melres,TRAVESSA SOL NASCENTE,41.071009999911,-8.39965300030178,NC,23.0,2014-05-08T14:00,20.5,67,14.0,19.5,0.0,0.0,0.0,0.0,0,1022.2,1019.5,0,0,0,0,0.47,0.81,26.5,33.7,329,331,44.3,23.3,18.3,16.3,13.7,0.274,0.306,0.353,0.399,1,3600.0,868.6,758.2,110.4,881.9,868.6,1154.8,897.0,783.0,114.0,881.9,897.0,1192.6,Eucalyptus L'Hér.; Magnoliopsida; Tracheophyta
2014,2014-03-11,Porto,Vila do Conde,Fajozes,Regadas,41.3297222222222,-8.6975,NC,43.0,2014-03-11T17:00,19.6,51,9.2,18.3,0.0,0.0,0.0,0.0,0,1017.7,1012.6,0,0,0,0,0.22,1.11,7.7,10.6,332,342,16.9,17.6,14.0,12.2,12.0,0.337,0.363,0.393,0.417,1,3600.0,277.6,223.3,54.3,771.6,277.6,401.3,358.0,288.0,70.0,771.6,358.0,517.6,Eucalyptus L'Hér.; Tracheophyta
2014,2014-05-08,Porto,Santo Tirso,Burgães,LUGAR DA COSTA (Lugar de Baixo),41.3347222222222,-8.45083333333333,NC,234.0,2014-05-08T20:00,14.8,88,12.8,13.5,0.0,0.0,0.0,0.0,0,1021.9,994.0,4,4,0,1,0.03,0.21,15.2,26.3,329,331,32.4,17.5,17.6,14.8,12.1,0.278,0.307,0.354,0.398,0,0.0,0.0,0.0,0.0,0.0,0.0,0.0,14.0,5.0,9.0,57.3,14.0,58.2,Eucalyptus L'Hér.; Magnoliopsida; Tracheophyta; Pinus pinaster Aiton; Vitis vinifera L.
2014,2014-05-09,Porto,Valongo,Sobrado,RUA VALDEIRAO,41.2111279996236,-8.48246500015259,NC,151.0,2014-05-09T11:00,21.1,67,14.7,23.1,0.0,0.0,0.0,0.0,0,1021.8,1004.1,19,0,0,62,0.49,0.84,8.9,10.9,346,352,22.7,21.8,17.0,15.4,12.8,0.26,0.301,0.352,0.397,1,3600.0,875.3,770.0,105.3,895.9,875.3,1153.9,831.0,731.0,100.0,895.9,831.0,1095.6,Magnoliopsida; Eucalyptus L'Hér.; Pinus pinaster Aiton
2014,2014-05-09,Porto,Penafiel,Valpedre,Igreja,41.1122222222222,-8.34472222222222,NC,298.0,2014-05-09T14:00,23.0,61,15.1,25.1,0.0,0.0,0.0,0.0,0,1021.1,986.7,4,0,0,14,0.57,1.1,11.5,14.3,311,313,28.8,24.1,17.4,14.5,11.7,0.261,0.309,0.363,0.401,1,3600.0,880.8,778.2,102.6,904.5,880.8,1155.2,910.0,804.0,106.0,904.5,910.0,1193.4,Tracheophyta; Eucalyptus L'Hér.; Magnoliopsida
2014,2014-05-09,Porto,Gondomar,Gondomar (São Cosme),ESTRADA DOM MIGUEL,41.1292550002204,-8.53529499994384,NC,113.0,2014-05-09T14:00,22.8,66,16.1,24.1,0.0,0.0,0.0,0.0,0,1021.4,1008.2,4,0,0,15,0.53,0.94,17.6,22.7,325,327,31.3,24.3,18.3,15.8,13.1,0.264,0.299,0.35,0.399,1,3600.0,878.4,775.7,102.7,900.7,878.4,1156.3,907.0,801.0,106.0,900.7,907.0,1194.0,Tracheophyta; Magnoliopsida; Eucalyptus L'Hér.
2014,2014-05-09,Porto,Valongo,Sobrado,LUGAR DA LOMBA,41.2104179996914,-8.46103000005086,NC,119.0,2014-05-09T16:00,21.8,71,16.4,21.7,0.0,0.0,0.0,0.0,0,1021.0,1007.0,0,0,0,1,0.38,0.74,19.5,25.8,321,324,35.6,23.9,18.8,15.7,13.0,0.25,0.298,0.351,0.397,1,3600.0,599.0,503.4,95.6,792.0,599.0,853.3,664.0,558.0,106.0,792.0,664.0,945.9,Tracheophyta; Pinus pinaster Aiton; Magnoliopsida
2014,2014-05-09,Porto,Valongo,Sobrado,LUGAR DE RAMPINHA (Lugar da Ermida),41.2358333333333,-8.45222222222222,NC,192.0,2014-05-09T17:00,20.2,75,15.7,19.3,0.0,0.0,0.0,0.0,0,1020.9,998.4,0,0,0,1,0.28,0.58,19.5,26.9,322,325,36.7,22.6,18.5,15.3,12.5,0.249,0.297,0.351,0.397,1,3600.0,433.1,350.5,82.5,740.1,433.1,635.9,509.0,412.0,97.0,740.1,509.0,747.4,Eucalyptus L'Hér.; Magnoliopsida; Tracheophyta
2014,2014-05-09,Porto,TROFA,Muro,RUA DO CRUZEIRO,41.2965749994914,-8.59163099977705,NC,129.0,2014-05-09T17:00,19.7,77,15.5,18.8,0.0,0.0,0.0,0.0,0,1020.9,1005.7,0,0,0,1,0.27,0.54,19.5,26.9,322,325,36.7,22.2,18.4,15.4,12.8,0.252,0.299,0.351,0.396,1,3600.0,433.4,350.8,82.6,738.2,433.4,638.0,509.0,412.0,97.0,738.2,509.0,749.3,Tracheophyta; Magnoliopsida; Pinales; Eucalyptus L'Hér.
2014,2014-05-09,Porto,Felgueiras,Pinheiro,Rua da Boavista,41.3677777777778,-8.16083333333333,NC,463.0,2014-05-09T17:00,22.4,62,14.7,22.1,0.0,0.0,0.0,0.0,0,1020.2,967.3,1,0,0,2,0.33,1.03,12.6,16.6,297,300,31.0,23.0,17.8,13.8,10.7,0.253,0.307,0.364,0.402,1,3600.0,433.8,354.0,79.8,756.6,433.8,628.2,511.0,417.0,94.0,756.6,511.0,739.9,Pinus pinaster Aiton; Tracheophyta; Magnoliopsida; Eucalyptus L'Hér.; Vitis vinifera L.
2014,2014-03-11,Porto,Felgueiras,Pinheiro,LG POVOA (PINHEIRO),41.3677777777778,-8.16083333333333,NC,463.0,2014-03-11T16:00,18.2,36,2.9,15.0,0.0,0.0,0.0,0.0,0,1017.9,964.4,0,0,0,0,0.33,1.34,11.1,16.2,77,77,35.6,15.9,11.0,9.4,9.1,0.345,0.367,0.395,0.423,1,3600.0,464.5,396.0,68.5,889.3,464.5,617.5,536.0,457.0,79.0,889.3,536.0,712.6,Pinus pinaster Aiton; Tracheophyta; Magnoliopsida; Eucalyptus L'Hér.; Vitis vinifera L.
2014,2014-05-09,Porto,Penafiel,Recezinhos (São Mamede),LUGAR DE LORDELO,41.237910999722,-8.21306799994575,NC,313.0,2014-05-09T17:00,21.7,69,15.8,21.6,0.0,0.0,0.0,0.0,0,1020.6,984.4,1,0,0,2,0.31,0.81,14.4,19.4,307,310,32.0,22.9,18.2,14.4,11.4,0.263,0.31,0.363,0.4,1,3600.0,433.4,350.9,82.4,745.6,433.4,631.9,510.0,413.0,97.0,745.6,510.0,743.6,Eucalyptus L'Hér.; Vitis vinifera L.; Tracheophyta; Magnoliopsida; Quercus L.
2014,2014-05-09,Porto,Matosinhos,Lavra,R. PADRE LUIS ANTº FARINHOTE (Rua do Padre Amaro),41.2483333333333,-8.72055555555556,NC,14.0,2014-05-09T18:00,18.7,82,15.6,17.3,0.0,0.0,0.0,0.0,0,1021.4,1019.7,12,9,0,13,0.16,0.39,22.9,31.4,330,332,43.6,21.4,18.9,16.0,13.5,0.238,0.298,0.351,0.396,1,3600.0,235.8,161.0,74.8,546.7,235.8,395.4,309.0,211.0,98.0,546.7,309.0,518.2,Tracheophyta; Pinus pinaster Aiton; Eucalyptus L'Hér.; Quercus L.
2014,2014-05-10,Porto,Maia,Folgosa,RUA PENAS (Rua de Penas),41.2383333333333,-8.54083333333333,NC,139.0,2014-05-10T05:00,13.7,98,13.5,13.5,0.0,0.0,0.0,0.0,3,1022.0,1005.2,100,100,0,59,0.0,0.03,9.3,13.5,332,331,17.3,15.8,17.6,15.7,12.9,0.254,0.297,0.35,0.397,0,0.0,0.0,0.0,0.0,0.0,0.0,0.0,0.0,0.0,0.0,0.0,0.0,0.0,Magnoliopsida; Eucalyptus L'Hér.; Tracheophyta; Pinus pinaster Aiton; 
2014,2014-05-10,Porto,Santo Tirso,Monte Córdova,LUGAR DOS PINHEIROS (Lugar de Baixo),41.3347222222222,-8.45083333333333,NC,234.0,2014-05-10T14:00,20.2,68,14.2,20.5,0.0,0.0,0.0,0.0,1,1022.2,994.8,35,9,0,90,0.47,0.75,17.8,23.0,318,320,32.8,22.8,17.7,15.1,12.2,0.265,0.298,0.349,0.398,1,3600.0,837.7,681.7,155.9,791.1,837.7,1156.5,865.0,704.0,161.0,791.1,865.0,1194.2,Eucalyptus L'Hér.; Magnoliopsida; Tracheophyta; Pinus pinaster Aiton; Vitis vinifera L.
2014,2014-05-10,Porto,Gondomar,São Pedro da Cova,ANTONIO FERREIRA DA SILVA,41.1553660000695,-8.5024519999822,NC,98.0,2014-05-10T16:00,19.9,72,14.8,19.0,0.0,0.0,0.0,0.0,1,1021.7,1010.1,21,0,0,70,0.34,0.65,19.2,25.5,322,324,36.0,23.2,19.1,16.0,13.2,0.243,0.292,0.349,0.397,1,3600.0,552.3,338.4,213.9,530.6,552.3,855.9,612.0,375.0,237.0,530.6,612.0,948.4,Eucalyptus L'Hér.; Tracheophyta; Magnoliopsida; Pinus pinaster Aiton
2014,2014-05-10,Porto,Paredes,Cete,ZONA INDUSTRIAL (CETE),41.1808333333333,-8.36638888888889,NC,168.0,2014-05-10T19:00,17.3,82,14.2,16.7,0.0,0.0,0.0,0.0,0,1021.7,1001.7,16,1,0,51,0.08,0.36,13.8,22.3,317,322,33.5,20.2,19.2,15.7,12.7,0.265,0.296,0.35,0.399,1,3600.0,76.1,45.3,30.9,424.7,76.1,143.0,143.0,85.0,58.0,424.7,143.0,268.6,Magnoliopsida; Pinus pinaster Aiton; Eucalyptus L'Hér.; Tracheophyta; Vitis vinifera L.
2014,2014-03-11,Porto,Santo Tirso,Monte Córdova,QUINTÃO,41.31850900001,-8.44604699982537,NC,394.0,2014-03-11T20:00,15.3,39,1.5,12.0,0.0,0.0,0.0,0.0,0,1018.9,972.7,0,0,0,0,0.07,1.06,10.0,14.9,77,70,25.2,10.2,11.3,9.7,9.4,0.342,0.365,0.393,0.423,0,0.0,0.0,0.0,0.0,0.0,0.0,0.0,0.0,0.0,0.0,0.0,0.0,0.0,Pinus pinaster Aiton; Tracheophyta; Eucalyptus L'Hér.; Vitis vinifera L.; Magnoliopsida
2014,2014-05-10,Porto,Valongo,Valongo,SANTA JUSTA,41.1747222222222,-8.49583333333333,NC,362.0,2014-05-10T21:00,14.2,90,12.6,13.9,0.0,0.0,0.0,0.0,1,1022.3,979.4,32,4,0,96,0.0,0.16,7.1,10.4,294,316,15.1,16.6,17.7,14.4,11.3,0.241,0.299,0.357,0.399,0,0.0,0.0,0.0,0.0,0.0,0.0,0.0,0.0,0.0,0.0,0.0,0.0,0.0,Magnoliopsida; Eucalyptus L'Hér.; Pinus pinaster Aiton
2014,2014-05-11,Porto,Paredes,Aguiar de Sousa,LG DO TRAVISQUEIRO (CETE),41.1808333333333,-8.36638888888889,NC,168.0,2014-05-11T00:00,14.0,98,13.7,14.2,0.0,0.0,0.0,0.0,1,1022.6,1002.4,41,19,0,81,0.0,0.03,7.4,12.5,313,327,16.9,16.3,18.4,15.7,12.7,0.266,0.296,0.35,0.399,0,0.0,0.0,0.0,0.0,0.0,0.0,0.0,0.0,0.0,0.0,0.0,0.0,0.0,Magnoliopsida; Pinus pinaster Aiton; Eucalyptus L'Hér.; Tracheophyta; Vitis vinifera L.
2014,2014-05-11,Porto,Penafiel,Rio de Moinhos,Devesas,41.1327777777778,-8.36944444444444,NC,195.0,2014-05-11T13:00,19.0,58,10.5,20.4,0.0,0.0,0.0,0.0,0,1020.3,997.3,16,0,0,52,0.55,0.92,8.3,10.0,304,308,24.8,22.6,17.6,15.6,12.6,0.251,0.295,0.352,0.399,1,3600.0,955.7,834.2,121.4,914.0,955.7,1224.4,960.0,838.0,122.0,914.0,960.0,1229.9,Eucalyptus L'Hér.; Magnoliopsida; Tracheophyta
2014,2014-05-11,Porto,Paredes,Cete,ZONA INDUSTRIAL (CETE),41.1808333333333,-8.36638888888889,NC,168.0,2014-05-11T13:00,19.4,58,11.0,20.2,0.0,0.0,0.0,0.0,0,1020.8,1001.0,14,0,0,46,0.54,0.94,12.2,15.3,326,330,31.3,22.8,17.9,15.8,12.7,0.262,0.293,0.349,0.398,1,3600.0,957.7,841.2,116.5,921.6,957.7,1224.4,962.0,845.0,117.0,921.6,962.0,1229.9,Magnoliopsida; Pinus pinaster Aiton; Eucalyptus L'Hér.; Tracheophyta; Vitis vinifera L.
2014,2014-05-11,Porto,Valongo,Alfena,RUA MANUEL BENTO JR,41.2386249997881,-8.52586400032043,NC,89.0,2014-05-11T14:00,19.9,57,11.0,20.1,0.0,0.0,0.0,0.0,1,1020.3,1009.8,26,0,0,85,0.53,1.0,14.7,18.4,329,332,30.6,23.4,18.5,16.3,13.3,0.238,0.288,0.346,0.396,1,3600.0,901.9,780.8,121.1,903.1,901.9,1159.7,931.0,806.0,125.0,903.1,931.0,1197.2,Eucalyptus L'Hér.; Tracheophyta; Magnoliopsida; Pinus pinaster Aiton
2014,2014-05-11,Porto,Lousada,Pias,LUGAR ARCOS (Lugar da Estrada),41.2691666666667,-8.27277777777778,NC,243.0,2014-05-11T15:00,20.4,53,10.6,21.0,0.0,0.0,0.0,0.0,1,1019.2,990.9,29,0,0,97,0.5,1.12,8.7,10.4,312,316,27.7,23.7,18.4,15.4,12.1,0.235,0.297,0.358,0.4,1,3600.0,782.8,641.0,141.7,833.2,782.8,1032.0,834.0,683.0,151.0,833.2,834.0,1099.5,Eucalyptus L'Hér.; Magnoliopsida; Pinus pinaster Aiton; Tracheophyta
2014,2014-05-11,Porto,Vila Do Conde,Aveleda,OUTEIRO FIGUEIRA (Outeiro),41.2652777777778,-8.69305555555556,NC,36.0,2014-05-11T15:00,19.2,55,9.9,17.3,0.0,0.0,0.0,0.0,1,1020.2,1015.9,29,0,0,98,0.46,1.0,22.2,28.6,333,337,42.8,22.5,18.1,16.1,13.4,0.224,0.289,0.348,0.395,1,3600.0,781.5,636.9,144.7,824.4,781.5,1036.3,832.0,678.0,154.0,824.4,832.0,1103.2,Tracheophyta; Eucalyptus L'Hér.
2014,2014-05-11,Porto,Paços de Ferreira,Ferreira,Lugar da Estrada,41.2602777777778,-8.365,Desconhecida,353.0,2014-05-11T15:00,19.2,53,9.5,19.4,0.0,0.0,0.0,0.0,1,1019.2,978.2,29,0,0,97,0.49,1.04,8.7,10.4,312,316,27.7,22.5,17.4,14.6,11.4,0.234,0.294,0.355,0.399,1,3600.0,782.9,641.2,141.8,832.1,782.9,1033.6,834.0,683.0,151.0,832.1,834.0,1101.0,Eucalyptus L'Hér.; Tracheophyta; Magnoliopsida; Quercus L.; Pinus pinaster Aiton; 
2014,2014-03-09,Porto,Lousada,Barrosas (santo Estêvão),Serra de Campelos,41.3213888888889,-8.28611111111111,NC,495.0,2014-03-09T19:00,13.8,69,8.2,12.2,0.0,0.0,0.0,0.0,1,1019.7,961.7,36,0,10,99,0.04,0.49,7.8,11.3,68,73,18.7,12.2,11.1,8.8,8.8,0.364,0.38,0.402,0.425,0,0.0,0.0,0.0,0.0,0.0,0.0,0.0,8.0,1.0,7.0,12.3,8.0,52.7,Eucalyptus L'Hér.; Magnoliopsida; Quercus L.; Tracheophyta
2014,2014-03-11,Porto,Penafiel,Canelas,Passos,41.1602777777778,-8.2425,NC,264.0,2014-03-11T14:00,18.3,37,3.2,15.8,0.0,0.0,0.0,0.0,0,1018.0,987.1,0,0,0,0,0.45,1.33,14.2,19.7,81,81,37.8,16.0,10.8,10.3,10.2,0.352,0.37,0.395,0.423,1,3600.0,731.5,641.8,89.8,960.9,731.5,926.2,758.0,665.0,93.0,960.9,758.0,959.7,Eucalyptus L'Hér.; Tracheophyta; Pinus pinaster Aiton; Quercus L.
2014,2014-05-11,Porto,Vila Nova De Gaia,Pedroso,HEROIS DE ULTRAMAR (),41.0633171113332,-8.55783241642846,NC,134.0,2014-05-11T15:00,18.7,57,10.0,17.9,0.0,0.0,0.0,0.0,1,1019.7,1003.9,29,0,0,95,0.46,0.93,16.1,20.1,331,333,37.1,22.0,17.8,15.8,13.1,0.26,0.296,0.347,0.397,1,3600.0,784.2,649.9,134.3,840.8,784.2,1036.9,835.0,692.0,143.0,840.8,835.0,1104.0,Magnoliopsida; Eucalyptus L'Hér.; Tracheophyta
2014,2014-05-11,Porto,TROFA,Muro,Sª. PAMTALEÃO (),41.2965670278337,-8.59161538865831,NC,129.0,2014-05-11T16:00,18.7,56,9.8,16.8,0.0,0.0,0.0,0.0,1,1019.4,1004.1,28,0,0,92,0.39,0.94,17.7,23.2,321,324,34.6,21.9,18.1,15.7,12.9,0.237,0.289,0.346,0.395,1,3600.0,625.1,495.1,130.1,772.2,625.1,859.9,692.0,548.0,144.0,772.2,692.0,951.8,Tracheophyta; Magnoliopsida; Pinales; Eucalyptus L'Hér.
2014,2014-05-11,Porto,Lousada,Lustosa,Vinhas,41.3444444444444,-8.31916666666667,NC,447.0,2014-05-11T21:00,14.2,69,8.6,13.2,0.0,0.0,0.0,0.0,0,1018.9,966.4,4,0,0,12,0.0,0.5,4.4,5.1,279,309,15.1,15.5,17.4,14.2,10.8,0.237,0.296,0.357,0.4,0,0.0,0.0,0.0,0.0,0.0,0.0,0.0,0.0,0.0,0.0,0.0,0.0,0.0,Eucalyptus L'Hér.; Tracheophyta; Magnoliopsida
2014,2014-05-11,Porto,Valongo,Sobrado,LG. PASSO,41.2104179996914,-8.46103000005086,NC,119.0,2014-05-11T23:00,12.6,90,11.0,11.5,0.0,0.0,0.0,0.0,0,1019.2,1004.8,0,0,0,0,0.0,0.14,9.4,17.0,358,355,18.4,15.2,18.2,16.2,13.2,0.234,0.286,0.346,0.396,0,0.0,0.0,0.0,0.0,0.0,0.0,0.0,0.0,0.0,0.0,0.0,0.0,0.0,Tracheophyta; Pinus pinaster Aiton; Magnoliopsida
2014,2014-05-12,Porto,Maia,São Pedro Fins,Monforte,41.2336111111111,-8.55277777777778,NC,93.0,2014-05-12T00:00,12.6,89,10.9,11.8,0.0,0.0,0.0,0.0,0,1018.8,1007.5,0,0,0,0,0.0,0.16,8.0,14.6,10,9,18.0,14.8,17.6,16.1,13.4,0.254,0.292,0.344,0.395,0,0.0,0.0,0.0,0.0,0.0,0.0,0.0,0.0,0.0,0.0,0.0,0.0,0.0,Vitis vinifera L.; Eucalyptus L'Hér.; Tracheophyta; Magnoliopsida; Pinus pinaster Aiton; 
2014,2014-05-12,Porto,Paredes,Bitarães,LUGAR DA BOUÇA (Lugar),41.2427777777778,-8.32194444444444,NC,184.0,2014-05-12T11:00,19.7,49,8.8,20.0,0.0,0.0,0.0,0.0,0,1017.5,995.9,0,0,0,0,0.51,1.16,7.9,9.7,294,297,24.8,21.0,16.5,15.7,12.5,0.254,0.295,0.352,0.399,1,3600.0,900.8,792.4,108.4,915.3,900.8,1160.8,856.0,753.0,103.0,915.3,856.0,1103.1,Magnoliopsida; Pinus pinaster Aiton; Eucalyptus L'Hér.; Tracheophyta; Vitis vinifera L.
2014,2014-05-12,Porto,Vila Nova De Gaia,Sandim,LG. Sº GONÇALO (),41.0283741113875,-8.50767916679382,NC,120.0,2014-05-12T13:00,20.2,48,8.8,19.6,0.0,0.0,0.0,0.0,0,1017.3,1003.2,0,0,0,0,0.56,1.24,17.0,21.6,324,327,36.7,23.1,17.4,16.3,13.4,0.207,0.248,0.303,0.367,1,3600.0,956.8,846.3,110.5,924.3,956.8,1227.6,961.0,850.0,111.0,924.3,961.0,1233.0,Tracheophyta; Eucalyptus L'Hér.; Magnoliopsida
2014,2014-05-12,Porto,Penafiel,Rio de Moinhos,Devesas,41.1327777777778,-8.36944444444444,NC,195.0,2014-05-12T13:00,20.1,46,8.2,20.4,0.0,0.0,0.0,0.0,0,1016.9,994.1,0,0,0,0,0.58,1.27,11.2,13.9,303,307,32.0,22.3,16.9,15.7,12.6,0.241,0.289,0.349,0.398,1,3600.0,960.7,851.1,109.5,930.7,960.7,1226.1,965.0,855.0,110.0,930.7,965.0,1231.7,Eucalyptus L'Hér.; Magnoliopsida; Tracheophyta
2014,2014-05-12,Porto,Vila Nova de Gaia,Valadares,ESTRADA NACIONAL 109,41.0918319998847,-8.6353970000479,NC,42.0,2014-05-12T14:00,19.9,52,9.7,17.4,0.0,0.0,0.0,0.0,0,1018.2,1013.2,0,0,0,0,0.51,1.12,28.5,36.4,332,334,51.8,22.3,17.6,16.4,13.8,0.253,0.292,0.345,0.397,1,3600.0,901.1,794.5,106.6,915.7,901.1,1163.4,930.0,820.0,110.0,915.7,930.0,1200.7,Magnoliopsida; Pinus pinaster Aiton; Tracheophyta; Eucalyptus L'Hér.; Vitis vinifera L.; Pinales; Quercus L.; 
2014,2014-05-12,Porto,Vila Nova De Gaia,Lever,RUA VALE CANA (Rua Campo do Vale),41.055,-8.47166666666667,NC,117.0,2014-05-12T15:00,19.8,51,9.4,17.9,0.0,0.0,0.0,0.0,0,1017.5,1003.7,0,0,0,0,0.49,1.13,21.7,28.4,324,327,42.5,22.6,17.8,16.2,13.3,0.239,0.282,0.342,0.397,1,3600.0,797.3,702.5,94.9,907.7,797.3,1037.7,849.0,748.0,101.0,907.7,849.0,1104.9,Magnoliopsida; Pinus pinaster Aiton; Tracheophyta; Eucalyptus L'Hér.; Vitis vinifera L.
2014,2014-05-12,Porto,Paços de Ferreira,Penamaior,RUA DO OUTEIRO (Rua do Comércio),41.2858333333333,-8.34555555555556,NC,359.0,2014-05-12T16:00,19.1,49,8.0,17.1,0.0,0.0,0.0,0.0,0,1017.1,975.5,0,0,0,0,0.42,1.14,15.3,20.1,313,316,37.4,21.8,17.0,14.7,11.4,0.222,0.29,0.355,0.399,1,3600.0,632.2,528.3,103.9,824.7,632.2,858.9,700.0,585.0,115.0,824.7,700.0,951.1,Magnoliopsida; Eucalyptus L'Hér.; Tracheophyta; Vitis vinifera L.; ; Pinus pinaster Aiton
2014,2014-05-12,Porto,Vila Do Conde,Vilar De Pinheiro,rua das fontainhas (Rua de Quires),41.2577777777778,-8.66,NC,82.0,2014-05-12T17:00,17.8,57,9.1,13.3,0.0,0.0,0.0,0.0,0,1017.9,1008.2,1,0,0,3,0.31,0.89,29.6,40.2,336,337,53.3,20.6,17.6,15.8,13.2,0.211,0.283,0.345,0.394,1,3600.0,459.3,382.5,76.8,793.2,459.3,646.5,538.0,448.0,90.0,793.2,538.0,757.2,Tracheophyta; Eucalyptus L'Hér.; Magnoliopsida
2014,2014-05-12,Porto,Penafiel,Recezinhos (São Martinho),PASSO (Passos),41.1602777777778,-8.2425,NC,264.0,2014-05-12T19:00,16.8,60,9.0,14.8,0.0,0.0,0.0,0.0,0,1017.4,986.3,15,0,0,50,0.11,0.76,11.7,21.8,315,322,32.0,18.9,17.8,15.2,11.9,0.238,0.294,0.354,0.399,1,3600.0,81.4,53.2,28.2,480.3,81.4,148.4,150.0,98.0,52.0,480.3,150.0,273.5,Eucalyptus L'Hér.; Tracheophyta; Pinus pinaster Aiton; Quercus L.
2014,2014-05-12,Porto,Penafiel,Recezinhos (São Martinho),Recezinhos,41.2308333333333,-8.17472222222222,NC,153.0,2014-05-12T21:00,14.6,72,9.5,12.4,0.0,0.0,0.0,0.0,0,1019.2,1000.9,10,0,0,34,0.03,0.47,13.8,27.4,353,360,32.4,16.8,18.3,16.1,12.9,0.231,0.291,0.353,0.399,0,0.0,0.0,0.0,0.0,0.0,0.0,0.0,0.0,0.0,0.0,0.0,0.0,0.0,Pinus pinaster Aiton; Magnoliopsida; Tracheophyta; Vitis vinifera L.; Quercus L.
2014,2014-05-13,Porto,Gondomar,Jovim,ESTRADA NACIONAL 108 (Estrada),41.1113888888889,-8.50944444444444,NC,152.0,2014-05-13T11:00,19.2,46,7.2,17.6,0.0,0.0,0.0,0.0,0,1021.7,1003.7,0,0,0,0,0.5,1.21,16.6,21.6,42,46,37.1,19.8,16.1,15.9,13.1,0.235,0.279,0.34,0.397,1,3600.0,905.1,793.5,111.6,914.3,905.1,1163.2,860.0,754.0,106.0,914.3,860.0,1105.2,Pinus pinaster Aiton; Vitis vinifera L.; Eucalyptus L'Hér.; Tracheophyta; Magnoliopsida
2014,2014-05-13,Porto,Paredes,Lordelo,Guardão,41.1833333333333,-8.42277777777778,NC,171.0,2014-05-13T12:00,20.3,40,6.4,19.3,0.0,0.0,0.0,0.0,0,1021.8,1001.7,0,0,0,0,0.57,1.43,15.3,20.1,43,46,32.8,20.9,16.3,15.8,12.8,0.244,0.282,0.343,0.397,1,3600.0,968.3,855.8,112.5,934.0,968.3,1227.9,947.0,837.0,110.0,934.0,947.0,1201.0,Magnoliopsida; Pinus pinaster Aiton; Eucalyptus L'Hér.; Tracheophyta; Vitis vinifera L.
2014,2014-05-13,Porto,Vila Nova De Gaia,Sandim,rua dos bustelos (Rua dos Bairros),41.0358333333333,-8.48833333333333,NC,127.0,2014-05-13T12:00,21.1,41,7.2,20.3,0.0,0.0,0.0,0.0,0,1021.4,1006.5,0,0,0,0,0.58,1.49,15.5,20.4,42,45,36.0,22.3,16.8,16.3,13.4,0.199,0.242,0.3,0.367,1,3600.0,967.5,855.0,112.5,932.3,967.5,1229.0,946.0,836.0,110.0,932.3,946.0,1201.7,Tracheophyta; Quercus L.; Pinus pinea L.; Eucalyptus L'Hér.; Pinales; Magnoliopsida
2014,2014-05-13,Porto,Paços de Ferreira,Figueiró,FREAMUNDE,41.299892999861,-8.34797799958123,NC,332.0,2014-05-13T14:00,21.4,34,4.8,20.4,0.0,0.0,0.0,0.0,0,1021.0,982.6,0,0,0,0,0.6,1.69,13.2,17.7,73,73,33.5,22.1,15.9,14.8,11.6,0.213,0.285,0.352,0.399,1,3600.0,919.3,813.7,105.6,938.3,919.3,1162.1,949.0,840.0,109.0,938.3,949.0,1199.7,Tracheophyta; Magnoliopsida; Eucalyptus L'Hér.; Vitis vinifera L.; Pinus pinaster Aiton; 
2014,2014-05-13,Porto,Gondomar,Rio Tinto,RUA DA CASTANHEIRA,41.1830940002865,-8.55624199973212,NC,90.0,2014-05-13T14:00,22.6,36,6.9,22.1,0.0,0.0,0.0,0.0,0,1021.0,1010.4,0,0,0,0,0.61,1.74,12.5,16.5,41,46,27.7,22.8,17.1,16.1,13.5,0.237,0.282,0.34,0.394,1,3600.0,914.6,809.0,105.6,931.5,914.6,1163.9,944.0,835.0,109.0,931.5,944.0,1201.3,Tracheophyta; Magnoliopsida
2014,2014-05-13,Porto,Marco De Canaveses,Tabuado,S. DOMINGOS (São Domingos),41.1388888888889,-8.22277777777778,Desconhecida,137.0,2014-05-13T14:00,23.0,34,6.3,22.4,0.0,0.0,0.0,0.0,0,1021.0,1005.0,0,0,0,0,0.62,1.85,12.5,16.5,41,46,27.7,23.3,17.2,16.1,13.0,0.224,0.287,0.351,0.398,1,3600.0,914.1,808.6,105.6,932.3,914.1,1162.3,944.0,835.0,109.0,932.3,944.0,1200.2,Quercus L.; Tracheophyta; Magnoliopsida; Pinus pinaster Aiton; Vitis vinifera L.; Eucalyptus L'Hér.; 
2014,2014-05-13,Porto,Valongo,Valongo,PARQUE RADICAL,41.1878299999237,-8.4871400001314,NC,128.0,2014-05-13T15:00,23.1,34,6.3,22.2,0.0,0.0,0.0,0.0,0,1020.2,1005.3,0,0,0,0,0.57,1.88,11.7,15.8,43,47,25.9,23.5,17.4,16.0,13.2,0.213,0.275,0.341,0.395,1,3600.0,805.1,706.4,98.6,910.8,805.1,1039.4,857.0,752.0,105.0,910.8,857.0,1106.4,Pinus pinaster Aiton; Tracheophyta; Magnoliopsida; Eucalyptus L'Hér.
2014,2014-05-13,Porto,Vila Nova De Gaia,Perosinho,Rua da Bica,41.0536111111111,-8.59111111111111,NC,105.0,2014-05-13T16:00,23.6,34,6.9,22.2,0.0,0.0,0.0,0.0,0,1019.8,1007.6,0,0,0,0,0.49,1.92,10.6,14.0,35,42,24.5,23.1,17.7,16.0,13.4,0.239,0.284,0.342,0.396,1,3600.0,652.5,564.0,88.6,873.7,652.5,865.0,722.0,624.0,98.0,873.7,722.0,957.1,Eucalyptus L'Hér.; Tracheophyta; Magnoliopsida
2014,2014-05-13,Porto,Valongo,Valongo,RUA DO MERCADO (Rua do Maia Shopping),41.22,-8.56083333333333,NC,78.0,2014-05-13T17:00,23.4,38,8.3,21.5,0.0,0.0,0.0,0.0,0,1019.8,1010.7,0,0,0,0,0.38,1.78,9.8,14.1,8,13,23.0,22.8,18.1,16.1,13.5,0.232,0.28,0.339,0.394,1,3600.0,463.1,387.9,75.2,800.7,463.1,649.3,542.0,454.0,88.0,800.7,542.0,759.8,Tracheophyta; Magnoliopsida; Eucalyptus L'Hér.
2014,2014-05-13,Porto,Paredes,Lordelo,GUARDAO (Guardão),41.1833333333333,-8.42277777777778,NC,171.0,2014-05-13T18:00,22.4,39,7.9,20.3,0.0,0.0,0.0,0.0,0,1019.7,999.8,0,0,0,0,0.26,1.64,10.8,17.7,356,5,24.1,21.7,18.0,15.8,12.8,0.235,0.277,0.341,0.397,1,3600.0,271.1,215.0,56.1,713.4,271.1,403.9,353.0,280.0,73.0,713.4,353.0,526.0,Magnoliopsida; Pinus pinaster Aiton; Eucalyptus L'Hér.; Tracheophyta; Vitis vinifera L.
2014,2014-05-13,Porto,TROFA,Muro,quinta do sardão (Costa da Quinta),41.2963888888889,-8.48138888888889,NC,250.0,2014-05-13T19:00,19.9,47,8.2,17.4,0.0,0.0,0.0,0.0,0,1019.7,990.5,0,0,0,0,0.15,1.23,13.7,22.7,3,10,28.1,19.7,17.4,15.2,12.3,0.232,0.277,0.34,0.396,1,3600.0,88.3,61.5,26.8,521.8,88.3,157.9,158.0,110.0,48.0,521.8,158.0,282.5,Eucalyptus L'Hér.; Pinus pinaster Aiton; Tracheophyta; Magnoliopsida; Vitis vinifera L.
2014,2014-05-13,Porto,Paredes,Cete,LUGAR OUTEIRO (Lugar),41.2427777777778,-8.32194444444444,NC,184.0,2014-05-13T22:00,14.9,49,4.4,11.7,0.0,0.0,0.0,0.0,0,1021.7,999.7,0,0,0,0,0.07,0.86,12.1,23.2,80,84,24.5,15.4,17.6,15.7,12.6,0.231,0.283,0.347,0.398,0,0.0,0.0,0.0,0.0,0.0,0.0,0.0,0.0,0.0,0.0,0.0,0.0,0.0,Magnoliopsida; Pinus pinaster Aiton; Eucalyptus L'Hér.; Tracheophyta; Vitis vinifera L.
2014,2014-05-14,Porto,Matosinhos,Senhora Da Hora,Rua Companhia dos Caulinos,41.1855555555556,-8.63555555555556,NC,91.0,2014-05-14T00:00,16.6,53,6.8,13.7,0.0,0.0,0.0,0.0,0,1022.0,1011.1,2,0,0,6,0.08,0.9,14.3,26.0,47,68,25.9,16.2,17.9,16.1,13.5,0.232,0.28,0.339,0.394,0,0.0,0.0,0.0,0.0,0.0,0.0,0.0,0.0,0.0,0.0,0.0,0.0,0.0,Tracheophyta; Magnoliopsida
2014,2014-03-11,Porto,Matosinhos,Leça Da Palmeira,Almeiriga,41.2119444444444,-8.70027777777778,NC,36.0,2014-03-11T18:00,17.9,61,10.2,16.5,0.0,0.0,0.0,0.0,0,1017.9,1013.6,0,0,0,0,0.11,0.8,10.2,11.5,328,340,15.8,16.5,14.1,12.2,12.1,0.337,0.363,0.392,0.417,1,3600.0,86.1,61.4,24.7,589.8,86.1,144.4,164.0,117.0,47.0,589.8,164.0,275.1,Tracheophyta; Magnoliopsida
2014,2014-05-14,Porto,Penafiel,Rio de Moinhos,Devesas,41.1327777777778,-8.36944444444444,NC,195.0,2014-05-14T01:00,15.5,37,1.0,11.0,0.0,0.0,0.0,0.0,0,1022.3,999.0,8,0,0,25,0.12,1.11,17.7,36.4,88,89,41.8,14.2,17.1,15.7,12.7,0.223,0.279,0.344,0.397,0,0.0,0.0,0.0,0.0,0.0,0.0,0.0,0.0,0.0,0.0,0.0,0.0,0.0,Eucalyptus L'Hér.; Magnoliopsida; Tracheophyta
2014,2014-05-14,Porto,Amarante,Telões,Santa Ana,41.3319444444444,-8.1075,Desconhecida,283.0,2014-05-14T01:00,14.2,35,-1.0,9.3,0.0,0.0,0.0,0.0,0,1022.3,988.6,8,0,0,25,0.12,1.05,17.7,36.4,88,89,41.8,12.9,16.2,15.1,11.9,0.227,0.287,0.35,0.398,0,0.0,0.0,0.0,0.0,0.0,0.0,0.0,0.0,0.0,0.0,0.0,0.0,0.0,Magnoliopsida; Pinus pinaster Aiton; Tracheophyta; Vitis vinifera L.; Eucalyptus L'Hér.; ; Castanea sativa Mill.
2014,2014-05-14,Porto,Marco De Canaveses,Tabuado,RUA DE SÃO DOMINGOS (BANHO E CARVALHOSA),41.2372222222222,-8.16361111111111,Reacendimento,241.0,2014-05-14T02:00,14.2,36,-0.7,9.0,0.0,0.0,0.0,0.0,0,1022.3,993.5,5,0,0,17,0.13,1.04,20.2,38.9,88,89,48.6,13.3,16.3,15.4,12.2,0.227,0.287,0.35,0.398,0,0.0,0.0,0.0,0.0,0.0,0.0,0.0,0.0,0.0,0.0,0.0,0.0,0.0,Quercus L.; Tracheophyta; Magnoliopsida; Pinus pinaster Aiton; Vitis vinifera L.; Eucalyptus L'Hér.; ; Acacia Mill.
2014,2014-05-14,Porto,Vila Nova De Gaia,Pedroso,Alheira de Baixo,41.085,-8.53916666666667,NC,94.0,2014-05-14T07:00,14.0,47,2.9,8.4,0.0,0.0,0.0,0.0,0,1022.4,1011.0,0,0,0,0,0.17,0.85,27.1,44.3,86,90,52.6,15.0,17.0,16.4,13.6,0.224,0.273,0.338,0.396,1,3600.0,234.3,163.4,70.9,541.0,234.3,404.7,162.0,113.0,49.0,541.0,162.0,279.8,Eucalyptus L'Hér.; Tracheophyta; Magnoliopsida
2014,2014-05-14,Porto,Marco De Canaveses,Tabuado,São Domingos,41.1388888888889,-8.22277777777778,Reacendimento,137.0,2014-05-14T07:00,13.0,48,2.2,7.3,0.0,0.0,0.0,0.0,0,1022.4,1005.8,0,0,0,0,0.16,0.78,27.1,44.3,86,90,52.6,13.9,16.3,16.1,13.1,0.219,0.284,0.349,0.398,1,3600.0,233.1,162.6,70.5,532.5,233.1,409.0,162.0,113.0,49.0,532.5,162.0,284.3,Quercus L.; Tracheophyta; Magnoliopsida; Pinus pinaster Aiton; Vitis vinifera L.; Eucalyptus L'Hér.; 
2014,2014-05-14,Porto,Vila Nova de Gaia,Vilar de Andorinho,RUA DA TORRE,41.0999400001102,-8.57418000009325,NC,103.0,2014-05-14T08:00,15.5,44,3.5,9.9,0.0,0.0,0.0,0.0,0,1022.4,1010.0,0,0,0,0,0.25,0.98,28.1,41.0,88,89,53.6,15.9,16.8,16.1,13.5,0.237,0.283,0.341,0.396,1,3600.0,439.4,349.8,89.6,727.5,439.4,644.2,358.0,285.0,73.0,727.5,358.0,524.9,Magnoliopsida; Tracheophyta
2014,2014-05-14,Porto,Maia,Milheirós,AREOSA (SÃO PEDRO DE AVIOSO),41.2761111111111,-8.61666666666667,NC,102.0,2014-05-14T09:00,16.7,41,3.4,11.3,0.0,0.0,0.0,0.0,0,1022.5,1010.3,0,0,0,0,0.34,1.13,27.0,38.2,89,90,53.6,17.0,16.6,15.9,13.3,0.212,0.275,0.34,0.394,1,3600.0,631.4,532.2,99.1,829.1,631.4,859.9,554.0,467.0,87.0,829.1,554.0,754.5,Tracheophyta; Magnoliopsida; Eucalyptus L'Hér.; ; Pinus pinaster Aiton; Vitis vinifera L.
2014,2014-05-14,Porto,Baião,Ancede,LUGAR DE EIRAS (Fundo do Lugar),41.1241666666667,-8.05555555555556,Reacendimento,394.0,2014-05-14T10:00,16.3,43,3.8,13.1,0.0,0.0,0.0,0.0,0,1022.6,976.3,2,0,0,8,0.4,1.05,17.8,24.7,82,82,50.4,17.4,15.5,15.5,12.1,0.229,0.275,0.341,0.398,1,3600.0,790.6,685.1,105.5,879.4,790.6,1043.6,727.0,630.0,97.0,879.4,727.0,959.7,Magnoliopsida; Pinus pinaster Aiton; Tracheophyta; Vitis vinifera L.; Quercus suber L.; Acacia Mill.; Eucalyptus L'Hér.; Quercus L.; 
2014,2014-03-11,Porto,Vila Nova De Gaia,Olival,Rua das Cavadinhas,41.0636111111111,-8.52055555555556,NC,180.0,2014-03-11T14:00,19.3,37,4.1,16.9,0.0,0.0,0.0,0.0,0,1017.6,996.5,0,0,0,0,0.46,1.42,14.4,19.9,68,70,33.8,17.1,12.3,11.4,11.3,0.355,0.37,0.396,0.422,1,3600.0,730.1,640.3,89.8,956.0,730.1,928.8,756.0,663.0,93.0,956.0,756.0,961.8,Eucalyptus L'Hér.; Magnoliopsida; Tracheophyta
2014,2014-05-14,Porto,Matosinhos,Custóias,RUA DE S. CRISTOVÃO (Rua de Santa Apolónia),41.1894444444444,-8.64305555555556,NC,103.0,2014-05-14T10:00,18.6,41,5.2,15.2,0.0,0.0,0.0,0.0,0,1022.7,1010.5,1,0,0,3,0.44,1.26,21.4,30.0,82,84,43.9,18.6,16.9,16.0,13.4,0.23,0.278,0.338,0.394,1,3600.0,790.5,683.8,106.7,882.6,790.5,1037.9,726.0,628.0,98.0,882.6,726.0,953.2,Tracheophyta
2014,2014-05-14,Porto,Santo Tirso,Burgães,Costa,41.3416666666667,-8.45611111111111,NC,130.0,2014-05-14T10:00,18.2,39,4.1,14.1,0.0,0.0,0.0,0.0,0,1022.5,1007.1,1,0,0,4,0.44,1.28,24.5,33.9,87,88,51.5,18.4,16.6,15.9,13.1,0.23,0.276,0.339,0.395,1,3600.0,792.1,687.7,104.5,886.8,792.1,1038.9,728.0,632.0,96.0,886.8,728.0,954.8,Eucalyptus L'Hér.; Tracheophyta; Vitis vinifera L.; Pinus pinaster Aiton; Magnoliopsida
2014,2014-05-14,Porto,Maia,Milheirós,TRAVESSA ANTA (1ª Travessa do Largo do Carvalho),41.2419444444444,-8.59,NC,72.0,2014-05-14T10:00,18.8,41,5.4,14.9,0.0,0.0,0.0,0.0,0,1022.5,1013.9,1,0,0,4,0.44,1.28,24.5,33.9,87,88,51.5,18.8,17.1,16.2,13.6,0.23,0.278,0.338,0.394,1,3600.0,792.7,688.1,104.5,888.7,792.7,1037.3,728.0,632.0,96.0,888.7,728.0,952.7,Tracheophyta; Magnoliopsida; Eucalyptus L'Hér.; 
2014,2014-05-14,Porto,Vila Nova de Gaia,Madalena,RUA BARBOSA DE CASTRO,41.1063579999076,-8.64618199984233,NC,31.0,2014-05-14T12:00,23.1,38,8.0,22.6,0.0,0.0,0.0,0.0,1,1020.9,1017.3,28,0,0,93,0.6,1.76,13.9,19.5,80,88,32.4,22.3,17.8,16.5,13.9,0.232,0.28,0.34,0.396,1,3600.0,932.9,765.1,167.7,833.5,932.9,1229.7,912.0,748.0,164.0,833.5,912.0,1202.2,Tracheophyta; Magnoliopsida; Eucalyptus L'Hér.; Pinus pinaster Aiton
2014,2014-05-14,Porto,Paredes,Lordelo,LUGAR DE GUARDÃO (Lugar),41.2427777777778,-8.32194444444444,NC,184.0,2014-05-14T13:00,22.9,35,6.7,21.5,0.0,0.0,0.0,0.0,1,1021.9,1000.5,30,0,0,99,0.63,1.81,18.2,25.1,98,97,47.2,22.1,16.7,15.7,12.7,0.224,0.279,0.345,0.397,1,3600.0,958.7,810.4,148.3,883.3,958.7,1228.9,963.0,814.0,149.0,883.3,963.0,1234.4,Magnoliopsida; Pinus pinaster Aiton; Eucalyptus L'Hér.; Tracheophyta; Vitis vinifera L.
2014,2014-05-14,Porto,Marco De Canaveses,Várzea da Ovelha e Aliviada,Esperança,41.2083333333333,-8.11638888888889,Desconhecida,170.0,2014-05-14T14:00,24.0,34,7.0,22.8,0.0,0.0,0.0,0.0,1,1021.5,1001.8,29,0,0,98,0.62,1.98,15.7,21.3,101,101,41.4,23.0,17.0,15.7,12.7,0.216,0.283,0.348,0.398,1,3600.0,872.6,658.6,214.0,758.2,872.6,1163.6,901.0,680.0,221.0,758.2,901.0,1201.4,Tracheophyta; Magnoliopsida; Quercus L.; Pinus pinaster Aiton
2014,2014-05-14,Porto,Valongo,Ermesinde,BELA,41.2160200002458,-8.54931900024414,NC,109.0,2014-05-14T14:00,24.7,35,8.1,23.7,0.0,0.0,0.0,0.0,1,1021.1,1008.4,27,0,0,90,0.62,2.03,15.3,20.1,98,99,32.4,24.0,17.9,16.2,13.4,0.2,0.269,0.338,0.394,1,3600.0,852.7,620.2,232.6,712.9,852.7,1165.2,880.0,640.0,240.0,712.9,880.0,1202.5,Tracheophyta; Eucalyptus L'Hér.
2014,2014-03-11,Porto,Lousada,Nevogilde,CAMPO DE FUTEBOL (Campo),41.2622222222222,-8.31444444444444,NC,200.0,2014-03-11T16:00,19.7,36,4.4,16.8,0.0,0.0,0.0,0.0,0,1017.6,994.2,0,0,0,0,0.34,1.46,10.7,15.1,78,78,31.0,17.0,12.2,10.9,10.7,0.342,0.366,0.394,0.423,1,3600.0,466.8,396.5,70.3,883.5,466.8,622.4,538.0,457.0,81.0,883.5,538.0,717.3,Tracheophyta; Quercus L.; Magnoliopsida
2014,2014-05-14,Porto,Lousada,Cernadelo,S. PEDRO (São Pedro),41.2988888888889,-8.23833333333333,NC,242.0,2014-05-14T16:00,24.8,31,6.7,22.8,0.0,0.0,0.0,0.0,0,1020.7,992.8,7,0,0,23,0.48,2.15,11.6,16.3,97,98,29.9,23.5,17.4,15.5,12.3,0.19,0.277,0.349,0.398,1,3600.0,592.7,404.8,187.9,629.1,592.7,861.9,656.0,448.0,208.0,629.1,656.0,953.9,Pinus pinaster Aiton; Eucalyptus L'Hér.; Vitis vinifera L.; Magnoliopsida
2014,2014-05-14,Porto,Felgueiras,Penacova,SENHOR PERDIDOS (Senhor dos Perdidos),41.3636111111111,-8.24861111111111,NC,439.0,2014-05-14T21:00,15.8,42,2.9,12.2,0.0,0.0,0.0,0.0,0,1019.8,968.5,0,0,0,0,0.09,1.04,13.6,21.0,68,68,27.0,15.6,16.6,14.3,11.1,0.196,0.275,0.347,0.398,0,0.0,0.0,0.0,0.0,0.0,0.0,0.0,0.0,0.0,0.0,0.0,0.0,0.0,Magnoliopsida; Eucalyptus L'Hér.; Tracheophyta; Vitis vinifera L.; Pinus pinaster Aiton
2014,2014-05-14,Porto,Amarante,Freixo De Cima,Serrado,41.3063888888889,-8.12527777777778,Desconhecida,382.0,2014-05-14T22:00,14.6,44,2.5,11.2,0.0,0.0,0.0,0.0,0,1019.8,974.8,2,0,0,8,0.07,0.93,11.7,23.3,79,82,23.8,15.0,17.0,14.8,11.4,0.192,0.276,0.347,0.398,0,0.0,0.0,0.0,0.0,0.0,0.0,0.0,0.0,0.0,0.0,0.0,0.0,0.0,Eucalyptus L'Hér.; Tracheophyta; Pinus pinaster Aiton; Magnoliopsida; Vitis vinifera L.; 
2014,2014-05-14,Porto,Paços de Ferreira,Freamunde,CORRAIS (Corredoura),41.3077777777778,-8.36694444444444,NC,325.0,2014-05-14T23:00,15.3,43,2.7,12.1,0.0,0.0,0.0,0.0,0,1019.6,981.2,7,0,0,24,0.07,1.0,10.9,25.1,82,83,24.8,15.2,17.2,14.8,11.8,0.189,0.274,0.345,0.396,0,0.0,0.0,0.0,0.0,0.0,0.0,0.0,0.0,0.0,0.0,0.0,0.0,0.0,Tracheophyta; Eucalyptus L'Hér.; Magnoliopsida; Pinus pinaster Aiton; 
2014,2014-05-14,Porto,Penafiel,Rio de Moinhos,Devesas,41.1327777777778,-8.36944444444444,NC,195.0,2014-05-14T23:00,16.7,41,3.4,13.6,0.0,0.0,0.0,0.0,0,1019.6,996.5,7,0,0,24,0.08,1.13,10.9,25.1,82,83,24.8,16.4,18.2,15.7,12.8,0.208,0.272,0.341,0.397,0,0.0,0.0,0.0,0.0,0.0,0.0,0.0,0.0,0.0,0.0,0.0,0.0,0.0,Eucalyptus L'Hér.; Magnoliopsida; Tracheophyta
2014,2014-03-16,Porto,Felgueiras,Idães,LG. JARDIM,41.3255980004205,-8.25178299996588,NC,447.0,2014-03-16T14:00,19.2,40,5.4,17.3,0.0,0.0,0.0,0.0,0,1023.7,971.8,0,0,0,1,0.45,1.33,12.5,17.7,78,78,42.8,16.6,10.8,9.7,9.1,0.319,0.343,0.378,0.418,1,3600.0,718.0,625.4,92.6,908.7,718.0,951.8,744.0,648.0,96.0,908.7,744.0,986.3,Tracheophyta; Pinus pinaster Aiton; Eucalyptus L'Hér.; Vitis vinifera L.; Magnoliopsida
2014,2014-05-15,Porto,Marco De Canaveses,Tabuado,RUA DE SÃO DOMINGOS (BANHO E CARVALHOSA),41.2372222222222,-8.16361111111111,Reacendimento,241.0,2014-05-15T02:00,14.3,36,-0.5,10.0,0.0,0.0,0.0,0.0,0,1019.6,990.9,7,0,0,22,0.1,1.04,14.4,33.1,87,88,36.0,13.3,16.7,15.4,12.2,0.212,0.28,0.347,0.397,0,0.0,0.0,0.0,0.0,0.0,0.0,0.0,0.0,0.0,0.0,0.0,0.0,0.0,Quercus L.; Tracheophyta; Magnoliopsida; Pinus pinaster Aiton; Vitis vinifera L.; Eucalyptus L'Hér.; ; Acacia Mill.
2014,2014-05-15,Porto,Valongo,Campo,PÓVOAS,41.1815840000576,-8.46803699996736,NC,97.0,2014-05-15T08:00,17.5,50,6.9,13.0,0.0,0.0,0.0,0.0,0,1018.9,1007.4,2,0,2,1,0.25,1.01,25.2,37.4,88,90,46.8,17.4,17.7,16.4,13.5,0.195,0.266,0.336,0.394,1,3600.0,400.4,314.7,85.7,649.6,400.4,648.7,327.0,257.0,70.0,649.6,327.0,529.8,Magnoliopsida; Pinus pinaster Aiton; Tracheophyta; Quercus suber L.; Vitis vinifera L.
2014,2014-05-15,Porto,Paços de Ferreira,Ferreira,Estrada,41.2602777777778,-8.365,NC,353.0,2014-05-15T10:00,19.3,43,6.2,16.3,0.0,0.0,0.0,0.0,0,1019.2,978.2,0,0,0,0,0.44,1.28,19.4,27.4,91,91,47.2,18.6,15.8,14.7,11.7,0.188,0.272,0.344,0.396,1,3600.0,773.4,642.9,130.5,826.2,773.4,1041.9,711.0,591.0,120.0,826.2,711.0,957.8,Eucalyptus L'Hér.; Tracheophyta; Magnoliopsida; Quercus L.; Pinus pinaster Aiton; 
2014,2014-05-15,Porto,Gondomar,São Pedro Da Cova,R. Bôcas (SÃO PEDRO DA COVA),41.1555555555556,-8.50361111111111,NC,106.0,2014-05-15T10:00,21.1,44,8.5,18.2,0.0,0.0,0.0,0.0,0,1018.4,1006.0,0,0,0,0,0.45,1.39,22.4,31.0,86,88,44.6,20.4,17.8,16.3,13.4,0.193,0.265,0.336,0.394,1,3600.0,762.8,633.3,129.5,814.5,762.8,1041.1,701.0,582.0,119.0,814.5,701.0,956.8,Eucalyptus L'Hér.; Tracheophyta; Magnoliopsida; Pinus pinaster Aiton
2014,2014-05-15,Porto,Felgueiras,Sendim,Rua Alto de São Domingos,41.3872222222222,-8.17888888888889,Desconhecida,413.0,2014-05-15T10:00,18.8,42,5.8,16.1,0.0,0.0,0.0,0.0,0,1019.4,971.5,0,0,0,0,0.44,1.25,18.0,24.9,88,88,43.9,18.0,15.0,14.4,11.3,0.195,0.274,0.346,0.398,1,3600.0,789.2,671.8,117.4,862.1,789.2,1043.4,726.0,618.0,108.0,862.1,726.0,959.9,Magnoliopsida; Eucalyptus L'Hér.; Pinus pinaster Aiton; Tracheophyta
2014,2014-05-15,Porto,Penafiel,Abragão,Tapado,41.2227777777778,-8.17361111111111,NC,152.0,2014-05-15T10:00,21.0,45,8.5,18.8,0.0,0.0,0.0,0.0,0,1018.7,1000.9,0,0,0,0,0.46,1.38,18.7,25.9,88,88,42.1,19.9,17.0,16.1,13.1,0.202,0.276,0.346,0.397,1,3600.0,781.8,662.2,119.6,850.0,781.8,1043.2,719.0,609.0,110.0,850.0,719.0,959.3,Magnoliopsida; Tracheophyta; Eucalyptus L'Hér.; Vitis vinifera L.; Quercus L.; Pinus pinaster Aiton
2014,2014-05-15,Porto,Paredes,Lordelo,LG PARTEIRA DE BAIXO (LORDELO),41.2305555555556,-8.40694444444445,NC,229.0,2014-05-15T12:00,23.6,39,8.9,22.7,0.0,0.0,0.0,0.0,0,1017.9,991.5,3,0,4,2,0.61,1.78,17.3,23.1,92,94,36.7,22.4,17.2,15.5,12.6,0.218,0.266,0.335,0.396,1,3600.0,927.3,809.7,117.6,881.0,927.3,1230.6,907.0,792.0,115.0,881.0,907.0,1203.7,Magnoliopsida; Pinus pinaster Aiton; Eucalyptus L'Hér.; Tracheophyta; Vitis vinifera L.
2014,2014-05-15,Porto,Marco De Canaveses,Várzea da Ovelha e Aliviada,Esperança,41.2083333333333,-8.11638888888889,NC,170.0,2014-05-15T13:00,25.2,38,9.8,25.2,0.0,0.0,0.0,0.0,0,1017.8,998.2,0,0,0,0,0.66,1.99,14.8,20.2,93,94,40.3,23.8,17.4,15.8,12.7,0.205,0.277,0.345,0.397,1,3600.0,950.5,842.1,108.5,916.5,950.5,1230.3,955.0,846.0,109.0,916.5,955.0,1236.0,Tracheophyta; Magnoliopsida; Quercus L.; Pinus pinaster Aiton
