year,date,district,municipality,parish,local,latitude,longitude,cause,elevation,hourly.time,hourly.temperature_2m,hourly.relative_humidity_2m,hourly.dew_point_2m,hourly.apparent_temperature,hourly.precipitation,hourly.rain,hourly.snowfall,hourly.snow_depth,hourly.weather_code,hourly.pressure_msl,hourly.surface_pressure,hourly.cloud_cover,hourly.cloud_cover_low,hourly.cloud_cover_mid,hourly.cloud_cover_high,hourly.et0_fao_evapotranspiration,hourly.vapour_pressure_deficit,hourly.wind_speed_10m,hourly.wind_speed_100m,hourly.wind_direction_10m,hourly.wind_direction_100m,hourly.wind_gusts_10m,hourly.soil_temperature_0_to_7cm,hourly.soil_temperature_7_to_28cm,hourly.soil_temperature_28_to_100cm,hourly.soil_temperature_100_to_255cm,hourly.soil_moisture_0_to_7cm,hourly.soil_moisture_7_to_28cm,hourly.soil_moisture_28_to_100cm,hourly.soil_moisture_100_to_255cm,hourly.is_day,hourly.sunshine_duration,hourly.shortwave_radiation_instant,hourly.direct_radiation_instant,hourly.diffuse_radiation_instant,hourly.direct_normal_irradiance_instant,hourly.global_tilted_irradiance_instant,hourly.terrestrial_radiation_instant,hourly.shortwave_radiation,hourly.direct_radiation,hourly.diffuse_radiation,hourly.direct_normal_irradiance,hourly.global_tilted_irradiance,hourly.terrestrial_radiation,scientificNames
2016,2016-07-22,Leiria,Óbidos,Olho Marinho,OLHO MARINHO,39.317146301402,-9.23698520263036,Desconhecida,121.0,2016-07-22T15:00,22.4,65,15.4,20.9,0.0,0.0,0.0,0.0,0,1018.9,1004.8,0,0,0,0,0.48,0.96,32.0,42.1,348,350,55.8,28.9,22.8,21.4,17.9,0.05,0.095,0.16,0.22,1,3600.0,825.3,719.3,106.0,878.8,825.3,1084.5,872.0,760.0,112.0,878.8,872.0,1145.9,Magnoliopsida; Tracheophyta; Eucalyptus L'Hér.
2016,2016-07-22,Leiria,Óbidos,Olho Marinho,Casais da Arruda (Charneca da Mata),39.3445167371962,-9.24396325005425,Desconhecida,95.0,2016-07-22T22:00,19.4,80,15.8,17.5,0.0,0.0,0.0,0.0,0,1019.1,1007.9,1,1,0,0,0.05,0.45,26.7,40.3,357,359,44.6,20.6,23.1,21.6,18.1,0.05,0.095,0.159,0.22,0,0.0,0.0,0.0,0.0,0.0,0.0,0.0,0.0,0.0,0.0,0.0,0.0,0.0,Eucalyptus L'Hér.; Pinus pinaster Aiton; Tracheophyta; Magnoliopsida
2016,2016-07-23,Leiria,Leiria,Santa Eufémia,Cova das Faias,39.7651519775391,-8.77498243543837,Desconhecida,137.0,2016-07-23T06:00,16.7,89,14.9,17.0,0.0,0.0,0.0,0.0,0,1018.0,1001.7,0,0,0,0,0.02,0.21,9.7,21.6,15,24,21.6,17.3,22.0,21.2,17.7,0.049,0.07,0.136,0.235,1,0.0,24.2,9.7,14.5,109.5,11.0,117.0,10.0,4.0,6.0,49.7,10.0,48.4,Tracheophyta; Pinus pinaster Aiton; Eucalyptus L'Hér.; Magnoliopsida; Acacia Mill.; Pinales
2016,2016-07-23,Leiria,Alvaiázere,Pussos,Pombaria,39.8334541150017,-8.35844231499566,Desconhecida,255.0,2016-07-23T19:00,29.5,37,13.2,28.9,0.0,0.0,0.0,0.0,0,1015.0,986.3,0,0,0,0,0.22,2.61,11.3,20.0,333,342,26.3,32.9,27.2,22.9,17.8,0.089,0.16,0.251,0.352,1,3600.0,116.1,83.2,32.9,538.1,116.1,205.0,187.0,134.0,53.0,538.1,187.0,330.1,Magnoliopsida; Eucalyptus L'Hér.; Olea europaea L.; Quercus L.; Tracheophyta; Pinus pinaster Aiton; Quercus rotundifolia Lam.; Pinus pinea L.; 
2016,2016-07-23,Leiria,Óbidos,Amoreira,Vale Bem Feito,39.3825607299805,-9.27167321099175,Desconhecida,20.0,2016-07-23T23:00,20.7,76,16.3,20.1,0.0,0.0,0.0,0.0,0,1016.7,1014.3,0,0,0,0,0.05,0.59,18.9,32.4,8,12,35.3,21.7,25.0,22.6,19.1,0.045,0.106,0.167,0.24,0,0.0,0.0,0.0,0.0,0.0,0.0,0.0,0.0,0.0,0.0,0.0,0.0,0.0,Magnoliopsida; Eucalyptus L'Hér.; Pinus pinaster Aiton; Tracheophyta
2016,2016-07-24,Leiria,Leiria,Pousos,Pousos (Travessa da Igreja),39.7430190700955,-8.77710625542535,Desconhecida,125.0,2016-07-24T00:00,21.2,69,15.3,21.8,0.0,0.0,0.0,0.0,0,1016.2,1001.6,0,0,0,0,0.03,0.79,8.2,20.9,15,24,20.5,21.9,24.8,21.8,18.2,0.048,0.069,0.135,0.233,0,0.0,0.0,0.0,0.0,0.0,0.0,0.0,0.0,0.0,0.0,0.0,0.0,0.0,Tracheophyta; Pinus pinaster Aiton; Eucalyptus L'Hér.; Magnoliopsida; Acacia Mill.; Pinales
2016,2016-07-24,Leiria,Óbidos,Amoreira,Portela,39.347911851671,-9.2179279241297,Desconhecida,79.0,2016-07-24T18:00,27.5,46,14.8,25.9,0.0,0.0,0.0,0.0,0,1014.9,1005.8,0,0,0,0,0.37,1.98,21.7,31.3,354,358,37.1,32.6,26.0,21.7,18.3,0.048,0.092,0.157,0.22,1,3600.0,307.5,247.2,60.2,707.1,307.5,463.5,388.0,312.0,76.0,707.1,388.0,584.8,Vitis vinifera L.; Tracheophyta; Magnoliopsida; Eucalyptus L'Hér.
2016,2016-07-24,Leiria,Óbidos,Amoreira,Novo Mundo (Quinta do Paul),39.3444519042969,-9.19412517971463,Desconhecida,31.0,2016-07-24T18:00,27.8,46,15.1,26.3,0.0,0.0,0.0,0.0,0,1014.9,1011.3,0,0,0,0,0.37,2.01,21.7,31.3,354,358,37.1,32.9,26.3,22.0,18.6,0.048,0.092,0.157,0.22,1,3600.0,307.5,247.2,60.2,707.1,307.5,463.5,388.0,312.0,76.0,707.1,388.0,584.8,Magnoliopsida; Tracheophyta; Eucalyptus L'Hér.
2016,2016-07-24,Leiria,Óbidos,Amoreira,Arrifes,39.3503455947174,-9.20022296471728,Desconhecida,67.0,2016-07-24T19:00,25.1,54,15.2,24.0,0.0,0.0,0.0,0.0,0,1014.9,1007.1,0,0,0,1,0.22,1.46,20.2,32.1,358,3,36.0,30.8,26.9,22.5,18.9,0.045,0.099,0.164,0.231,1,3600.0,122.8,88.3,34.5,553.2,122.8,211.7,196.0,141.0,55.0,553.2,196.0,337.8,Magnoliopsida; Tracheophyta; Eucalyptus L'Hér.
2016,2016-07-24,Leiria,Óbidos,Amoreira,Portela,39.3475914171007,-9.2174234347211,Desconhecida,81.0,2016-07-24T22:00,22.5,66,15.8,21.6,0.0,0.0,0.0,0.0,0,1016.3,1006.8,0,0,0,0,0.08,0.92,19.8,32.5,359,4,31.3,24.2,25.8,21.8,18.4,0.048,0.092,0.157,0.22,0,0.0,0.0,0.0,0.0,0.0,0.0,0.0,0.0,0.0,0.0,0.0,0.0,0.0,Vitis vinifera L.; Tracheophyta; Magnoliopsida; Eucalyptus L'Hér.
2016,2016-07-25,Leiria,Óbidos,Olho Marinho,Casais da Arruda,39.3438835313585,-9.24408816867405,Desconhecida,101.0,2016-07-25T16:00,29.7,44,16.0,29.6,0.0,0.0,0.0,0.0,0,1015.8,1004.3,0,0,0,0,0.6,2.35,21.1,27.7,346,351,35.3,36.8,26.3,21.8,18.3,0.048,0.091,0.155,0.219,1,3600.0,673.0,583.6,89.4,848.7,673.0,911.7,738.0,640.0,98.0,848.7,738.0,999.7,Eucalyptus L'Hér.; Magnoliopsida; Pinus pinaster Aiton; Tracheophyta
2016,2016-07-25,Leiria,Alcobaça,Pataias,PATAIAS (EN242 (EN242) Km 27),39.655029296875,-9.02383327484131,Desconhecida,123.0,2016-07-25T21:00,21.0,75,16.3,20.6,0.0,0.0,0.0,0.0,0,1016.9,1002.5,0,0,0,0,0.05,0.63,17.7,28.1,354,359,27.7,24.1,25.5,21.3,18.0,0.048,0.077,0.142,0.242,0,0.0,0.0,0.0,0.0,0.0,0.0,0.0,0.0,0.0,0.0,0.0,0.0,0.0,Pinus pinaster Aiton; Magnoliopsida
2016,2016-07-26,Leiria,Óbidos,Óbidos (Santa Maria),Trás do Outeiro (Casal da Brogueira),39.3916778564453,-9.17705725775825,Desconhecida,31.0,2016-07-26T14:00,24.5,62,16.6,25.3,0.0,0.0,0.0,0.0,0,1018.4,1014.8,0,0,0,0,0.58,1.18,23.0,29.3,333,335,41.4,35.5,26.1,23.1,19.3,0.044,0.098,0.162,0.231,1,3600.0,925.9,818.7,107.2,911.5,925.9,1191.1,950.0,840.0,110.0,911.5,950.0,1222.0,Eucalyptus L'Hér.; Tracheophyta; Magnoliopsida
2016,2016-07-29,Leiria,Caldas da Rainha,Vidais,Matoeira (Quinta do Talvez),39.3901824951172,-9.09501838684082,Desconhecida,103.0,2016-07-29T00:00,20.0,86,17.6,21.5,0.0,0.0,0.0,0.0,0,1014.0,1001.9,0,0,0,0,0.0,0.32,8.3,14.6,2,10,15.8,22.0,25.5,22.6,18.5,0.093,0.16,0.234,0.288,0,0.0,0.0,0.0,0.0,0.0,0.0,0.0,0.0,0.0,0.0,0.0,0.0,0.0,Eucalyptus L'Hér.; Tracheophyta; Magnoliopsida
2016,2016-07-31,Leiria,Caldas da Rainha,Salir do Porto,SALIR DO PORTO,39.4967841932509,-9.15643692016602,Desconhecida,73.0,2016-07-31T05:00,17.9,85,15.3,16.9,0.0,0.0,0.0,0.0,2,1019.2,1010.5,72,80,0,0,0.02,0.31,19.1,26.3,349,350,31.3,19.8,23.7,22.9,18.9,0.093,0.158,0.232,0.288,0,0.0,0.0,0.0,0.0,0.0,0.0,0.0,0.0,0.0,0.0,0.0,0.0,0.0,Magnoliopsida; Tracheophyta; Pinus pinaster Aiton
2016,2016-02-22,Leiria,Marinha Grande,Marinha Grande,Rua Granja de San Ildefonso,39.7440369998084,-8.92162799994151,Desconhecida,100.0,2016-02-22T16:00,13.9,72,8.9,11.3,0.0,0.0,0.0,0.0,0,1024.2,1012.1,4,4,0,0,0.21,0.45,16.4,19.0,345,345,27.4,15.6,12.4,11.9,14.2,0.221,0.243,0.273,0.2,1,3600.0,380.4,312.0,68.4,789.5,380.4,552.8,445.0,365.0,80.0,789.5,445.0,646.6,Tracheophyta; Pinus pinaster Aiton
2016,2016-08-01,Leiria,Leiria,Barreira,Casal da Cortiça (Casal do Vale Seco),39.7118263075087,-8.81836222330729,Desconhecida,48.0,2016-08-01T11:00,21.9,68,15.7,22.8,0.0,0.0,0.0,0.0,0,1019.5,1013.9,0,0,0,0,0.47,0.84,16.4,20.6,331,335,37.1,27.3,22.1,21.7,18.6,0.049,0.068,0.13,0.234,1,3600.0,858.8,745.4,113.4,870.3,858.8,1137.2,810.0,703.0,107.0,870.3,810.0,1072.5,Tracheophyta; Pinus pinaster Aiton; Eucalyptus L'Hér.; Magnoliopsida; Acacia Mill.
2016,2016-08-01,Leiria,Batalha,Batalha,Faniqueira (Casal da Faniqueira),39.6693916151259,-8.82601833767361,Desconhecida,97.0,2016-08-01T12:00,25.1,56,15.8,26.3,0.0,0.0,0.0,0.0,0,1019.4,1008.1,0,0,0,0,0.59,1.38,17.2,21.1,331,335,38.5,31.5,23.4,22.7,19.0,0.047,0.064,0.124,0.227,1,3600.0,925.8,803.4,122.4,877.0,925.8,1216.3,900.0,781.0,119.0,877.0,900.0,1182.4,Magnoliopsida; Tracheophyta; Olea europaea L.; Pinus pinaster Aiton; Eucalyptus L'Hér.
2016,2016-08-01,Leiria,Batalha,Batalha,Faniqueira (Casal da Faniqueira),39.6693916151259,-8.82601833767361,Reacendimento,97.0,2016-08-01T16:00,25.5,53,15.2,24.9,0.0,0.0,0.0,0.0,0,1018.2,1007.0,0,0,0,0,0.51,1.54,21.6,28.2,330,333,43.6,33.5,24.4,22.7,19.1,0.047,0.064,0.123,0.227,1,3600.0,660.8,569.0,91.8,848.7,660.8,890.2,727.0,626.0,101.0,848.7,727.0,979.4,Magnoliopsida; Tracheophyta; Olea europaea L.; Pinus pinaster Aiton; Eucalyptus L'Hér.
2016,2016-08-02,Leiria,Porto de Mós,São Bento,PNSAC  (Cabeça das Pombas) (Cabeça das Pombas),39.4933738878038,-8.80617906358507,Desconhecida,466.0,2016-08-02T11:00,25.6,52,15.0,28.1,0.0,0.0,0.0,0.0,0,1017.6,965.1,0,0,0,0,0.55,1.58,5.6,6.3,297,301,22.7,29.6,22.9,22.2,17.5,0.091,0.153,0.237,0.325,1,3600.0,857.7,748.5,109.2,873.5,857.7,1138.0,809.0,706.0,103.0,873.5,809.0,1073.4,Olea europaea L.; Magnoliopsida; Pinus pinea L.
2016,2016-08-02,Leiria,Caldas da Rainha,Nadadouro,Quinta do Negrelho (Barrosa),39.4057769775391,-9.18583489312066,Desconhecida,19.0,2016-08-02T11:00,23.4,62,15.7,23.8,0.0,0.0,0.0,0.0,0,1018.4,1016.2,0,0,0,0,0.49,1.09,18.9,23.9,351,355,35.6,30.3,23.5,23.3,20.0,0.044,0.092,0.156,0.229,1,3600.0,853.1,741.7,111.4,867.2,853.1,1135.9,804.0,699.0,105.0,867.2,804.0,1070.5,Eucalyptus L'Hér.; Tracheophyta; Magnoliopsida
2016,2016-08-03,Leiria,Caldas da Rainha,Alvorninha,Arco da Memória (Vale do Alemão),39.363780992296,-9.00650310516357,Desconhecida,193.0,2016-08-03T18:00,21.4,68,15.2,19.0,0.0,0.0,0.0,0.0,0,1017.6,995.1,13,13,0,3,0.25,0.81,28.6,39.3,341,342,53.3,27.2,24.6,22.8,18.9,0.094,0.171,0.248,0.318,1,3600.0,289.8,229.2,60.6,708.0,289.8,430.0,373.0,295.0,78.0,708.0,373.0,553.6,Eucalyptus L'Hér.; Pinales; Magnoliopsida
2016,2016-08-04,Leiria,Óbidos,Vau,Vale Covo,39.3616666666667,-9.20944444444445,Desconhecida,24.0,2016-08-04T00:00,19.3,95,18.6,19.3,0.0,0.0,0.0,0.0,3,1018.7,1015.8,95,100,0,18,0.0,0.1,21.9,34.5,346,349,40.0,21.1,24.2,23.1,20.0,0.044,0.091,0.155,0.228,0,0.0,0.0,0.0,0.0,0.0,0.0,0.0,0.0,0.0,0.0,0.0,0.0,0.0,Eucalyptus L'Hér.; Magnoliopsida; Tracheophyta; Vitis vinifera L.
2016,2016-08-04,Leiria,Óbidos,Vau,Vale Covo,39.3540916612413,-9.21718787305885,Desconhecida,77.0,2016-08-04T12:00,23.2,73,18.1,24.2,0.0,0.0,0.0,0.0,2,1020.3,1011.3,73,78,0,8,0.42,0.77,18.5,23.8,327,331,34.9,30.6,23.5,22.7,19.7,0.045,0.091,0.155,0.228,1,3600.0,721.7,496.2,225.5,543.8,721.7,1212.6,701.0,482.0,219.0,543.8,701.0,1177.9,Magnoliopsida; Vitis vinifera L.; Tracheophyta; Eucalyptus L'Hér.; Pinus pinaster Aiton
2016,2016-08-06,Leiria,Óbidos,Vau,Vau (Quinta da Luz),39.3674163819684,-9.20148278143671,Desconhecida,40.0,2016-08-06T12:00,30.9,36,14.1,33.1,0.0,0.0,0.0,0.0,0,1019.6,1015.0,0,0,0,0,0.68,2.87,8.2,9.0,345,5,19.1,38.7,24.2,22.9,20.1,0.046,0.09,0.153,0.228,1,3600.0,921.5,814.4,107.1,896.5,921.5,1207.9,895.0,791.0,104.0,896.5,895.0,1173.2,Eucalyptus L'Hér.; Magnoliopsida; Tracheophyta; Pinus pinea L.
2016,2016-08-06,Leiria,Óbidos,Olho Marinho,Urbanização do Penedo Serra del Rei),39.3307113647461,-9.26218319363064,Desconhecida,135.0,2016-08-06T14:00,28.2,43,14.6,29.5,0.0,0.0,0.0,0.0,0,1019.4,1003.9,0,0,0,0,0.67,2.17,14.7,17.2,335,344,28.8,39.4,24.4,22.2,19.4,0.045,0.094,0.156,0.236,1,3600.0,894.8,792.5,102.2,900.5,894.8,1170.3,919.0,814.0,105.0,900.5,919.0,1202.0,Magnoliopsida; Tracheophyta; Eucalyptus L'Hér.; Pinus pinea L.
2016,2016-08-06,Leiria,Óbidos,Vau,Vau (Quinta da Luz),39.3669738769531,-9.20127963582675,Desconhecida,40.0,2016-08-06T16:00,29.6,41,14.8,29.3,0.0,0.0,0.0,0.0,0,1019.0,1014.4,0,0,0,0,0.58,2.46,18.4,24.6,343,348,36.0,38.7,26.0,22.9,20.1,0.045,0.089,0.153,0.228,1,3600.0,650.5,564.3,86.2,851.6,650.5,881.1,717.0,622.0,95.0,851.6,717.0,971.2,Eucalyptus L'Hér.; Magnoliopsida; Tracheophyta; Pinus pinea L.
2016,2016-08-07,Leiria,Porto de Mós,São Bento,Casal Velho - Rua do Valinho,39.5159111192491,-8.79368306477865,Reacendimento,507.0,2016-08-07T13:00,35.7,17,6.5,35.9,0.0,0.0,0.0,0.0,0,1018.5,963.2,0,0,0,0,0.78,4.86,8.7,11.3,97,97,29.5,37.3,25.6,22.0,17.7,0.09,0.15,0.23,0.322,1,3600.0,948.2,842.2,106.0,919.9,948.2,1217.8,948.0,842.0,106.0,919.9,948.0,1217.5,Tracheophyta; Eucalyptus L'Hér.; Olea europaea L.; Magnoliopsida; Pinales
2016,2016-08-07,Leiria,Alcobaça,Aljubarrota (Prazeres),Moleanos (MOLIANOS),39.5284957885742,-8.91189005533854,Desconhecida,161.0,2016-08-07T15:00,37.5,19,9.8,36.7,0.0,0.0,0.0,0.0,0,1017.5,999.7,0,0,0,0,0.8,5.25,15.9,20.9,354,357,33.1,43.8,28.9,24.3,20.2,0.08,0.168,0.247,0.346,1,3600.0,800.4,705.2,95.2,896.0,800.4,1046.8,849.0,748.0,101.0,896.0,849.0,1110.4,Olea europaea L.; Magnoliopsida; Eucalyptus L'Hér.; Tracheophyta; Pinus pinaster Aiton
2016,2016-08-07,Leiria,Leiria,Marrazes,MARRAZES,39.7616666666667,-8.80333333333333,Desconhecida,99.0,2016-08-07T16:00,34.5,29,14.0,34.3,0.0,0.0,0.0,0.0,0,1017.4,1006.3,0,0,0,0,0.66,3.88,16.5,22.9,349,352,34.9,40.7,26.6,22.0,19.0,0.049,0.062,0.116,0.224,1,3600.0,650.4,562.5,87.9,859.5,650.4,870.6,718.0,621.0,97.0,859.5,718.0,961.0,Tracheophyta; Pinus pinaster Aiton; Eucalyptus L'Hér.; Magnoliopsida; Acacia Mill.
2016,2016-08-07,Leiria,Marinha Grande,Marinha Grande,Casal Malta (Marinha Grande),39.7378196885851,-8.92783257378472,Desconhecida,100.0,2016-08-07T16:00,33.1,32,14.1,31.8,0.0,0.0,0.0,0.0,0,1017.7,1006.4,0,0,0,0,0.68,3.44,23.3,34.3,351,356,36.7,39.3,26.2,21.8,19.0,0.05,0.064,0.122,0.227,1,3600.0,650.7,563.7,87.0,859.6,650.7,872.2,718.0,622.0,96.0,859.6,718.0,962.5,Magnoliopsida; Tracheophyta; Pinus pinaster Aiton
2016,2016-08-07,Leiria,Leiria,Marrazes,Marrazes (Areeiro),39.781482679579,-8.81785298665365,Desconhecida,42.0,2016-08-07T18:00,32.3,36,15.1,31.2,0.0,0.0,0.0,0.0,0,1017.0,1012.2,0,0,0,0,0.41,3.11,18.9,30.7,347,351,36.0,36.7,27.4,22.4,19.4,0.049,0.062,0.116,0.224,1,3600.0,272.2,216.9,55.4,699.8,272.2,412.2,354.0,282.0,72.0,699.8,354.0,536.0,Tracheophyta; Pinus pinaster Aiton; Eucalyptus L'Hér.; Magnoliopsida; Acacia Mill.
2016,2016-08-07,Leiria,Nazaré,Famalicão,Raposos (Fonte Santa),39.5317840576172,-9.06451511383057,Desconhecida,142.0,2016-08-07T20:00,26.5,50,15.1,25.6,0.0,0.0,0.0,0.0,0,1017.3,1001.0,0,0,0,0,0.15,1.74,18.1,33.5,6,9,36.0,29.9,27.9,22.8,19.6,0.044,0.086,0.146,0.233,0,314.68,0.0,0.0,0.0,0.0,0.0,0.0,19.0,10.0,9.0,105.4,19.0,67.8,Tracheophyta; Pinus pinaster Aiton; Magnoliopsida; Eucalyptus L'Hér.
2016,2016-08-08,Leiria,Alcobaça,Benedita,casal turcano (BENEDITA),39.4246864149306,-8.97971442328559,Desconhecida,206.0,2016-08-08T06:00,22.6,52,12.1,21.8,0.0,0.0,0.0,0.0,0,1018.0,994.1,0,0,0,0,0.09,1.33,9.8,20.5,118,121,15.5,22.3,26.7,23.0,19.1,0.093,0.168,0.243,0.316,1,0.0,6.2,0.0,6.2,0.0,1.5,55.5,2.0,0.0,2.0,0.0,2.0,18.0,Tracheophyta; Magnoliopsida; Pinus pinaster Aiton
2016,2016-08-08,Leiria,Marinha Grande,Marinha Grande,Casal do Malta (MARINHA GRANDE),39.7374229600694,-8.92829705132378,Desconhecida,101.0,2016-08-08T08:00,26.7,38,11.0,25.2,0.0,0.0,0.0,0.0,0,1018.7,1007.1,0,0,0,0,0.26,2.18,12.0,20.9,129,138,20.2,25.2,25.4,22.0,19.0,0.049,0.064,0.122,0.226,1,3600.0,357.5,275.5,82.0,647.3,357.5,566.1,279.0,215.0,64.0,647.3,279.0,441.9,Magnoliopsida; Tracheophyta; Pinus pinaster Aiton
2016,2016-08-08,Leiria,Caldas da Rainha,Alvorninha,Pego (Calvelo),39.3957061767578,-8.99217793782552,Desconhecida,128.0,2016-08-08T12:00,33.7,29,12.9,36.2,0.0,0.0,0.0,0.0,0,1019.2,1004.8,0,0,0,0,0.68,3.73,4.2,4.0,301,297,21.6,38.3,27.8,23.6,19.7,0.093,0.168,0.242,0.316,1,3600.0,919.1,812.0,107.0,897.0,919.1,1204.4,893.0,789.0,104.0,897.0,893.0,1170.3,Magnoliopsida; Tracheophyta; Eucalyptus L'Hér.; Pinus pinaster Aiton
2016,2016-08-08,Leiria,Leiria,Azoia,Vale do Horto,39.6949157714844,-8.84077928331163,Desconhecida,72.0,2016-08-08T12:00,31.0,35,13.8,33.5,0.0,0.0,0.0,0.0,0,1019.0,1010.8,0,0,0,0,0.67,2.91,5.5,5.4,293,290,19.1,38.3,25.7,21.7,18.9,0.049,0.065,0.123,0.23,1,3600.0,920.9,813.9,107.0,900.8,920.9,1202.1,895.0,791.0,104.0,900.8,895.0,1168.3,Tracheophyta; Pinus pinaster Aiton; Eucalyptus L'Hér.; Magnoliopsida; Acacia Mill.
2016,2016-08-08,Leiria,Bombarral,Carvalhal,A8 Km 60 - Sul/Norte (EN8 (EN8) Km 74),39.2849044799805,-9.16205310397678,Desconhecida,37.0,2016-08-08T15:00,30.6,41,15.7,32.3,0.0,0.0,0.0,0.0,0,1018.4,1014.2,0,0,0,0,0.65,2.61,13.0,14.9,304,307,27.4,39.8,27.5,22.7,19.7,0.048,0.08,0.142,0.215,1,3600.0,792.8,696.7,96.2,884.7,792.8,1047.8,841.0,739.0,102.0,884.7,841.0,1111.4,Vitis vinifera L.; Tracheophyta; Magnoliopsida; Eucalyptus L'Hér.; 
2016,2016-08-09,Setúbal,Sines,Sines,MATA MOURISCA (ER120 (ER120) Km 57),37.9516479999489,-8.71219699965583,NC,164.0,2016-08-09T15:00,29.7,42,15.3,30.3,0.0,0.0,0.0,0.0,0,1015.5,996.9,0,0,0,0,0.63,2.43,16.5,20.3,281,290,32.0,41.9,28.8,24.9,20.9,0.04,0.07,0.115,0.142,1,3600.0,751.7,650.1,101.6,825.0,751.7,1048.8,799.0,691.0,108.0,825.0,799.0,1114.8,Magnoliopsida; Tracheophyta; Quercus suber L.; Pinus pinaster Aiton
2016,2016-08-10,Leiria,Caldas da Rainha,Carvalhal Benfeito,Cabreiros (Casal do Valinho),39.4530258178711,-9.06946182250977,Desconhecida,105.0,2016-08-10T17:00,26.0,45,13.2,23.3,0.0,0.0,0.0,0.0,0,1014.2,1002.1,0,0,0,0,0.44,1.85,25.6,34.9,349,352,50.4,33.9,26.7,23.6,20.1,0.043,0.083,0.144,0.232,1,3600.0,441.8,363.4,78.5,746.4,441.8,648.2,518.0,426.0,92.0,746.4,518.0,760.0,Eucalyptus L'Hér.; Magnoliopsida; Tracheophyta
2016,2016-08-10,Leiria,Leiria,Cortes,CORTES,39.7033500840929,-8.78489874945747,Desconhecida,78.0,2016-08-10T22:00,24.5,41,10.4,23.0,0.0,0.0,0.0,0.0,0,1015.6,1006.6,0,0,0,0,0.1,1.81,10.8,24.2,15,25,27.0,25.1,26.5,22.8,19.3,0.048,0.061,0.112,0.222,0,0.0,0.0,0.0,0.0,0.0,0.0,0.0,0.0,0.0,0.0,0.0,0.0,0.0,Tracheophyta; Pinus pinaster Aiton; Eucalyptus L'Hér.; Magnoliopsida; Acacia Mill.; Vitis vinifera L.; Olea europaea L.
2016,2016-08-11,Leiria,Caldas da Rainha,Alvorninha,Ribeira dos amiais (Caçapos),39.3930626085069,-9.02973747253418,Desconhecida,154.0,2016-08-11T00:00,24.1,44,10.9,22.7,0.0,0.0,0.0,0.0,0,1015.6,997.8,0,0,0,0,0.1,1.69,11.5,26.3,32,41,24.8,24.2,26.9,24.0,19.7,0.093,0.166,0.239,0.315,0,0.0,0.0,0.0,0.0,0.0,0.0,0.0,0.0,0.0,0.0,0.0,0.0,0.0,Magnoliopsida; Tracheophyta; Eucalyptus L'Hér.; Vitis vinifera L.
2016,2016-08-11,Leiria,Caldas da Rainha,Carvalhal Benfeito,Santana,39.455577867296,-9.06257724761963,Desconhecida,49.0,2016-08-11T01:00,23.9,47,12.0,22.9,0.0,0.0,0.0,0.0,0,1015.1,1009.4,0,0,0,0,0.09,1.56,11.0,26.2,52,58,23.0,22.4,26.3,24.0,20.4,0.043,0.083,0.144,0.232,0,0.0,0.0,0.0,0.0,0.0,0.0,0.0,0.0,0.0,0.0,0.0,0.0,0.0,Eucalyptus L'Hér.; Magnoliopsida; Tracheophyta
2016,2016-08-11,Leiria,Caldas da Rainha,Vidais,VIDAIS,39.3692207166884,-9.04866600036621,Desconhecida,112.0,2016-08-11T10:00,29.6,31,10.8,28.3,0.0,0.0,0.0,0.0,0,1018.4,1005.6,0,0,0,0,0.53,2.85,14.1,17.9,109,109,38.2,30.5,26.2,24.3,20.0,0.093,0.166,0.239,0.315,1,3600.0,711.2,607.4,103.8,827.8,711.2,977.2,644.0,550.0,94.0,827.8,644.0,884.9,Tracheophyta; Eucalyptus L'Hér.; Magnoliopsida; Olea europaea L.
2016,2016-08-11,Leiria,Leiria,Barreira,Mourã (Charneca da Barreira),39.7091407606337,-8.80694769965278,Desconhecida,129.0,2016-08-11T16:00,32.3,31,12.9,32.0,0.0,0.0,0.0,0.0,0,1017.1,1002.6,0,0,0,0,0.6,3.36,13.8,18.1,332,337,34.9,40.1,27.3,23.1,19.5,0.047,0.061,0.111,0.22,1,3600.0,629.1,541.4,87.7,840.2,629.1,858.3,696.0,599.0,97.0,840.2,696.0,949.6,Tracheophyta; Pinus pinaster Aiton; Eucalyptus L'Hér.; Magnoliopsida; Acacia Mill.
2016,2016-08-11,Leiria,Leiria,Milagres,MILAGRES (Outeiro) - Rua da Padaria,39.7906188964844,-8.80090047193898,Desconhecida,74.0,2016-08-11T16:00,31.7,33,13.3,31.5,0.0,0.0,0.0,0.0,0,1017.1,1008.7,0,0,0,0,0.59,3.15,13.8,18.1,332,337,34.9,39.5,27.2,22.9,19.4,0.048,0.061,0.111,0.221,1,3600.0,629.0,541.3,87.7,842.0,629.0,856.3,696.0,599.0,97.0,842.0,696.0,947.6,Tracheophyta; Pinus pinaster Aiton; Eucalyptus L'Hér.; Magnoliopsida; Acacia Mill.; Olea europaea L.
2016,2016-08-11,Leiria,Alcobaça,Cela,Arieira,39.5385780164931,-9.0619068145752,Desconhecida,79.0,2016-08-11T21:00,24.1,54,14.4,23.6,0.0,0.0,0.0,0.0,0,1018.1,1008.9,0,0,0,0,0.09,1.37,13.3,24.9,3,10,23.8,26.7,28.0,23.9,20.3,0.043,0.082,0.143,0.231,0,0.0,0.0,0.0,0.0,0.0,0.0,0.0,0.0,0.0,0.0,0.0,0.0,0.0,Magnoliopsida; Pinus pinaster Aiton; Tracheophyta; Eucalyptus L'Hér.
2016,2016-08-12,Leiria,Alcobaça,Pataias,Burinhosa (DEPÓSITO DO LOPES),39.7047576904297,-8.98429680724939,Desconhecida,106.0,2016-08-12T03:00,21.3,60,13.2,20.7,0.0,0.0,0.0,0.0,0,1018.1,1005.7,0,0,0,0,0.06,1.02,11.6,17.9,30,34,14.8,21.1,25.4,22.3,19.2,0.048,0.067,0.126,0.233,0,0.0,0.0,0.0,0.0,0.0,0.0,0.0,0.0,0.0,0.0,0.0,0.0,0.0,Pinus pinaster Aiton; Tracheophyta
2016,2016-08-12,Leiria,Alcobaça,Vimeiro,Gaio,39.4862785508898,-9.05252647399902,Desconhecida,110.0,2016-08-12T06:00,21.5,60,13.3,21.3,0.0,0.0,0.0,0.0,0,1019.0,1006.1,0,0,0,0,0.07,1.03,8.6,16.7,92,96,14.4,19.5,26.1,23.7,20.1,0.043,0.082,0.143,0.231,1,0.0,4.0,0.0,4.0,0.0,0.6,38.5,1.0,0.0,1.0,0.0,1.0,9.5,Tracheophyta; Vitis vinifera L.; Magnoliopsida; Eucalyptus L'Hér.; Olea europaea L.; Pinus pinaster Aiton
2016,2016-08-12,Leiria,Alcobaça,Cela,Bica (Ribeira da Mata da Torre),39.5379638671875,-9.06101703643799,Desconhecida,101.0,2016-08-12T07:00,22.0,60,13.9,21.6,0.0,0.0,0.0,0.0,0,1019.3,1007.5,0,0,0,0,0.09,1.05,11.5,18.7,104,113,17.6,20.4,25.9,23.8,20.2,0.043,0.082,0.143,0.231,1,2785.96,147.2,92.2,55.0,412.7,125.3,297.6,83.0,52.0,31.0,351.4,83.0,167.9,Pinus pinaster Aiton; Magnoliopsida; Tracheophyta; Eucalyptus L'Hér.
2016,2016-08-12,Leiria,Marinha Grande,Marinha Grande,(Relvinhas - Casal da Lebre,39.7211838107639,-8.92452338324653,Desconhecida,127.0,2016-08-12T10:00,29.9,27,8.8,28.7,0.0,0.0,0.0,0.0,0,1020.6,1006.1,0,0,0,0,0.51,3.07,9.2,14.3,132,135,21.2,31.0,25.3,22.5,19.1,0.049,0.062,0.116,0.224,1,3600.0,710.9,611.5,99.3,835.9,710.9,974.6,644.0,554.0,90.0,835.9,644.0,882.9,Tracheophyta; Eucalyptus L'Hér.; Magnoliopsida; Pinus pinaster Aiton
2016,2016-08-12,Leiria,Caldas da Rainha,Alvorninha,Pego (Santana),39.3862457275391,-8.98647020128038,Desconhecida,177.0,2016-08-12T10:00,29.9,31,11.0,29.1,0.0,0.0,0.0,0.0,0,1020.7,1000.6,0,0,0,0,0.52,2.9,11.0,13.6,128,127,29.5,31.2,26.5,24.0,19.6,0.093,0.165,0.237,0.315,1,3600.0,711.2,610.7,100.5,833.5,711.2,976.2,644.0,553.0,91.0,833.5,644.0,883.9,Tracheophyta; Eucalyptus L'Hér.; Pinus pinaster Aiton
2016,2016-08-12,Leiria,Leiria,Cortes,Senhor do Monte (Senhora do Monte),39.6917686631944,-8.76023295084635,Desconhecida,259.0,2016-08-12T16:00,29.5,37,13.4,28.8,0.0,0.0,0.0,0.0,0,1019.3,990.0,0,0,0,0,0.57,2.58,16.7,21.2,323,325,36.0,38.1,26.9,22.4,18.7,0.047,0.061,0.11,0.219,1,3600.0,626.6,542.7,84.0,847.7,626.6,852.9,694.0,601.0,93.0,847.7,694.0,944.6,Tracheophyta; Pinus pinaster Aiton; Eucalyptus L'Hér.; Magnoliopsida; Acacia Mill.
2016,2016-08-12,Leiria,Caldas da Rainha,Santa Catarina,Casal da Azenha (SANTA CATARINA),39.4460487196181,-9.01366138458252,Desconhecida,93.0,2016-08-12T20:00,26.5,35,10.0,24.0,0.0,0.0,0.0,0.0,0,1019.1,1008.4,0,0,0,0,0.19,2.24,17.3,30.5,4,7,30.6,29.8,29.6,24.7,20.2,0.093,0.165,0.236,0.314,0,40.35,0.0,0.0,0.0,0.0,0.0,0.0,13.0,6.0,7.0,70.4,13.0,55.2,Eucalyptus L'Hér.; Magnoliopsida; Tracheophyta; Vitis vinifera L.; Pinus pinaster Aiton
2016,2016-08-12,Leiria,Caldas da Rainha,Santa Catarina,Casal da Coita (Vale do Homem),39.4450721571181,-8.99068549262153,Desconhecida,211.0,2016-08-12T23:00,24.4,34,7.6,21.2,0.0,0.0,0.0,0.0,0,1019.7,995.3,0,0,0,0,0.16,2.0,17.1,32.4,15,17,32.4,25.6,28.3,24.0,19.5,0.093,0.165,0.236,0.314,0,0.0,0.0,0.0,0.0,0.0,0.0,0.0,0.0,0.0,0.0,0.0,0.0,0.0,Magnoliopsida; Eucalyptus L'Hér.; Tracheophyta; Vitis vinifera L.
2016,2016-08-13,Leiria,Castanheira de Pêra,Castanheira de Pêra,Gestosa Fundeira (Vale Feitoso),40.0036506652832,-8.20032501220703,Reacendimento,500.0,2016-08-13T00:00,22.4,39,7.9,20.4,0.0,0.0,0.0,0.0,0,1020.4,963.4,0,0,0,0,0.08,1.65,9.8,15.2,6,7,18.7,24.7,27.9,23.9,18.6,0.097,0.142,0.221,0.344,0,0.0,0.0,0.0,0.0,0.0,0.0,0.0,0.0,0.0,0.0,0.0,0.0,0.0,Olea europaea L.; Eucalyptus L'Hér.; Pinus pinaster Aiton; Tracheophyta; Magnoliopsida
2016,2016-08-13,Leiria,Alcobaça,Benedita,algueirão (BENEDITA),39.4246864149306,-8.97971442328559,Reacendimento,206.0,2016-08-13T06:00,22.5,38,7.4,19.7,0.0,0.0,0.0,0.0,0,1019.1,995.2,0,0,0,0,0.15,1.7,14.7,29.4,22,22,27.0,22.8,26.8,24.1,19.5,0.093,0.165,0.236,0.314,1,0.0,4.3,0.0,4.3,0.0,0.5,36.5,1.0,0.0,1.0,0.0,1.0,8.5,Tracheophyta; Magnoliopsida; Pinus pinaster Aiton
2016,2016-08-13,Leiria,Marinha Grande,Marinha Grande,MARINHA GRANDE (Arrife Número Sete),39.7571830919054,-8.95810506184896,Desconhecida,83.0,2016-08-13T09:00,22.4,55,12.8,20.7,0.0,0.0,0.0,,0,1020.0,1010.3,1,1,0,0,0.32,1.23,17.4,24.4,13,19,26.6,20.6,21.7,20.8,19.3,0.012,0.031,0.057,0.097,1,3600.0,539.9,447.6,92.3,765.4,539.9,779.3,462.0,383.0,79.0,765.4,462.0,666.8,Pinus pinaster Aiton; Magnoliopsida
2016,2016-08-13,Leiria,Óbidos,Vau,Vau,39.3558769395616,-9.21470165676541,Desconhecida,47.0,2016-08-13T09:00,26.1,39,11.0,23.5,0.0,0.0,0.0,0.0,0,1019.5,1014.0,0,0,0,0,0.4,2.07,19.4,26.9,18,23,32.4,27.6,26.3,24.1,20.5,0.044,0.083,0.146,0.225,1,3600.0,538.4,444.8,93.6,761.5,538.4,778.4,460.0,380.0,80.0,761.5,460.0,665.0,Magnoliopsida; Vitis vinifera L.; Tracheophyta
2016,2016-08-13,Leiria,Óbidos,Olho Marinho,OLHO MARINHO (Gratas),39.3253822157118,-9.23912811279297,Desconhecida,61.0,2016-08-13T13:00,30.6,29,10.7,29.0,0.0,0.0,0.0,0.0,0,1018.9,1011.9,0,0,0,0,0.78,3.11,24.9,33.4,2,7,42.8,36.2,26.5,23.3,19.8,0.047,0.076,0.137,0.214,1,3600.0,928.6,823.6,105.1,910.5,928.6,1205.5,928.0,823.0,105.0,910.5,928.0,1204.7,Tracheophyta; Magnoliopsida; Eucalyptus L'Hér.
2016,2016-08-13,Leiria,Leiria,Colmeias,Vale da Raposeira (Chã),39.7898025173611,-8.70923807779948,Desconhecida,174.0,2016-08-13T15:00,31.6,27,10.5,30.0,0.0,0.0,0.0,0.0,0,1018.0,998.4,0,0,0,0,0.72,3.37,21.0,28.1,338,341,44.6,37.2,27.5,23.5,19.2,0.075,0.105,0.166,0.275,1,3600.0,776.5,680.7,95.9,887.1,776.5,1022.6,826.0,724.0,102.0,887.1,826.0,1087.8,Tracheophyta; Pinus pinaster Aiton; Eucalyptus L'Hér.; Magnoliopsida; Acacia Mill.
2016,2016-08-13,Leiria,Óbidos,Vau,Vau (Casal dos Graciais),39.3809127807617,-9.22061157226563,Desconhecida,47.0,2016-08-13T15:00,28.2,39,12.9,26.6,0.0,0.0,0.0,0.0,0,1018.0,1012.6,0,0,0,0,0.65,2.34,26.0,34.9,355,359,47.2,37.8,27.7,24.1,20.5,0.044,0.082,0.146,0.225,1,3600.0,784.0,689.0,95.1,890.5,784.0,1031.2,833.0,732.0,101.0,890.5,833.0,1095.6,Eucalyptus L'Hér.; Magnoliopsida
2016,2016-08-13,Leiria,Óbidos,Óbidos (Santa Maria),Casal da Toiça (Casal da Figueira),39.3844795058833,-9.14601516723633,Desconhecida,59.0,2016-08-13T17:00,27.0,41,12.8,23.9,0.0,0.0,0.0,0.0,0,1018.1,1011.3,0,0,0,0,0.47,2.09,27.6,37.6,353,356,48.2,33.1,28.2,24.1,19.9,0.091,0.148,0.216,0.284,1,3600.0,452.2,380.8,71.4,796.3,452.2,637.4,532.0,448.0,84.0,796.3,532.0,749.9,Magnoliopsida; Tracheophyta; Eucalyptus L'Hér.
2016,2016-08-13,Leiria,Nazaré,Famalicão,Raposos (Casal São Bartolomeu),39.5304489135742,-9.06898784637451,Desconhecida,142.0,2016-08-13T22:00,19.7,69,13.9,18.0,0.0,0.0,0.0,0.0,0,1019.3,1002.6,12,5,12,0,0.07,0.71,19.9,33.4,4,7,36.7,22.3,27.3,23.8,20.1,0.042,0.081,0.141,0.23,0,0.0,0.0,0.0,0.0,0.0,0.0,0.0,0.0,0.0,0.0,0.0,0.0,0.0,Tracheophyta; Magnoliopsida; Pinus pinaster Aiton; Eucalyptus L'Hér.
2016,2016-08-13,Leiria,Óbidos,Vau,Quinta da Luz,39.3672485351563,-9.20140265570747,Desconhecida,40.0,2016-08-13T23:00,19.8,72,14.6,17.9,0.0,0.0,0.0,0.0,0,1019.0,1014.3,9,4,9,0,0.07,0.65,23.4,37.1,4,8,39.2,21.9,27.3,24.2,20.6,0.044,0.082,0.145,0.225,0,0.0,0.0,0.0,0.0,0.0,0.0,0.0,0.0,0.0,0.0,0.0,0.0,0.0,Eucalyptus L'Hér.; Magnoliopsida; Tracheophyta; Pinus pinea L.
2016,2016-08-14,Leiria,Nazaré,Famalicão,Raposos (Casal São Bartolomeu),39.5302047729492,-9.07356834411621,Desconhecida,69.0,2016-08-14T03:00,17.9,84,15.2,17.1,0.0,0.0,0.0,0.0,0,1017.8,1009.6,13,7,11,0,0.02,0.32,16.9,27.0,359,1,29.2,19.5,26.6,24.3,20.6,0.042,0.081,0.141,0.23,0,0.0,0.0,0.0,0.0,0.0,0.0,0.0,0.0,0.0,0.0,0.0,0.0,0.0,Eucalyptus L'Hér.; Magnoliopsida; Tracheophyta; Pinus pinaster Aiton
2016,2016-08-14,Leiria,Leiria,Marrazes,Zona industrial da Zicofa (Suinicomércio),39.7684173583984,-8.77632046169705,Desconhecida,156.0,2016-08-14T06:00,15.3,97,14.8,15.1,0.0,0.0,0.0,0.0,0,1018.4,999.8,16,15,5,0,0.01,0.06,12.5,22.4,342,345,21.6,17.2,24.9,22.8,19.1,0.048,0.061,0.108,0.219,1,0.0,4.1,0.0,4.1,0.0,0.6,38.3,1.0,0.0,1.0,0.0,1.0,9.4,Tracheophyta; Pinus pinaster Aiton; Eucalyptus L'Hér.; Magnoliopsida; Acacia Mill.; Pinales
2016,2016-08-14,Leiria,Óbidos,Vau,Quinta da Luz (Quinta do Bom Sucesso),39.3900261094835,-9.23122787475586,Desconhecida,38.0,2016-08-14T09:00,19.9,68,13.9,17.8,0.0,0.0,0.0,0.0,0,1018.5,1014.0,19,3,27,0,0.23,0.73,23.1,29.6,356,357,40.0,23.1,25.3,24.2,20.6,0.044,0.082,0.145,0.225,1,3600.0,400.6,255.3,145.2,439.1,400.6,775.2,342.0,218.0,124.0,439.1,342.0,661.8,Eucalyptus L'Hér.; Tracheophyta; Magnoliopsida
2016,2016-08-14,Leiria,Óbidos,Vau,Estrada da Amoreira para o Vau (Quinta da Luz),39.3625450303819,-9.2042379421658,Desconhecida,50.0,2016-08-14T13:00,23.4,49,12.1,22.6,0.0,0.0,0.0,0.0,0,1018.2,1012.4,2,0,3,0,0.56,1.45,20.6,25.2,344,346,38.9,33.0,25.6,24.1,20.5,0.044,0.082,0.145,0.225,1,3600.0,877.5,728.4,149.1,807.4,877.5,1202.8,877.0,728.0,149.0,807.4,877.0,1202.1,Eucalyptus L'Hér.; Magnoliopsida; Tracheophyta; Pinus pinea L.
2016,2016-08-14,Leiria,Óbidos,Vau,VAU (Casal de São Roque),39.3688316513432,-9.227169986301,Desconhecida,50.0,2016-08-14T18:00,20.9,67,14.4,19.0,0.0,0.0,0.0,0.0,0,1017.6,1011.7,4,4,0,0,0.22,0.82,22.9,29.4,341,341,38.5,29.0,26.4,24.1,20.6,0.043,0.082,0.145,0.225,1,3600.0,247.8,194.3,53.5,674.0,247.8,384.4,329.0,258.0,71.0,674.0,329.0,510.4,Eucalyptus L'Hér.; Pinus pinaster Aiton; Tracheophyta
2016,2016-08-14,Leiria,Nazaré,Famalicão,Raposos,39.5248718261719,-9.06931591033936,Desconhecida,154.0,2016-08-14T23:00,17.0,89,15.1,16.6,0.0,0.0,0.0,0.0,1,1018.2,999.9,33,37,0,0,0.01,0.22,13.7,18.7,337,337,23.0,19.1,25.4,23.8,20.1,0.042,0.08,0.14,0.23,0,0.0,0.0,0.0,0.0,0.0,0.0,0.0,0.0,0.0,0.0,0.0,0.0,0.0,Magnoliopsida; Tracheophyta; Eucalyptus L'Hér.; Pinus pinaster Aiton
2016,2016-08-15,Leiria,Caldas da Rainha,Alvorninha,santana,39.3864517211914,-8.98479173448351,Desconhecida,201.0,2016-08-15T15:00,25.4,46,12.9,25.9,0.0,0.0,0.0,0.0,0,1016.6,993.5,0,0,0,0,0.57,1.75,13.0,15.3,294,294,29.5,34.5,25.5,24.1,19.8,0.093,0.163,0.233,0.313,1,3600.0,779.2,682.4,96.8,890.7,779.2,1021.8,829.0,726.0,103.0,890.7,829.0,1087.1,Tracheophyta; Eucalyptus L'Hér.; Pinus pinaster Aiton
2016,2016-08-15,Leiria,Peniche,Serra D El-rei,SERRA DE EL REI (Quinta do Juncal),39.3320503065321,-9.27896976047092,Desconhecida,96.0,2016-08-15T15:00,22.6,59,14.2,23.5,0.0,0.0,0.0,0.0,0,1016.8,1005.6,0,0,0,0,0.51,1.11,13.4,15.8,297,297,25.9,36.7,25.0,23.6,20.3,0.043,0.086,0.148,0.232,1,3600.0,783.6,685.8,97.8,891.6,783.6,1025.9,833.0,729.0,104.0,891.6,833.0,1090.6,Tracheophyta; Pinus pinea L.; Magnoliopsida
2016,2016-08-15,Leiria,Óbidos,Vau,Vau (Quinta do Bom Sucesso),39.3900261094835,-9.23122787475586,Desconhecida,38.0,2016-08-15T17:00,22.2,62,14.5,21.3,0.0,0.0,0.0,0.0,0,1016.6,1012.1,4,4,0,0,0.33,1.02,15.9,20.0,308,309,30.2,33.6,26.0,24.1,20.7,0.043,0.081,0.144,0.224,1,3600.0,449.3,375.5,73.7,796.9,449.3,628.5,530.0,443.0,87.0,796.9,530.0,741.5,Eucalyptus L'Hér.; Tracheophyta; Magnoliopsida
2016,2016-08-15,Leiria,Leiria,Marrazes,ZICOFA -COVA DA FAIAS - MARRAZES (Suinicomércio),39.7693481445313,-8.77689459906684,Desconhecida,152.0,2016-08-15T21:00,17.1,83,14.2,17.1,0.0,0.0,0.0,0.0,0,1017.4,999.4,0,0,0,0,0.01,0.33,9.2,15.9,339,342,21.6,20.9,24.5,22.7,19.2,0.047,0.061,0.107,0.218,0,0.0,0.0,0.0,0.0,0.0,0.0,0.0,0.0,0.0,0.0,0.0,0.0,0.0,Tracheophyta; Pinus pinaster Aiton; Eucalyptus L'Hér.; Magnoliopsida; Acacia Mill.; Pinales
2016,2016-08-16,Leiria,Óbidos,Vau,VAU (Quinta da Luz),39.3671798705392,-9.20117282443576,Desconhecida,40.0,2016-08-16T00:00,17.4,88,15.5,18.1,0.0,0.0,0.0,0.0,0,1016.9,1012.1,4,4,0,0,0.0,0.23,8.3,14.0,326,331,12.6,18.7,25.3,24.1,20.7,0.043,0.081,0.144,0.224,0,0.0,0.0,0.0,0.0,0.0,0.0,0.0,0.0,0.0,0.0,0.0,0.0,0.0,Eucalyptus L'Hér.; Magnoliopsida; Tracheophyta; Pinus pinea L.
2016,2016-08-16,Leiria,Nazaré,Famalicão,Raposos (Casal São Bartolomeu),39.529655456543,-9.07260799831814,Desconhecida,93.0,2016-08-16T07:00,16.4,88,14.4,16.6,0.0,0.0,0.0,0.0,2,1017.0,1005.9,55,61,0,0,0.03,0.23,9.2,11.4,349,347,18.4,16.9,23.8,24.0,20.5,0.042,0.08,0.139,0.23,1,2574.73,109.3,57.4,51.9,269.9,88.0,283.9,59.0,31.0,28.0,217.2,59.0,153.2,Eucalyptus L'Hér.; Magnoliopsida; Tracheophyta; Pinus pinaster Aiton
2016,2016-08-16,Leiria,Óbidos,Vau,Quinta da Luz,39.3673438855675,-9.20092773444123,Desconhecida,40.0,2016-08-16T14:00,23.1,56,13.8,24.0,0.0,0.0,0.0,0.0,0,1017.1,1012.4,20,0,0,65,0.56,1.25,15.0,17.9,316,320,30.6,35.4,24.7,24.0,20.8,0.043,0.081,0.144,0.224,1,3600.0,876.3,772.4,104.0,903.4,876.3,1140.7,902.0,795.0,107.0,903.4,902.0,1174.2,Eucalyptus L'Hér.; Magnoliopsida; Tracheophyta; Pinus pinea L.
2016,2016-08-16,Leiria,Alcobaça,Benedita,Algarão (Cabeço da Mata),39.4225311279297,-8.98791029188368,Desconhecida,171.0,2016-08-16T16:00,23.4,51,12.6,22.2,0.0,0.0,0.0,0.0,1,1016.6,996.8,28,0,0,94,0.46,1.42,18.7,22.8,320,321,38.9,31.7,25.2,24.2,20.1,0.093,0.163,0.232,0.313,1,3600.0,617.9,531.4,86.5,843.1,617.9,841.0,686.0,590.0,96.0,843.1,686.0,933.7,Magnoliopsida; Tracheophyta; Olea europaea L.; Eucalyptus L'Hér.; Pinus pinaster Aiton
2016,2016-08-17,Leiria,Alcobaça,Vimeiro,Sortão (VIMEIRO),39.4748497178819,-9.01634883880615,Desconhecida,106.0,2016-08-17T16:00,23.0,71,17.5,22.6,0.0,0.0,0.0,0.0,1,1017.0,1004.7,35,39,0,0,0.33,0.82,21.4,26.9,327,328,42.1,30.0,24.8,24.1,20.4,0.086,0.136,0.2,0.287,1,3600.0,477.1,305.1,171.9,486.8,477.1,836.7,530.0,339.0,191.0,486.8,530.0,929.5,Tracheophyta; Vitis vinifera L.; Olea europaea L.; Magnoliopsida
2016,2016-08-17,Leiria,Leiria,Leiria,Rua Paulo VI,39.7491798231337,-8.80283162434896,Desconhecida,33.0,2016-08-17T23:00,17.0,86,14.7,15.6,0.0,0.0,0.0,0.0,0,1017.6,1013.7,9,4,0,19,0.02,0.26,20.0,27.2,342,342,31.3,18.7,23.0,22.5,19.7,0.051,0.062,0.114,0.224,0,0.0,0.0,0.0,0.0,0.0,0.0,0.0,0.0,0.0,0.0,0.0,0.0,0.0,Tracheophyta; Pinus pinaster Aiton; Eucalyptus L'Hér.; Magnoliopsida; Acacia Mill.; 
2016,2016-08-18,Leiria,Leiria,Monte Redondo,GROU,39.9329566786024,-8.85801032172309,Desconhecida,58.0,2016-08-18T02:00,16.5,87,14.4,16.1,0.0,0.0,0.0,0.0,0,1016.3,1009.4,4,3,0,5,0.01,0.24,12.9,22.3,337,339,22.3,17.4,22.1,22.1,19.4,0.053,0.066,0.12,0.233,0,0.0,0.0,0.0,0.0,0.0,0.0,0.0,0.0,0.0,0.0,0.0,0.0,0.0,Tracheophyta; Pinus pinaster Aiton; Eucalyptus L'Hér.; Magnoliopsida; Acacia Mill.
2016,2016-08-18,Leiria,Peniche,Serra D El-rei,SERRA DE EL REI (Quinta do Juncal),39.3320503065321,-9.27896976047092,Desconhecida,96.0,2016-08-18T02:00,17.5,82,14.4,16.1,0.0,0.0,0.0,0.0,0,1016.4,1005.0,4,4,0,0,0.03,0.35,19.0,27.9,345,346,29.9,18.1,23.5,23.3,20.5,0.047,0.085,0.147,0.232,0,0.0,0.0,0.0,0.0,0.0,0.0,0.0,0.0,0.0,0.0,0.0,0.0,0.0,Tracheophyta; Pinus pinea L.; Magnoliopsida
2016,2016-08-18,Leiria,Leiria,Milagres,MILAGRES (Casal dos Olhinhos),39.7982253689236,-8.78915785047743,Desconhecida,125.0,2016-08-18T13:00,24.1,49,12.7,24.8,0.0,0.0,0.0,0.0,0,1014.3,999.9,2,0,0,7,0.59,1.54,14.3,17.3,315,317,35.6,32.0,22.6,22.6,19.5,0.05,0.06,0.106,0.217,1,3600.0,898.5,790.5,107.9,890.3,898.5,1185.6,899.0,791.0,108.0,890.3,899.0,1186.3,Tracheophyta; Pinus pinaster Aiton; Eucalyptus L'Hér.; Magnoliopsida; Acacia Mill.; Olea europaea L.
2016,2016-08-18,Leiria,Pombal,Santiago de Litém,Cubo (Casal Novo),39.8270644802517,-8.56017303466797,Reacendimento,251.0,2016-08-18T13:00,25.9,41,11.6,26.4,0.0,0.0,0.0,0.0,0,1013.7,985.1,2,0,0,7,0.63,1.98,12.7,15.8,313,315,33.1,31.1,23.3,23.6,19.5,0.098,0.138,0.204,0.314,1,3600.0,898.0,792.1,105.9,892.5,898.0,1185.2,899.0,793.0,106.0,892.5,899.0,1186.4,Eucalyptus L'Hér.; Pinus pinaster Aiton; Tracheophyta; Magnoliopsida
2016,2016-08-18,Leiria,Leiria,Milagres,MILAGRES (Destapada),39.7931671142578,-8.78906724717882,Desconhecida,95.0,2016-08-18T17:00,22.6,49,11.3,20.4,0.0,0.0,0.0,0.0,0,1013.4,1002.4,1,0,0,3,0.35,1.4,17.6,22.1,314,316,40.3,30.1,23.7,22.7,19.8,0.05,0.06,0.105,0.217,1,3600.0,420.4,348.8,71.6,767.4,420.4,606.9,499.0,414.0,85.0,767.4,499.0,720.4,Tracheophyta; Pinus pinaster Aiton; Eucalyptus L'Hér.; Magnoliopsida; Acacia Mill.; Olea europaea L.
2016,2016-08-19,Leiria,Leiria,Milagres,Rua dos Olhinhos (Casal do Pilha),39.7961235215929,-8.78343967027962,Reacendimento,125.0,2016-08-19T15:00,24.5,71,19.0,25.6,0.0,0.0,0.0,0.0,3,1014.5,1000.1,85,94,1,0,0.38,0.89,16.4,21.1,279,278,35.6,29.8,22.7,22.4,19.6,0.054,0.06,0.105,0.217,1,3600.0,537.5,332.1,205.4,442.8,537.5,1001.8,573.0,354.0,219.0,442.8,573.0,1067.9,Tracheophyta; Pinus pinaster Aiton; Eucalyptus L'Hér.; Magnoliopsida; Acacia Mill.; Olea europaea L.
2016,2016-08-21,Leiria,Caldas da Rainha,Caldas da Rainha (Nossa Senhora do Pópulo),Casal de São Cristóvão (R.I.5),39.3870277235243,-9.1364603000217,Desconhecida,53.0,2016-08-21T10:00,22.8,58,14.0,22.0,0.0,0.0,0.0,0.0,0,1020.6,1014.4,0,0,0,0,0.4,1.18,17.7,21.6,2,4,35.3,24.9,22.3,23.2,20.5,0.096,0.146,0.211,0.282,1,3600.0,695.0,593.0,102.0,833.5,695.0,951.2,627.0,535.0,92.0,833.5,627.0,858.1,Magnoliopsida; Vitis vinifera L.; Tracheophyta; Eucalyptus L'Hér.
2016,2016-08-22,Leiria,Leiria,Milagres,MILAGRES (Quintas),39.788551296658,-8.78860188802083,Desconhecida,76.0,2016-08-22T10:00,28.3,42,14.1,29.3,0.0,0.0,0.0,0.0,0,1019.8,1011.1,0,0,0,0,0.45,2.25,5.9,7.9,191,177,20.2,30.2,22.8,22.4,20.0,0.051,0.06,0.104,0.215,1,3600.0,692.2,591.4,100.8,833.3,692.2,949.2,625.0,534.0,91.0,833.3,625.0,857.1,Tracheophyta; Pinus pinaster Aiton; Eucalyptus L'Hér.; Magnoliopsida; Acacia Mill.; Olea europaea L.
2016,2016-08-22,Leiria,Leiria,Leiria,Rua Paulo VI (Ourivesaria Karatt),39.7491798231337,-8.80283162434896,Desconhecida,33.0,2016-08-22T13:00,29.4,46,16.5,32.2,0.0,0.0,0.0,0.0,0,1019.2,1015.4,0,0,0,0,0.66,2.22,9.4,8.4,288,263,19.4,37.1,23.4,22.1,19.9,0.051,0.062,0.112,0.222,1,3600.0,896.2,793.3,102.9,903.9,896.2,1173.8,897.0,794.0,103.0,903.9,897.0,1174.8,Tracheophyta; Pinus pinaster Aiton; Eucalyptus L'Hér.; Magnoliopsida; Acacia Mill.; 
2016,2016-08-23,Leiria,Caldas da Rainha,São Gregório,Casais da Paraventa (Charneca de São Gregório),39.3378524780273,-9.02853775024414,Desconhecida,178.0,2016-08-23T02:00,19.6,75,15.0,19.9,0.0,0.0,0.0,0.0,0,1017.9,997.0,0,0,0,0,0.02,0.58,9.7,19.9,345,356,16.6,21.4,26.0,23.8,20.8,0.088,0.16,0.225,0.302,0,0.0,0.0,0.0,0.0,0.0,0.0,0.0,0.0,0.0,0.0,0.0,0.0,0.0,Eucalyptus L'Hér.; Tracheophyta; Magnoliopsida
2016,2016-08-23,Leiria,Caldas da Rainha,Vidais,Casais da Paraventa - Charneca de S. Gregório,39.3378601074219,-9.01799774169922,Desconhecida,183.0,2016-08-23T16:00,28.3,41,13.8,26.8,0.0,0.0,0.0,0.0,0,1016.7,995.9,8,0,0,27,0.53,2.27,21.7,28.5,345,347,40.7,35.1,26.8,23.8,20.7,0.088,0.159,0.224,0.301,1,3600.0,560.9,427.4,133.5,704.0,560.9,812.3,626.0,477.0,149.0,704.0,626.0,906.6,Eucalyptus L'Hér.; Tracheophyta; Magnoliopsida
2016,2016-08-24,Leiria,Óbidos,Olho Marinho,Barroca - Olho Marinho (Costa),39.3274116346571,-9.23981952243381,Desconhecida,67.0,2016-08-24T20:00,19.5,80,16.1,18.6,0.0,0.0,0.0,0.0,0,1014.1,1006.2,1,1,0,0,0.06,0.44,20.8,30.4,351,354,34.9,23.1,24.9,22.7,20.4,0.049,0.071,0.13,0.21,0,0.0,0.0,0.0,0.0,0.0,0.0,0.0,2.0,1.0,1.0,16.5,2.0,22.5,Tracheophyta; Magnoliopsida; Eucalyptus L'Hér.
2016,2016-08-25,Leiria,Leiria,Marrazes,Cova das Faias (Vitifabri),39.7669448513455,-8.77713297526042,Desconhecida,133.0,2016-08-25T06:00,16.2,99,16.1,16.9,0.0,0.0,0.0,0.0,3,1013.7,997.9,85,94,0,0,0.0,0.02,9.9,13.9,327,329,13.0,17.5,23.3,22.2,19.8,0.05,0.06,0.102,0.214,1,0.0,0.0,0.0,0.0,0.0,0.0,0.0,0.0,0.0,0.0,0.0,0.0,0.0,Tracheophyta; Pinus pinaster Aiton; Eucalyptus L'Hér.; Magnoliopsida; Acacia Mill.; Pinales
2016,2016-08-25,Leiria,Leiria,Pousos,Av Paulo VI (Edifício Milénio),39.7505420000023,-8.78990500026279,Desconhecida,120.0,2016-08-25T18:00,22.0,71,16.5,21.1,0.0,0.0,0.0,0.0,1,1013.3,999.3,22,16,7,13,0.19,0.76,21.4,29.2,335,338,41.0,28.3,24.6,22.3,19.9,0.05,0.06,0.101,0.213,1,3600.0,186.6,133.9,52.7,564.8,186.6,317.6,262.0,188.0,74.0,564.8,262.0,445.8,Tracheophyta; Pinus pinaster Aiton; Eucalyptus L'Hér.; Magnoliopsida; Acacia Mill.; Pinales
2016,2016-08-26,Leiria,Figueiró dos Vinhos,Aguda,Moninhos Cimeiros,39.9447222222222,-8.27805555555556,Natural,442.0,2016-08-26T10:00,27.4,47,15.2,28.5,0.0,0.0,0.0,0.0,0,1014.0,964.5,5,0,8,0,0.42,1.92,5.9,8.0,128,126,16.6,27.6,24.6,23.6,19.9,0.151,0.15,0.188,0.329,1,3600.0,644.5,530.4,114.1,755.3,644.5,940.8,582.0,479.0,103.0,755.3,582.0,849.6,Eucalyptus L'Hér.; Pinus pinaster Aiton; Magnoliopsida
2016,2016-08-26,Leiria,Pedrógão Grande,Pedrógão Grande,Rua Cabeça São Joao (Ouzenda),39.9635887315538,-8.13502311706543,Desconhecida,422.0,2016-08-26T14:00,32.1,34,14.4,34.8,0.5,0.5,0.0,0.0,53,1012.6,966.1,4,0,7,0,0.62,3.15,3.9,4.6,236,225,28.1,36.9,27.7,24.9,20.8,0.127,0.151,0.186,0.329,1,3600.0,793.9,681.7,112.2,836.0,793.9,1092.5,821.0,705.0,116.0,836.0,821.0,1129.9,Pinus pinaster Aiton; Olea europaea L.; Eucalyptus L'Hér.; Magnoliopsida
2016,2016-08-26,Leiria,Óbidos,Olho Marinho,Casais da Arruda (Talhos da Rainha),39.3447265625,-9.23579311794705,Desconhecida,85.0,2016-08-26T16:00,24.6,64,17.3,25.2,0.0,0.0,0.0,0.0,0,1013.0,1003.2,13,14,0,0,0.42,1.12,16.4,20.2,334,338,34.6,32.2,24.3,22.6,20.4,0.052,0.071,0.128,0.21,1,3600.0,568.5,476.4,92.1,798.6,568.5,799.3,636.0,533.0,103.0,798.6,636.0,894.3,Magnoliopsida; Eucalyptus L'Hér.; Tracheophyta; Pinus pinaster Aiton
2016,2016-08-26,Leiria,Pombal,Meirinhas,A1 N/S Km 143 (Vale de São Francisco),39.8554534912109,-8.71302320692274,Desconhecida,167.0,2016-08-26T19:00,21.7,74,16.8,22.3,0.0,0.0,0.0,0.0,0,1014.0,994.6,0,0,0,0,0.08,0.68,12.5,18.1,314,319,27.0,25.9,25.2,22.6,20.0,0.094,0.059,0.094,0.211,1,2916.27,20.7,11.3,9.5,129.5,18.2,47.1,79.0,43.0,36.0,281.5,79.0,179.5,Tracheophyta; Magnoliopsida; Eucalyptus L'Hér.; Pinales; Pinus pinaster Aiton
2016,2016-08-26,Leiria,Ansião,Pousaflores,Bairrada (Forno do Serrano),39.8670654297206,-8.45946787516276,Desconhecida,213.0,2016-08-26T22:00,19.9,85,17.3,21.4,0.0,0.0,0.0,0.0,0,1015.1,990.3,9,2,0,25,0.0,0.34,7.8,13.8,326,340,18.7,23.7,26.4,23.9,20.5,0.147,0.14,0.199,0.325,0,0.0,0.0,0.0,0.0,0.0,0.0,0.0,0.0,0.0,0.0,0.0,0.0,0.0,Pinus pinaster Aiton; Acacia Mill.; Tracheophyta; Magnoliopsida; Eucalyptus L'Hér.; Olea europaea L.
2016,2016-08-27,Leiria,Leiria,Leiria,Av Paulo VI - Leiria (Ourivesaria Karatt),39.7491798231337,-8.80283162434896,Desconhecida,33.0,2016-08-27T03:00,17.1,98,16.8,17.8,0.0,0.0,0.0,0.0,3,1015.7,1011.8,90,100,0,0,0.0,0.03,11.0,14.3,349,350,15.8,18.5,22.9,22.2,20.1,0.088,0.061,0.11,0.22,0,0.0,0.0,0.0,0.0,0.0,0.0,0.0,0.0,0.0,0.0,0.0,0.0,0.0,Tracheophyta; Pinus pinaster Aiton; Eucalyptus L'Hér.; Magnoliopsida; Acacia Mill.; 
2016,2016-08-28,Leiria,Caldas da Rainha,Landal,Casais dos Rostos (Quinta Nova),39.3064575195313,-9.01190567016602,Desconhecida,85.0,2016-08-28T01:00,17.7,75,13.3,16.4,0.0,0.0,0.0,0.0,0,1019.2,1009.1,0,0,0,0,0.04,0.5,16.5,29.4,344,349,30.2,20.2,25.7,24.7,21.6,0.092,0.158,0.221,0.3,0,0.0,0.0,0.0,0.0,0.0,0.0,0.0,0.0,0.0,0.0,0.0,0.0,0.0,Eucalyptus L'Hér.; Tracheophyta; Magnoliopsida
2016,2016-08-28,Leiria,Caldas da Rainha,Landal,Grangeiros (Rio da Sanguinheira),39.3069839477539,-9.02157497406006,Desconhecida,93.0,2016-08-28T03:00,17.3,81,14.0,16.3,0.0,0.0,0.0,0.0,0,1018.8,1007.7,1,1,0,0,0.02,0.37,15.5,28.4,347,351,28.4,19.3,25.1,24.6,21.6,0.092,0.158,0.221,0.3,0,0.0,0.0,0.0,0.0,0.0,0.0,0.0,0.0,0.0,0.0,0.0,0.0,0.0,Magnoliopsida; Tracheophyta; Eucalyptus L'Hér.
2016,2016-08-29,Leiria,Nazaré,Nazaré,Légua (Vale Fundo),39.6346816677517,-9.07580757141113,Desconhecida,47.0,2016-08-29T11:00,20.9,69,15.0,20.2,0.0,0.0,0.0,0.0,0,1021.9,1016.3,0,0,0,0,0.41,0.76,22.9,27.2,344,345,36.4,25.9,21.6,22.2,20.5,0.061,0.063,0.117,0.225,1,3600.0,799.7,692.2,107.6,870.8,799.7,1066.4,751.0,650.0,101.0,870.8,751.0,1001.4,Pinus pinaster Aiton; Magnoliopsida
2016,2016-08-29,Leiria,Óbidos,Óbidos (Santa Maria),Lagoa de Óbidos (Charneca),39.4010467530621,-9.19486809624566,Desconhecida,33.0,2016-08-29T14:00,22.5,60,14.2,21.6,0.0,0.0,0.0,0.0,0,1021.1,1017.2,2,2,0,0,0.51,1.1,25.5,31.7,344,345,43.9,32.2,23.5,23.4,21.5,0.046,0.076,0.137,0.221,1,3600.0,842.2,741.6,100.7,910.7,842.2,1092.5,870.0,766.0,104.0,910.7,870.0,1128.5,Tracheophyta; Eucalyptus L'Hér.; Magnoliopsida; Pinus pinaster Aiton
2016,2016-08-30,Leiria,Peniche,Serra D El-rei,serra del rei (Talhos da Charneca),39.3566627332899,-9.27907275729709,Desconhecida,85.0,2016-08-30T21:00,18.1,93,16.9,16.8,0.0,0.0,0.0,0.0,0,1019.3,1009.2,20,22,0,0,0.01,0.15,25.6,37.4,343,344,42.1,20.1,22.9,22.3,20.5,0.048,0.07,0.126,0.209,0,0.0,0.0,0.0,0.0,0.0,0.0,0.0,0.0,0.0,0.0,0.0,0.0,0.0,Eucalyptus L'Hér.; Pinus pinaster Aiton
2016,2016-08-31,Leiria,Marinha Grande,Marinha Grande,Avª da liberdade (MARINHA GRANDE),39.7390479871962,-8.92864230685764,Desconhecida,99.0,2016-08-31T18:00,20.8,74,15.9,19.4,0.0,0.0,0.0,0.0,1,1018.4,1006.8,31,1,0,99,0.16,0.65,24.1,32.4,338,341,39.6,25.5,22.8,21.9,20.2,0.057,0.06,0.105,0.214,1,3600.0,138.4,61.7,76.7,293.7,138.4,281.9,202.0,90.0,112.0,293.7,202.0,411.5,Magnoliopsida; Tracheophyta; Pinus pinaster Aiton
2016,2016-09-01,Leiria,Castanheira de Pêra,Castanheira de Pêra,Balsa,39.9581069607205,-8.21993255615234,Desconhecida,413.0,2016-09-01T20:00,23.6,64,16.5,25.1,0.0,0.0,0.0,0.0,0,1019.7,972.6,2,0,4,0,0.02,1.04,5.6,10.6,315,325,15.1,27.3,26.6,23.8,20.6,0.104,0.137,0.201,0.329,0,0.0,0.0,0.0,0.0,0.0,0.0,0.0,0.0,0.0,0.0,0.0,0.0,0.0,Tracheophyta; Magnoliopsida; Eucalyptus L'Hér.; Pinus pinaster Aiton; Olea europaea L.
2016,2016-09-02,Leiria,Óbidos,A Dos Negros,A DOS NEGROS (Casais da Quinta do Carvalhedo),39.3505134413971,-9.09380722045898,Desconhecida,41.0,2016-09-02T11:00,24.4,67,17.9,26.3,0.0,0.0,0.0,0.0,0,1019.9,1015.1,1,1,0,0,0.44,1.0,11.4,13.9,347,350,27.4,27.7,23.1,22.9,21.1,0.093,0.142,0.203,0.279,1,3600.0,718.3,558.5,159.9,711.3,718.3,1055.3,674.0,524.0,150.0,711.3,674.0,990.2,Vitis vinifera L.; Eucalyptus L'Hér.; Tracheophyta; Magnoliopsida
2016,2016-09-03,Leiria,Caldas da Rainha,Alvorninha,CHÃOS - Alvorninha (Escorial),39.3985443115234,-9.04346656799316,Desconhecida,112.0,2016-09-03T14:00,30.5,46,17.7,32.9,0.0,0.0,0.0,0.0,1,1017.6,1004.9,25,1,0,80,0.62,2.34,11.6,13.2,334,338,27.0,37.5,25.5,23.5,21.4,0.094,0.158,0.22,0.308,1,3600.0,775.8,634.8,141.1,798.5,775.8,1069.1,803.0,657.0,146.0,798.5,803.0,1106.6,Magnoliopsida; Vitis vinifera L.; Tracheophyta; Eucalyptus L'Hér.
2016,2016-09-04,Leiria,Leiria,Marrazes,Cova das Faias (Estrada das Moitas Altas),39.7727470567491,-8.77840521918403,Desconhecida,144.0,2016-09-04T04:00,15.8,96,15.2,16.3,0.0,0.0,0.0,0.0,0,1017.9,1000.7,2,2,0,1,0.0,0.07,8.3,13.0,18,28,10.8,17.0,23.2,21.8,20.1,0.05,0.06,0.098,0.209,0,0.0,0.0,0.0,0.0,0.0,0.0,0.0,0.0,0.0,0.0,0.0,0.0,0.0,Tracheophyta; Pinus pinaster Aiton; Eucalyptus L'Hér.; Magnoliopsida; Acacia Mill.
2016,2016-09-04,Leiria,Óbidos,Olho Marinho,Urbanização do Penedo (Serra del Rei),39.3304176161024,-9.26228713989258,Desconhecida,135.0,2016-09-04T16:00,25.0,55,15.2,24.2,0.0,0.0,0.0,0.0,0,1019.0,1003.4,0,0,0,0,0.42,1.43,18.8,24.9,356,2,35.3,34.7,24.8,22.5,21.0,0.042,0.078,0.138,0.226,1,3600.0,534.0,453.4,80.6,811.4,534.0,751.9,603.0,512.0,91.0,811.4,603.0,849.0,Magnoliopsida; Tracheophyta; Eucalyptus L'Hér.; Pinus pinea L.
2016,2016-09-04,Leiria,Leiria,Leiria,ZI Zicofa (Ourivesaria Karatt),39.7491798231337,-8.80283162434896,Desconhecida,33.0,2016-09-04T20:00,22.0,62,14.3,20.9,0.0,0.0,0.0,0.0,0,1019.5,1015.6,1,1,0,0,0.08,1.01,17.3,28.4,2,8,26.3,24.8,24.3,21.9,20.4,0.05,0.061,0.106,0.216,0,0.0,0.0,0.0,0.0,0.0,0.0,0.0,0.0,0.0,0.0,0.0,0.0,0.0,Tracheophyta; Pinus pinaster Aiton; Eucalyptus L'Hér.; Magnoliopsida; Acacia Mill.; 
2016,2016-09-06,Leiria,Bombarral,Vale Covo,ESTORNINHO (Vale Pato),39.2489624023438,-9.16762637668186,Desconhecida,58.0,2016-09-06T21:00,22.9,71,17.3,24.3,0.0,0.0,0.0,0.0,1,1015.4,1008.6,23,0,0,76,0.03,0.82,8.0,13.7,352,3,15.5,26.6,28.4,24.1,21.6,0.08,0.148,0.21,0.287,0,0.0,0.0,0.0,0.0,0.0,0.0,0.0,0.0,0.0,0.0,0.0,0.0,0.0,Magnoliopsida; Vitis vinifera L.; Tracheophyta
2016,2016-09-07,Leiria,Caldas da Rainha,Vidais,VIDAIS (Forno da Cal),39.3737525770399,-9.04673671722412,Desconhecida,143.0,2016-09-07T02:00,19.5,89,17.7,21.2,0.0,0.0,0.0,0.0,1,1014.4,997.6,27,0,0,91,0.0,0.24,7.2,13.9,333,343,11.5,21.9,27.3,24.0,21.4,0.093,0.157,0.217,0.307,0,0.0,0.0,0.0,0.0,0.0,0.0,0.0,0.0,0.0,0.0,0.0,0.0,0.0,Eucalyptus L'Hér.; Tracheophyta; Magnoliopsida; Olea europaea L.
2016,2016-09-08,Leiria,Caldas da Rainha,Nadadouro,NADADOURO (Corujeira),39.4346160888672,-9.18606662326389,Desconhecida,51.0,2016-09-08T16:00,20.6,57,11.9,17.2,0.0,0.0,0.0,0.0,0,1019.8,1013.8,0,0,0,0,0.37,1.04,29.3,38.6,341,342,51.1,29.0,24.4,23.6,21.7,0.044,0.072,0.131,0.218,1,3600.0,533.8,453.6,80.2,842.2,533.8,726.2,606.0,515.0,91.0,842.2,606.0,824.4,Eucalyptus L'Hér.; Pinus pinaster Aiton; Tracheophyta; Magnoliopsida
2016,2016-09-09,Leiria,Pombal,Pombal,Rua da Atalaia - Urb. Verde Sol,39.9103698730469,-8.62780951605903,Desconhecida,82.0,2016-09-09T15:00,24.1,51,13.5,22.6,0.0,0.0,0.0,0.0,0,1018.3,1008.8,0,0,0,0,0.49,1.46,23.3,30.5,322,325,45.0,31.2,23.1,23.0,20.8,0.049,0.059,0.088,0.206,1,3600.0,667.8,576.1,91.7,865.5,667.8,897.9,721.0,622.0,99.0,865.5,721.0,969.4,Tracheophyta; Magnoliopsida
2016,2016-03-30,Leiria,Óbidos,Olho Marinho,Olho Marinho (Gratas),39.3262405395508,-9.24546240912543,Desconhecida,127.0,2016-03-30T12:00,14.9,66,8.5,11.5,0.0,0.0,0.0,0.0,2,1011.3,996.2,59,39,0,80,0.29,0.58,21.8,27.2,202,204,38.2,16.3,13.2,13.0,13.2,0.194,0.212,0.227,0.202,1,3600.0,614.3,306.1,308.2,380.7,614.3,1103.1,594.0,296.0,298.0,380.7,594.0,1066.7,Magnoliopsida; Tracheophyta; Eucalyptus L'Hér.
2016,2016-09-09,Leiria,Óbidos,Olho Marinho,Barrocas (Costa),39.3274345567491,-9.23898983425564,Desconhecida,56.0,2016-09-09T19:00,19.7,86,17.2,19.4,0.0,0.0,0.0,0.0,0,1018.8,1012.2,1,1,0,0,0.04,0.33,19.3,29.7,336,337,36.7,23.1,23.2,22.9,21.1,0.047,0.067,0.121,0.206,0,1701.05,0.0,0.0,0.0,0.0,0.0,0.0,42.0,24.0,18.0,199.7,42.0,103.4,Tracheophyta; Magnoliopsida; Eucalyptus L'Hér.
2016,2016-09-10,Leiria,Leiria,Monte Redondo,MONTE REDONDO,39.892112765842,-8.84748270670573,Desconhecida,10.0,2016-09-10T02:00,17.4,99,17.2,18.2,0.0,0.0,0.0,0.0,2,1019.1,1017.9,80,77,0,34,0.0,0.02,12.0,21.4,344,347,21.2,18.3,22.8,22.9,21.1,0.049,0.06,0.095,0.209,0,0.0,0.0,0.0,0.0,0.0,0.0,0.0,0.0,0.0,0.0,0.0,0.0,0.0,Tracheophyta; Pinus pinaster Aiton; Eucalyptus L'Hér.; Magnoliopsida; Acacia Mill.
2016,2016-09-10,Leiria,Bombarral,Roliça,Columbeira (Vale de São Brás),39.3057212999132,-9.17712878757053,Desconhecida,65.0,2016-09-10T22:00,19.4,95,18.6,20.5,0.0,0.0,0.0,0.0,1,1018.6,1010.9,39,43,0,0,0.0,0.1,14.1,23.0,347,351,29.2,20.7,23.2,22.7,21.0,0.047,0.067,0.121,0.206,0,0.0,0.0,0.0,0.0,0.0,0.0,0.0,0.0,0.0,0.0,0.0,0.0,0.0,Magnoliopsida; Tracheophyta; Eucalyptus L'Hér.; Vitis vinifera L.; Pinales; Pinus pinaster Aiton; 
2016,2016-09-11,Leiria,Leiria,Caranguejeira,Vale da Loba (Vale da Erva),39.7524681260851,-8.68248175726997,Desconhecida,199.0,2016-09-11T10:00,21.8,75,17.1,23.2,0.0,0.0,0.0,0.0,0,1016.8,993.7,20,14,0,23,0.3,0.66,8.3,10.0,326,330,25.9,24.7,22.1,22.6,20.5,0.076,0.102,0.148,0.261,1,3600.0,541.3,360.5,180.8,551.0,541.3,883.4,485.0,323.0,162.0,551.0,485.0,791.5,Tracheophyta; Pinus pinaster Aiton; Eucalyptus L'Hér.; Magnoliopsida; Acacia Mill.
2016,2016-09-12,Leiria,Figueiró Dos Vinhos,Aguda,Fato (Sobralinho),39.9306907823351,-8.32687757703993,Desconhecida,440.0,2016-09-12T12:00,28.3,39,12.8,29.0,0.0,0.0,0.0,0.0,0,1012.3,963.3,1,0,0,2,0.59,2.36,10.2,12.9,238,234,30.6,32.2,23.8,23.7,21.0,0.108,0.149,0.179,0.317,1,3600.0,808.5,705.8,102.7,879.8,808.5,1083.8,787.0,687.0,100.0,879.8,787.0,1055.0,Magnoliopsida; Pinus pinaster Aiton; Eucalyptus L'Hér.; Tracheophyta; Olea europaea L.
2016,2016-09-13,Leiria,Óbidos,Vau,Quinta Nova (Poça do Vau),39.3727569580078,-9.2093448554145,Desconhecida,2.0,2016-09-13T00:00,20.3,91,18.8,20.4,0.3,0.3,0.0,0.0,51,1011.6,1011.4,59,30,7,94,0.01,0.2,21.5,32.1,218,222,35.3,21.6,24.7,23.6,22.2,0.048,0.072,0.13,0.217,0,0.0,0.0,0.0,0.0,0.0,0.0,0.0,0.0,0.0,0.0,0.0,0.0,0.0,Tracheophyta; Magnoliopsida
2016,2016-09-19,Leiria,Leiria,Maceira,Quinta do Banco,39.7375564236111,-8.87349032931858,Desconhecida,82.0,2016-09-19T18:00,20.7,68,14.5,19.9,0.0,0.0,0.0,0.0,0,1016.6,1007.0,0,0,0,0,0.13,0.79,15.5,23.5,332,337,33.1,24.0,22.2,21.2,20.8,0.087,0.078,0.098,0.207,1,3600.0,84.4,59.1,25.3,539.1,84.4,148.7,160.0,112.0,48.0,539.1,160.0,281.8,Tracheophyta; Pinus pinaster Aiton; Eucalyptus L'Hér.; Magnoliopsida; Acacia Mill.
2016,2016-09-21,Leiria,Alcobaça,Benedita,Moita do Gavião (Rochata),39.4177627564139,-8.96401021321615,Desconhecida,189.0,2016-09-21T17:00,18.7,68,12.6,16.2,0.0,0.0,0.0,0.0,1,1017.8,995.6,47,52,0,0,0.21,0.69,22.3,28.8,339,340,42.1,24.0,21.7,21.7,21.5,0.129,0.164,0.212,0.304,1,3600.0,263.7,206.2,57.5,698.8,263.7,400.8,344.0,269.0,75.0,698.8,344.0,522.7,Tracheophyta; Eucalyptus L'Hér.; Magnoliopsida; Olea europaea L.
2016,2016-09-23,Leiria,Leiria,Cortes,Calvário,39.7016982694467,-8.76910685221354,Desconhecida,122.0,2016-09-23T21:00,17.1,84,14.4,17.3,0.0,0.0,0.0,0.0,1,1022.8,1008.2,23,0,0,78,0.0,0.3,8.9,19.2,339,347,18.7,18.9,21.2,21.2,21.2,0.058,0.074,0.092,0.201,0,0.0,0.0,0.0,0.0,0.0,0.0,0.0,0.0,0.0,0.0,0.0,0.0,0.0,Tracheophyta; Pinus pinaster Aiton; Eucalyptus L'Hér.; Magnoliopsida; Acacia Mill.; Vitis vinifera L.
2016,2016-09-28,Leiria,Porto de Mós,Porto de Mós (São Pedro),Ribeira de Cima (Portela da Ribeira de Cima),39.5892944335938,-8.82971286349826,Desconhecida,202.0,2016-09-28T09:00,23.8,44,10.7,21.8,0.0,0.0,0.0,0.0,0,1023.4,999.9,0,0,0,0,0.28,1.67,15.5,23.4,93,93,32.8,21.6,20.3,20.6,20.7,0.052,0.071,0.091,0.2,1,3600.0,408.4,325.0,83.4,715.5,408.4,619.1,333.0,265.0,68.0,715.5,333.0,504.8,Magnoliopsida; Tracheophyta; Pinus pinaster Aiton; Quercus L.
2016,2016-09-29,Leiria,Caldas da Rainha,Santa Catarina,Casal da Azenha (Relvas),39.4316673448351,-9.00999546051025,Desconhecida,130.0,2016-09-29T16:00,28.4,33,10.8,26.8,0.0,0.0,0.0,0.0,0,1019.0,1004.1,0,0,0,0,0.41,2.57,12.7,16.1,317,318,29.5,33.4,24.8,21.9,21.8,0.096,0.161,0.209,0.302,1,3600.0,408.0,340.8,67.1,796.0,408.0,584.0,480.0,401.0,79.0,796.0,480.0,687.1,Magnoliopsida; Tracheophyta; Pinus pinaster Aiton; Vitis vinifera L.
2016,2016-09-30,Leiria,Porto de Mós,São Bento,PNSAC - Fontainhas (Vale do Casalinho),39.481189710829,-8.7690028889974,Desconhecida,304.0,2016-09-30T03:00,16.2,72,11.1,15.7,0.0,0.0,0.0,0.0,0,1016.2,980.5,0,0,0,0,0.01,0.53,5.8,10.2,30,42,9.0,18.0,23.3,21.9,21.7,0.084,0.15,0.211,0.316,0,0.0,0.0,0.0,0.0,0.0,0.0,0.0,0.0,0.0,0.0,0.0,0.0,0.0,Magnoliopsida; Olea europaea L.
2016,2016-10-02,Leiria,Pedrógão Grande,Graça,Ervideira (Porto da Esteva),39.9236450195313,-8.25993537055122,Reacendimento,500.0,2016-10-02T08:00,11.3,90,9.7,10.5,0.0,0.0,0.0,0.0,0,1016.6,957.7,5,6,0,0,0.05,0.14,4.8,8.7,333,330,15.1,13.7,18.8,21.1,20.9,0.102,0.148,0.189,0.314,1,3600.0,199.1,127.7,71.4,463.4,199.1,376.4,131.0,84.0,47.0,463.4,131.0,247.6,Pinus pinaster Aiton; Eucalyptus L'Hér.; Magnoliopsida; Tracheophyta; Olea europaea L.; Acacia Mill.; 
2016,2016-10-02,Leiria,Ansião,Torre de Vale de Todos,Venda do Brasil,39.9533195665148,-8.45141506618924,Reacendimento,289.0,2016-10-02T13:00,20.2,47,8.5,18.8,0.0,0.0,0.0,0.0,0,1016.8,983.3,1,1,0,0,0.45,1.26,14.0,17.5,325,328,33.1,26.0,19.5,20.8,20.6,0.072,0.106,0.127,0.245,1,3600.0,729.4,627.4,101.9,881.9,729.4,972.0,737.0,634.0,103.0,881.9,737.0,982.2,Pinus pinaster Aiton; Tracheophyta; Magnoliopsida; Quercus L.; Eucalyptus L'Hér.; Olea europaea L.
2016,2016-10-04,Leiria,Leiria,Azoia,Codiceira (Codeceira),39.708972913954,-8.8433408610026,Desconhecida,134.0,2016-10-04T11:00,21.7,43,8.6,19.5,0.0,0.0,0.0,0.0,0,1022.0,1006.3,2,0,0,7,0.41,1.48,15.1,19.4,342,345,35.3,24.0,19.2,21.2,21.1,0.048,0.068,0.089,0.198,1,3600.0,663.9,565.4,98.5,850.4,663.9,909.4,620.0,528.0,92.0,850.4,620.0,849.2,Tracheophyta; Pinus pinaster Aiton; Eucalyptus L'Hér.; Magnoliopsida; Acacia Mill.; Olea europaea L.; Vitis vinifera L.
2016,2016-10-05,Leiria,Figueiró Dos Vinhos,Figueiró Dos Vinhos,Ervideira (Lomba),39.9223937988281,-8.2618122016059,Reacendimento,494.0,2016-10-05T14:00,26.6,29,7.2,25.3,0.0,0.0,0.0,0.0,1,1015.3,960.0,29,0,0,98,0.43,2.47,5.7,6.4,305,308,20.2,29.2,20.3,20.6,20.9,0.099,0.146,0.188,0.312,1,3600.0,558.4,332.4,226.0,521.2,558.4,872.9,588.0,350.0,238.0,521.2,588.0,919.1,Pinus pinaster Aiton; Eucalyptus L'Hér.; Magnoliopsida; Tracheophyta; Olea europaea L.
2016,2016-10-05,Leiria,Pombal,Redinha,Quinta da Maia - Anços (Gravio),39.9833488633887,-8.58177659776476,Desconhecida,68.0,2016-10-05T15:00,26.8,39,11.6,24.7,0.0,0.0,0.0,0.0,1,1015.2,1007.4,27,0,0,91,0.43,2.16,17.7,22.3,331,337,26.6,31.6,21.0,21.4,21.5,0.049,0.071,0.079,0.194,1,3600.0,440.7,237.1,203.6,443.4,440.7,731.8,487.0,262.0,225.0,443.4,487.0,808.7,Tracheophyta; Pinus pinaster Aiton; Olea europaea L.; Eucalyptus L'Hér.; Vitis vinifera L.
2016,2016-10-06,Leiria,Pedrógão Grande,Pedrógão Grande,Coelhal (Lameirão),39.9630126953125,-8.18678665161133,Reacendimento,498.0,2016-10-06T16:00,23.3,43,10.1,21.1,0.0,0.0,0.0,0.0,0,1010.9,954.8,0,0,0,0,0.33,1.62,15.0,20.2,300,301,33.1,27.8,21.2,20.6,20.9,0.099,0.145,0.187,0.312,1,3600.0,367.1,306.3,60.8,809.4,367.1,518.3,441.0,368.0,73.0,809.4,441.0,622.6,Eucalyptus L'Hér.; Pinus pinaster Aiton; Magnoliopsida
2016,2016-10-08,Leiria,Bombarral,Carvalhal,Salgueiro (Casal do Queijo),39.3060875108507,-9.1188554722733,Desconhecida,141.0,2016-10-08T18:00,17.2,79,13.6,15.5,0.0,0.0,0.0,0.0,0,1019.0,1002.3,3,2,0,4,0.06,0.41,19.8,29.7,335,337,43.9,20.6,20.4,20.7,21.0,0.087,0.126,0.17,0.255,1,2470.38,6.7,4.1,2.6,47.2,5.2,13.9,72.0,44.0,28.0,315.2,72.0,149.2,Vitis vinifera L.; Tracheophyta; Magnoliopsida; Eucalyptus L'Hér.; 
2016,2016-10-08,Leiria,Alcobaça,São Martinho do Porto,Venda Nova,39.5379867553711,-9.11718273583386,Desconhecida,93.0,2016-10-08T23:00,15.5,93,14.4,15.0,0.0,0.0,0.0,0.0,2,1019.5,1008.4,53,59,0,1,0.0,0.13,13.8,22.4,332,334,24.1,15.9,20.5,21.3,21.7,0.042,0.085,0.121,0.215,0,0.0,0.0,0.0,0.0,0.0,0.0,0.0,0.0,0.0,0.0,0.0,0.0,0.0,Tracheophyta; Pinus pinaster Aiton; Magnoliopsida
2016,2016-10-09,Leiria,Óbidos,Olho Marinho,OLHO MARINHO,39.3160095214844,-9.23894024319119,Desconhecida,134.0,2016-10-09T14:00,19.4,67,13.2,18.1,0.0,0.0,0.0,0.0,0,1017.9,1002.1,9,10,0,0,0.34,0.74,18.1,21.6,316,316,33.5,26.2,19.7,20.5,20.8,0.047,0.068,0.112,0.2,1,3600.0,581.7,443.9,137.8,705.3,581.7,863.4,612.0,467.0,145.0,705.3,612.0,908.3,Magnoliopsida; Tracheophyta; Eucalyptus L'Hér.
2016,2016-10-09,Leiria,Bombarral,Bombarral,BOMBARRAL,39.2604064941406,-9.14944171481662,Desconhecida,33.0,2016-10-09T18:00,17.6,78,13.7,16.7,0.0,0.0,0.0,0.0,0,1017.9,1014.0,9,10,0,0,0.06,0.44,14.4,18.8,323,324,29.5,21.2,21.0,21.4,21.7,0.087,0.125,0.169,0.255,1,2406.49,4.4,2.7,1.7,31.1,3.4,9.1,70.0,43.0,27.0,312.0,70.0,144.5,Tracheophyta; Magnoliopsida
2016,2016-10-10,Leiria,Nazaré,Nazaré,Vale Fundo - Nazaré (Vale Fundo),39.6397323947483,-9.07024002075195,Desconhecida,62.0,2016-10-10T04:00,13.1,98,12.8,13.2,0.0,0.0,0.0,0.0,1,1017.8,1010.3,50,55,0,0,0.0,0.03,5.5,7.5,349,343,10.1,12.8,19.7,21.4,21.9,0.042,0.084,0.121,0.215,0,0.0,0.0,0.0,0.0,0.0,0.0,0.0,0.0,0.0,0.0,0.0,0.0,0.0,Pinus pinaster Aiton; Magnoliopsida
2016,2016-10-11,Leiria,Caldas da Rainha,Caldas da Rainha (Nossa Senhora do Pópulo),Lagoa Parceira (Casais da Lagoa Parceira),39.3902893066406,-9.10561752319336,Desconhecida,115.0,2016-10-11T16:00,20.0,59,11.7,17.8,0.0,0.0,0.0,0.0,3,1011.3,997.9,90,59,14,96,0.23,0.97,19.2,24.9,232,231,32.8,23.7,20.0,20.5,21.1,0.093,0.143,0.187,0.272,1,3600.0,241.0,91.9,149.1,251.1,241.0,502.8,291.0,111.0,180.0,251.1,291.0,607.1,Vitis vinifera L.; Tracheophyta; Eucalyptus L'Hér.; Magnoliopsida
2016,2016-10-11,Leiria,Nazaré,Nazaré,Vale Fundo,39.6410369873047,-9.07204818725586,Desconhecida,57.0,2016-10-11T17:00,19.5,64,12.6,17.1,0.0,0.0,0.0,0.0,3,1010.4,1003.7,92,26,64,100,0.15,0.81,22.4,30.1,213,214,30.6,24.1,20.8,21.3,22.0,0.043,0.084,0.121,0.214,1,2742.84,87.8,28.4,59.4,151.4,87.8,257.3,130.0,42.0,88.0,151.4,130.0,380.9,Pinus pinaster Aiton; Magnoliopsida; Tracheophyta
2016,2016-10-11,Leiria,Alcobaça,Pataias,Pisões (Cardeira),39.6605872938368,-8.93897345648872,Desconhecida,112.0,2016-10-11T19:00,17.8,78,13.9,15.3,1.5,1.5,0.0,0.0,61,1008.6,995.4,100,100,100,97,0.05,0.44,25.6,38.2,191,194,38.9,19.5,19.6,20.2,20.6,0.065,0.066,0.094,0.201,0,0.0,0.0,0.0,0.0,0.0,0.0,0.0,0.0,0.0,0.0,0.0,0.0,0.0,Tracheophyta; Pinus pinaster Aiton; Olea europaea L.
2016,2016-10-15,Leiria,Nazaré,Nazaré,Vale Fundo,39.6398099999958,-9.0707269999716,Desconhecida,62.0,2016-10-15T16:00,19.4,73,14.4,17.9,0.0,0.0,0.0,0.0,1,1013.1,1005.8,40,13,29,35,0.2,0.62,20.6,28.1,213,213,29.5,21.7,18.6,20.4,21.8,0.165,0.102,0.121,0.214,1,3600.0,258.0,188.4,69.6,549.7,258.0,471.7,315.0,230.0,85.0,549.7,315.0,576.0,Pinus pinaster Aiton; Magnoliopsida
2016,2016-10-27,Leiria,Leiria,Pousos,Touria,39.7260240003798,-8.75595299985674,Desconhecida,152.0,2016-10-27T16:00,26.1,65,18.9,28.1,0.0,0.0,0.0,0.0,1,1021.8,1004.3,29,0,1,94,0.2,1.2,9.0,15.2,85,95,21.2,23.6,20.3,18.9,20.6,0.218,0.227,0.099,0.194,1,3600.0,206.8,99.5,107.4,352.6,206.8,390.9,262.0,126.0,136.0,352.6,262.0,495.2,Tracheophyta; Pinus pinaster Aiton; Eucalyptus L'Hér.; Magnoliopsida; Acacia Mill.; Olea europaea L.; Vitis vinifera L.
2016,2016-10-30,Leiria,Alcobaça,São Martinho do Porto,Gralha - S.M.Porto (PEDERNEIRA),39.5258500003815,-9.1318930000729,Desconhecida,0.0,2016-10-30T19:00,19.5,87,17.3,21.2,0.0,0.0,0.0,0.0,0,1018.4,1018.4,0,0,0,0,0.0,0.29,6.4,9.5,333,335,9.0,20.0,21.4,20.7,21.8,0.177,0.208,0.132,0.211,0,0.0,0.0,0.0,0.0,0.0,0.0,0.0,0.0,0.0,0.0,0.0,0.0,0.0,Tracheophyta; Magnoliopsida
2016,2016-10-31,Leiria,Alcobaça,São Martinho do Porto,Praia da Gralha (SÃO MARTINHO DO PORTO),39.5108420001136,-9.13191500027975,Desconhecida,4.0,2016-10-31T11:00,21.3,65,14.5,21.0,0.0,0.0,0.0,0.0,1,1018.0,1017.5,20,0,0,67,0.29,0.89,12.6,16.8,117,118,22.7,21.7,18.7,20.5,21.8,0.177,0.205,0.133,0.211,1,3600.0,512.9,410.1,102.8,753.0,512.9,756.2,474.0,379.0,95.0,753.0,474.0,698.9,Tracheophyta; Magnoliopsida
2016,2016-10-31,Leiria,Porto de Mós,Serro Ventoso,Covão da Fonte (Fradilhão),39.5392839998669,-8.81011299981011,Desconhecida,456.0,2016-10-31T13:00,21.6,46,9.3,19.7,0.0,0.0,0.0,0.0,1,1017.4,965.3,22,0,0,73,0.39,1.4,13.1,17.2,127,127,28.8,21.0,16.9,18.3,19.9,0.26,0.289,0.2,0.294,1,3600.0,575.9,491.2,84.7,851.2,575.9,801.3,585.0,499.0,86.0,851.2,585.0,814.0,Magnoliopsida; Tracheophyta; Pinus pinaster Aiton; Eucalyptus L'Hér.
2016,2016-10-31,Leiria,Óbidos,Vau,Poça do Vau,39.3780069997576,-9.21715700000525,Desconhecida,7.0,2016-10-31T23:00,17.0,90,15.4,17.7,0.0,0.0,0.0,0.0,2,1017.8,1017.0,58,0,49,96,0.0,0.19,7.9,15.6,114,128,14.4,16.7,19.5,20.4,21.6,0.166,0.199,0.131,0.208,0,0.0,0.0,0.0,0.0,0.0,0.0,0.0,0.0,0.0,0.0,0.0,0.0,0.0,Eucalyptus L'Hér.; Magnoliopsida; Tracheophyta
2016,2016-11-01,Leiria,Peniche,Atouguia da Baleia,São Bernardino (Pedrogãos),39.3047119998932,-9.34105999999576,Desconhecida,59.0,2016-11-01T11:00,19.8,75,15.3,18.9,0.0,0.0,0.0,0.0,1,1019.9,1012.9,43,47,1,0,0.22,0.58,18.6,24.6,144,145,33.5,20.3,18.3,19.8,21.1,0.178,0.201,0.137,0.215,1,3600.0,414.9,277.3,137.6,511.6,414.9,753.0,383.0,256.0,127.0,511.6,383.0,695.1,Eucalyptus L'Hér.; Magnoliopsida; Tracheophyta; Pinus pinaster Aiton; Pinus pinea L.; 
2016,2016-11-02,Leiria,Porto de Mós,Serro Ventoso,Rua do Alecrim (SERRO VENTOSO),39.5589810000526,-8.83008499993218,Desconhecida,336.0,2016-11-02T16:00,20.4,60,12.3,19.4,0.0,0.0,0.0,0.0,1,1017.1,978.2,38,1,20,83,0.16,0.97,12.0,19.1,134,136,27.0,20.4,18.4,18.9,20.6,0.227,0.251,0.174,0.267,1,3600.0,148.2,99.3,48.9,383.0,148.2,360.6,191.0,128.0,63.0,383.0,191.0,464.6,Olea europaea L.; Tracheophyta; Magnoliopsida
2016,2016-11-02,Leiria,Figueiró Dos Vinhos,Aguda,Figoeira (Ribeiro),39.9055470000373,-8.31338200039334,Desconhecida,341.0,2016-11-02T17:00,19.7,65,12.8,19.6,0.0,0.0,0.0,0.0,1,1017.6,978.1,42,0,28,84,0.07,0.81,6.3,16.1,121,124,19.8,19.3,18.2,18.7,21.0,0.279,0.299,0.209,0.3,1,3600.0,34.5,19.6,14.9,224.4,34.5,107.0,74.0,42.0,32.0,254.1,74.0,229.8,Olea europaea L.; Eucalyptus L'Hér.; Magnoliopsida
2016,2016-11-03,Leiria,Porto de Mós,Mira de Aire,MIRA DE AIRE (Vale do Rossio),39.5397049999237,-8.69573699951172,Desconhecida,331.0,2016-11-03T10:00,16.7,82,13.6,15.4,0.0,0.0,0.0,0.0,2,1016.5,977.8,69,40,10,89,0.14,0.35,17.1,23.6,129,129,33.8,17.0,17.2,18.8,20.7,0.272,0.282,0.218,0.308,1,3600.0,288.2,176.6,111.6,397.3,288.2,618.2,248.0,152.0,96.0,397.3,248.0,532.0,Magnoliopsida; Tracheophyta; Olea europaea L.; Pinus pinaster Aiton
2016,2016-11-03,Leiria,Nazaré,Famalicão,Raposos,39.5248730002509,-9.06931599987878,Desconhecida,154.0,2016-11-03T19:00,17.6,87,15.5,18.7,0.0,0.0,0.0,0.0,1,1014.0,995.8,28,4,9,64,0.0,0.25,4.9,8.0,197,198,11.5,17.4,18.6,19.2,20.7,0.179,0.193,0.134,0.211,0,0.0,0.0,0.0,0.0,0.0,0.0,0.0,0.0,0.0,0.0,0.0,0.0,0.0,Magnoliopsida; Tracheophyta; Eucalyptus L'Hér.; Pinus pinaster Aiton
2016,2016-11-06,Leiria,Leiria,Santa Eufémia,Cova das Faias,39.7655349996355,-8.77731700049506,Desconhecida,132.0,2016-11-06T20:00,10.8,69,5.3,7.1,0.0,0.0,0.0,0.0,1,1016.5,1000.5,23,15,16,0,0.04,0.4,17.2,29.1,344,345,31.3,12.1,14.9,18.3,20.0,0.205,0.193,0.107,0.193,0,0.0,0.0,0.0,0.0,0.0,0.0,0.0,0.0,0.0,0.0,0.0,0.0,0.0,Tracheophyta; Pinus pinaster Aiton; Eucalyptus L'Hér.; Magnoliopsida; Acacia Mill.; Pinales
2016,2016-11-14,Leiria,Porto de Mós,Mira de Aire,MIRA DE AIRE (Bairro das Grutas),39.5416259998745,-8.71009400049845,Desconhecida,249.0,2016-11-14T16:00,18.3,49,7.4,16.0,0.0,0.0,0.0,0.0,0,1022.8,993.5,0,0,0,0,0.18,1.07,11.1,17.9,65,65,25.6,17.7,15.4,16.5,20.5,0.293,0.295,0.226,0.306,1,3600.0,191.7,147.7,44.0,684.9,191.7,301.4,257.0,198.0,59.0,684.9,257.0,404.2,Eucalyptus L'Hér.; Magnoliopsida; Tracheophyta; Olea europaea L.; Pinus pinaster Aiton
2016,2016-11-15,Leiria,Leiria,Souto de Carpalhosa,Moita da Roda (Trepadas),39.835373000039,-8.8023980000284,Desconhecida,107.0,2016-11-15T16:00,17.6,48,6.4,15.5,0.0,0.0,0.0,0.0,0,1025.9,1013.1,0,0,0,0,0.16,1.05,8.3,14.7,56,65,22.0,17.1,14.8,16.3,19.7,0.173,0.184,0.11,0.193,1,3600.0,189.0,145.8,43.1,688.8,189.0,296.1,254.0,196.0,58.0,688.8,254.0,398.0,Tracheophyta; Pinus pinaster Aiton; Eucalyptus L'Hér.; Magnoliopsida; Acacia Mill.
2016,2016-11-16,Leiria,Leiria,Leiria,rua dr paulino da costa santos (Ourivesaria Karatt),39.7491789997949,-8.80283199999067,Desconhecida,33.0,2016-11-16T14:00,18.0,52,8.0,16.1,0.0,0.0,0.0,0.0,0,1024.9,1020.9,0,0,0,0,0.28,0.98,9.4,10.5,337,338,17.3,18.8,14.5,16.6,19.7,0.174,0.189,0.12,0.2,1,3600.0,451.7,380.8,70.9,841.6,451.7,633.1,484.0,408.0,76.0,841.6,484.0,678.3,Tracheophyta; Pinus pinaster Aiton; Eucalyptus L'Hér.; Magnoliopsida; Acacia Mill.; 
2016,2016-11-19,Leiria,Alcobaça,Évora de Alcobaça,Lagoa do Cão (Molianos),39.5186099999481,-8.92306000020769,Desconhecida,136.0,2016-11-19T16:00,15.4,61,7.8,11.5,0.0,0.0,0.0,0.0,3,1015.5,999.3,100,78,1,100,0.14,0.68,22.4,31.5,251,251,37.1,16.1,14.8,16.4,20.2,0.262,0.281,0.218,0.295,1,2722.35,113.3,31.1,82.2,150.7,113.3,289.1,153.0,42.0,111.0,150.7,153.0,390.3,Magnoliopsida; Tracheophyta; Pinus pinaster Aiton; Eucalyptus L'Hér.
2016,2016-11-19,Leiria,Porto de Mós,Alvados,PNSAC Candeeiros - Alvados (Grutas),39.540277999772,-8.7517250000106,Desconhecida,436.0,2016-11-19T18:00,12.0,68,6.4,9.7,0.0,0.0,0.0,0.0,3,1014.5,963.1,95,12,92,98,0.05,0.45,9.6,20.4,214,225,21.6,12.6,12.7,14.8,19.0,0.25,0.269,0.21,0.292,0,0.0,0.0,0.0,0.0,0.0,0.0,0.0,1.0,0.0,1.0,0.0,1.0,14.9,Magnoliopsida; Olea europaea L.; Tracheophyta
2016,2016-11-19,Leiria,Porto de Mós,São Bento,PNSAC - CABEÇO DAS POMBAS (Cabeça das Pombas),39.4932519997491,-8.80357199986776,Desconhecida,463.0,2016-11-19T18:00,11.8,68,6.2,9.5,0.0,0.0,0.0,0.0,3,1014.5,960.0,95,12,92,98,0.05,0.44,9.6,20.4,214,225,21.6,12.4,12.5,14.6,18.8,0.25,0.269,0.21,0.292,0,0.0,0.0,0.0,0.0,0.0,0.0,0.0,1.0,0.0,1.0,0.0,1.0,16.2,Olea europaea L.; Magnoliopsida; Quercus suber L.; Pinus pinea L.
2016,2016-12-02,Leiria,Alcobaça,São Martinho do Porto,Serra de Mangues (Casal do Sol Posto),39.5172320000331,-9.1176019999716,Desconhecida,10.0,2016-12-02T17:00,15.2,71,10.0,12.9,0.0,0.0,0.0,0.0,3,1013.1,1011.9,97,28,70,100,0.07,0.5,16.3,26.6,112,117,27.4,14.7,14.6,15.3,19.5,0.229,0.236,0.196,0.209,1,844.73,12.2,2.8,9.4,31.9,9.9,32.0,57.0,13.0,44.0,99.7,57.0,149.6,Eucalyptus L'Hér.; Vitis vinifera L.; Magnoliopsida; Tracheophyta; Pinus pinaster Aiton
2016,2016-12-11,Leiria,Leiria,Milagres,Alcaidaria (Casal do Pilha),39.7961230002509,-8.78344000000093,Desconhecida,125.0,2016-12-11T15:00,17.9,69,12.2,18.2,0.0,0.0,0.0,0.0,0,1024.5,1009.6,2,0,3,0,0.17,0.63,2.1,2.9,211,187,14.4,18.0,14.4,14.7,17.6,0.19,0.211,0.187,0.191,1,3600.0,279.5,215.0,64.5,699.4,279.5,433.7,325.0,250.0,75.0,699.4,325.0,504.3,Tracheophyta; Pinus pinaster Aiton; Eucalyptus L'Hér.; Magnoliopsida; Acacia Mill.; Olea europaea L.
2016,2016-01-12,Leiria,Alcobaça,Cela,Casal Marques,39.5207009998957,-9.02739599969652,Desconhecida,101.0,2016-01-12T16:00,13.3,63,6.5,11.3,0.0,0.0,0.0,0.0,0,1025.0,1012.7,10,3,10,3,0.12,0.56,8.2,10.0,345,345,17.6,14.3,12.9,14.1,16.7,0.351,0.357,0.273,0.257,1,3600.0,180.3,119.9,60.3,508.9,180.3,333.2,230.0,153.0,77.0,508.9,230.0,425.1,Tracheophyta; Vitis vinifera L.; Pinus pinaster Aiton; Olea europaea L.
2016,2016-12-26,Leiria,Óbidos,Olho Marinho,SERRA DE EL REI (Barros),39.3294070000119,-9.25656800005171,Desconhecida,129.0,2016-12-26T12:00,12.8,72,7.9,10.7,0.0,0.0,0.0,0.0,0,1031.3,1015.6,0,0,0,0,0.19,0.41,10.4,13.0,92,93,19.4,13.0,10.1,13.1,16.7,0.217,0.232,0.238,0.214,1,3600.0,451.3,374.3,77.0,832.6,451.3,635.8,428.0,355.0,73.0,832.6,428.0,603.0,Magnoliopsida; Tracheophyta; Eucalyptus L'Hér.
2016,2016-12-28,Leiria,Leiria,Marrazes,Janardo (Casa Duarte),39.7644419998593,-8.82369500001272,Desconhecida,34.0,2016-12-28T17:00,15.2,66,9.0,13.6,0.0,0.0,0.0,0.0,0,1031.1,1027.0,0,0,0,0,0.06,0.58,9.0,14.0,74,90,13.7,13.3,11.1,12.5,16.8,0.195,0.213,0.209,0.191,1,2874.34,28.1,18.0,10.1,206.4,24.8,55.3,86.0,55.0,31.0,405.5,86.0,169.1,Tracheophyta; Pinus pinaster Aiton; Eucalyptus L'Hér.; Magnoliopsida; Acacia Mill.; Olea europaea L.
2016,2016-02-04,Leiria,Peniche,Serra DEl Rei,CEZAREDA,39.3178359999922,-9.25902700000339,Desconhecida,154.0,2016-02-04T18:00,12.9,57,4.7,9.9,0.0,0.0,0.0,0.0,1,1029.2,1010.5,30,0,0,100,0.06,0.64,12.5,23.9,78,84,24.1,12.6,12.5,13.2,15.3,0.292,0.322,0.302,0.272,0,1692.92,0.0,0.0,0.0,0.0,0.0,0.0,49.0,20.0,29.0,165.9,49.0,109.7,Magnoliopsida; Eucalyptus L'Hér.; Tracheophyta; Pinales
2016,2016-02-06,Leiria,Caldas da Rainha,Tornada,TORNADA,39.4477929994795,-9.13217400021023,Desconhecida,15.0,2016-02-06T18:00,13.3,85,10.8,8.8,1.2,1.2,0.0,0.0,55,1016.4,1014.6,100,90,98,100,0.05,0.23,32.4,46.8,223,224,51.1,13.2,13.1,13.8,16.0,0.306,0.304,0.294,0.264,1,0.0,0.0,0.0,0.0,0.0,0.0,0.0,13.0,0.0,13.0,0.0,13.0,117.2,Tracheophyta; Eucalyptus L'Hér.; Magnoliopsida
2016,2016-04-18,Leiria,Porto de Mós,São Bento,PNSAC - Cabeça das Pombas (Cabeça das Pombas),39.4933738878038,-8.80617906358507,Desconhecida,466.0,2016-04-18T12:00,14.9,62,7.7,11.4,0.1,0.1,0.0,0.0,51,1013.5,959.3,59,0,49,100,0.26,0.65,20.3,28.2,115,115,43.6,13.8,11.4,11.4,11.3,0.398,0.402,0.401,0.313,1,1561.66,478.8,97.6,381.2,112.1,478.8,1182.2,466.0,95.0,371.0,112.1,466.0,1150.5,Olea europaea L.; Magnoliopsida; Pinus pinea L.
2016,2016-03-13,Leiria,Alcobaça,Évora de Alcobaça,Antas,39.5134299998813,-8.97969699965583,Desconhecida,125.0,2016-03-13T15:00,16.7,49,6.0,15.5,0.0,0.0,0.0,0.0,0,1017.5,1002.6,3,0,0,9,0.38,0.97,7.4,8.1,337,339,17.3,19.5,12.8,12.0,13.7,0.257,0.296,0.33,0.272,1,3600.0,643.2,556.1,87.1,908.4,643.2,847.8,694.0,600.0,94.0,908.4,694.0,914.7,Tracheophyta; Magnoliopsida; Eucalyptus L'Hér.; Pinales; Vitis vinifera L.
2016,2016-04-28,Leiria,Pombal,Santiago de Litém,Andrés (MADORNO),39.8547401258681,-8.62580681694878,Desconhecida,273.0,2016-04-28T13:00,16.8,58,8.5,15.1,0.0,0.0,0.0,0.0,3,1013.4,981.4,89,99,0,0,0.33,0.8,9.2,11.6,334,338,24.5,18.8,14.1,13.3,11.8,0.24,0.274,0.322,0.303,1,3600.0,549.9,228.1,321.8,254.2,549.9,1211.3,552.0,229.0,323.0,254.2,552.0,1215.8,Magnoliopsida; Tracheophyta; Pinus pinaster Aiton; Eucalyptus L'Hér.; Olea europaea L.
2016,2016-02-06,Leiria,Pombal,Albergaria dos Doze,Eguins,39.7930130004883,-8.59365999963548,Desconhecida,267.0,2016-02-06T15:00,13.2,73,8.4,9.6,0.4,0.4,0.0,0.0,51,1017.6,985.8,100,74,86,100,0.14,0.42,21.6,32.8,226,226,50.8,12.7,10.8,11.7,14.2,0.336,0.346,0.355,0.278,1,1240.56,212.6,45.4,167.2,101.4,212.6,630.6,234.0,50.0,184.0,101.4,234.0,694.1,Tracheophyta; Pinus pinaster Aiton; Eucalyptus L'Hér.; Magnoliopsida
2016,2016-05-21,Leiria,Marinha Grande,Marinha Grande,Embra (Fonte da Embra),39.7440261501736,-8.90948201497396,Desconhecida,102.0,2016-05-21T19:00,15.9,83,13.0,15.2,0.0,0.0,0.0,0.0,2,1016.0,1003.8,76,61,36,0,0.06,0.3,11.2,16.0,276,278,23.4,17.7,18.2,15.8,13.9,0.178,0.21,0.274,0.263,1,1597.39,56.1,15.3,40.7,113.2,56.1,180.9,95.0,26.0,69.0,113.2,95.0,306.6,Pinus pinaster Aiton; Tracheophyta
2016,2016-06-04,Leiria,Alcobaça,Benedita,IC2 - Moita do Gavião (Rochata),39.4177894422743,-8.96456529405382,Desconhecida,190.0,2016-06-04T21:00,16.6,90,14.9,17.1,0.0,0.0,0.0,0.0,2,1017.6,995.1,55,50,0,32,0.0,0.2,8.3,14.2,304,306,17.3,18.6,19.6,16.8,14.3,0.221,0.296,0.354,0.332,0,0.0,0.0,0.0,0.0,0.0,0.0,0.0,0.0,0.0,0.0,0.0,0.0,0.0,Tracheophyta; Eucalyptus L'Hér.; Magnoliopsida; Olea europaea L.
2016,2016-06-05,Leiria,Óbidos,Vau,Bom Sucesso (Casalinho),39.4046936035156,-9.2177400547266,Desconhecida,17.0,2016-06-05T13:00,21.4,67,15.0,24.1,0.0,0.0,0.0,0.0,0,1017.6,1015.6,1,0,1,0,0.57,0.84,9.4,10.4,266,268,23.0,29.5,21.1,18.1,15.6,0.096,0.179,0.237,0.244,1,3600.0,958.1,821.4,136.7,861.6,958.1,1266.5,960.0,823.0,137.0,861.6,960.0,1269.0,Tracheophyta; Eucalyptus L'Hér.; Pinus pinaster Aiton; Magnoliopsida; Pinales; Pinus pinea L.
2016,2016-06-05,Leiria,Óbidos,Vau,Pérola da Lagoa (Casalito),39.4085083007813,-9.2192096625434,Desconhecida,19.0,2016-06-05T14:00,21.6,66,15.1,23.9,0.0,0.0,0.0,0.0,0,1016.9,1014.7,2,0,4,0,0.55,0.87,10.9,12.0,262,261,24.5,29.8,21.5,18.2,15.6,0.094,0.179,0.236,0.244,1,3600.0,913.0,784.6,128.3,862.9,913.0,1208.1,939.0,807.0,132.0,862.9,939.0,1242.6,Tracheophyta; Eucalyptus L'Hér.; Pinus pinaster Aiton; Magnoliopsida; Pinales; Pinus pinea L.
2016,2016-06-07,Leiria,Alcobaça,Benedita,Moinhos Novos (Moínhos Novos),39.408191663954,-8.97991753472222,Desconhecida,206.0,2016-06-07T14:00,24.1,56,14.8,26.9,0.0,0.0,0.0,0.0,0,1020.0,996.2,0,0,0,0,0.62,1.33,8.4,9.3,340,344,23.4,27.3,19.8,17.2,14.3,0.222,0.284,0.349,0.332,1,3600.0,929.3,815.6,113.7,896.6,929.3,1207.9,956.0,839.0,117.0,896.6,956.0,1242.6,Tracheophyta; Vitis vinifera L.; Eucalyptus L'Hér.; Magnoliopsida; Olea europaea L.
2016,2016-06-07,Leiria,Óbidos,Vau,Bom Sucesso (Rocha do Gronho),39.4219322374132,-9.236577996148,Desconhecida,53.0,2016-06-07T16:00,22.4,67,15.9,23.0,0.0,0.0,0.0,0.0,0,1019.7,1013.5,0,0,0,0,0.44,0.9,16.6,20.0,347,352,29.2,29.1,22.0,18.4,15.4,0.093,0.172,0.232,0.243,1,3600.0,682.1,584.5,97.6,842.6,682.1,921.2,748.0,641.0,107.0,842.6,748.0,1010.2,Pinus pinaster Aiton; Magnoliopsida; Eucalyptus L'Hér.; Tracheophyta
2016,2016-06-08,Leiria,Alcobaça,Benedita,Chamiço,39.4388580322266,-8.97348307291667,Desconhecida,192.0,2016-06-08T17:00,24.5,48,12.9,22.7,0.0,0.0,0.0,0.0,1,1018.0,995.9,29,0,0,95,0.4,1.59,18.4,24.5,356,358,37.1,26.2,21.6,17.5,14.5,0.194,0.277,0.346,0.332,1,3600.0,454.6,296.7,157.9,555.9,454.6,708.6,524.0,342.0,182.0,555.9,524.0,816.8,Eucalyptus L'Hér.; Tracheophyta
2016,2016-06-10,Leiria,Alcobaça,Aljubarrota (São Vicente),Cadoiço (Quinta do Mogo),39.5683098008898,-8.91312696668837,Desconhecida,144.0,2016-06-10T19:00,17.6,67,11.4,13.9,0.0,0.0,0.0,0.0,1,1017.1,1000.1,20,21,0,4,0.15,0.66,28.2,39.3,346,346,51.5,21.5,21.3,18.6,15.3,0.097,0.183,0.239,0.28,1,3600.0,127.8,84.1,43.7,484.3,127.8,230.5,196.0,129.0,67.0,484.3,196.0,353.4,Tracheophyta; Eucalyptus L'Hér.; Pinales; Magnoliopsida; Pinus pinaster Aiton; Olea europaea L.
2016,2016-06-11,Leiria,Óbidos,Vau,ARELHO (Corvo),39.3909263780382,-9.20099829779731,Desconhecida,29.0,2016-06-11T18:00,19.7,68,13.6,18.0,0.0,0.0,0.0,0.0,0,1018.5,1015.1,0,0,0,0,0.24,0.74,19.7,25.9,322,322,37.1,25.4,22.0,19.2,15.9,0.066,0.161,0.224,0.243,1,3600.0,320.4,253.9,66.5,700.8,320.4,480.6,400.0,317.0,83.0,700.8,400.0,600.0,Eucalyptus L'Hér.; Magnoliopsida; Tracheophyta
2016,2016-06-17,Leiria,Bombarral,Bombarral,BOMBARRAL (VALE DO LEITO),39.2673110961252,-9.17131615532769,Desconhecida,30.0,2016-06-17T16:00,19.9,59,11.7,17.7,0.0,0.0,0.0,0.0,0,1021.2,1017.6,0,0,0,0,0.42,0.94,24.3,30.1,345,345,40.7,24.4,19.8,18.6,16.1,0.105,0.15,0.211,0.229,1,3600.0,681.7,562.9,118.8,801.0,681.7,931.2,746.0,616.0,130.0,801.0,746.0,1019.0,Tracheophyta; Magnoliopsida; Olea europaea L.; Vitis vinifera L.
2016,2016-06-18,Leiria,Óbidos,Olho Marinho,Cezaredas (Vale dos Arneiros),39.3141517469618,-9.25162029690213,Desconhecida,155.0,2016-06-18T13:00,20.8,56,11.6,18.8,0.0,0.0,0.0,0.0,0,1025.7,1007.4,0,0,0,0,0.54,1.09,29.5,37.1,358,359,50.8,25.0,19.0,18.1,15.4,0.143,0.229,0.31,0.306,1,3600.0,977.2,858.3,118.9,895.6,977.2,1269.7,978.0,859.0,119.0,895.6,978.0,1270.8,Magnoliopsida; Eucalyptus L'Hér.; Tracheophyta
2016,2016-06-18,Leiria,Óbidos,Óbidos (Santa Maria),Trás do Outeiro (Santo Antão),39.3675575086143,-9.16687298249867,Desconhecida,7.0,2016-06-18T16:00,20.4,64,13.5,17.7,0.0,0.0,0.0,0.0,0,1025.8,1025.0,0,0,0,0,0.41,0.86,32.0,41.8,352,353,52.2,26.2,21.0,19.2,16.6,0.086,0.151,0.213,0.242,1,3600.0,690.2,590.6,99.6,839.5,690.2,932.0,755.0,646.0,109.0,839.5,755.0,1019.5,Magnoliopsida; Tracheophyta; Eucalyptus L'Hér.; Pinus pinaster Aiton
2016,2016-06-18,Leiria,Óbidos,Óbidos (Santa Maria),Trás do Outeiro (Quinta da Várzea da Rainha),39.3746986219618,-9.1685533481174,Desconhecida,47.0,2016-06-18T18:00,18.8,70,13.2,14.9,0.0,0.0,0.0,0.0,0,1025.8,1020.2,0,0,0,0,0.23,0.65,33.8,44.9,353,354,56.5,23.4,21.0,19.0,16.3,0.084,0.151,0.213,0.242,1,3600.0,323.5,255.9,67.6,692.4,323.5,489.7,402.0,318.0,84.0,692.4,402.0,608.5,Tracheophyta; Magnoliopsida
2016,2016-06-19,Leiria,Óbidos,Vau,Bom Sucesso (Casal de Santa Maria),39.3544311523438,-9.21851538777351,Desconhecida,81.0,2016-06-19T18:00,20.4,65,13.5,17.8,0.0,0.0,0.0,0.0,0,1024.6,1015.0,0,0,0,0,0.26,0.85,25.4,34.3,353,355,43.9,25.6,21.9,18.8,16.1,0.07,0.149,0.211,0.241,1,3600.0,323.5,257.5,66.0,696.1,323.5,490.1,402.0,320.0,82.0,696.1,402.0,608.9,Magnoliopsida; Vitis vinifera L.; Tracheophyta; Eucalyptus L'Hér.; Pinus pinaster Aiton
2016,2016-06-19,Leiria,Óbidos,A Dos Negros,A DOS NEGROS,39.3507194688585,-9.10874652438694,Desconhecida,86.0,2016-06-19T18:00,21.1,62,13.5,19.0,0.0,0.0,0.0,0.0,0,1024.0,1013.8,0,0,0,0,0.27,0.95,22.2,30.8,347,349,44.6,24.3,21.1,18.3,15.7,0.154,0.226,0.298,0.297,1,3600.0,320.8,254.9,65.9,691.8,320.8,488.1,399.0,317.0,82.0,691.8,399.0,607.0,Tracheophyta; Eucalyptus L'Hér.; Magnoliopsida; Pinus pinaster Aiton
2016,2016-06-19,Leiria,Óbidos,Amoreira,Cova da Areia,39.3411111111111,-9.20138888888889,Desconhecida,20.0,2016-06-19T18:00,21.3,62,13.6,18.7,0.0,0.0,0.0,0.0,0,1024.6,1022.2,0,0,0,0,0.28,0.97,25.4,34.3,353,355,43.9,24.9,21.7,18.7,16.2,0.077,0.146,0.207,0.229,1,3600.0,323.5,257.5,66.0,696.1,323.5,490.1,402.0,320.0,82.0,696.1,402.0,608.9,Magnoliopsida; Tracheophyta; Eucalyptus L'Hér.
2016,2016-07-15,Porto,Trofa,Covelas,Lugar do Outeriral (Cortiços),41.2829779995812,-8.54086700015598,NC,110.0,2016-07-15T15:00,31.8,25,9.2,33.0,0.0,0.0,0.0,0.0,0,1017.2,1004.8,0,0,0,0,0.65,3.53,4.1,5.2,52,65,16.2,32.4,24.0,20.8,16.5,0.131,0.184,0.279,0.379,1,3600.0,823.8,726.2,97.5,892.4,823.8,1077.4,870.0,767.0,103.0,892.4,870.0,1137.8,Magnoliopsida; Pinus pinaster Aiton; Vitis vinifera L.; Quercus L.; Tracheophyta; Eucalyptus L'Hér.; Olea europaea L.; 
2016,2016-07-15,Porto,Maia,Pedrouços,Lugar Castro Meireles (Bairro da Brisa),41.1816940307617,-8.59400939941406,NC,115.0,2016-07-15T15:00,32.0,25,9.3,33.2,0.0,0.0,0.0,0.0,0,1017.2,1004.2,0,0,0,0,0.65,3.57,4.1,5.2,52,65,16.2,32.3,24.0,20.6,16.6,0.131,0.195,0.286,0.379,1,3600.0,823.9,726.3,97.5,891.1,823.9,1079.1,870.0,767.0,103.0,891.1,870.0,1139.5,Tracheophyta; Magnoliopsida; 
2016,2016-07-15,Porto,Maia,Maia,Lg. Altos (Rua Abel de Sousa Fernandes),41.2293701171875,-8.61801242417759,NC,101.0,2016-07-15T16:00,32.0,25,9.6,32.4,0.0,0.0,0.0,0.0,0,1016.9,1005.5,0,0,0,0,0.56,3.57,5.2,6.0,16,25,13.0,32.5,24.4,20.7,16.6,0.131,0.194,0.285,0.379,1,3600.0,683.2,594.5,88.7,859.5,683.2,915.7,747.0,650.0,97.0,859.5,747.0,1001.2,Tracheophyta; Magnoliopsida
2016,2016-07-15,Porto,Vila Nova de Gaia,Crestuma,LG. ROSSIO (Fábrica de Papel),41.0648307800293,-8.49501990424262,Reacendimento,38.0,2016-07-15T15:00,32.7,25,10.0,33.2,0.0,0.0,0.0,0.0,0,1016.5,1012.2,0,0,0,0,0.7,3.72,9.6,9.4,347,2,19.8,33.2,24.5,21.3,17.2,0.13,0.185,0.28,0.381,1,3600.0,821.7,723.3,98.5,888.1,821.7,1078.1,868.0,764.0,104.0,888.1,868.0,1138.9,Tracheophyta; Magnoliopsida; Eucalyptus L'Hér.
2016,2016-07-15,Porto,Gondomar,Medas,Povoa (Porqueira),41.0505869999859,-8.42739299986098,Desconhecida,133.0,2016-07-15T16:00,32.3,25,9.9,32.5,0.0,0.0,0.0,0.0,0,1016.9,1001.9,0,0,0,0,0.58,3.62,6.6,7.5,9,17,16.2,32.5,24.0,20.6,16.5,0.128,0.197,0.29,0.381,1,3600.0,681.9,593.2,88.7,859.0,681.9,914.2,746.0,649.0,97.0,859.0,746.0,1000.2,Eucalyptus L'Hér.; Magnoliopsida; Pinus pinaster Aiton; Tracheophyta
2016,2016-07-15,Porto,Vila do Conde,Gião,LG. Sº ESTEVÃO (Santo Estêvão),41.3035125732422,-8.66976833767361,Reacendimento,53.0,2016-07-15T17:00,30.7,31,11.8,29.3,0.0,0.0,0.0,0.0,0,1016.8,1010.8,0,0,0,0,0.52,3.04,15.0,18.6,339,342,27.4,33.3,25.1,20.9,16.7,0.097,0.196,0.291,0.378,1,3600.0,512.7,434.2,78.5,807.2,512.7,712.1,588.0,498.0,90.0,807.2,588.0,816.7,Tracheophyta; Eucalyptus L'Hér.; Magnoliopsida
2016,2016-07-15,Porto,Felgueiras,Torrados,Lg. Espadanal (Lagarto),41.3558080000348,-8.23471200002564,Desconhecida,268.0,2016-07-15T17:00,31.3,25,8.8,30.8,0.0,0.0,0.0,0.0,0,1016.7,986.7,0,0,0,0,0.42,3.44,3.3,4.6,41,51,13.0,32.4,24.0,20.3,15.7,0.105,0.192,0.289,0.378,1,3600.0,512.0,434.5,77.5,814.0,512.0,706.6,588.0,499.0,89.0,814.0,588.0,811.5,Tracheophyta; Magnoliopsida; Vitis vinifera L.
2016,2016-07-15,Porto,Vila Nova de Gaia,Arcozelo,Mira (Sobreiro),41.0547939999898,-8.64058100011614,Desconhecida,44.0,2016-07-15T18:00,30.3,37,13.8,28.7,0.0,0.0,0.0,0.0,0,1015.7,1010.7,0,0,0,0,0.42,2.73,19.4,25.3,342,349,29.9,31.2,25.3,21.1,17.1,0.132,0.198,0.289,0.381,1,3600.0,322.3,261.2,61.1,720.2,322.3,480.2,401.0,325.0,76.0,720.2,401.0,597.4,Pinus pinaster Aiton; Tracheophyta; Eucalyptus L'Hér.; Magnoliopsida; Acacia Mill.
2016,2016-07-15,Porto,Valongo,Ermesinde,Lugar Bela (Quinta do Sá),41.2163430002001,-8.54797799958123,NC,104.0,2016-07-15T16:00,32.2,25,9.6,32.5,0.0,0.0,0.0,0.0,0,1016.9,1005.1,0,0,0,0,0.57,3.6,5.2,6.0,16,25,13.0,33.3,24.5,20.9,16.7,0.115,0.19,0.285,0.378,1,3600.0,683.0,594.3,88.7,860.7,683.0,914.1,747.0,650.0,97.0,860.7,747.0,999.7,Tracheophyta; Eucalyptus L'Hér.
2016,2016-07-15,Porto,Valongo,Alfena,Serra Amarela (Costa),41.2386245727539,-8.52586364746094,NC,89.0,2016-07-15T15:00,32.1,25,9.5,33.4,0.0,0.0,0.0,0.0,0,1017.2,1007.1,0,0,0,0,0.65,3.59,4.1,5.2,52,65,16.2,33.1,24.3,21.0,16.8,0.116,0.19,0.285,0.379,1,3600.0,823.7,726.2,97.5,892.1,823.7,1077.6,870.0,767.0,103.0,892.1,870.0,1138.2,Eucalyptus L'Hér.; Tracheophyta; Magnoliopsida; Pinus pinaster Aiton
2016,2016-07-15,Porto,Felgueiras,Torrados,Agras de Baixo (Nogueirinha),41.3602350001865,-8.2375720000267,Desconhecida,324.0,2016-07-15T18:00,30.6,26,8.8,29.7,0.0,0.0,0.0,0.0,0,1016.5,980.3,0,0,0,0,0.29,3.27,4.1,5.6,15,27,11.2,31.0,23.9,20.0,15.3,0.105,0.191,0.289,0.378,1,3600.0,322.7,261.7,61.0,728.0,322.7,475.9,402.0,326.0,76.0,728.0,402.0,592.8,Magnoliopsida; Tracheophyta; Eucalyptus L'Hér.; Vitis vinifera L.
2016,2016-07-15,Porto,Valongo,Alfena,Vilar (São Lázaro),41.2391739998923,-8.52271000014411,NC,94.0,2016-07-15T20:00,27.4,43,13.9,27.0,0.0,0.0,0.0,0.0,0,1016.1,1005.3,0,0,0,0,0.12,2.06,11.4,18.4,349,357,19.1,27.9,25.3,21.0,16.8,0.115,0.189,0.284,0.378,1,2120.4,0.4,0.2,0.1,2.4,0.3,0.8,54.0,32.0,22.0,254.7,54.0,117.8,Eucalyptus L'Hér.; Tracheophyta; Magnoliopsida
2016,2016-07-15,Porto,Gondomar,São Pedro da Cova,LG. PASSAL (Passal),41.1525369999144,-8.50351699988047,Desconhecida,79.0,2016-07-15T21:00,26.2,49,14.5,26.1,0.0,0.0,0.0,0.0,0,1016.5,1007.4,0,0,0,0,0.09,1.75,10.8,18.3,4,10,19.8,26.4,25.3,21.1,16.9,0.115,0.189,0.284,0.378,0,0.0,0.0,0.0,0.0,0.0,0.0,0.0,0.0,0.0,0.0,0.0,0.0,0.0,Eucalyptus L'Hér.; Tracheophyta; Magnoliopsida; Pinus pinaster Aiton
2016,2016-07-15,Porto,Vila Nova de Gaia,Vilar do Paraíso,Gramoinhos (Caminho da Carreira Velha),41.104375,-8.62581700007121,NC,66.0,2016-07-15T22:00,25.0,58,16.2,24.9,0.0,0.0,0.0,0.0,0,1016.0,1008.3,0,0,0,0,0.09,1.32,14.9,27.5,7,14,24.5,25.3,25.2,21.0,16.9,0.132,0.198,0.289,0.381,0,0.0,0.0,0.0,0.0,0.0,0.0,0.0,0.0,0.0,0.0,0.0,0.0,0.0,Tracheophyta; Magnoliopsida
2016,2016-07-16,Porto,Santo Tirso,Monte Córdova,São Salvador (Casais),41.3142020003001,-8.43245500034756,NC,383.0,2016-07-16T00:00,19.4,53,9.6,17.8,0.0,0.0,0.0,0.0,0,1017.2,972.9,0,0,0,0,0.06,1.06,10.8,14.2,92,81,19.8,19.8,22.9,19.4,14.8,0.102,0.201,0.297,0.38,0,0.0,0.0,0.0,0.0,0.0,0.0,0.0,0.0,0.0,0.0,0.0,0.0,0.0,Tracheophyta; Vitis vinifera L.; Eucalyptus L'Hér.; Pinus pinaster Aiton; Magnoliopsida
2016,2016-07-16,Porto,Penafiel,Galegos,Lugar da Ribeira (EN106 (IC35) Km 31),41.1649279997084,-8.30710699982113,NC,206.0,2016-07-16T00:00,21.5,49,10.4,20.2,0.0,0.0,0.0,0.0,0,1017.0,993.0,0,0,0,0,0.06,1.3,9.4,13.0,90,84,16.6,20.5,23.4,20.1,15.9,0.132,0.2,0.292,0.381,0,0.0,0.0,0.0,0.0,0.0,0.0,0.0,0.0,0.0,0.0,0.0,0.0,0.0,Eucalyptus L'Hér.; Vitis vinifera L.
