year,date,district,municipality,parish,local,latitude,longitude,cause,elevation,hourly.time,hourly.temperature_2m,hourly.relative_humidity_2m,hourly.dew_point_2m,hourly.apparent_temperature,hourly.precipitation,hourly.rain,hourly.snowfall,hourly.snow_depth,hourly.weather_code,hourly.pressure_msl,hourly.surface_pressure,hourly.cloud_cover,hourly.cloud_cover_low,hourly.cloud_cover_mid,hourly.cloud_cover_high,hourly.et0_fao_evapotranspiration,hourly.vapour_pressure_deficit,hourly.wind_speed_10m,hourly.wind_speed_100m,hourly.wind_direction_10m,hourly.wind_direction_100m,hourly.wind_gusts_10m,hourly.soil_temperature_0_to_7cm,hourly.soil_temperature_7_to_28cm,hourly.soil_temperature_28_to_100cm,hourly.soil_temperature_100_to_255cm,hourly.soil_moisture_0_to_7cm,hourly.soil_moisture_7_to_28cm,hourly.soil_moisture_28_to_100cm,hourly.soil_moisture_100_to_255cm,hourly.is_day,hourly.sunshine_duration,hourly.shortwave_radiation_instant,hourly.direct_radiation_instant,hourly.diffuse_radiation_instant,hourly.direct_normal_irradiance_instant,hourly.global_tilted_irradiance_instant,hourly.terrestrial_radiation_instant,hourly.shortwave_radiation,hourly.direct_radiation,hourly.diffuse_radiation,hourly.direct_normal_irradiance,hourly.global_tilted_irradiance,hourly.terrestrial_radiation,scientificNames
2017,2017-07-27,Porto,Penafiel,Valpedre,Lug. Barreiros (Barreiros),41.1307879998949,-8.31524799982707,NC,340.0,2017-07-27T21:00,19.4,86,17.0,21.2,0.0,0.0,0.0,0.0,0,1018.2,978.7,0,0,0,0,0.0,0.32,5.1,10.9,266,287,14.4,24.1,24.2,20.9,17.9,0.11,0.173,0.255,0.333,0,0.0,0.0,0.0,0.0,0.0,0.0,0.0,0.0,0.0,0.0,0.0,0.0,0.0,Eucalyptus L'Hér.; Magnoliopsida; Tracheophyta
2017,2017-03-10,Porto,Penafiel,Recezinhos (São Martinho),Barroca (Rio Bom),41.2222730000814,-8.20360800001356,NC,220.0,2017-03-10T14:00,25.1,37,9.5,24.4,0.0,0.0,0.0,0.0,0,1018.8,993.5,12,0,0,39,0.51,1.99,10.6,14.3,208,205,24.8,20.3,14.4,11.7,11.0,0.362,0.379,0.397,0.387,1,3600.0,697.7,605.1,92.6,911.4,697.7,921.0,723.0,627.0,96.0,911.4,723.0,954.4,Magnoliopsida; Vitis vinifera L.; Eucalyptus L'Hér.; Tracheophyta
2017,2017-07-27,Porto,Penafiel,Luzim,Quinta do Outeirinho (Sequeiros),41.1473480002085,-8.24413699997796,NC,250.0,2017-07-27T22:00,19.1,91,17.6,21.1,0.0,0.0,0.0,0.0,0,1018.5,989.3,9,10,0,0,0.0,0.21,5.1,9.7,266,285,13.0,23.6,24.6,21.4,18.4,0.11,0.173,0.255,0.333,0,0.0,0.0,0.0,0.0,0.0,0.0,0.0,0.0,0.0,0.0,0.0,0.0,0.0,Vitis vinifera L.; Magnoliopsida; Tracheophyta; Eucalyptus L'Hér.
2017,2017-07-27,Porto,Felgueiras,Lagares,Lug. Oleiros (Penido de Além),41.3662179999881,-8.23702199988895,Desconhecida,355.0,2017-07-27T22:00,18.3,95,17.5,19.7,0.0,0.0,0.0,0.0,0,1018.5,977.1,5,6,0,0,0.0,0.1,8.7,16.6,287,300,20.9,23.3,24.3,21.1,18.3,0.104,0.158,0.232,0.323,0,0.0,0.0,0.0,0.0,0.0,0.0,0.0,0.0,0.0,0.0,0.0,0.0,0.0,Eucalyptus L'Hér.; Tracheophyta; Magnoliopsida; Vitis vinifera L.
2017,2017-07-27,Porto,Marco de Canaveses,Vila Boa de Quires,Lugar de Vilarelho (Vilarelho),41.1997969998254,-8.21124800046285,Desconhecida,291.0,2017-07-27T21:00,19.8,87,17.5,21.4,0.0,0.0,0.0,0.0,0,1018.2,984.3,0,0,0,0,0.0,0.3,7.4,14.8,284,299,19.8,24.4,24.5,21.3,18.4,0.111,0.171,0.251,0.333,0,0.0,0.0,0.0,0.0,0.0,0.0,0.0,0.0,0.0,0.0,0.0,0.0,0.0,Pinus pinaster Aiton; Tracheophyta; Eucalyptus L'Hér.; Magnoliopsida; Vitis vinifera L.; Quercus L.; Pinales; 
2017,2017-07-27,Porto,Maia,Moreira,ZO. Industrial da Maia (Rua de António Domingos Alves Pereira),41.2568249999152,-8.63897200001611,Reacendimento,128.0,2017-07-27T23:00,18.1,99,17.9,19.6,0.0,0.0,0.0,0.0,3,1018.3,1003.1,90,100,0,0,0.0,0.02,9.0,14.8,323,337,18.4,21.3,22.6,20.7,18.4,0.134,0.163,0.242,0.337,0,0.0,0.0,0.0,0.0,0.0,0.0,0.0,0.0,0.0,0.0,0.0,0.0,0.0,Magnoliopsida; Eucalyptus L'Hér.; Tracheophyta; Pinus pinaster Aiton; 
2017,2017-07-27,Porto,Matosinhos,Leça do Balio,Lugar Monte Grande (Rua das Pereiras),41.2267620001899,-8.64413000000848,NC,58.0,2017-07-27T23:00,18.5,99,18.4,20.3,0.0,0.0,0.0,0.0,3,1018.3,1011.4,90,100,0,0,0.0,0.02,9.0,14.8,323,337,18.4,21.7,23.1,21.2,18.9,0.134,0.163,0.242,0.337,0,0.0,0.0,0.0,0.0,0.0,0.0,0.0,0.0,0.0,0.0,0.0,0.0,0.0,Eucalyptus L'Hér.; Magnoliopsida; Tracheophyta
2017,2017-07-27,Porto,Penafiel,Galegos,Lugar de S. Pedro (São Pedro),41.1565450000763,-8.32270699977875,NC,320.0,2017-07-27T23:00,18.5,92,17.2,20.7,0.0,0.0,0.0,0.0,1,1018.5,981.2,24,27,0,0,0.0,0.17,2.9,4.7,240,274,12.2,22.5,24.0,21.0,18.0,0.11,0.173,0.255,0.333,0,0.0,0.0,0.0,0.0,0.0,0.0,0.0,0.0,0.0,0.0,0.0,0.0,0.0,Eucalyptus L'Hér.; Tracheophyta; Vitis vinifera L.; Magnoliopsida
2017,2017-07-28,Porto,Penafiel,Croca,Ribeiro (Ribeira),41.2161749998728,-8.23893500010172,NC,360.0,2017-07-28T01:00,17.5,98,17.2,19.7,0.0,0.0,0.0,0.0,2,1019.0,976.9,60,67,0,0,0.0,0.04,2.4,6.2,243,263,9.4,21.2,23.4,20.9,18.0,0.109,0.17,0.25,0.333,0,0.0,0.0,0.0,0.0,0.0,0.0,0.0,0.0,0.0,0.0,0.0,0.0,0.0,Magnoliopsida; Eucalyptus L'Hér.; Vitis vinifera L.; Tracheophyta
2017,2017-03-10,Porto,Santo Tirso,Monte Córdova,Lug. Valinhas (Quinta de Linhares),41.31850900001,-8.44604699982537,NC,394.0,2017-03-10T14:00,23.8,42,9.9,23.4,0.0,0.0,0.0,0.0,0,1018.9,973.9,12,0,0,39,0.48,1.72,9.3,12.8,196,191,21.6,19.3,13.3,10.7,10.0,0.364,0.382,0.402,0.387,1,3600.0,695.8,602.2,93.6,908.2,695.8,919.9,721.0,624.0,97.0,908.2,721.0,953.2,Pinus pinaster Aiton; Tracheophyta; Eucalyptus L'Hér.; Vitis vinifera L.; Magnoliopsida
2017,2017-07-28,Porto,Paredes,Parada de Todeia,Lug do MArco (Areeiro),41.169624999894,-8.37347399976519,NC,187.0,2017-07-28T02:00,19.1,95,18.3,21.8,0.0,0.0,0.0,0.0,3,1018.7,996.7,90,100,0,0,0.0,0.11,2.3,2.1,309,301,7.9,22.1,24.1,21.8,18.9,0.135,0.153,0.226,0.338,0,0.0,0.0,0.0,0.0,0.0,0.0,0.0,0.0,0.0,0.0,0.0,0.0,0.0,Magnoliopsida; Pinus pinaster Aiton; Eucalyptus L'Hér.; Tracheophyta; Vitis vinifera L.
2017,2017-07-28,Porto,Felgueiras,Refontoura,Lugar Maias (Panascal),41.330289999644,-8.17537399980757,Reacendimento,349.0,2017-07-28T11:00,25.3,49,13.9,26.6,0.0,0.0,0.0,0.0,0,1018.6,978.9,0,0,0,0,0.55,1.64,9.7,12.3,301,302,25.9,27.7,23.5,21.8,18.6,0.092,0.166,0.249,0.332,1,3600.0,847.5,722.8,124.7,841.4,847.5,1139.5,802.0,684.0,118.0,841.4,802.0,1078.4,Tracheophyta; Vitis vinifera L.; Magnoliopsida; Pinales; Pinus pinaster Aiton
2017,2017-07-28,Porto,Lousada,Lustosa,Lg. São Gonçalo,41.3272550000085,-8.32366700013479,Reacendimento,434.0,2017-07-28T11:00,24.8,49,13.3,25.9,0.0,0.0,0.0,0.0,0,1018.6,969.4,0,0,0,0,0.54,1.59,9.7,12.3,301,302,25.9,27.2,23.0,21.2,18.1,0.092,0.166,0.249,0.332,1,3600.0,847.5,722.8,124.7,841.4,847.5,1139.5,802.0,684.0,118.0,841.4,802.0,1078.4,Pinus pinaster Aiton; Eucalyptus L'Hér.; Vitis vinifera L.; Tracheophyta; Magnoliopsida
2017,2017-07-28,Porto,Santo Tirso,Guimarei,Lugar Serra dos cantoneiros (Costa da Vela),41.3024969998995,-8.50277299986945,NC,242.0,2017-07-28T11:00,24.7,55,15.1,26.2,0.0,0.0,0.0,0.0,0,1018.9,991.1,0,0,0,0,0.52,1.39,10.8,13.8,307,309,27.7,25.8,22.3,21.0,18.5,0.14,0.157,0.229,0.332,1,3600.0,834.4,708.6,125.8,826.8,834.4,1136.8,789.0,670.0,119.0,826.8,789.0,1075.0,Eucalyptus L'Hér.; Magnoliopsida
2017,2017-07-28,Porto,Penafiel,Canelas,Lg. Castelo (Silvosa),41.0788150003221,-8.30976000044081,Desconhecida,252.0,2017-07-28T12:00,26.5,44,13.4,28.1,0.0,0.0,0.0,0.0,0,1018.8,990.0,0,0,0,0,0.62,1.92,9.5,11.4,295,298,29.9,29.1,23.3,21.6,18.7,0.106,0.164,0.238,0.322,1,3600.0,910.0,784.7,125.3,857.6,910.0,1213.7,886.0,764.0,122.0,857.6,886.0,1181.7,Eucalyptus L'Hér.; Vitis vinifera L.; Magnoliopsida; Tracheophyta
2017,2017-07-28,Porto,Matosinhos,Guifões,L. Gatões (Travessa do Bocelo),41.2067379999161,-8.65626899984148,NC,71.0,2017-07-28T12:00,22.5,59,14.0,23.5,0.0,0.0,0.0,0.0,0,1019.5,1011.2,0,0,0,0,0.54,1.13,14.3,17.3,295,301,35.6,26.6,22.3,21.1,18.8,0.133,0.163,0.24,0.337,1,3600.0,904.2,774.8,129.5,848.2,904.2,1211.6,880.0,754.0,126.0,848.2,880.0,1179.2,Tracheophyta; Magnoliopsida
2017,2017-07-28,Porto,Amarante,Travanca,Lugar de Moutouce (Matouce),41.262113000022,-8.18939500013987,Desconhecida,166.0,2017-07-28T12:00,27.7,42,13.6,29.4,0.0,0.0,0.0,0.0,0,1018.8,999.8,0,0,0,0,0.64,2.15,9.3,11.4,298,298,28.4,29.2,23.9,22.2,19.3,0.108,0.169,0.247,0.333,1,3600.0,912.8,785.5,127.3,859.2,912.8,1212.7,889.0,765.0,124.0,859.2,889.0,1181.1,Tracheophyta; Magnoliopsida; Eucalyptus L'Hér.; Vitis vinifera L.; Pinus pinaster Aiton; 
2017,2017-03-10,Porto,Paços de Ferreira,Freamunde,Lug. Talhõ (Bouça),41.2967900000678,-8.33738799995846,Desconhecida,369.0,2017-03-10T14:00,23.9,42,10.1,23.6,0.0,0.0,0.0,0.0,0,1018.9,976.7,12,0,0,39,0.49,1.74,9.3,12.8,196,191,21.6,19.5,13.5,10.8,10.1,0.364,0.382,0.402,0.387,1,3600.0,695.8,602.2,93.6,908.2,695.8,919.9,721.0,624.0,97.0,908.2,721.0,953.2,Tracheophyta; Eucalyptus L'Hér.; Magnoliopsida; Pinus pinaster Aiton; 
2017,2017-07-28,Porto,Paredes,Rebordosa,Lg. Alminhas (Cortinhas),41.2134020000034,-8.3932029999627,NC,417.0,2017-07-28T12:00,26.0,41,11.9,27.2,0.0,0.0,0.0,0.0,0,1018.8,971.6,0,0,0,0,0.62,1.97,9.3,11.4,298,298,28.4,27.6,22.3,20.6,17.6,0.108,0.169,0.247,0.333,1,3600.0,912.8,785.5,127.3,859.2,912.8,1212.7,889.0,765.0,124.0,859.2,889.0,1181.1,Magnoliopsida; Pinus pinaster Aiton; Eucalyptus L'Hér.; Tracheophyta; Vitis vinifera L.
2017,2017-07-28,Porto,Gondomar,São Pedro da Cova,Lugar Rio Ferreira (Alto da Lameira),41.1385920000076,-8.48440999997987,NC,106.0,2017-07-28T13:00,26.6,47,14.3,27.8,0.0,0.0,0.0,0.0,0,1018.9,1006.7,0,0,0,0,0.64,1.84,14.6,17.9,303,304,32.8,29.8,23.9,22.0,19.3,0.12,0.16,0.24,0.34,1,3600.0,921.2,794.2,127.0,860.8,921.2,1223.9,921.0,794.0,127.0,860.8,921.0,1223.6,Tracheophyta; Eucalyptus L'Hér.; Pinus pinaster Aiton; Magnoliopsida
2017,2017-07-28,Porto,Paços de Ferreira,Carvalhosa,Rua de Mação,41.3041499998834,-8.35906700028313,Desconhecida,332.0,2017-07-28T13:00,25.9,44,12.8,26.9,0.0,0.0,0.0,0.0,0,1018.7,980.9,0,0,0,0,0.64,1.86,13.2,16.5,299,302,33.1,29.5,23.1,21.1,18.3,0.097,0.167,0.248,0.328,1,3600.0,921.0,795.0,126.0,862.7,921.0,1222.5,921.0,795.0,126.0,862.7,921.0,1222.4,Tracheophyta; Eucalyptus L'Hér.; Pinus pinaster Aiton; Magnoliopsida; Vitis vinifera L.; Quercus L.; 
2017,2017-07-28,Porto,Maia,Moreira,Zona industrial (Avenida Professor Mota Pinto),41.25575799995,-8.63737199995253,Reacendimento,118.0,2017-07-28T14:00,22.7,55,13.3,22.8,0.0,0.0,0.0,0.0,0,1019.3,1005.5,0,0,0,0,0.55,1.23,18.1,23.5,305,310,38.5,27.6,22.5,20.8,18.5,0.133,0.162,0.239,0.337,1,3600.0,872.6,748.0,124.7,847.2,872.6,1171.1,896.0,768.0,128.0,847.2,896.0,1202.5,Magnoliopsida; Eucalyptus L'Hér.; Tracheophyta; Pinus pinaster Aiton; 
2017,2017-07-28,Porto,Felgueiras,Refontoura,Lugar Maias (Aveleiras),41.3330849997203,-8.18002699957954,Reacendimento,341.0,2017-07-28T14:00,28.0,37,11.9,28.5,0.0,0.0,0.0,0.0,0,1018.2,979.7,0,0,0,0,0.67,2.39,13.7,17.4,297,297,32.4,31.8,24.4,21.8,18.7,0.089,0.165,0.245,0.331,1,3600.0,881.5,761.9,119.7,865.5,881.5,1167.7,906.0,783.0,123.0,865.5,906.0,1200.1,Tracheophyta; Vitis vinifera L.; Magnoliopsida; Eucalyptus L'Hér.; Pinus pinaster Aiton; Pinales
2017,2017-07-28,Porto,Marco de Canaveses,Vila Boa de Quires,Lugar de Vilarelho (Ribeira de Vilarelho),41.1975370004442,-8.21212400012546,Reacendimento,272.0,2017-07-28T14:00,27.7,40,13.0,28.6,0.0,0.0,0.0,0.0,0,1018.3,987.4,0,0,0,0,0.66,2.22,13.9,17.7,295,297,34.2,30.5,23.9,21.5,18.6,0.108,0.169,0.246,0.333,1,3600.0,881.7,760.1,121.7,862.5,881.7,1169.0,906.0,781.0,125.0,862.5,906.0,1201.1,Pinus pinaster Aiton; Tracheophyta; Eucalyptus L'Hér.; Magnoliopsida; Vitis vinifera L.; Quercus L.; Pinales; 
2017,2017-07-28,Porto,Santo Tirso,Roriz,Lugar da Costa (Costa),41.3536069999801,-8.38059700012207,NC,237.0,2017-07-28T13:00,26.4,44,13.2,27.6,0.0,0.0,0.0,0.0,0,1018.7,991.6,0,0,0,0,0.64,1.93,12.9,16.1,297,299,32.4,28.8,23.1,21.3,18.6,0.114,0.173,0.249,0.33,1,3600.0,919.0,794.0,125.0,862.0,919.0,1221.9,919.0,794.0,125.0,862.0,919.0,1221.8,Tracheophyta; Magnoliopsida; Vitis vinifera L.
2017,2017-07-28,Porto,Gondomar,Valbom,Lugar Caminho da vinha (São Roque),41.131394999822,-8.56532800038656,NC,56.0,2017-07-28T14:00,23.1,56,13.8,23.5,0.0,0.0,0.0,0.0,0,1019.3,1012.7,0,0,0,0,0.55,1.24,17.7,23.2,308,312,38.5,27.2,22.6,20.9,18.7,0.148,0.18,0.257,0.345,1,3600.0,873.6,750.9,122.7,850.1,873.6,1171.6,897.0,771.0,126.0,850.1,897.0,1203.1,Tracheophyta; Magnoliopsida
2017,2017-03-10,Porto,Felgueiras,Pombeiro de Ribavizela,Lugar das Casinhas (Agrelo),41.3853930000464,-8.21152000003391,Desconhecida,344.0,2017-03-10T13:00,23.3,43,10.0,23.2,0.0,0.0,0.0,0.0,0,1019.7,980.2,0,0,0,1,0.49,1.64,8.4,11.0,140,142,22.7,19.1,13.4,11.0,10.4,0.367,0.383,0.403,0.386,1,3600.0,740.5,636.3,104.2,906.8,740.5,973.5,739.0,635.0,104.0,906.8,739.0,971.5,Eucalyptus L'Hér.; Vitis vinifera L.; Magnoliopsida; Tracheophyta; Pinus pinaster Aiton
2017,2017-07-28,Porto,Lousada,Lustosa,São Gonçalo,41.3277299997542,-8.32430300023821,Reacendimento,422.0,2017-07-28T14:00,27.5,37,11.3,27.8,0.0,0.0,0.0,0.0,0,1018.2,970.7,0,0,0,0,0.66,2.33,13.7,17.4,297,297,32.4,31.2,23.8,21.3,18.1,0.089,0.165,0.245,0.331,1,3600.0,881.5,761.9,119.7,865.5,881.5,1167.7,906.0,783.0,123.0,865.5,906.0,1200.1,Pinus pinaster Aiton; Eucalyptus L'Hér.; Vitis vinifera L.; Tracheophyta; Magnoliopsida
2017,2017-07-28,Porto,Marco de Canaveses,Alpendurada e Matos,Lg. São João (ALPENDURADA),41.0865780001216,-8.24024200015598,NC,180.0,2017-07-28T15:00,27.3,45,14.4,28.0,0.0,0.0,0.0,0.0,0,1018.3,997.7,0,0,0,0,0.61,1.99,15.5,19.5,292,293,37.4,31.6,24.8,22.0,19.0,0.105,0.173,0.255,0.335,1,3600.0,790.5,678.1,112.4,852.4,790.5,1055.2,837.0,718.0,119.0,852.4,837.0,1117.3,Vitis vinifera L.; Tracheophyta; Magnoliopsida; Castanea sativa Mill.; Eucalyptus L'Hér.
2017,2017-07-28,Porto,Marco de Canaveses,Soalhães,Lg. Lameirinha (Poço),41.1716829999288,-8.12646700011359,Desconhecida,183.0,2017-07-28T15:00,27.5,43,13.9,28.1,0.0,0.0,0.0,0.0,0,1018.2,997.3,0,0,0,0,0.61,2.09,15.4,19.9,291,292,36.0,31.4,24.8,22.0,18.9,0.106,0.17,0.25,0.333,1,3600.0,785.8,673.4,112.4,846.8,785.8,1054.9,832.0,713.0,119.0,846.8,832.0,1116.9,Magnoliopsida; Tracheophyta; Quercus L.; Eucalyptus L'Hér.; Pinus pinaster Aiton; Vitis vinifera L.; Castanea sativa Mill.; Pinales; 
2017,2017-07-28,Porto,Matosinhos,Guifões,Monte dos Porridos (Gatães),41.2143680000305,-8.66260499954224,NC,54.0,2017-07-28T15:00,22.9,57,14.0,22.8,0.0,0.0,0.0,0.0,0,1019.1,1012.8,0,0,0,0,0.51,1.19,18.7,24.7,308,312,39.2,28.2,23.2,21.2,18.9,0.132,0.162,0.239,0.337,1,3600.0,777.1,659.8,117.2,827.1,777.1,1058.2,822.0,698.0,124.0,827.1,822.0,1119.4,Tracheophyta; Magnoliopsida; Acacia Mill.; Eucalyptus L'Hér.
2017,2017-07-28,Porto,Lousada,Boim,Rua da Ameixoeira,41.2512000000477,-8.27793500052558,Desconhecida,218.0,2017-07-28T16:00,26.4,46,13.7,26.1,0.0,0.0,0.0,0.0,0,1018.4,993.4,0,0,0,0,0.52,1.87,15.9,21.1,298,300,38.2,30.8,24.9,21.9,18.9,0.107,0.168,0.246,0.333,1,3600.0,640.9,538.0,102.9,804.1,640.9,887.6,704.0,591.0,113.0,804.1,704.0,975.0,Tracheophyta; Eucalyptus L'Hér.; Pinus pinaster Aiton; Magnoliopsida; Vitis vinifera L.; 
2017,2017-07-28,Porto,Penafiel,Canelas,Castelo (Silvosa),41.0788750002119,-8.31047099961175,NC,254.0,2017-07-28T15:00,26.0,46,13.4,26.0,0.0,0.0,0.0,0.0,0,1018.5,989.5,0,0,0,0,0.58,1.82,17.1,22.2,300,302,40.0,31.0,24.4,21.6,18.7,0.105,0.164,0.238,0.322,1,3600.0,784.1,672.6,111.5,844.6,784.1,1056.5,830.0,712.0,118.0,844.6,830.0,1118.3,Eucalyptus L'Hér.; Vitis vinifera L.; Magnoliopsida; Tracheophyta
2017,2017-07-28,Porto,Felgueiras,Vila Cova da Lixa,Lugar São Roque (Campo),41.3281879997253,-8.17310800022549,Reacendimento,316.0,2017-07-28T16:00,26.7,45,13.7,26.3,0.0,0.0,0.0,0.0,0,1018.2,982.3,0,0,0,0,0.52,1.93,16.3,21.3,292,294,36.7,32.0,25.2,22.0,18.8,0.089,0.164,0.244,0.331,1,3600.0,638.9,537.9,101.0,805.5,638.9,885.8,702.0,591.0,111.0,805.5,702.0,973.3,Tracheophyta; Vitis vinifera L.; Magnoliopsida; Pinales; Pinus pinaster Aiton
2017,2017-07-28,Porto,Paços de Ferreira,Codessos,Rua do Pinheiro Manso,41.3315829997592,-8.34558199988471,Desconhecida,421.0,2017-07-28T16:00,24.8,47,12.8,24.0,0.0,0.0,0.0,0.0,0,1018.5,970.7,0,0,0,0,0.49,1.65,17.1,22.2,298,299,38.2,30.3,24.0,20.8,17.8,0.093,0.165,0.247,0.335,1,3600.0,639.1,536.2,102.9,801.5,639.1,887.5,702.0,589.0,113.0,801.5,702.0,974.8,Magnoliopsida; Eucalyptus L'Hér.; Pinus pinaster Aiton; Tracheophyta; Quercus suber L.; ; Quercus L.; Acacia Mill.
2017,2017-07-28,Porto,Paredes,Vilela,Lugar de Fábrica (Fonte),41.24125,-8.38938199996948,NC,275.0,2017-07-28T16:00,24.8,49,13.5,24.1,0.0,0.0,0.0,0.0,0,1018.7,987.2,0,0,0,0,0.49,1.58,17.8,23.3,306,308,38.9,29.5,24.2,21.3,18.5,0.134,0.154,0.229,0.34,1,3600.0,640.2,536.4,103.8,800.2,640.2,889.2,703.0,589.0,114.0,800.2,703.0,976.4,Magnoliopsida; Pinus pinaster Aiton; Eucalyptus L'Hér.; Tracheophyta; Vitis vinifera L.
2017,2017-07-28,Porto,Lousada,Lustosa,São Gonçalo,41.3273429997762,-8.32413499991099,Reacendimento,434.0,2017-07-28T17:00,24.8,49,13.4,23.5,0.0,0.0,0.0,0.0,0,1018.3,969.1,0,0,0,0,0.4,1.6,16.1,21.3,297,298,36.4,30.5,24.8,21.2,18.1,0.089,0.164,0.244,0.331,1,3600.0,468.1,380.9,87.2,745.7,468.1,677.5,542.0,441.0,101.0,745.7,542.0,784.5,Pinus pinaster Aiton; Eucalyptus L'Hér.; Vitis vinifera L.; Tracheophyta; Magnoliopsida
2017,2017-07-28,Porto,Vila Nova de Gaia,Sandim,Lugar das Fontaínhas (Rua das Fontainha),41.0468629995982,-8.50381500005722,NC,170.0,2017-07-28T17:00,24.1,57,15.1,23.3,0.0,0.0,0.0,0.0,0,1018.8,999.1,0,0,0,0,0.37,1.28,16.6,21.2,318,320,37.1,29.4,24.9,21.7,19.2,0.131,0.152,0.223,0.328,1,3600.0,467.6,379.5,88.2,737.4,467.6,682.7,541.0,439.0,102.0,737.4,541.0,789.8,Eucalyptus L'Hér.; Tracheophyta; Magnoliopsida; Vitis vinifera L.
2017,2017-07-28,Porto,Póvoa de Varzim,Balazar,Lg. Monte (Gandra),41.3948270003001,-8.61856799999873,Reacendimento,110.0,2017-07-28T17:00,21.8,64,14.6,20.6,0.0,0.0,0.0,0.0,0,1018.9,1006.0,0,0,0,0,0.34,0.95,18.3,24.5,313,317,39.6,27.7,23.6,21.0,18.5,0.103,0.165,0.245,0.329,1,3600.0,467.5,377.5,90.0,730.6,467.5,685.3,540.0,436.0,104.0,730.6,540.0,791.6,Eucalyptus L'Hér.; Tracheophyta; Pinus pinaster Aiton; Magnoliopsida
2017,2017-07-28,Porto,Paredes,Mouriz,Lugar da Senras (Quinta),41.1949849997626,-8.3559669997957,NC,183.0,2017-07-28T19:00,22.3,68,16.1,22.6,0.0,0.0,0.0,0.0,0,1018.6,997.3,0,0,0,0,0.13,0.85,12.4,17.1,306,309,31.7,27.6,25.5,22.0,19.0,0.132,0.151,0.222,0.338,1,3600.0,106.1,69.1,37.0,460.9,106.1,198.8,172.0,112.0,60.0,460.9,172.0,322.4,Magnoliopsida; Pinus pinaster Aiton; Eucalyptus L'Hér.; Tracheophyta; Vitis vinifera L.
2017,2017-07-28,Porto,Felgueiras,Airães,Lugar de São Roque (Alto de Penude),41.3280819998847,-8.17479300022125,Reacendimento,331.0,2017-07-28T21:00,20.0,78,16.0,21.2,0.0,0.0,0.0,0.0,0,1019.3,980.9,1,0,0,2,0.01,0.53,6.1,13.0,273,289,19.4,25.5,25.7,22.0,18.7,0.089,0.164,0.244,0.331,0,0.0,0.0,0.0,0.0,0.0,0.0,0.0,0.0,0.0,0.0,0.0,0.0,0.0,Tracheophyta; Vitis vinifera L.; Magnoliopsida; Pinales; Pinus pinaster Aiton
2017,2017-03-11,Porto,Paredes,Vandoma,Cruzes (Igreja),41.1925559997559,-8.40491599983639,NC,346.0,2017-03-11T11:00,13.2,72,8.2,11.1,0.0,0.0,0.0,0.0,3,1023.3,982.1,90,100,0,0,0.14,0.43,11.2,15.3,303,304,27.4,13.0,12.5,10.9,9.8,0.366,0.374,0.392,0.38,1,1476.74,239.9,69.5,170.4,109.2,239.9,882.1,221.0,64.0,157.0,109.2,221.0,812.5,Magnoliopsida; Pinus pinaster Aiton; Eucalyptus L'Hér.; Tracheophyta; Vitis vinifera L.
2017,2017-07-29,Porto,Penafiel,Rio de Moinhos,Lugar Senhora dos Remedios (Vista Alegre),41.1124599997203,-8.26411700036791,NC,259.0,2017-07-29T01:00,18.1,90,16.5,19.9,0.0,0.0,0.0,0.0,0,1018.8,988.4,6,7,0,0,0.0,0.2,3.1,3.2,135,117,8.3,21.9,24.4,21.7,18.5,0.104,0.171,0.254,0.335,0,0.0,0.0,0.0,0.0,0.0,0.0,0.0,0.0,0.0,0.0,0.0,0.0,0.0,Eucalyptus L'Hér.; Tracheophyta; Magnoliopsida; Vitis vinifera L.
2017,2017-07-29,Porto,Vila Nova de Gaia,Pedroso,Lugar Paradela de baixo (Paradela de Baixo),41.0688239999612,-8.54071999973721,NC,118.0,2017-07-29T02:00,18.7,90,17.0,20.9,0.0,0.0,0.0,0.0,0,1018.5,1004.5,3,3,0,1,0.0,0.22,2.3,2.3,321,18,4.7,22.0,24.3,22.0,19.3,0.127,0.157,0.235,0.339,0,0.0,0.0,0.0,0.0,0.0,0.0,0.0,0.0,0.0,0.0,0.0,0.0,0.0,Tracheophyta; Eucalyptus L'Hér.; Magnoliopsida
2017,2017-07-29,Porto,Vila Nova de Gaia,Pedroso,Lugar da Alheira (Travessa da Alheira dAquem),41.0745019997491,-8.54057000001272,Desconhecida,137.0,2017-07-29T03:00,18.1,93,17.0,20.0,0.0,0.0,0.0,0.0,0,1018.4,1002.2,14,16,0,0,0.0,0.15,3.9,8.0,326,342,7.9,21.5,24.0,21.9,19.1,0.127,0.157,0.235,0.339,0,0.0,0.0,0.0,0.0,0.0,0.0,0.0,0.0,0.0,0.0,0.0,0.0,0.0,Tracheophyta; Eucalyptus L'Hér.; Magnoliopsida
2017,2017-07-29,Porto,Marco de Canaveses,Vila Boa do Bispo,Lugar de Alvelo (Pereira),41.1424330001407,-8.22427499983046,Desconhecida,79.0,2017-07-29T04:00,18.3,92,17.0,20.2,0.0,0.0,0.0,0.0,1,1018.5,1009.1,42,47,0,0,0.0,0.17,3.5,7.6,336,335,8.3,21.8,24.7,22.7,19.7,0.132,0.15,0.222,0.338,0,0.0,0.0,0.0,0.0,0.0,0.0,0.0,0.0,0.0,0.0,0.0,0.0,0.0,Tracheophyta; Pinus pinaster Aiton; Vitis vinifera L.; Quercus L.; Eucalyptus L'Hér.; Magnoliopsida; Acacia Mill.; 
2017,2017-07-29,Porto,Vila do Conde,Tougues,Lugar Espinheira (Carvalheirada),41.3651199997796,-8.69710700035095,Reacendimento,24.0,2017-07-29T09:00,21.6,87,19.3,24.3,0.0,0.0,0.0,0.0,3,1018.8,1016.0,93,99,6,0,0.13,0.33,5.6,6.4,207,196,15.5,22.7,22.7,21.7,19.1,0.104,0.165,0.245,0.329,1,0.0,212.9,29.9,182.9,48.5,212.9,817.9,185.0,26.0,159.0,48.5,185.0,710.9,Tracheophyta; Eucalyptus L'Hér.; Pinus pinaster Aiton; Magnoliopsida
2017,2017-07-29,Porto,Lousada,Caíde de Rei,Rua da Lage,41.2633820003933,-8.21757000002596,Reacendimento,295.0,2017-07-29T10:00,24.3,64,17.1,26.0,0.0,0.0,0.0,0.0,3,1018.4,984.6,90,100,0,1,0.32,1.08,5.4,6.6,278,279,18.4,24.9,22.9,21.6,18.5,0.106,0.167,0.245,0.333,1,3600.0,500.4,261.7,238.7,345.4,500.4,1005.3,457.0,239.0,218.0,345.4,457.0,918.2,Tracheophyta; Eucalyptus L'Hér.; Magnoliopsida
2017,2017-07-29,Porto,Felgueiras,Vila Cova da Lixa,S. Roque (Campo),41.3282169999017,-8.1738279999627,Reacendimento,323.0,2017-07-29T10:00,24.5,62,16.8,25.8,0.0,0.0,0.0,0.0,3,1018.5,981.6,92,100,0,5,0.31,1.15,7.3,9.2,290,291,20.5,25.6,23.6,22.1,18.8,0.089,0.163,0.243,0.331,1,3600.0,466.3,225.5,240.8,297.3,466.3,1006.2,426.0,206.0,220.0,297.3,426.0,919.3,Tracheophyta; Vitis vinifera L.; Magnoliopsida; Pinales; Pinus pinaster Aiton
2017,2017-07-29,Porto,Marco de Canaveses,Folhada,Arco (Curvaceira),41.2170050000151,-8.086507999897,Desconhecida,159.0,2017-07-29T13:00,28.7,51,17.5,31.5,0.0,0.0,0.0,0.0,0,1017.6,999.5,5,6,0,0,0.66,1.93,12.6,15.5,265,266,31.7,30.2,24.3,22.4,19.4,0.107,0.167,0.245,0.332,1,3600.0,902.8,751.8,151.0,816.9,902.8,1221.1,903.0,752.0,151.0,816.9,903.0,1221.4,Magnoliopsida; Tracheophyta; Pinus pinaster Aiton; Vitis vinifera L.; Eucalyptus L'Hér.; Olea europaea L.; Quercus L.; Pinales; 
2017,2017-07-29,Porto,Paredes,Sobreira,Vilar,41.139617000156,-8.38098999977112,NC,144.0,2017-07-29T13:00,27.3,59,18.7,30.1,0.0,0.0,0.0,0.0,0,1017.9,1001.4,0,0,0,0,0.62,1.47,16.2,20.2,273,272,36.7,30.0,24.2,22.3,19.3,0.132,0.15,0.221,0.337,1,3600.0,912.0,777.0,135.0,843.7,912.0,1221.9,912.0,777.0,135.0,843.7,912.0,1221.9,Magnoliopsida; Pinus pinaster Aiton; Eucalyptus L'Hér.; Tracheophyta; Vitis vinifera L.
2017,2017-07-29,Porto,Penafiel,Capela,S. Julião (Outeiro),41.1090380001068,-8.36040699958801,NC,233.0,2017-07-29T14:00,25.4,64,18.2,27.5,0.0,0.0,0.0,0.0,0,1018.2,991.5,1,1,0,0,0.56,1.16,18.1,23.1,275,274,43.2,30.7,24.2,21.9,18.8,0.106,0.162,0.237,0.322,1,3600.0,856.5,731.9,124.6,830.9,856.5,1168.7,880.0,752.0,128.0,830.9,880.0,1200.8,Tracheophyta; Magnoliopsida; Eucalyptus L'Hér.
2017,2017-07-29,Porto,Lousada,Nevogilde,Av.ª Penedo de Baixo,41.2526079999076,-8.32291699992286,Desconhecida,232.0,2017-07-29T14:00,25.2,67,18.6,27.5,0.0,0.0,0.0,0.0,0,1018.4,991.8,2,2,0,0,0.55,1.06,17.4,22.4,276,276,40.3,29.5,23.8,21.7,18.8,0.133,0.153,0.228,0.34,1,3600.0,847.8,700.8,147.0,796.3,847.8,1167.7,871.0,720.0,151.0,796.3,871.0,1199.7,Eucalyptus L'Hér.; Quercus L.; Tracheophyta; Magnoliopsida; Vitis vinifera L.
2017,2017-07-29,Porto,Vila Nova de Gaia,Pedroso,Lugar paradela de baixo (Travessa da Paradela),41.0704249999258,-8.53835499975416,NC,103.0,2017-07-29T14:00,25.0,69,18.9,27.4,0.0,0.0,0.0,0.0,0,1018.6,1006.7,14,16,0,0,0.54,0.98,17.4,21.8,277,278,40.0,30.1,24.3,22.2,19.4,0.128,0.158,0.236,0.339,1,3600.0,842.1,699.9,142.1,794.1,842.1,1169.5,865.0,719.0,146.0,794.1,865.0,1201.3,Tracheophyta; Eucalyptus L'Hér.; Magnoliopsida
2017,2017-07-29,Porto,Paços de Ferreira,Penamaior,Serra do Pilar,41.2885800001356,-8.42601199997796,Desconhecida,507.0,2017-07-29T14:00,25.0,60,16.7,26.5,0.0,0.0,0.0,0.0,1,1018.0,960.9,34,38,0,0,0.57,1.27,17.3,21.7,275,275,39.2,29.2,22.7,20.5,17.3,0.094,0.164,0.246,0.335,1,3600.0,853.4,709.4,144.0,806.9,853.4,1166.5,877.0,729.0,148.0,806.9,877.0,1198.7,Magnoliopsida; Eucalyptus L'Hér.; Tracheophyta; Vitis vinifera L.; 
2017,2017-03-11,Porto,Gondomar,São Pedro da Cova,Dom Miguel (Estrada de Dom Miguel),41.1729890002145,-8.51811800003052,NC,178.0,2017-03-11T09:00,13.5,82,10.6,11.5,0.0,0.0,0.0,0.0,3,1022.5,1001.1,85,68,7,67,0.08,0.27,15.3,21.1,311,313,29.9,14.0,14.3,12.5,11.5,0.362,0.372,0.392,0.384,1,3600.0,195.2,80.2,115.1,211.5,195.2,525.6,151.0,62.0,89.0,211.5,151.0,406.6,Magnoliopsida; Tracheophyta; Eucalyptus L'Hér.; Castanea sativa Mill.
2017,2017-07-29,Porto,Vila Nova de Gaia,Vilar do Paraíso,Lugar das Sortes (Rua das Sortes),41.0815679995219,-8.62072000000212,NC,79.0,2017-07-29T14:00,22.3,81,18.9,24.6,0.0,0.0,0.0,0.0,1,1018.8,1009.5,47,52,0,0,0.46,0.51,17.2,21.7,281,281,38.5,27.8,22.8,21.0,18.7,0.135,0.183,0.262,0.35,1,3600.0,822.8,635.8,187.0,721.0,822.8,1170.2,845.0,653.0,192.0,721.0,845.0,1201.8,Tracheophyta; Magnoliopsida; Eucalyptus L'Hér.
2017,2017-07-29,Porto,Gondomar,Foz do Sousa,Zebreiros (ER108 (ER108) Km 12),41.0746599997414,-8.5039599998792,Desconhecida,92.0,2017-07-29T15:00,24.7,71,19.1,27.0,0.0,0.0,0.0,0.0,0,1018.5,1007.8,14,16,0,0,0.49,0.9,16.0,20.0,278,278,38.5,30.3,24.7,22.2,19.4,0.128,0.158,0.235,0.339,1,3600.0,742.6,599.0,143.6,752.9,742.6,1055.5,786.0,634.0,152.0,752.9,786.0,1117.3,Eucalyptus L'Hér.; Magnoliopsida; Pinus pinaster Aiton; Tracheophyta
2017,2017-07-29,Porto,Paços de Ferreira,Carvalhosa,Lugar São Domingos,41.2809729999966,-8.36514799965753,Desconhecida,344.0,2017-07-29T16:00,22.8,73,17.6,23.4,0.0,0.0,0.0,0.0,2,1018.4,978.9,75,83,0,0,0.36,0.75,15.7,20.1,279,279,39.2,29.2,23.9,21.3,18.3,0.096,0.165,0.246,0.327,1,3600.0,539.0,349.6,189.4,523.2,539.0,886.6,592.0,384.0,208.0,523.2,592.0,973.9,Tracheophyta; Eucalyptus L'Hér.; Pinus pinaster Aiton; Magnoliopsida; Vitis vinifera L.; Quercus L.; 
2017,2017-07-29,Porto,Felgueiras,Airães,São Roque (Alto de Penude),41.3304429997338,-8.17482500023312,Reacendimento,341.0,2017-07-29T16:00,25.0,64,17.8,25.8,0.0,0.0,0.0,0.0,0,1018.0,979.1,7,8,0,0,0.41,1.13,16.3,21.0,275,276,37.8,31.0,24.9,22.0,18.7,0.09,0.162,0.243,0.331,1,3600.0,554.9,382.1,172.8,573.9,554.9,883.4,610.0,420.0,190.0,573.9,610.0,971.0,Tracheophyta; Vitis vinifera L.; Magnoliopsida; Pinales; Pinus pinaster Aiton
2017,2017-07-29,Porto,Felgueiras,Sendim,Lugar de Sergudo (Lama),41.3866160000695,-8.18663699997796,Reacendimento,293.0,2017-07-29T18:00,22.8,74,18.0,23.7,0.0,0.0,0.0,0.0,1,1018.1,984.4,50,55,0,0,0.22,0.71,14.5,19.4,284,285,36.0,29.1,25.3,22.1,18.9,0.098,0.154,0.231,0.326,1,3600.0,268.2,191.9,76.3,579.6,268.2,439.4,341.0,244.0,97.0,579.6,341.0,558.6,Magnoliopsida; Eucalyptus L'Hér.; Pinus pinaster Aiton; Tracheophyta
2017,2017-07-29,Porto,Santo Tirso,Roriz,Lugar da Costa (Costa),41.3533030001322,-8.38010400030348,NC,231.0,2017-07-29T18:00,21.4,78,17.5,22.5,0.0,0.0,0.0,0.0,3,1018.3,991.5,82,91,0,0,0.17,0.56,11.2,14.9,285,285,32.4,27.0,24.2,21.5,18.7,0.112,0.171,0.247,0.329,1,3600.0,213.6,100.1,113.5,299.5,213.6,443.6,271.0,127.0,144.0,299.5,271.0,562.7,Tracheophyta; Magnoliopsida; Vitis vinifera L.
2017,2017-07-29,Porto,Valongo,Alfena,LG Aldeia Nova (Aldeia Nova),41.2284049998389,-8.52680699984233,NC,89.0,2017-07-29T20:00,19.5,85,17.0,21.0,0.0,0.0,0.0,0.0,0,1018.0,1007.5,5,6,0,0,0.02,0.33,6.9,11.3,276,279,13.7,25.2,25.2,22.3,19.6,0.105,0.171,0.253,0.33,0,711.9,0.0,0.0,0.0,0.0,0.0,0.0,30.0,13.0,17.0,117.3,30.0,88.4,Tracheophyta; Magnoliopsida; Pinus pinaster Aiton; Eucalyptus L'Hér.
2017,2017-07-29,Porto,Felgueiras,Regilde,Revinhade (Pardieiros),41.3569529999627,-8.26897200001611,Desconhecida,338.0,2017-07-29T21:00,18.1,89,16.2,19.1,0.0,0.0,0.0,0.0,0,1018.6,979.2,17,19,0,0,0.0,0.24,7.8,13.7,283,288,17.3,23.7,24.5,21.6,18.5,0.102,0.156,0.231,0.322,0,0.0,0.0,0.0,0.0,0.0,0.0,0.0,0.0,0.0,0.0,0.0,0.0,0.0,Eucalyptus L'Hér.; Magnoliopsida; Vitis vinifera L.; Pinus pinaster Aiton; Tracheophyta
2017,2017-07-29,Porto,Lousada,Lousada (São Miguel),Rua do Monte,41.303614999983,-8.2376019999716,Desconhecida,326.0,2017-07-29T21:00,18.2,89,16.3,19.4,0.0,0.0,0.0,0.0,0,1018.6,980.5,12,13,0,0,0.0,0.24,7.4,13.1,284,286,16.6,24.1,24.8,21.7,18.5,0.094,0.163,0.245,0.335,0,0.0,0.0,0.0,0.0,0.0,0.0,0.0,0.0,0.0,0.0,0.0,0.0,0.0,Pinus pinaster Aiton; Eucalyptus L'Hér.; Vitis vinifera L.; Tracheophyta; Magnoliopsida
2017,2017-07-30,Porto,Baião,Teixeiró,Várzea (Estalagem),41.1790579997169,-7.9067070002026,Desconhecida,390.0,2017-07-30T00:00,17.4,90,15.8,18.4,0.0,0.0,0.0,0.0,1,1018.4,972.9,28,21,0,32,0.0,0.19,6.6,14.8,257,267,26.3,23.9,26.7,23.7,19.9,0.131,0.152,0.18,0.312,0,0.0,0.0,0.0,0.0,0.0,0.0,0.0,0.0,0.0,0.0,0.0,0.0,0.0,Magnoliopsida; Tracheophyta; Eucalyptus L'Hér.; Pinus pinaster Aiton; Vitis vinifera L.; Pinales; Quercus L.; 
2017,2017-01-09,Porto,Felgueiras,Margaride (Santa Eulália),Quinta David (Azenhas),41.3665060000949,-8.20902299986945,Desconhecida,282.0,2017-01-09T22:00,4.5,94,3.6,2.5,0.0,0.0,0.0,0.0,2,1027.9,993.0,72,0,71,99,0.0,0.05,3.2,3.6,63,45,8.6,5.5,7.3,9.1,13.4,0.355,0.363,0.369,0.327,0,0.0,0.0,0.0,0.0,0.0,0.0,0.0,0.0,0.0,0.0,0.0,0.0,0.0,Magnoliopsida; Tracheophyta
2017,2017-03-11,Porto,Santo Tirso,Monte Córdova,Lugar de Redundo (Quinta de Linhares),41.3205560000738,-8.44334300041199,NC,416.0,2017-03-11T21:00,8.4,93,7.3,6.5,0.0,0.0,0.0,0.0,0,1025.4,975.2,0,0,0,0,0.0,0.08,7.7,20.1,323,327,22.7,11.6,13.1,11.0,9.9,0.361,0.374,0.398,0.387,0,0.0,0.0,0.0,0.0,0.0,0.0,0.0,0.0,0.0,0.0,0.0,0.0,0.0,Pinus pinaster Aiton; Tracheophyta; Eucalyptus L'Hér.; Vitis vinifera L.
2017,2017-07-30,Porto,Baião,Teixeiró,Várzea (Estalagem),41.1791530005137,-7.90695799986521,Desconhecida,390.0,2017-07-30T08:00,19.6,69,13.9,19.8,0.0,0.0,0.0,0.0,2,1016.3,971.3,68,64,0,35,0.15,0.7,7.6,9.8,295,294,23.0,22.3,24.4,23.7,20.0,0.131,0.152,0.18,0.312,1,3600.0,299.5,161.5,137.9,351.0,299.5,610.8,241.0,130.0,111.0,351.0,241.0,491.5,Magnoliopsida; Tracheophyta; Eucalyptus L'Hér.; Pinus pinaster Aiton; Vitis vinifera L.; Pinales; Quercus L.; 
2017,2017-07-30,Porto,Vila Nova de Gaia,Lever,Vales (Rua Campo do Vale),41.0542799999979,-8.46925299988853,Desconhecida,129.0,2017-07-30T10:00,21.8,64,14.8,21.9,0.0,0.0,0.0,0.0,0,1016.9,1001.8,16,16,0,7,0.34,0.93,9.7,11.7,315,315,25.2,23.8,23.1,22.3,19.5,0.133,0.152,0.222,0.328,1,3600.0,577.7,378.2,199.5,500.8,577.7,1002.0,527.0,345.0,182.0,500.8,527.0,914.2,Magnoliopsida; Tracheophyta; Pinus pinaster Aiton; Eucalyptus L'Hér.; Vitis vinifera L.
2017,2017-07-30,Porto,Lousada,Sousela,Lg. de Santa Águeda,41.3140429994795,-8.30278500000636,Desconhecida,495.0,2017-07-30T13:00,23.3,43,10.0,23.4,0.0,0.0,0.0,0.0,0,1016.1,960.1,19,7,0,42,0.59,1.63,12.6,16.1,297,297,31.7,27.8,22.6,21.1,17.8,0.093,0.161,0.242,0.331,1,3600.0,896.6,723.7,172.9,788.2,896.6,1218.4,897.0,724.0,173.0,788.2,897.0,1219.0,Magnoliopsida; Eucalyptus L'Hér.; Tracheophyta
2017,2017-07-30,Porto,Paredes,Vandoma,Lugar de Reiros (Picoto),41.2131379996406,-8.38104900042216,NC,396.0,2017-07-30T13:00,23.7,44,10.8,24.0,0.0,0.0,0.0,0.0,0,1016.2,971.1,16,7,0,32,0.6,1.63,13.4,16.9,297,299,33.8,27.1,22.4,21.0,17.9,0.111,0.167,0.244,0.332,1,3600.0,916.8,762.8,154.0,830.3,916.8,1219.2,917.0,763.0,154.0,830.3,917.0,1219.5,Magnoliopsida; Pinus pinaster Aiton; Eucalyptus L'Hér.; Tracheophyta; Vitis vinifera L.; Quercus L.; Acacia Mill.
2017,2017-07-30,Porto,Paredes,Vandoma,Lugar de Coval (Coval),41.2030199999279,-8.38423999998305,NC,396.0,2017-07-30T13:00,23.7,44,10.8,24.0,0.0,0.0,0.0,0.0,0,1016.2,971.1,16,7,0,32,0.6,1.63,13.4,16.9,297,299,33.8,27.1,22.4,21.0,17.9,0.111,0.167,0.244,0.332,1,3600.0,916.8,762.8,154.0,830.3,916.8,1219.2,917.0,763.0,154.0,830.3,917.0,1219.5,Magnoliopsida; Pinus pinaster Aiton; Eucalyptus L'Hér.; Tracheophyta; Vitis vinifera L.
2017,2017-07-30,Porto,Vila Nova de Gaia,Grijó,Pinhais da Lavandeira (Rua Pinhais da Lavandeira),41.0160770003001,-8.56042199982537,Desconhecida,216.0,2017-07-30T14:00,23.7,48,12.1,23.6,0.0,0.0,0.0,0.0,0,1016.4,991.5,7,0,0,22,0.59,1.52,18.1,22.4,314,315,38.5,28.4,23.5,21.7,19.0,0.135,0.154,0.222,0.328,1,3600.0,888.7,763.1,125.6,867.1,888.7,1168.0,913.0,784.0,129.0,867.1,913.0,1199.9,Tracheophyta; Eucalyptus L'Hér.; Magnoliopsida
2017,2017-07-30,Porto,Gondomar,Foz do Sousa,Lugar de Zebreiros (Ribeira de Fontão),41.0963000000848,-8.48262100007799,NC,57.0,2017-07-30T15:00,24.1,52,13.7,24.1,0.0,0.0,0.0,0.0,0,1016.0,1009.4,5,0,0,18,0.54,1.44,18.2,23.2,309,311,40.0,29.6,24.7,22.6,19.8,0.127,0.158,0.234,0.338,1,3600.0,781.1,648.9,132.2,817.6,781.1,1053.3,827.0,687.0,140.0,817.6,827.0,1115.1,Eucalyptus L'Hér.; Tracheophyta; Magnoliopsida
2017,2017-07-30,Porto,Lousada,Lustosa,São Gonçalo,41.3276250002119,-8.32367499987284,Reacendimento,421.0,2017-07-30T15:00,24.0,45,11.2,23.5,0.0,0.0,0.0,0.0,0,1015.3,967.5,18,0,0,61,0.55,1.65,15.5,19.8,298,299,35.6,29.5,23.6,21.6,18.3,0.092,0.161,0.241,0.33,1,3600.0,758.9,581.5,177.5,735.9,758.9,1048.6,804.0,616.0,188.0,735.9,804.0,1110.9,Pinus pinaster Aiton; Eucalyptus L'Hér.; Vitis vinifera L.; Tracheophyta; Magnoliopsida
2017,2017-07-30,Porto,Felgueiras,Vila Cova da Lixa,Lugar de São Roque (Campo),41.3265130000644,-8.17412000020345,Reacendimento,288.0,2017-07-30T15:00,24.9,45,12.1,24.6,0.0,0.0,0.0,0.0,0,1015.3,982.4,18,0,0,61,0.56,1.73,15.5,19.8,298,299,35.6,30.4,24.5,22.5,19.2,0.092,0.161,0.241,0.33,1,3600.0,758.9,581.5,177.5,735.9,758.9,1048.6,804.0,616.0,188.0,735.9,804.0,1110.9,Tracheophyta; Vitis vinifera L.; Magnoliopsida; Pinales; Pinus pinaster Aiton
2017,2017-07-30,Porto,Penafiel,Abragão,Amieiro (Ponte do Canal),41.1535780000687,-8.21227800051371,NC,153.0,2017-07-30T16:00,24.4,49,13.1,23.9,0.0,0.0,0.0,0.0,0,1015.0,997.4,12,0,0,40,0.48,1.56,15.6,20.5,296,298,36.4,29.8,24.8,22.5,19.3,0.108,0.167,0.248,0.332,1,3600.0,629.4,492.0,137.3,739.8,629.4,882.7,692.0,541.0,151.0,739.8,692.0,970.5,Tracheophyta; Eucalyptus L'Hér.; Vitis vinifera L.; Magnoliopsida
2017,2017-07-30,Porto,Penafiel,Lagares,Serra de Lagares (Serra),41.1184100000064,-8.36859200000763,NC,188.0,2017-07-30T16:00,23.3,52,12.9,22.5,0.0,0.0,0.0,0.0,0,1015.3,993.6,7,0,0,22,0.46,1.37,17.2,22.0,303,305,40.3,29.6,24.6,22.3,19.2,0.108,0.163,0.237,0.321,1,3600.0,636.8,513.1,123.7,769.9,636.8,884.4,700.0,564.0,136.0,769.9,700.0,972.2,Eucalyptus L'Hér.; Magnoliopsida; Tracheophyta
2017,2017-07-30,Porto,Lousada,Lustosa,Lug de S. Gonçalo,41.3393829997381,-8.32296499994066,Reacendimento,436.0,2017-07-30T17:00,22.1,51,11.5,20.1,0.0,0.0,0.0,0.0,0,1014.5,964.8,6,0,0,21,0.37,1.3,16.6,21.6,292,294,37.4,28.2,23.8,21.3,18.1,0.099,0.153,0.229,0.326,1,3600.0,463.9,361.3,102.6,713.8,463.9,671.8,538.0,419.0,119.0,713.8,538.0,779.1,Eucalyptus L'Hér.; Tracheophyta; Magnoliopsida
2017,2017-07-30,Porto,Marco de Canaveses,Vila Boa do Bispo,Feira Nova (Mosteiro),41.1281080002255,-8.21688300000297,Desconhecida,212.0,2017-07-30T17:00,22.9,52,12.5,21.4,0.0,0.0,0.0,0.0,0,1014.6,990.1,6,0,0,19,0.37,1.35,15.8,20.5,297,298,36.4,28.8,24.6,22.1,18.9,0.108,0.167,0.248,0.332,1,3600.0,464.8,363.1,101.8,715.5,464.8,673.4,539.0,421.0,118.0,715.5,539.0,780.9,Tracheophyta; Pinus pinaster Aiton; Vitis vinifera L.; Quercus L.; Eucalyptus L'Hér.; Magnoliopsida; Acacia Mill.; 
2017,2017-07-30,Porto,Penafiel,Vila Cova,Igreja (Quintela),41.1658299997118,-8.23277999983893,NC,308.0,2017-07-30T18:00,20.9,54,11.2,19.2,0.0,0.0,0.0,0.0,0,1014.5,979.0,2,0,0,6,0.25,1.14,14.2,18.7,297,300,35.3,27.1,24.2,21.5,18.3,0.108,0.167,0.248,0.332,1,3600.0,281.8,213.5,68.3,648.5,281.8,436.9,359.0,272.0,87.0,648.5,359.0,556.7,Eucalyptus L'Hér.; Pinus pinaster Aiton; Tracheophyta; Quercus L.; Vitis vinifera L.
2017,2017-07-30,Porto,Paredes,Sobreira,Vilar,41.1398600000805,-8.38094299952189,NC,144.0,2017-07-30T18:00,21.3,55,11.9,19.5,0.0,0.0,0.0,0.0,0,1014.6,997.8,5,0,0,16,0.26,1.15,16.4,22.3,308,309,37.4,27.6,25.1,22.5,19.4,0.135,0.151,0.221,0.337,1,3600.0,283.7,216.1,67.6,653.2,283.7,439.0,361.0,275.0,86.0,653.2,361.0,558.7,Magnoliopsida; Pinus pinaster Aiton; Eucalyptus L'Hér.; Tracheophyta; Vitis vinifera L.
2017,2017-07-30,Porto,Paredes,Sobreira,Sobreira (Casal do Frio),41.1431400002374,-8.3829870001475,NC,100.0,2017-07-30T18:00,21.6,55,12.1,19.9,0.0,0.0,0.0,0.0,0,1014.6,1002.9,5,0,0,16,0.26,1.16,16.4,22.3,308,309,37.4,27.9,25.3,22.7,19.7,0.135,0.151,0.221,0.337,1,3600.0,283.7,216.1,67.6,653.2,283.7,439.0,361.0,275.0,86.0,653.2,361.0,558.7,Magnoliopsida; Pinus pinaster Aiton; Eucalyptus L'Hér.; Tracheophyta; Vitis vinifera L.
2017,2017-03-11,Porto,Paços de Ferreira,Sanfins de Ferreira,Lugar de Bustelo (Cumieira),41.3209130001068,-8.38380699998803,Desconhecida,518.0,2017-03-11T16:00,13.2,73,8.5,10.4,0.0,0.0,0.0,0.0,1,1022.6,961.7,40,44,1,0,0.14,0.4,16.3,23.0,317,319,41.8,14.4,12.6,10.3,9.1,0.361,0.375,0.399,0.387,1,1791.64,207.4,53.8,153.6,119.7,207.4,623.2,239.0,62.0,177.0,119.7,239.0,718.0,Eucalyptus L'Hér.; Tracheophyta; Pinus pinaster Aiton; Magnoliopsida
2017,2017-07-30,Porto,Vila do Conde,Vilar,Lugar de Soutelo (ED13 (ED13) Km 14),41.2897209999296,-8.67989100032383,Reacendimento,39.0,2017-07-30T20:00,18.1,61,10.5,15.6,0.0,0.0,0.0,0.0,0,1015.1,1010.5,0,0,0,0,0.09,0.81,18.2,30.9,326,331,34.2,23.7,24.2,21.8,19.3,0.098,0.169,0.25,0.328,0,931.7,0.0,0.0,0.0,0.0,0.0,0.0,33.0,15.0,18.0,135.8,33.0,88.0,Eucalyptus L'Hér.; Magnoliopsida; Tracheophyta
2017,2017-07-30,Porto,Penafiel,Recezinhos (São Mamede),Regadas (Agrelos),41.231511999766,-8.22824799961514,NC,372.0,2017-07-30T21:00,16.9,60,9.1,15.7,0.0,0.0,0.0,0.0,0,1015.2,971.9,0,0,0,0,0.02,0.76,6.5,15.0,270,291,21.6,22.5,23.8,21.4,18.2,0.112,0.172,0.251,0.338,0,0.0,0.0,0.0,0.0,0.0,0.0,0.0,0.0,0.0,0.0,0.0,0.0,0.0,Eucalyptus L'Hér.; Magnoliopsida
2017,2017-07-30,Porto,Gondomar,Foz do Sousa,Lugar de Zebreiros (Zibreiros),41.0844529999627,-8.50753800021278,Desconhecida,84.0,2017-07-30T23:00,16.2,69,10.6,15.0,0.0,0.0,0.0,0.0,0,1015.2,1005.2,17,0,0,58,0.03,0.57,9.8,21.9,332,337,22.7,21.4,24.5,22.5,19.6,0.127,0.158,0.233,0.338,0,0.0,0.0,0.0,0.0,0.0,0.0,0.0,0.0,0.0,0.0,0.0,0.0,0.0,Eucalyptus L'Hér.; Tracheophyta; Magnoliopsida; Pinus pinaster Aiton
2017,2017-07-30,Porto,Felgueiras,Refontoura,Zebres (REFONTOURA),41.3315270000034,-8.19286399947272,Desconhecida,297.0,2017-07-30T23:00,15.4,66,9.1,14.2,0.0,0.0,0.0,0.0,0,1015.0,980.0,7,0,0,24,0.01,0.59,6.3,16.1,294,310,17.3,21.4,24.7,22.5,19.1,0.092,0.161,0.241,0.33,0,0.0,0.0,0.0,0.0,0.0,0.0,0.0,0.0,0.0,0.0,0.0,0.0,0.0,Vitis vinifera L.; Magnoliopsida; Tracheophyta; Pinus pinaster Aiton; Eucalyptus L'Hér.
2017,2017-07-31,Porto,Vila do Conde,Fajozes,Lugar de Real (Bouças Abertas),41.332873000039,-8.70231499989828,Reacendimento,46.0,2017-07-31T01:00,16.8,81,13.5,16.6,0.1,0.1,0.0,0.0,51,1014.4,1008.9,89,0,99,98,0.01,0.36,9.3,18.7,347,349,19.4,19.9,23.1,21.8,19.2,0.1,0.17,0.251,0.328,0,0.0,0.0,0.0,0.0,0.0,0.0,0.0,0.0,0.0,0.0,0.0,0.0,0.0,Eucalyptus L'Hér.; Tracheophyta; Pinus pinaster Aiton
2017,2017-07-31,Porto,Baião,Gove,Portela de Gove (Moirinhas),41.1236709997389,-8.04586300002204,Desconhecida,435.0,2017-07-31T02:00,13.9,83,11.1,13.9,0.2,0.2,0.0,0.0,51,1014.3,963.4,65,0,64,88,0.0,0.27,2.1,3.7,239,299,10.8,18.5,22.7,21.4,18.2,0.135,0.153,0.225,0.345,0,0.0,0.0,0.0,0.0,0.0,0.0,0.0,0.0,0.0,0.0,0.0,0.0,0.0,Tracheophyta; Magnoliopsida; Pinales; Eucalyptus L'Hér.; Vitis vinifera L.; Quercus L.; Pinus pinaster Aiton; 
2017,2017-07-31,Porto,Penafiel,Portela,Lugar de Jugueiros (Azenha),41.1066270001729,-8.28708300007714,NC,185.0,2017-07-31T10:00,20.5,60,12.4,21.0,0.0,0.0,0.0,0.0,1,1014.0,992.5,24,5,0,64,0.39,0.97,5.3,6.6,298,299,19.8,23.0,22.1,22.3,19.2,0.112,0.171,0.252,0.334,1,3600.0,694.7,523.7,170.9,693.7,694.7,1002.1,634.0,478.0,156.0,693.7,634.0,914.6,Magnoliopsida; Tracheophyta; Eucalyptus L'Hér.; Vitis vinifera L.
2017,2017-03-12,Porto,Paços de Ferreira,Sanfins de Ferreira,Lg. Forja (Bustelo),41.3327969996134,-8.38853200011783,Desconhecida,450.0,2017-03-12T23:00,5.8,74,1.5,1.9,0.0,0.0,0.0,0.0,1,1029.0,974.1,22,0,37,0,0.02,0.24,14.2,28.4,344,348,33.1,8.5,11.0,10.8,9.6,0.356,0.371,0.395,0.388,0,0.0,0.0,0.0,0.0,0.0,0.0,0.0,0.0,0.0,0.0,0.0,0.0,0.0,Pinus pinaster Aiton; Eucalyptus L'Hér.; Tracheophyta; Magnoliopsida
2017,2017-07-31,Porto,Vila Nova de Gaia,Grijó,Lg. Lavandeira (Rua Pinhais da Lavandeira),41.0160770003001,-8.56042199982537,NC,216.0,2017-07-31T13:00,21.9,54,12.3,21.7,0.0,0.0,0.0,0.0,1,1014.0,989.0,30,0,2,96,0.51,1.19,16.3,20.0,298,300,36.7,26.5,22.3,21.8,19.0,0.138,0.156,0.223,0.327,1,3600.0,834.1,570.1,264.0,620.5,834.1,1219.5,834.0,570.0,264.0,620.5,834.0,1219.3,Tracheophyta; Eucalyptus L'Hér.; Magnoliopsida
2017,2017-07-31,Porto,Lousada,Sousela,Caminho da Lage,41.3024130000008,-8.31341199980842,Desconhecida,305.0,2017-07-31T14:00,21.7,54,12.0,19.6,0.0,0.0,0.0,0.0,1,1013.6,978.5,35,0,10,98,0.36,1.2,18.7,24.4,286,286,40.7,26.7,22.7,21.9,18.7,0.104,0.165,0.245,0.334,1,2466.53,481.6,124.5,357.1,142.2,481.6,1162.4,495.0,128.0,367.0,142.2,495.0,1194.7,Eucalyptus L'Hér.; Tracheophyta; Pinus pinaster Aiton; Magnoliopsida
2017,2017-07-31,Porto,Vila do Conde,Vilar,Lg. Soutelo (Barreiro),41.2840999999974,-8.67895199987623,Reacendimento,39.0,2017-07-31T13:00,20.9,61,13.1,20.5,0.0,0.0,0.0,0.0,1,1014.1,1009.5,32,0,5,96,0.48,0.97,19.1,24.3,302,305,40.0,26.4,22.4,21.8,19.3,0.101,0.171,0.251,0.328,1,3600.0,821.4,515.2,306.1,561.9,821.4,1217.2,821.0,515.0,306.0,561.9,821.0,1216.7,Eucalyptus L'Hér.; Tracheophyta
2017,2017-07-31,Porto,Felgueiras,Vila Cova da Lixa,Lg. S. Roque (Picoto),41.3288320000966,-8.17345799975925,Reacendimento,337.0,2017-07-31T14:00,22.5,50,11.5,20.4,0.0,0.0,0.0,0.0,1,1013.2,974.6,44,1,22,98,0.35,1.36,17.4,23.0,277,279,37.1,26.7,22.8,22.2,18.9,0.103,0.164,0.242,0.33,1,800.93,422.1,75.9,346.3,86.7,422.1,1161.6,434.0,78.0,356.0,86.7,434.0,1194.3,Tracheophyta; Vitis vinifera L.; Magnoliopsida; Pinales; Pinus pinaster Aiton
2017,2017-07-31,Porto,Vila do Conde,Tougues,Linhares (R. da Espinheira 288. 4480-480 Tougues. Portugal),41.3663888888889,-8.69833333333333,Reacendimento,22.0,2017-07-31T14:00,21.2,59,12.9,20.3,0.0,0.0,0.0,0.0,1,1014.2,1011.6,45,0,32,87,0.48,1.03,21.9,28.6,303,306,44.6,26.6,22.5,21.8,19.3,0.109,0.164,0.245,0.328,1,3600.0,805.2,538.4,266.8,614.0,805.2,1164.1,827.0,553.0,274.0,614.0,827.0,1195.5,Tracheophyta; Eucalyptus L'Hér.; Pinus pinaster Aiton; Magnoliopsida
2017,2017-07-31,Porto,Paredes,Beire,Lg. Padre Américo (Lugar),41.2429130003187,-8.32353499995338,NC,182.0,2017-07-31T15:00,21.9,50,11.1,19.9,0.0,0.0,0.0,0.0,2,1013.8,992.7,59,0,49,98,0.41,1.3,16.8,22.1,293,294,38.5,26.5,23.1,22.2,19.3,0.143,0.156,0.228,0.339,1,3600.0,554.2,216.2,338.0,273.6,554.2,1049.0,587.0,229.0,358.0,273.6,587.0,1111.1,Magnoliopsida; Pinus pinaster Aiton; Eucalyptus L'Hér.; Tracheophyta; Vitis vinifera L.
2017,2017-07-31,Porto,Amarante,Travanca,Serra Paço (TRAVANCA),41.2784039995405,-8.19162099997203,Desconhecida,220.0,2017-07-31T15:00,22.4,51,11.8,20.9,0.0,0.0,0.0,0.0,2,1013.5,988.1,56,1,43,99,0.41,1.33,15.9,20.4,283,284,40.3,27.3,23.5,22.4,19.3,0.104,0.165,0.245,0.334,1,3600.0,555.0,233.2,321.9,295.5,555.0,1047.5,588.0,247.0,341.0,295.5,588.0,1109.7,Tracheophyta; Magnoliopsida; Eucalyptus L'Hér.; Vitis vinifera L.; Pinus pinaster Aiton; 
2017,2017-07-31,Porto,Penafiel,Rans,Rans (Portela de Rãs),41.1622399997711,-8.28532500002119,NC,315.0,2017-07-31T17:00,21.4,48,10.0,19.5,0.0,0.0,0.0,0.0,1,1013.2,977.0,31,1,1,99,0.3,1.31,12.8,17.0,280,283,31.7,26.5,23.6,22.4,19.0,0.1,0.166,0.246,0.336,1,3600.0,345.3,130.0,215.3,258.2,345.3,668.4,401.0,151.0,250.0,258.2,401.0,776.2,Magnoliopsida; Eucalyptus L'Hér.; Tracheophyta
2017,2017-03-12,Porto,Penafiel,Recezinhos (São Martinho),Lug. do Alto (Casais Novos),41.2309280003442,-8.24140700022379,NC,446.0,2017-03-12T20:00,6.7,72,2.0,3.8,0.0,0.0,0.0,0.0,0,1028.1,973.9,1,1,0,0,0.01,0.27,7.3,19.6,349,353,30.2,10.2,11.7,10.8,9.5,0.363,0.376,0.4,0.392,0,0.0,0.0,0.0,0.0,0.0,0.0,0.0,0.0,0.0,0.0,0.0,0.0,0.0,Eucalyptus L'Hér.; Magnoliopsida; Tracheophyta; Vitis vinifera L.
2017,2017-07-31,Porto,Lousada,Macieira,L. Palhais,41.2939070002238,-8.23922699981266,Desconhecida,205.0,2017-07-31T18:00,20.3,53,10.3,17.9,0.0,0.0,0.0,0.0,1,1013.4,989.6,27,0,0,90,0.23,1.12,17.0,23.6,302,304,40.3,25.8,23.8,22.3,19.4,0.104,0.167,0.246,0.326,1,3600.0,232.3,103.6,128.7,315.2,232.3,436.3,296.0,132.0,164.0,315.2,296.0,556.0,Tracheophyta; Magnoliopsida; Vitis vinifera L.; Pinus pinaster Aiton; Eucalyptus L'Hér.
2017,2017-07-31,Porto,Paredes,Sobreira,Lugar de Vilar (Casal do Frio),41.1418700000975,-8.38215200000339,NC,115.0,2017-07-31T18:00,20.7,53,10.8,18.6,0.0,0.0,0.0,0.0,1,1013.5,1000.1,27,0,0,90,0.23,1.15,16.4,22.6,296,299,36.4,25.9,24.1,22.7,19.7,0.142,0.154,0.222,0.336,1,3600.0,227.4,96.4,130.9,294.0,227.4,435.5,290.0,123.0,167.0,294.0,290.0,555.5,Magnoliopsida; Pinus pinaster Aiton; Eucalyptus L'Hér.; Tracheophyta; Vitis vinifera L.
2017,2017-07-31,Porto,Vila Nova de Gaia,Pedroso,Lugar Paradela (Travessa da Paradela),41.0703949999809,-8.5384369998508,Desconhecida,103.0,2017-07-31T19:00,18.4,71,13.0,17.3,0.0,0.0,0.0,0.0,1,1013.8,1001.7,26,0,0,86,0.11,0.62,14.1,20.1,308,313,33.5,24.6,24.0,22.3,19.5,0.133,0.16,0.234,0.338,1,3600.0,86.9,33.8,53.1,237.3,86.9,189.0,144.0,56.0,88.0,237.3,144.0,313.3,Tracheophyta; Eucalyptus L'Hér.; Magnoliopsida
2017,2017-07-31,Porto,Vila do Conde,Vilar,Lug. Soutelo (Real),41.2843080000083,-8.67985800001356,Reacendimento,45.0,2017-07-31T20:00,16.9,82,13.9,15.8,0.0,0.0,0.0,0.0,0,1014.1,1008.7,0,0,0,0,0.04,0.34,16.1,27.1,320,324,32.4,22.6,23.4,21.8,19.3,0.1,0.17,0.251,0.327,0,482.71,0.0,0.0,0.0,0.0,0.0,0.0,30.0,11.0,19.0,101.0,30.0,86.0,Eucalyptus L'Hér.; Tracheophyta
2017,2017-07-31,Porto,Paredes,Cete,Lugar de Além (Monte),41.1760929997762,-8.37233000013563,NC,190.0,2017-07-31T20:00,17.3,71,12.0,16.5,0.0,0.0,0.0,0.0,0,1013.9,991.5,8,0,0,25,0.04,0.57,9.5,18.1,295,305,27.7,23.0,23.6,22.2,19.2,0.142,0.154,0.222,0.336,0,0.0,0.0,0.0,0.0,0.0,0.0,0.0,25.0,5.0,20.0,46.8,25.0,83.3,Magnoliopsida; Pinus pinaster Aiton; Eucalyptus L'Hér.; Tracheophyta; Vitis vinifera L.
2017,2017-07-31,Porto,Vila do Conde,Tougues,Lug. Espinheira (Carvalheirada),41.3646049997542,-8.69560299979316,Reacendimento,31.0,2017-07-31T22:00,16.1,89,14.2,15.4,0.0,0.0,0.0,0.0,0,1015.0,1011.3,2,2,0,0,0.01,0.21,14.1,25.9,328,331,27.4,20.5,22.9,21.7,19.2,0.108,0.164,0.244,0.328,0,0.0,0.0,0.0,0.0,0.0,0.0,0.0,0.0,0.0,0.0,0.0,0.0,0.0,Tracheophyta; Eucalyptus L'Hér.; Pinus pinaster Aiton; Magnoliopsida
2017,2017-07-31,Porto,Lousada,Alvarenga,Lugar de Bairro,41.297392999861,-8.26790199995041,Desconhecida,330.0,2017-07-31T23:00,13.8,87,11.7,13.5,0.0,0.0,0.0,0.0,0,1015.0,976.0,2,2,0,0,0.0,0.21,5.9,15.7,284,307,16.2,19.4,22.8,21.8,18.6,0.103,0.165,0.245,0.334,0,0.0,0.0,0.0,0.0,0.0,0.0,0.0,0.0,0.0,0.0,0.0,0.0,0.0,Eucalyptus L'Hér.; Tracheophyta; Magnoliopsida; Vitis vinifera L.; Pinus pinaster Aiton
2017,2017-08-01,Porto,Penafiel,Croca,outeiro (Ribeira),41.2159570005205,-8.23894299983978,NC,360.0,2017-08-01T02:00,12.1,95,11.4,11.9,0.0,0.0,0.0,0.0,0,1015.7,973.0,0,0,0,0,0.0,0.07,4.5,3.4,194,238,9.0,16.8,21.4,21.2,18.2,0.124,0.17,0.246,0.331,0,0.0,0.0,0.0,0.0,0.0,0.0,0.0,0.0,0.0,0.0,0.0,0.0,0.0,Magnoliopsida; Eucalyptus L'Hér.; Vitis vinifera L.; Tracheophyta
2017,2017-03-12,Porto,Gondomar,Melres,Lg. Branzelo (Costa),41.0709379998843,-8.39985699971517,NC,23.0,2017-03-12T18:00,12.5,61,5.2,8.5,0.0,0.0,0.0,0.0,0,1027.3,1024.5,1,0,0,2,0.11,0.56,19.5,32.7,341,343,42.8,15.1,14.5,13.6,12.6,0.353,0.364,0.387,0.381,1,3600.0,75.0,39.3,35.6,366.5,75.0,148.8,141.0,74.0,67.0,366.5,141.0,279.8,Eucalyptus L'Hér.; Magnoliopsida; Tracheophyta
2017,2017-08-01,Porto,Trofa,Coronado (São Mamede),Lg.4 Caminhos (Bairro),41.2781800005171,-8.58141299989488,NC,156.0,2017-08-01T06:00,13.4,100,13.4,14.2,0.0,0.0,0.0,0.0,3,1015.9,997.2,90,100,0,0,0.01,0.01,2.3,3.8,162,287,4.7,16.6,20.9,21.8,19.2,0.142,0.157,0.227,0.331,1,0.0,17.3,5.0,12.4,56.8,7.3,103.8,7.0,2.0,5.0,26.5,7.0,41.9,Tracheophyta; Magnoliopsida; Pinales; Eucalyptus L'Hér.; Pinus pinaster Aiton
2017,2017-08-01,Porto,Lousada,Sousela,Caminho da Lage,41.3014069999589,-8.31775800002946,Reacendimento,346.0,2017-08-01T10:00,20.2,63,13.1,20.2,0.0,0.0,0.0,0.0,1,1017.1,977.1,42,14,0,97,0.35,0.87,7.7,9.2,311,315,21.6,21.8,20.4,21.6,18.5,0.104,0.166,0.246,0.334,1,3600.0,619.2,400.0,219.2,532.0,619.2,998.4,565.0,365.0,200.0,532.0,565.0,910.9,Eucalyptus L'Hér.; Tracheophyta; Pinus pinaster Aiton; Magnoliopsida
2017,2017-08-01,Porto,Vila do Conde,Fornelo,LG.Azevedo (Padrão),41.3365700001187,-8.64481200006273,NC,104.0,2017-08-01T12:00,21.3,58,12.8,21.4,0.0,0.0,0.0,0.0,1,1017.9,1005.7,27,0,0,89,0.51,1.06,17.4,21.3,297,300,43.2,24.4,20.5,21.2,18.8,0.108,0.164,0.244,0.327,1,3600.0,904.5,725.6,178.8,801.0,904.5,1202.8,880.0,706.0,174.0,801.0,880.0,1170.2,Eucalyptus L'Hér.; Tracheophyta
2017,2017-08-01,Porto,Vila do Conde,Tougues,Linhares (R. da Espinheira 288. 4480-480 Tougues. Portugal),41.3663888888889,-8.69833333333333,Reacendimento,22.0,2017-08-01T12:00,21.8,59,13.3,22.1,0.0,0.0,0.0,0.0,1,1017.9,1015.3,27,0,0,89,0.52,1.09,17.4,21.3,297,300,43.2,24.9,21.0,21.7,19.3,0.108,0.164,0.244,0.327,1,3600.0,904.5,725.6,178.8,801.0,904.5,1202.8,880.0,706.0,174.0,801.0,880.0,1170.2,Tracheophyta; Eucalyptus L'Hér.; Pinus pinaster Aiton; Magnoliopsida
2017,2017-08-01,Porto,Baião,Teixeiró,Teixeiró (Casas Novas),41.1820470004612,-7.89709799978468,Desconhecida,603.0,2017-08-01T13:00,22.4,43,9.1,22.2,0.0,0.0,0.0,0.0,1,1017.1,949.1,30,3,0,92,0.57,1.55,11.9,16.0,284,284,38.5,24.6,19.8,20.5,17.4,0.136,0.153,0.214,0.327,1,3600.0,870.1,597.4,272.7,652.7,870.1,1215.2,871.0,598.0,273.0,652.7,871.0,1216.5,Magnoliopsida; Tracheophyta; Eucalyptus L'Hér.; Pinus pinaster Aiton; Vitis vinifera L.; Pinales; Quercus L.; 
2017,2017-08-01,Porto,Gondomar,Foz do Sousa,Lugar Zebreiros (Ribeira),41.079883000056,-8.51531899982029,NC,38.0,2017-08-01T13:00,24.0,47,12.0,24.0,0.0,0.0,0.0,0.0,1,1018.0,1013.6,24,0,0,80,0.6,1.58,17.2,21.4,296,297,37.8,27.2,22.2,22.6,20.0,0.133,0.161,0.235,0.338,1,3600.0,921.1,762.1,159.0,831.5,921.1,1216.8,921.0,762.0,159.0,831.5,921.0,1216.7,Pinus pinaster Aiton; Tracheophyta; Eucalyptus L'Hér.
2017,2017-08-01,Porto,Gondomar,Foz do Sousa,LG Gens (Alto de Nabais),41.1084380001492,-8.48724299987157,NC,60.0,2017-08-01T14:00,23.7,44,10.7,23.1,0.0,0.0,0.0,0.0,1,1018.1,1011.1,20,0,0,68,0.6,1.64,18.0,22.7,296,297,39.2,27.7,22.4,22.5,19.9,0.133,0.16,0.234,0.338,1,3600.0,893.4,770.7,122.6,879.8,893.4,1163.2,918.0,792.0,126.0,879.8,918.0,1195.3,Eucalyptus L'Hér.; Vitis vinifera L.; Pinus pinaster Aiton; Tracheophyta; Magnoliopsida
2017,2017-08-01,Porto,Penafiel,Recezinhos (São Martinho),Lugar Monte rosso (Monterroso),41.2262220001221,-8.21494700007968,NC,283.0,2017-08-01T14:00,24.0,43,10.6,24.0,0.0,0.0,0.0,0.0,2,1017.3,984.8,50,29,0,81,0.61,1.71,14.9,18.8,285,287,36.4,26.8,21.3,21.6,18.8,0.122,0.17,0.246,0.331,1,3600.0,894.9,773.3,121.6,884.7,894.9,1160.7,920.0,795.0,125.0,884.7,920.0,1193.2,Eucalyptus L'Hér.; Magnoliopsida; Vitis vinifera L.; Tracheophyta; Quercus L.
2017,2017-08-01,Porto,Vila Nova de Gaia,Grijó,Lugar da Lavandeira (Rua Pinhais da Lavandeira),41.0161870002747,-8.56049500041538,NC,216.0,2017-08-01T14:00,22.6,44,9.8,21.8,0.0,0.0,0.0,0.0,1,1018.1,993.1,23,0,0,77,0.58,1.53,18.2,22.6,297,299,38.9,26.8,21.4,21.6,19.1,0.137,0.155,0.222,0.327,1,3600.0,893.3,767.8,125.5,876.0,893.3,1163.7,918.0,789.0,129.0,876.0,918.0,1195.9,Tracheophyta; Eucalyptus L'Hér.; Magnoliopsida
2017,2017-08-01,Porto,Santo Tirso,Monte Córdova,Lug. Quinxães (Lugar do Monte),41.315537999471,-8.43036000039842,NC,378.0,2017-08-01T15:00,22.7,43,9.6,21.5,0.0,0.0,0.0,0.0,1,1017.8,974.5,23,0,0,78,0.54,1.56,17.0,22.1,287,289,38.9,27.4,21.5,21.3,18.4,0.103,0.165,0.245,0.333,1,3600.0,772.0,630.4,141.6,801.0,772.0,1045.0,818.0,668.0,150.0,801.0,818.0,1107.4,Tracheophyta; Vitis vinifera L.; Eucalyptus L'Hér.; Pinus pinaster Aiton; Magnoliopsida
2017,2017-08-01,Porto,Felgueiras,Borba de Godim,Lug. Seixoso (Fojo),41.3415930000941,-8.12544499980079,Desconhecida,488.0,2017-08-01T15:00,23.1,40,8.7,22.2,0.0,0.0,0.0,0.0,1,1017.4,962.0,24,6,0,63,0.55,1.71,13.9,18.1,287,287,36.0,27.1,21.1,21.0,18.0,0.113,0.164,0.244,0.336,1,3600.0,779.1,647.1,132.1,824.4,779.1,1042.2,826.0,686.0,140.0,824.4,826.0,1104.9,Eucalyptus L'Hér.; Pinus pinaster Aiton; Magnoliopsida
2017,2017-08-01,Porto,Vila Nova de Gaia,Valadares,Lg. Belide (Travessa das Roçadas),41.0948190000322,-8.65328500005934,NC,28.0,2017-08-01T16:00,20.9,58,12.4,19.7,0.0,0.0,0.0,0.0,0,1018.9,1015.6,9,0,0,30,0.42,1.03,18.4,24.2,310,313,40.3,26.1,21.9,21.4,19.2,0.135,0.182,0.261,0.349,1,3600.0,641.2,511.2,130.1,769.3,641.2,882.2,705.0,562.0,143.0,769.3,705.0,970.0,Magnoliopsida; Pinus pinaster Aiton; Tracheophyta; Eucalyptus L'Hér.; Vitis vinifera L.; Pinales; Quercus L.; 
2017,2017-08-01,Porto,Gondomar,Jovim,Sanzinhas (Marecos),41.1036829998758,-8.52914699978299,Desconhecida,17.0,2017-08-01T16:00,20.9,58,12.5,19.8,0.0,0.0,0.0,0.0,0,1018.9,1016.9,9,0,0,30,0.42,1.03,18.4,24.2,310,313,40.3,26.1,22.0,21.5,19.3,0.135,0.182,0.261,0.349,1,3600.0,641.2,511.2,130.1,769.3,641.2,882.2,705.0,562.0,143.0,769.3,705.0,970.0,Eucalyptus L'Hér.; Tracheophyta; Magnoliopsida
2017,2017-08-01,Porto,Santo Tirso,Aves,Ponte Nova (Barca),41.3744279999203,-8.40310500012504,NC,156.0,2017-08-01T16:00,22.9,44,10.0,21.3,0.0,0.0,0.0,0.0,0,1018.3,1000.2,11,0,0,36,0.47,1.56,15.9,20.4,288,291,40.3,27.2,22.4,21.9,19.4,0.117,0.17,0.247,0.328,1,3600.0,634.7,504.6,130.0,762.8,634.7,878.5,698.0,555.0,143.0,762.8,698.0,966.1,Magnoliopsida; Tracheophyta; Pinus pinaster Aiton; Eucalyptus L'Hér.; Vitis vinifera L.; Pinales; Acacia Mill.; 
2017,2017-03-12,Porto,Paços de Ferreira,Eiriz,Alto do Paraíso (Quintela),41.308001999855,-8.38374799999926,Desconhecida,399.0,2017-03-12T13:00,12.7,55,3.8,8.5,0.0,0.0,0.0,0.0,1,1027.0,979.4,40,24,30,0,0.33,0.66,24.3,33.6,333,334,51.8,13.8,11.5,11.1,10.0,0.363,0.373,0.396,0.388,1,3600.0,735.2,623.0,112.2,875.1,735.2,986.7,734.0,622.0,112.0,875.1,734.0,985.1,Tracheophyta; Eucalyptus L'Hér.; Magnoliopsida; 
2017,2017-08-01,Porto,Baião,Ancede,Lg. Ancede (CASTELO(GOVE)),41.1162779998779,-8.04741299947103,Desconhecida,495.0,2017-08-01T18:00,19.3,50,8.6,17.1,0.0,0.0,0.0,0.0,1,1018.7,961.8,25,0,0,84,0.24,1.12,12.1,16.6,287,292,36.7,24.8,21.7,20.7,17.9,0.141,0.157,0.227,0.344,1,3600.0,273.8,198.2,75.7,615.8,273.8,427.3,351.0,254.0,97.0,615.8,351.0,547.7,Magnoliopsida; Pinus pinaster Aiton; Tracheophyta; Vitis vinifera L.; Quercus suber L.; Acacia Mill.; Eucalyptus L'Hér.; Quercus L.; 
2017,2017-08-01,Porto,Penafiel,Paço de Sousa,Barrocas (Quinta das Gordas),41.160111000273,-8.3486900001102,NC,222.0,2017-08-01T18:00,20.5,49,9.5,18.3,0.0,0.0,0.0,0.0,1,1018.6,992.7,26,0,0,85,0.26,1.23,14.5,19.3,305,307,35.3,25.6,22.7,21.8,19.0,0.14,0.154,0.222,0.336,1,3600.0,278.5,205.8,72.8,632.6,278.5,431.9,356.0,263.0,93.0,632.6,356.0,552.1,Eucalyptus L'Hér.; Tracheophyta; Magnoliopsida; Vitis vinifera L.
2017,2017-08-01,Porto,Trofa,Coronado (São Mamede),Lg. de Vila (Bairro),41.2780650001102,-8.58202299965753,NC,158.0,2017-08-01T17:00,21.1,50,10.2,18.7,0.0,0.0,0.0,0.0,1,1018.8,1000.3,20,0,0,68,0.36,1.26,17.2,22.5,303,305,37.8,26.0,22.3,21.7,19.3,0.14,0.156,0.226,0.33,1,3600.0,473.3,382.8,90.5,757.2,473.3,671.3,549.0,444.0,105.0,757.2,549.0,778.6,Tracheophyta; Magnoliopsida; Pinales; Eucalyptus L'Hér.; Pinus pinaster Aiton
2017,2017-08-01,Porto,Baião,Santa Cruz do Douro,Eiras (Senra),41.1231669998169,-7.9984560002221,Desconhecida,301.0,2017-08-01T18:00,20.5,50,9.8,18.7,0.0,0.0,0.0,0.0,1,1018.7,983.8,25,0,0,84,0.24,1.2,12.1,16.6,287,292,36.7,26.1,22.9,21.9,19.1,0.141,0.157,0.227,0.344,1,3600.0,273.8,198.2,75.7,615.8,273.8,427.3,351.0,254.0,97.0,615.8,351.0,547.7,Magnoliopsida; Pinus pinaster Aiton; Vitis vinifera L.; Quercus L.; Tracheophyta; Eucalyptus L'Hér.; Olea europaea L.; 
2017,2017-08-01,Porto,Penafiel,Recezinhos (São Martinho),Escola São Martinho (Monterroso),41.2261020003425,-8.21533999972873,NC,286.0,2017-08-01T18:00,20.8,47,9.1,18.5,0.0,0.0,0.0,0.0,1,1018.5,985.3,25,0,0,84,0.26,1.3,14.0,19.0,296,297,35.3,25.4,22.4,21.5,18.7,0.121,0.169,0.245,0.331,1,3600.0,276.8,202.5,74.3,625.0,276.8,430.2,354.0,259.0,95.0,625.0,354.0,550.3,Eucalyptus L'Hér.; Magnoliopsida; Vitis vinifera L.; Tracheophyta; Quercus L.
2017,2017-08-01,Porto,Amarante,Vila Caiz,Vilarinho (Vila Caiz),41.2312029997508,-8.12330500019921,Desconhecida,154.0,2017-08-01T18:00,21.6,47,9.9,19.6,0.0,0.0,0.0,0.0,1,1018.5,1000.5,25,0,0,84,0.26,1.36,14.0,19.0,296,297,35.3,26.2,23.2,22.4,19.6,0.121,0.169,0.245,0.331,1,3600.0,276.8,202.5,74.3,625.0,276.8,430.2,354.0,259.0,95.0,625.0,354.0,550.3,Magnoliopsida; Pinus pinaster Aiton; Tracheophyta; Vitis vinifera L.; Eucalyptus L'Hér.; 
2017,2017-08-01,Porto,Penafiel,Lagares,Quintadona (Quintandona),41.1326780001322,-8.38297300020854,NC,126.0,2017-08-01T19:00,19.7,56,10.8,18.2,0.0,0.0,0.0,0.0,0,1019.0,1004.2,19,0,0,62,0.14,1.0,12.1,17.7,307,309,30.2,24.9,23.4,22.4,19.6,0.14,0.154,0.222,0.336,1,3600.0,100.2,63.2,37.0,457.1,100.2,183.6,168.0,106.0,62.0,457.1,168.0,307.9,Eucalyptus L'Hér.; Tracheophyta; Magnoliopsida
2017,2017-03-13,Porto,Santo Tirso,Vilarinho,Lg. Paredela (Agueiro),41.3612730005052,-8.33239599969652,NC,221.0,2017-03-13T23:00,9.8,62,2.8,6.0,0.0,0.0,0.0,0.0,0,1027.8,1000.8,0,0,0,0,0.04,0.47,14.6,30.3,57,63,36.7,10.5,12.1,12.2,11.3,0.349,0.367,0.395,0.386,0,0.0,0.0,0.0,0.0,0.0,0.0,0.0,0.0,0.0,0.0,0.0,0.0,0.0,Eucalyptus L'Hér.; Tracheophyta; Pinus pinaster Aiton; Magnoliopsida
2017,2017-08-01,Porto,Penafiel,Duas Igrejas,Lg. Pinheiro (Vila),41.1780580001407,-8.28622499995761,NC,354.0,2017-08-01T21:00,15.4,74,10.8,14.8,0.0,0.0,0.0,0.0,0,1020.3,978.6,11,0,0,36,0.01,0.45,5.9,7.9,223,254,12.2,21.6,23.0,21.9,18.8,0.097,0.166,0.246,0.335,0,0.0,0.0,0.0,0.0,0.0,0.0,0.0,0.0,0.0,0.0,0.0,0.0,0.0,Eucalyptus L'Hér.; Vitis vinifera L.; Magnoliopsida; Tracheophyta
2017,2017-08-02,Porto,Maia,Moreira,Zona industrial (Avenida Professor Mota Pinto),41.2555929999881,-8.63761200004154,Reacendimento,121.0,2017-08-02T05:00,12.8,92,11.6,12.3,0.0,0.0,0.0,0.0,0,1019.7,1005.1,0,0,0,0,0.0,0.12,6.5,12.9,56,18,10.1,16.3,20.2,20.9,18.8,0.131,0.16,0.237,0.336,0,0.0,0.0,0.0,0.0,0.0,0.0,0.0,0.0,0.0,0.0,0.0,0.0,0.0,Magnoliopsida; Eucalyptus L'Hér.; Tracheophyta; Pinus pinaster Aiton; 
2017,2017-08-02,Porto,Penafiel,Abragão,Pedreiras (ED320 (ED320) Km 24),41.1561699999703,-8.22920200030009,NC,200.0,2017-08-02T08:00,17.8,70,12.2,18.2,0.0,0.0,0.0,0.0,0,1020.3,996.7,0,0,0,0,0.16,0.61,1.5,1.9,315,338,11.2,18.1,20.4,21.9,19.2,0.11,0.17,0.248,0.331,1,3600.0,376.0,279.5,96.5,624.3,376.0,594.5,300.0,223.0,77.0,624.3,300.0,474.4,Magnoliopsida; Eucalyptus L'Hér.; Tracheophyta; Pinus pinaster Aiton
2017,2017-08-02,Porto,Penafiel,Bustelo,Casal (Lameirinha),41.2240919997957,-8.25838300016191,NC,352.0,2017-08-02T10:00,21.7,44,9.0,21.2,0.0,0.0,0.0,0.0,0,1020.3,979.7,0,0,0,0,0.42,1.44,6.1,7.6,310,315,20.2,21.2,19.5,21.0,18.4,0.118,0.168,0.245,0.331,1,3600.0,733.5,614.0,119.5,818.1,733.5,996.7,669.0,560.0,109.0,818.1,669.0,909.0,Magnoliopsida; Tracheophyta; Eucalyptus L'Hér.; Pinus pinaster Aiton; Vitis vinifera L.; Pinales; ; Quercus L.
2017,2017-08-02,Porto,Penafiel,Paço de Sousa,Barrocas (Quinta do Carvalhal),41.1540350000064,-8.34882999949985,NC,215.0,2017-08-02T12:00,25.0,36,8.8,25.3,0.0,0.0,0.0,0.0,0,1020.0,995.2,10,0,0,34,0.62,2.03,9.5,11.8,307,310,29.5,25.5,20.6,21.7,19.1,0.137,0.152,0.221,0.336,1,3600.0,924.6,797.2,127.4,879.8,924.6,1203.5,900.0,776.0,124.0,879.8,900.0,1171.5,Eucalyptus L'Hér.; Tracheophyta; Vitis vinifera L.; Magnoliopsida
2017,2017-03-13,Porto,Vila Nova de Gaia,Serzedo,Lg. da Rainha (Rua da Vinha),41.0459920003679,-8.61601700041029,NC,72.0,2017-03-13T22:00,11.5,57,3.3,6.9,0.0,0.0,0.0,0.0,0,1026.6,1017.8,0,0,0,0,0.08,0.58,20.9,40.0,44,47,36.7,12.0,13.3,13.1,12.3,0.343,0.361,0.389,0.388,0,0.0,0.0,0.0,0.0,0.0,0.0,0.0,0.0,0.0,0.0,0.0,0.0,0.0,Tracheophyta; Eucalyptus L'Hér.; Pinales; Magnoliopsida
2017,2017-08-02,Porto,Lousada,Sousela,Caminho da Lage,41.2990000004239,-8.30387200011147,Reacendimento,274.0,2017-08-02T13:00,25.6,33,8.0,25.5,0.0,0.0,0.0,0.0,0,1019.7,988.3,17,0,0,57,0.66,2.21,11.9,14.9,305,307,29.9,27.6,21.2,21.8,19.1,0.098,0.163,0.244,0.333,1,3600.0,935.7,809.7,126.0,886.9,935.7,1212.5,936.0,810.0,126.0,886.9,936.0,1212.9,Vitis vinifera L.; Tracheophyta; Pinus pinaster Aiton; Magnoliopsida; Eucalyptus L'Hér.
2017,2017-08-02,Porto,Felgueiras,Borba de Godim,Seixoso (Fojo),41.341240000195,-8.12565800031026,Reacendimento,488.0,2017-08-02T13:00,24.6,30,5.7,24.2,0.0,0.0,0.0,0.0,1,1019.6,964.4,22,0,0,75,0.65,2.18,10.8,13.6,291,292,29.9,26.5,20.3,20.8,18.1,0.109,0.163,0.242,0.335,1,3600.0,940.3,817.4,122.9,896.1,940.3,1211.5,941.0,818.0,123.0,896.1,941.0,1212.4,Eucalyptus L'Hér.; Pinus pinaster Aiton; Magnoliopsida
2017,2017-08-02,Porto,Penafiel,Abragão,Lugar Vale (ABRAGÃO),41.1586260000865,-8.22487199995253,NC,203.0,2017-08-02T14:00,26.8,33,9.0,27.0,0.0,0.0,0.0,0.0,1,1019.3,996.1,22,0,0,74,0.66,2.37,10.8,13.2,296,299,27.7,28.6,21.6,21.8,19.2,0.108,0.168,0.247,0.33,1,3600.0,894.8,774.2,120.6,887.2,894.8,1159.0,920.0,796.0,124.0,887.2,920.0,1191.6,Eucalyptus L'Hér.; Tracheophyta; Magnoliopsida
2017,2017-08-02,Porto,Trofa,Bougado (São Martinho),Abelheira (Gandara),41.3418159998788,-8.52936600049337,NC,63.0,2017-08-02T15:00,25.9,51,14.8,26.9,0.0,0.0,0.0,0.0,0,1019.7,1012.4,16,0,0,52,0.56,1.65,14.2,17.7,300,303,35.6,28.5,22.4,22.2,19.9,0.133,0.146,0.207,0.322,1,3600.0,775.1,658.0,117.1,836.6,775.1,1044.6,821.0,697.0,124.0,836.6,821.0,1106.5,Magnoliopsida; Tracheophyta; Pinales; Eucalyptus L'Hér.
2017,2017-08-02,Porto,Vila Nova de Gaia,Arcozelo,Lugar da Aldeia (Rua Nova da Fábrica),41.0534629999267,-8.64391199959649,NC,33.0,2017-08-02T15:00,22.6,65,15.6,23.6,0.0,0.0,0.0,0.0,0,1020.1,1016.2,8,0,0,27,0.5,0.97,16.0,20.2,316,321,36.0,28.4,22.3,21.8,19.6,0.109,0.174,0.261,0.35,1,3600.0,783.5,665.5,118.0,843.8,783.5,1047.6,830.0,705.0,125.0,843.8,830.0,1109.7,Pinus pinaster Aiton; Tracheophyta; Eucalyptus L'Hér.; Magnoliopsida
2017,2017-08-02,Porto,Lousada,Meinedo,Lugar das Cales,41.2444059997135,-8.25240299993091,Desconhecida,230.0,2017-08-02T16:00,26.1,47,13.8,26.5,0.0,0.0,0.0,0.0,0,1019.2,992.9,16,0,0,55,0.5,1.81,11.8,15.2,297,301,33.5,28.6,22.2,21.7,19.2,0.114,0.166,0.243,0.33,1,3600.0,638.5,535.0,103.5,812.8,638.5,874.2,703.0,589.0,114.0,812.8,703.0,962.4,Eucalyptus L'Hér.; Magnoliopsida; Tracheophyta; Pinus pinaster Aiton
2017,2017-08-02,Porto,Matosinhos,Guifões,Lugar dos Porridos (Travessa Monte dos Porridos),41.2157869995965,-8.66190500047472,NC,50.0,2017-08-02T16:00,22.2,66,15.5,22.7,0.0,0.0,0.0,0.0,0,1019.9,1014.0,0,0,0,0,0.42,0.92,15.0,19.2,300,304,33.5,27.0,21.7,21.2,19.2,0.128,0.159,0.236,0.335,1,3600.0,635.6,530.1,105.5,800.9,635.6,879.1,699.0,583.0,116.0,800.9,699.0,966.8,Acacia Mill.; Tracheophyta; Magnoliopsida; Eucalyptus L'Hér.
2017,2017-01-09,Porto,Penafiel,Lagares,Serra (SENHORA DA LAPA),41.1212330002255,-8.36843299998177,NC,196.0,2017-01-09T15:00,13.2,59,5.5,11.2,0.0,0.0,0.0,0.0,1,1027.9,1004.2,29,0,0,97,0.17,0.62,6.3,8.0,31,36,22.0,10.3,7.0,9.6,13.7,0.347,0.358,0.364,0.329,1,3600.0,313.5,251.1,62.3,767.6,313.5,462.8,357.0,286.0,71.0,767.6,357.0,527.0,Eucalyptus L'Hér.; Magnoliopsida; Tracheophyta
2017,2017-03-13,Porto,Paços de Ferreira,Carvalhosa,Aldozinde (Aldosinde),41.3038819999165,-8.36968299998177,Desconhecida,316.0,2017-03-13T20:00,10.3,58,2.5,6.4,0.0,0.0,0.0,0.0,0,1026.4,988.2,0,0,0,0,0.05,0.52,15.1,31.1,18,24,39.2,11.4,11.9,11.7,10.8,0.34,0.362,0.391,0.383,0,0.0,0.0,0.0,0.0,0.0,0.0,0.0,0.0,0.0,0.0,0.0,0.0,0.0,Tracheophyta; Eucalyptus L'Hér.; Pinus pinaster Aiton; Magnoliopsida; Vitis vinifera L.; Quercus L.; 
2017,2017-08-02,Porto,Santo Tirso,Monte Córdova,Cortinhas (Lugar do Monte),41.3153450001611,-8.4310749997033,NC,375.0,2017-08-02T16:00,25.1,48,13.3,25.1,0.0,0.0,0.0,0.0,0,1019.3,976.6,10,0,0,34,0.49,1.66,12.9,16.2,300,302,33.5,28.6,21.8,21.1,18.4,0.097,0.162,0.243,0.333,1,3600.0,635.9,531.4,104.5,807.5,635.9,874.0,700.0,585.0,115.0,807.5,700.0,962.2,Tracheophyta; Vitis vinifera L.; Eucalyptus L'Hér.; Pinus pinaster Aiton; Magnoliopsida
2017,2017-08-02,Porto,Gondomar,Jovim,Quinta das Luzes (Quinta da Palmeira),41.1131370004018,-8.53836500008901,Desconhecida,1.0,2017-08-02T17:00,21.7,71,16.2,21.7,0.0,0.0,0.0,0.0,0,1019.9,1019.8,0,0,0,0,0.32,0.75,14.7,18.9,306,309,32.4,26.7,22.4,21.5,19.5,0.131,0.179,0.26,0.348,1,3600.0,460.8,373.8,87.0,741.6,460.8,669.5,535.0,434.0,101.0,741.6,535.0,777.3,Tracheophyta; Magnoliopsida
2017,2017-08-02,Porto,Paredes,Sobreira,Lugar do Pinhal (Pinhal),41.147587000529,-8.40346600002713,NC,101.0,2017-08-02T18:00,23.0,62,15.3,22.6,0.0,0.0,0.0,0.0,0,1019.7,1007.9,0,0,0,0,0.25,1.07,15.6,21.0,299,301,33.5,27.6,23.5,22.4,19.8,0.135,0.151,0.219,0.335,1,3600.0,272.4,206.9,65.6,641.6,272.4,428.2,349.0,265.0,84.0,641.6,349.0,548.5,Magnoliopsida; Pinus pinaster Aiton; Eucalyptus L'Hér.; Tracheophyta; Vitis vinifera L.
2017,2017-08-02,Porto,Amarante,Travanca,Barreiros (Santo Ildefonso),41.2795350000593,-8.20358500003815,Desconhecida,334.0,2017-08-02T18:00,22.4,59,13.9,21.4,0.0,0.0,0.0,0.0,0,1019.7,981.2,0,0,0,0,0.25,1.12,15.6,20.6,293,295,32.8,27.4,22.7,21.4,18.7,0.097,0.162,0.243,0.333,1,3600.0,270.8,206.0,64.8,641.0,270.8,426.9,347.0,264.0,83.0,641.0,347.0,547.0,Tracheophyta; Magnoliopsida; Eucalyptus L'Hér.; Vitis vinifera L.; Pinus pinaster Aiton; 
2017,2017-08-02,Porto,Felgueiras,Macieira da Lixa,Seixoso (MACIEIRA DA LIXA),41.3513500000371,-8.15455899980333,Reacendimento,407.0,2017-08-02T19:00,20.7,66,14.1,20.0,0.0,0.0,0.0,0.0,0,1020.0,973.1,4,0,0,13,0.13,0.84,13.9,19.7,291,294,33.8,25.8,22.7,21.2,18.5,0.104,0.155,0.229,0.324,1,3600.0,94.6,61.1,33.5,458.5,94.6,177.1,161.0,104.0,57.0,458.5,161.0,301.2,Eucalyptus L'Hér.; Tracheophyta; Pinus pinaster Aiton; Vitis vinifera L.; Magnoliopsida
2017,2017-08-02,Porto,Baião,Teixeiró,Várzea (Telhado),41.1796329996321,-7.90633000002967,Desconhecida,426.0,2017-08-02T19:00,23.8,51,13.0,22.8,0.0,0.0,0.0,0.0,0,1018.7,970.2,0,0,0,0,0.17,1.45,14.1,22.4,283,285,38.2,27.9,24.9,22.9,20.0,0.14,0.159,0.186,0.311,1,3600.0,91.5,59.3,32.2,466.5,91.5,168.7,159.0,103.0,56.0,466.5,159.0,293.3,Magnoliopsida; Tracheophyta; Eucalyptus L'Hér.; Pinus pinaster Aiton; Vitis vinifera L.; Pinales; Quercus L.; 
2017,2017-08-02,Porto,Penafiel,Abragão,Lugar do Vale (ED320 (ED320) Km 24),41.1561129999161,-8.22921699947781,NC,200.0,2017-08-02T21:00,17.9,89,16.0,19.4,0.0,0.0,0.0,0.0,0,1021.8,998.1,0,0,0,0,0.0,0.23,4.4,6.1,261,298,13.3,23.2,23.4,21.8,19.2,0.107,0.167,0.246,0.33,0,0.0,0.0,0.0,0.0,0.0,0.0,0.0,0.0,0.0,0.0,0.0,0.0,0.0,Magnoliopsida; Eucalyptus L'Hér.; Tracheophyta; Pinus pinaster Aiton
2017,2017-03-13,Porto,Santo Tirso,Roriz,Lg. da Costa (Costa),41.3556980000602,-8.37845300038656,NC,197.0,2017-03-13T19:00,11.9,55,3.2,7.8,0.0,0.0,0.0,0.0,0,1025.8,1001.9,0,0,0,0,0.08,0.63,17.3,32.2,12,16,38.2,13.1,12.6,12.5,11.6,0.346,0.365,0.391,0.381,0,221.02,0.0,0.0,0.0,0.0,0.0,0.0,18.0,9.0,9.0,98.9,18.0,65.9,Tracheophyta; Eucalyptus L'Hér.; Magnoliopsida; Vitis vinifera L.
2017,2017-08-02,Porto,Penafiel,Paço de Sousa,Lugar de Vales (Quinta do Carvalhal),41.1573999998305,-8.35394800000721,NC,236.0,2017-08-02T22:00,18.1,87,15.9,20.0,0.0,0.0,0.0,0.0,0,1021.8,994.0,8,9,0,0,0.0,0.28,1.0,3.3,225,347,8.3,21.7,22.8,21.5,19.0,0.135,0.151,0.22,0.335,0,0.0,0.0,0.0,0.0,0.0,0.0,0.0,0.0,0.0,0.0,0.0,0.0,0.0,Eucalyptus L'Hér.; Vitis vinifera L.; Tracheophyta; Magnoliopsida
2017,2017-08-02,Porto,Vila do Conde,Vilar,Lugar de Soutelo (Barreiro),41.2848500000106,-8.67898299958971,Reacendimento,47.0,2017-08-02T22:00,18.3,94,17.3,20.7,0.0,0.0,0.0,0.0,0,1021.6,1016.0,19,21,0,0,0.0,0.13,1.8,3.9,101,338,6.1,21.8,22.8,21.5,19.4,0.096,0.167,0.249,0.327,0,0.0,0.0,0.0,0.0,0.0,0.0,0.0,0.0,0.0,0.0,0.0,0.0,0.0,Tracheophyta; Eucalyptus L'Hér.
2017,2017-08-02,Porto,Felgueiras,Refontoura,Lugar de Outubro (Covêlo),41.336136999925,-8.19005000008477,Desconhecida,310.0,2017-08-02T22:00,17.5,91,16.0,19.1,0.0,0.0,0.0,0.0,0,1021.9,985.5,2,2,0,0,0.0,0.18,3.2,6.9,243,276,13.0,22.2,23.3,21.8,19.1,0.104,0.155,0.229,0.324,0,0.0,0.0,0.0,0.0,0.0,0.0,0.0,0.0,0.0,0.0,0.0,0.0,0.0,Tracheophyta; Magnoliopsida; Eucalyptus L'Hér.; Vitis vinifera L.; Pinus pinaster Aiton
2017,2017-08-03,Porto,Paredes,Aguiar de Sousa,Lugar de Travisqueira (EN209-1 (EN209-1) Km 13),41.1301659997304,-8.44775000042386,NC,217.0,2017-08-03T06:00,17.8,89,16.0,18.6,0.0,0.0,0.0,0.0,1,1020.1,994.5,33,37,0,0,0.02,0.22,8.4,15.1,100,108,13.3,19.4,21.4,21.2,18.9,0.121,0.157,0.235,0.338,1,0.0,12.6,2.5,10.1,29.0,5.0,95.8,5.0,1.0,4.0,13.8,5.0,38.0,Magnoliopsida; Pinus pinaster Aiton; Eucalyptus L'Hér.; Tracheophyta; Vitis vinifera L.; Quercus L.; Quercus suber L.
2017,2017-08-03,Porto,Trofa,Bougado (São Martinho),Abelheira (Ervosa),41.3421930000517,-8.51408699989319,NC,59.0,2017-08-03T07:00,20.3,83,17.3,22.4,0.0,0.0,0.0,0.0,1,1020.2,1013.2,33,37,0,0,0.05,0.41,3.8,6.2,163,159,11.5,21.1,22.3,22.2,19.9,0.131,0.145,0.206,0.322,1,3600.0,126.7,54.7,71.9,210.9,126.7,344.7,81.0,35.0,46.0,210.9,81.0,220.5,Magnoliopsida; Pinus pinaster Aiton; Pinales; Tracheophyta; Eucalyptus L'Hér.; Vitis vinifera L.
2017,2017-08-03,Porto,Penafiel,Bustelo,Lugar Lameirinha (Lameirinha),41.224377000067,-8.25853700002035,NC,342.0,2017-08-03T08:00,20.4,74,15.6,22.0,0.0,0.0,0.0,0.0,0,1020.8,981.1,17,19,0,0,0.15,0.62,2.1,2.9,121,120,11.9,20.6,21.0,21.0,18.5,0.112,0.165,0.242,0.33,1,3600.0,338.8,237.2,101.7,532.7,338.8,591.5,270.0,189.0,81.0,532.7,270.0,471.3,Magnoliopsida; Tracheophyta; Eucalyptus L'Hér.; Pinus pinaster Aiton; Vitis vinifera L.; Pinales; ; Quercus L.
2017,2017-03-13,Porto,Baião,Campelo,Lg. Boscras (CAMPELO),41.1613229995304,-8.03424199998379,Desconhecida,574.0,2017-03-13T17:00,13.5,46,2.0,10.3,0.0,0.0,0.0,0.0,0,1024.8,957.5,3,0,5,0,0.17,0.84,9.3,16.5,77,79,38.9,12.6,9.8,10.0,8.9,0.359,0.376,0.4,0.39,1,3600.0,212.2,106.9,105.3,367.1,212.2,403.2,274.0,138.0,136.0,367.1,274.0,520.6,Tracheophyta; Pinus pinaster Aiton; Magnoliopsida; Eucalyptus L'Hér.; Pinales; Quercus L.; Vitis vinifera L.; 
2017,2017-08-03,Porto,Felgueiras,Airães,Lugar de Fonte Cova (São Vicente),41.3245999998517,-8.19057200007969,Desconhecida,320.0,2017-08-03T11:00,25.7,54,15.7,27.4,0.0,0.0,0.0,0.0,1,1020.7,984.2,23,26,0,0,0.51,1.51,8.9,11.0,291,293,24.1,26.9,22.4,21.9,19.2,0.091,0.159,0.239,0.329,1,3600.0,777.5,617.7,159.7,727.8,777.5,1127.5,735.0,584.0,151.0,727.8,735.0,1065.9,Magnoliopsida; Vitis vinifera L.; Tracheophyta; Eucalyptus L'Hér.
2017,2017-08-03,Porto,Vila do Conde,Fornelo,Lugar Fonte do Olival (Calvário),41.3322030003866,-8.64441100014581,NC,127.0,2017-08-03T12:00,23.3,75,18.6,25.7,0.0,0.0,0.0,0.0,1,1020.8,1006.0,41,46,0,0,0.44,0.71,11.5,12.6,250,246,28.8,26.6,21.7,21.0,18.9,0.094,0.166,0.248,0.326,1,3600.0,729.8,478.0,251.8,529.4,729.8,1199.3,710.0,465.0,245.0,529.4,710.0,1166.7,Eucalyptus L'Hér.; Tracheophyta
2017,2017-08-03,Porto,Vila do Conde,Vilar,Lugar de Soutelo (Barreiro),41.2850130000379,-8.67772699991862,Reacendimento,40.0,2017-08-03T12:00,23.8,75,19.2,26.5,0.0,0.0,0.0,0.0,1,1020.8,1016.1,41,46,0,0,0.44,0.73,11.5,12.6,250,246,28.8,27.2,22.3,21.5,19.4,0.094,0.166,0.248,0.326,1,3600.0,729.8,478.0,251.8,529.4,729.8,1199.3,710.0,465.0,245.0,529.4,710.0,1166.7,Tracheophyta; Eucalyptus L'Hér.
2017,2017-08-03,Porto,Penafiel,Oldrões,Lugar da Salgã (Vila Nova),41.1535530000263,-8.29382200029161,NC,264.0,2017-08-03T14:00,28.4,45,15.4,30.3,0.0,0.0,0.0,0.0,1,1019.9,989.9,35,39,0,0,0.63,2.12,11.5,14.2,284,286,28.8,30.3,22.9,21.4,18.8,0.105,0.165,0.244,0.33,1,3600.0,840.2,692.4,147.8,795.3,840.2,1156.6,864.0,712.0,152.0,795.3,864.0,1189.4,Magnoliopsida; Eucalyptus L'Hér.; Tracheophyta
2017,2017-08-03,Porto,Lousada,Sousela,Caminho da Lage,41.3008219999737,-8.31743799997701,Reacendimento,321.0,2017-08-03T14:00,27.5,49,15.8,29.3,0.0,0.0,0.0,0.0,0,1020.1,983.7,0,0,0,0,0.6,1.88,12.3,15.2,291,292,29.9,30.6,23.1,21.4,18.8,0.094,0.16,0.241,0.332,1,3600.0,810.1,615.6,194.5,707.7,810.1,1155.5,833.0,633.0,200.0,707.7,833.0,1188.2,Eucalyptus L'Hér.; Tracheophyta; Pinus pinaster Aiton; Magnoliopsida
2017,2017-08-03,Porto,Felgueiras,Airães,Lugar de Cortinhas (São Vicente),41.3247649998135,-8.19060299979316,Reacendimento,320.0,2017-08-03T14:00,28.3,46,15.6,30.1,0.0,0.0,0.0,0.0,3,1020.1,983.9,81,90,0,0,0.62,2.06,11.8,14.7,297,298,29.2,31.3,23.5,21.9,19.2,0.091,0.159,0.238,0.328,1,3600.0,821.6,638.8,182.8,734.9,821.6,1154.8,845.0,657.0,188.0,734.9,845.0,1187.7,Magnoliopsida; Vitis vinifera L.; Tracheophyta; Eucalyptus L'Hér.
2017,2017-08-03,Porto,Gondomar,Foz do Sousa,São Gens (Alto de Nabais),41.1081649997499,-8.4872900001208,NC,50.0,2017-08-03T14:00,27.3,58,18.3,29.9,0.0,0.0,0.0,0.0,0,1020.5,1014.7,0,0,0,0,0.6,1.53,14.5,17.8,277,278,33.1,30.6,23.8,22.3,20.0,0.126,0.154,0.229,0.337,1,3600.0,841.6,700.5,141.1,803.2,841.6,1158.6,865.0,720.0,145.0,803.2,865.0,1190.9,Eucalyptus L'Hér.; Vitis vinifera L.; Pinus pinaster Aiton; Tracheophyta; Magnoliopsida
2017,2017-08-03,Porto,Amarante,Travanca,Lugar da Bela (Tapada),41.2708999999364,-8.20331000010173,Desconhecida,263.0,2017-08-03T14:00,27.9,49,16.2,29.8,0.0,0.0,0.0,0.0,0,1020.1,990.2,0,0,0,0,0.61,1.92,12.3,15.2,291,292,29.9,31.0,23.5,21.8,19.2,0.094,0.16,0.241,0.332,1,3600.0,810.1,615.6,194.5,707.7,810.1,1155.5,833.0,633.0,200.0,707.7,833.0,1188.2,Tracheophyta; Magnoliopsida; Eucalyptus L'Hér.; Vitis vinifera L.; Pinus pinaster Aiton; 
2017,2017-08-03,Porto,Baião,Teixeiró,Várzea (Estalagem),41.1788530000051,-7.90659799999661,Desconhecida,397.0,2017-08-03T15:00,29.3,43,15.6,30.3,0.0,0.0,0.0,0.0,0,1018.8,974.3,0,0,0,0,0.62,2.31,15.3,20.6,289,289,43.6,32.6,24.9,23.1,20.2,0.137,0.157,0.184,0.31,1,3600.0,754.5,642.4,112.1,824.2,754.5,1035.6,801.0,682.0,119.0,824.2,801.0,1099.3,Magnoliopsida; Tracheophyta; Eucalyptus L'Hér.; Pinus pinaster Aiton; Vitis vinifera L.; Pinales; Quercus L.; 
2017,2017-08-03,Porto,Paredes,Recarei,Valvide,41.1599529997508,-8.42320999993218,NC,126.0,2017-08-03T15:00,27.3,51,16.2,28.5,0.0,0.0,0.0,0.0,0,1019.9,1005.4,0,0,0,0,0.55,1.8,14.4,18.2,283,284,34.2,30.7,24.0,22.2,19.7,0.133,0.148,0.217,0.335,1,3600.0,717.9,549.0,168.9,700.1,717.9,1041.8,761.0,582.0,179.0,700.1,761.0,1104.3,Magnoliopsida; Pinus pinaster Aiton; Eucalyptus L'Hér.; Tracheophyta; Vitis vinifera L.
2017,2017-08-03,Porto,Santo Tirso,Monte Córdova,Cortinhas (Vila Meã),41.3175580000215,-8.46395700030857,NC,126.0,2017-08-03T15:00,26.1,52,15.4,27.3,0.0,0.0,0.0,0.0,0,1020.2,1005.6,8,9,0,0,0.54,1.63,12.7,15.7,277,279,34.2,29.2,23.3,21.7,19.6,0.133,0.15,0.221,0.33,1,3600.0,733.3,587.0,146.3,748.2,733.3,1042.3,777.0,622.0,155.0,748.2,777.0,1104.4,Magnoliopsida; Tracheophyta; Pinus pinaster Aiton; Eucalyptus L'Hér.; Vitis vinifera L.
2017,2017-08-03,Porto,Penafiel,Pinheiro,Lugar de Jugueiros (Aveleda),41.1147460005018,-8.29926099989149,NC,188.0,2017-08-03T15:00,27.0,52,16.3,28.3,0.0,0.0,0.0,0.0,0,1019.8,998.3,0,0,0,0,0.56,1.72,14.7,18.4,281,282,35.6,31.3,23.9,22.0,19.5,0.104,0.159,0.233,0.319,1,3600.0,733.9,591.4,142.4,754.0,733.9,1042.1,778.0,627.0,151.0,754.0,778.0,1104.8,Tracheophyta; Vitis vinifera L.; Magnoliopsida; Eucalyptus L'Hér.
2017,2017-08-03,Porto,Santo Tirso,Negrelos (São Tomé),Lg. Quintão (Tapada),41.3412319999271,-8.4124449994829,NC,296.0,2017-08-03T16:00,25.6,51,14.7,26.0,0.0,0.0,0.0,0.0,0,1020.1,986.3,0,0,0,0,0.47,1.6,12.5,15.5,282,283,33.8,29.1,23.0,20.9,18.6,0.109,0.165,0.243,0.327,1,3600.0,610.4,506.0,104.5,770.4,610.4,872.5,672.0,557.0,115.0,770.4,672.0,960.6,Eucalyptus L'Hér.; Vitis vinifera L.; Pinus pinaster Aiton
2017,2017-08-03,Porto,Trofa,Coronado (São Mamede),Lg. Seixal (Gondão),41.276720000373,-8.56338800006443,NC,103.0,2017-08-03T16:00,26.0,52,15.4,26.7,0.0,0.0,0.0,0.0,0,1020.2,1008.3,4,5,0,0,0.47,1.61,12.5,15.5,282,283,31.0,29.4,23.8,21.8,19.7,0.133,0.15,0.221,0.33,1,3600.0,608.8,498.8,109.9,758.0,608.8,874.3,670.0,549.0,121.0,758.0,670.0,962.3,Tracheophyta; Pinus pinaster Aiton; Magnoliopsida; Pinales
2017,2017-08-03,Porto,Lousada,Vilar do Torno e Alentém,Rua da Castanheira,41.284610000054,-8.20387800004747,Desconhecida,309.0,2017-08-03T18:00,24.8,53,14.5,24.4,0.0,0.0,0.0,0.0,0,1019.5,984.1,0,0,0,0,0.26,1.48,12.6,16.7,294,295,30.6,29.4,24.5,21.6,18.9,0.094,0.16,0.241,0.332,1,3600.0,258.5,193.1,65.4,606.4,258.5,423.0,332.0,248.0,84.0,606.4,332.0,543.4,Tracheophyta; Magnoliopsida; Eucalyptus L'Hér.; Vitis vinifera L.
2017,2017-03-13,Porto,Amarante,Vila Caiz,Lg. Amarantinho (Fazenda),41.2425799994999,-8.12103200011783,Desconhecida,202.0,2017-03-13T15:00,16.5,39,2.6,12.1,0.0,0.0,0.0,0.0,2,1025.3,1001.2,52,0,86,0,0.34,1.15,18.8,26.1,36,38,41.8,15.0,11.6,12.2,11.1,0.346,0.363,0.39,0.387,1,3600.0,502.9,309.7,193.2,525.9,502.9,815.5,544.0,335.0,209.0,525.9,544.0,882.3,Magnoliopsida; Pinus pinaster Aiton; Tracheophyta; Vitis vinifera L.; Eucalyptus L'Hér.; 
2017,2017-08-03,Porto,Felgueiras,Macieira da Lixa,Seixoso (MACIEIRA DA LIXA),41.3513500000371,-8.15464500003391,Reacendimento,407.0,2017-08-03T19:00,23.3,53,13.2,22.5,0.0,0.0,0.0,0.0,0,1019.7,973.2,0,0,0,0,0.15,1.34,11.8,17.3,290,291,29.9,27.6,24.2,21.2,18.5,0.1,0.153,0.227,0.324,1,3600.0,87.8,54.7,33.1,420.3,87.8,172.8,151.0,94.0,57.0,420.3,151.0,297.1,Eucalyptus L'Hér.; Tracheophyta; Pinus pinaster Aiton; Vitis vinifera L.; Magnoliopsida
2017,2017-08-03,Porto,Penafiel,Capela,Lg. Bouça (Oliveira),41.1121579996745,-8.35776300006443,NC,196.0,2017-08-03T20:00,21.5,66,14.8,22.6,0.0,0.0,0.0,0.0,0,1019.8,996.9,3,3,0,0,0.03,0.88,3.4,7.8,288,304,19.4,26.5,25.0,22.0,19.4,0.104,0.159,0.232,0.319,0,266.53,0.0,0.0,0.0,0.0,0.0,0.0,22.0,9.0,13.0,88.4,22.0,76.8,Tracheophyta; Magnoliopsida; Eucalyptus L'Hér.
2017,2017-08-03,Porto,Maia,Moreira,Zona Industrial (Avenida Professor Mota Pinto),41.2557649999195,-8.63770800007714,Reacendimento,121.0,2017-08-03T20:00,19.1,92,17.8,21.1,0.0,0.0,0.0,0.0,0,1019.8,1005.5,1,1,0,0,0.01,0.17,6.0,10.7,327,340,17.3,24.3,23.3,20.8,18.8,0.126,0.156,0.234,0.335,0,171.16,0.0,0.0,0.0,0.0,0.0,0.0,22.0,8.0,14.0,77.0,22.0,79.6,Magnoliopsida; Eucalyptus L'Hér.; Tracheophyta; Pinus pinaster Aiton; 
2017,2017-08-03,Porto,Paredes,Parada de Todeia,Lg. Apeadeiro (Apeadeiro),41.1601250002119,-8.37508699999915,NC,121.0,2017-08-03T20:00,22.2,63,14.7,23.1,0.0,0.0,0.0,0.0,0,1019.8,1005.6,1,1,0,0,0.04,1.0,4.4,10.2,305,315,19.4,26.6,25.2,22.3,19.8,0.133,0.148,0.217,0.335,0,267.05,0.0,0.0,0.0,0.0,0.0,0.0,22.0,9.0,13.0,88.1,22.0,77.1,Magnoliopsida; Pinus pinaster Aiton; Eucalyptus L'Hér.; Tracheophyta; Vitis vinifera L.
2017,2017-08-03,Porto,Paços de Ferreira,Frazão,Barbelães,41.2568010001712,-8.39615599950155,Desconhecida,253.0,2017-08-03T22:00,19.5,72,14.4,20.3,0.0,0.0,0.0,0.0,0,1020.8,991.2,4,4,0,0,0.0,0.64,4.3,11.5,312,321,10.8,23.5,24.2,21.4,19.0,0.133,0.15,0.223,0.338,0,0.0,0.0,0.0,0.0,0.0,0.0,0.0,0.0,0.0,0.0,0.0,0.0,0.0,Eucalyptus L'Hér.; Tracheophyta; Magnoliopsida; Vitis vinifera L.; 
2017,2017-08-03,Porto,Lousada,Sousela,Caminho da Lage,41.3140929995643,-8.31643999947442,Reacendimento,388.0,2017-08-03T22:00,19.1,70,13.4,19.7,0.0,0.0,0.0,0.0,0,1020.8,975.7,3,3,0,0,0.0,0.68,3.9,9.7,292,312,10.4,23.4,24.1,21.1,18.4,0.094,0.16,0.241,0.332,0,0.0,0.0,0.0,0.0,0.0,0.0,0.0,0.0,0.0,0.0,0.0,0.0,0.0,Eucalyptus L'Hér.; Magnoliopsida; Tracheophyta; Pinus pinaster Aiton
2017,2017-08-03,Porto,Baião,Teixeiró,Varzea (Telhado),41.1794570000966,-7.90599199983809,Desconhecida,426.0,2017-08-03T22:00,21.2,63,13.8,21.5,0.0,0.0,0.0,0.0,0,1020.3,971.3,0,0,0,0,0.02,0.94,6.3,16.2,257,270,26.6,25.2,26.1,23.0,20.1,0.137,0.156,0.184,0.31,0,0.0,0.0,0.0,0.0,0.0,0.0,0.0,0.0,0.0,0.0,0.0,0.0,0.0,Magnoliopsida; Tracheophyta; Eucalyptus L'Hér.; Pinus pinaster Aiton; Vitis vinifera L.; Pinales; Quercus L.; 
2017,2017-08-04,Porto,Felgueiras,Refontoura,Lugar do Rosso (REFONTOURA),41.3336519999968,-8.19433000034756,Desconhecida,270.0,2017-08-04T00:00,20.1,67,13.8,20.9,0.0,0.0,0.0,0.0,0,1021.0,989.5,20,22,0,0,0.0,0.77,2.4,2.5,243,278,7.9,23.5,25.1,22.3,19.6,0.093,0.158,0.238,0.328,0,0.0,0.0,0.0,0.0,0.0,0.0,0.0,0.0,0.0,0.0,0.0,0.0,0.0,Magnoliopsida; Tracheophyta; Vitis vinifera L.; Pinus pinaster Aiton; Eucalyptus L'Hér.
2017,2017-08-04,Porto,Paredes,Cete,Lugar do Mosteiro (Aldeia de Cima),41.1821280002594,-8.36417799949646,NC,197.0,2017-08-04T01:00,19.0,78,15.1,20.3,0.0,0.0,0.0,0.0,1,1020.4,997.2,26,29,0,0,0.0,0.47,2.3,2.9,39,360,5.0,22.3,24.1,21.8,19.3,0.133,0.147,0.216,0.335,0,0.0,0.0,0.0,0.0,0.0,0.0,0.0,0.0,0.0,0.0,0.0,0.0,0.0,Magnoliopsida; Pinus pinaster Aiton; Eucalyptus L'Hér.; Tracheophyta; Vitis vinifera L.
2017,2017-08-04,Porto,Vila do Conde,Vilar,Soutelo (Real),41.284245000018,-8.67999199973212,Reacendimento,45.0,2017-08-04T04:00,20.2,83,17.3,22.6,0.0,0.0,0.0,0.0,3,1019.8,1014.5,90,100,0,0,0.0,0.39,1.1,1.3,252,304,4.3,22.1,23.3,21.6,19.5,0.094,0.166,0.249,0.326,0,0.0,0.0,0.0,0.0,0.0,0.0,0.0,0.0,0.0,0.0,0.0,0.0,0.0,Eucalyptus L'Hér.; Tracheophyta
2017,2017-08-04,Porto,Felgueiras,Borba de Godim,Seixoso (Fojo),41.3409470001857,-8.12429799980587,Reacendimento,487.0,2017-08-04T06:00,18.3,72,13.3,19.0,0.0,0.0,0.0,0.0,3,1020.0,963.7,90,100,0,0,0.03,0.58,2.6,3.5,74,24,8.3,20.2,22.4,20.9,18.2,0.103,0.158,0.239,0.334,1,0.0,10.0,0.0,10.0,0.0,4.1,101.6,4.0,0.0,4.0,0.0,4.0,40.8,Eucalyptus L'Hér.; Pinus pinaster Aiton; Magnoliopsida
2017,2017-08-04,Porto,Amarante,Travanca,Aldeia Bela (Ribas),41.2749420001772,-8.19064799997542,Reacendimento,217.0,2017-08-04T07:00,20.6,64,13.5,21.4,0.0,0.0,0.0,0.0,3,1019.7,994.3,90,100,0,0,0.04,0.88,1.8,2.9,37,60,6.8,22.3,23.8,22.3,19.6,0.097,0.159,0.24,0.332,1,0.0,56.3,0.0,56.3,0.0,56.3,345.6,36.0,0.0,36.0,0.0,36.0,221.0,Tracheophyta; Magnoliopsida; Eucalyptus L'Hér.; Vitis vinifera L.; Pinus pinaster Aiton; 
2017,2017-08-04,Porto,Felgueiras,Refontoura,Lg. Roto (Igreja),41.3339500000079,-8.19568799972534,Reacendimento,273.0,2017-08-04T08:00,21.5,76,17.0,23.3,0.0,0.0,0.0,0.0,3,1019.9,988.2,85,94,0,0,0.1,0.63,4.7,6.0,23,25,13.0,22.8,23.8,22.4,19.6,0.093,0.158,0.238,0.328,1,488.82,167.0,33.9,133.1,76.3,167.0,590.4,133.0,27.0,106.0,76.3,133.0,470.2,Magnoliopsida; Tracheophyta; Pinus pinaster Aiton; Vitis vinifera L.; Eucalyptus L'Hér.
2017,2017-08-04,Porto,Vila do Conde,Tougues,Lg. da Espinheira (RIO AVE),41.3640530003442,-8.69430500030518,Reacendimento,28.0,2017-08-04T10:00,24.5,68,18.1,26.5,0.0,0.0,0.0,0.0,2,1019.6,1016.3,69,76,0,3,0.34,1.0,6.9,7.9,317,330,19.4,25.6,23.1,21.7,19.5,0.1,0.159,0.241,0.326,1,3600.0,560.1,317.4,242.7,427.4,560.1,986.8,510.0,289.0,221.0,427.4,510.0,898.5,Tracheophyta; Eucalyptus L'Hér.; Pinus pinaster Aiton; Magnoliopsida
2017,2017-08-04,Porto,Vila Nova de Gaia,Olival,Lg. Lavadorinhos (Rua de Lavadorinhos),41.0390650002162,-8.53814199977451,Desconhecida,154.0,2017-08-04T10:00,23.6,70,17.9,25.2,0.0,0.0,0.0,0.0,0,1019.5,1001.6,0,0,0,0,0.36,0.86,8.7,10.1,330,343,20.9,25.2,22.6,21.2,18.9,0.108,0.172,0.263,0.35,1,3600.0,623.9,463.5,160.4,622.4,623.9,989.6,568.0,422.0,146.0,622.4,568.0,900.9,Magnoliopsida; Tracheophyta; Eucalyptus L'Hér.
2017,2017-08-04,Porto,Maia,Barca,Apeadeiro de Mandim (Rua do Vieiro),41.2530250000954,-8.62857300016615,NC,105.0,2017-08-04T10:00,23.7,71,18.2,25.4,0.0,0.0,0.0,0.0,0,1019.6,1007.4,14,15,0,0,0.34,0.84,9.0,10.0,307,319,22.7,24.8,22.3,21.0,19.0,0.123,0.158,0.237,0.335,1,3600.0,577.7,380.0,197.7,511.1,577.7,988.0,526.0,346.0,180.0,511.1,526.0,899.5,Pinus pinaster Aiton; Tracheophyta; Eucalyptus L'Hér.; Magnoliopsida
2017,2017-08-04,Porto,Lousada,Sousela,Caminho da Lage,41.3140100002289,-8.31632999949985,Reacendimento,388.0,2017-08-04T11:00,25.8,56,16.5,28.4,0.0,0.0,0.0,0.0,0,1019.6,975.6,0,0,0,0,0.53,1.45,7.1,8.9,311,317,22.0,27.1,22.8,21.2,18.4,0.096,0.158,0.24,0.332,1,3600.0,823.3,698.4,124.9,825.4,823.3,1124.4,778.0,660.0,118.0,825.4,778.0,1062.5,Eucalyptus L'Hér.; Magnoliopsida; Tracheophyta; Pinus pinaster Aiton
2017,2017-08-04,Porto,Baião,Gestaçô,Quintela (Venal),41.193037999471,-7.9477339998881,Desconhecida,831.0,2017-08-04T12:00,26.5,44,13.4,27.6,0.0,0.0,0.0,0.0,0,1019.1,927.8,0,0,0,0,0.62,1.93,12.4,16.3,287,288,38.9,26.3,20.5,18.9,16.1,0.132,0.149,0.21,0.326,1,3600.0,898.2,771.9,126.3,854.3,898.2,1200.7,875.0,752.0,123.0,854.3,875.0,1169.7,Pinus pinaster Aiton; Magnoliopsida; Eucalyptus L'Hér.; Tracheophyta; Vitis vinifera L.; Quercus L.; 
2017,2017-03-13,Porto,Penafiel,Bustelo,Lg. Sº Miguel (Lugar Novo),41.2305150000254,-8.27770799954732,NC,188.0,2017-03-13T14:00,16.4,40,2.8,12.5,0.0,0.0,0.0,0.0,2,1025.7,1003.2,55,16,68,0,0.37,1.12,17.8,24.5,42,43,42.8,14.9,11.4,12.3,11.2,0.348,0.364,0.391,0.387,1,3600.0,601.3,388.0,213.3,572.9,601.3,938.2,623.0,402.0,221.0,572.9,623.0,972.0,Magnoliopsida; Tracheophyta; Eucalyptus L'Hér.; Pinus pinaster Aiton; Vitis vinifera L.; Pinales; 
2017,2017-08-04,Porto,Penafiel,Paço de Sousa,Barrocas (Quinta das Gordas),41.1608049996694,-8.34914800008138,NC,222.0,2017-08-04T12:00,27.9,54,17.6,31.0,0.0,0.0,0.0,0.0,0,1019.2,993.9,0,0,0,0,0.62,1.75,10.0,11.8,296,297,22.3,29.0,23.4,21.7,19.2,0.135,0.149,0.218,0.335,1,3600.0,892.9,772.7,120.2,856.1,892.9,1199.3,869.0,752.0,117.0,856.1,869.0,1167.2,Tracheophyta; Eucalyptus L'Hér.; Magnoliopsida; Vitis vinifera L.
