year,date,district,municipality,parish,local,latitude,longitude,cause,elevation,hourly.time,hourly.temperature_2m,hourly.relative_humidity_2m,hourly.dew_point_2m,hourly.apparent_temperature,hourly.precipitation,hourly.rain,hourly.snowfall,hourly.snow_depth,hourly.weather_code,hourly.pressure_msl,hourly.surface_pressure,hourly.cloud_cover,hourly.cloud_cover_low,hourly.cloud_cover_mid,hourly.cloud_cover_high,hourly.et0_fao_evapotranspiration,hourly.vapour_pressure_deficit,hourly.wind_speed_10m,hourly.wind_speed_100m,hourly.wind_direction_10m,hourly.wind_direction_100m,hourly.wind_gusts_10m,hourly.soil_temperature_0_to_7cm,hourly.soil_temperature_7_to_28cm,hourly.soil_temperature_28_to_100cm,hourly.soil_temperature_100_to_255cm,hourly.soil_moisture_0_to_7cm,hourly.soil_moisture_7_to_28cm,hourly.soil_moisture_28_to_100cm,hourly.soil_moisture_100_to_255cm,hourly.is_day,hourly.sunshine_duration,hourly.shortwave_radiation_instant,hourly.direct_radiation_instant,hourly.diffuse_radiation_instant,hourly.direct_normal_irradiance_instant,hourly.global_tilted_irradiance_instant,hourly.terrestrial_radiation_instant,hourly.shortwave_radiation,hourly.direct_radiation,hourly.diffuse_radiation,hourly.direct_normal_irradiance,hourly.global_tilted_irradiance,hourly.terrestrial_radiation,scientificNames
2018,2018-08-20,Setúbal,Seixal,Aldeia de Paio Pires,R ALEGRIA (Quinta Maciel),38.6117499997881,-9.07373699982961,Desconhecida,5.0,2018-08-20T14:00,31.1,35,13.9,31.5,0.0,0.0,0.0,0.0,0,1015.9,1015.3,1,0,2,0,0.68,2.94,15.6,19.9,232,228,36.7,34.3,26.7,23.9,20.5,0.058,0.075,0.126,0.165,1,3600.0,800.5,653.0,147.5,768.2,800.5,1135.8,825.0,673.0,152.0,768.2,825.0,1170.5,Tracheophyta; Magnoliopsida; Pinus pinaster Aiton
2018,2018-08-21,Setúbal,Palmela,Marateca,Rua 9 de Março - Cajados,38.5833220005035,-8.78526200003094,Desconhecida,16.0,2018-08-21T02:00,19.6,97,19.1,21.3,0.0,0.0,0.0,0.0,0,1014.4,1012.5,3,0,4,2,0.0,0.07,11.5,16.7,200,205,20.2,23.1,27.4,24.2,20.4,0.04,0.069,0.114,0.14,0,0.0,0.0,0.0,0.0,0.0,0.0,0.0,0.0,0.0,0.0,0.0,0.0,0.0,Vitis vinifera L.; Tracheophyta; Magnoliopsida
2018,2018-08-22,Setúbal,Moita,Alhos Vedros,R GAGO COUTINHO 42 (Arroteias),38.6431470002068,-9.00457499980926,Desconhecida,11.0,2018-08-22T00:00,22.6,72,17.4,24.8,0.0,0.0,0.0,0.0,0,1014.8,1013.5,12,1,4,30,0.0,0.76,3.5,5.9,294,11,8.6,22.8,26.9,24.0,20.6,0.059,0.076,0.126,0.165,0,0.0,0.0,0.0,0.0,0.0,0.0,0.0,0.0,0.0,0.0,0.0,0.0,0.0,Tracheophyta; Magnoliopsida; Quercus suber L.; Eucalyptus L'Hér.; Pinales
2018,2018-08-22,Setúbal,Sesimbra,Sesimbra (Santiago),R JUVENTUDE 32 (Casal do Jaco),38.4466149997711,-9.10512800004747,Desconhecida,75.0,2018-08-22T05:00,18.2,98,17.9,19.8,0.0,0.0,0.0,0.0,1,1014.3,1005.4,27,29,2,0,0.0,0.03,8.4,6.9,317,351,11.9,18.1,18.1,18.1,18.1,0.0,0.0,0.0,0.0,0,0.0,0.0,0.0,0.0,0.0,0.0,0.0,0.0,0.0,0.0,0.0,0.0,0.0,Magnoliopsida; Tracheophyta
2018,2018-08-22,Setúbal,Seixal,Arrentela,Rua Jorge Peixinho (Quinta de Nossa Senhora do Monte Sião),38.617995000018,-9.09273299958971,Desconhecida,33.0,2018-08-22T05:00,19.3,91,17.8,21.5,0.0,0.0,0.0,0.0,0,1014.3,1010.4,5,1,3,8,0.0,0.21,4.7,2.6,180,196,7.2,19.4,25.6,23.9,20.4,0.059,0.076,0.126,0.165,0,0.0,0.0,0.0,0.0,0.0,0.0,0.0,0.0,0.0,0.0,0.0,0.0,0.0,Tracheophyta
2018,2018-08-24,Setúbal,Almada,Sobreda,QUINTA BICO (Quinta do Lagar),38.6482949998644,-9.19447299957275,NC,92.0,2018-08-24T22:00,21.9,58,13.3,20.5,0.0,0.0,0.0,0.0,0,1016.9,1006.1,0,0,0,0,0.09,1.11,16.9,30.7,24,13,34.6,25.1,26.0,23.2,20.2,0.064,0.089,0.14,0.201,0,0.0,0.0,0.0,0.0,0.0,0.0,0.0,0.0,0.0,0.0,0.0,0.0,0.0,Tracheophyta; Magnoliopsida
2018,2018-08-25,Setúbal,Seixal,Fernão Ferro,R FRANCISCO RIBEIRO 565 (Quinta das Lameiras),38.5838979999887,-9.09750199953715,NC,46.0,2018-08-25T12:00,29.9,27,9.1,28.9,0.0,0.0,0.0,0.0,0,1015.6,1010.3,0,0,0,0,0.69,3.06,16.2,20.9,3,359,40.7,29.9,25.8,24.6,21.0,0.063,0.082,0.131,0.174,1,3600.0,885.6,747.6,138.0,856.2,885.6,1169.0,860.0,726.0,134.0,856.2,860.0,1135.2,Tracheophyta; Magnoliopsida; Eucalyptus L'Hér.; Pinus pinea L.
2018,2018-08-25,Setúbal,Palmela,Pinhal Novo,R. da Paz JT LINHA COMBOIO (Lagoa da Palha),38.6308500003815,-8.8895800002416,NC,29.0,2018-08-25T15:00,29.1,32,10.6,27.3,0.0,0.0,0.0,0.0,0,1014.0,1010.7,0,0,0,0,0.65,2.76,21.7,28.8,339,340,45.4,32.4,25.9,24.1,20.2,0.065,0.078,0.113,0.131,1,3600.0,741.8,621.2,120.7,839.8,741.8,990.4,793.0,664.0,129.0,839.8,793.0,1058.7,Vitis vinifera L.; Tracheophyta; Magnoliopsida
2018,2018-08-26,Setúbal,Seixal,Amora,Pinhal Conde Cunha (Pinhal do Conde da Cunha),38.6141310003069,-9.13681400007672,NC,43.0,2018-08-26T09:00,22.6,64,15.3,23.4,0.0,0.0,0.0,0.0,0,1014.4,1009.4,0,0,0,0,0.26,1.0,6.8,9.3,18,16,18.0,21.5,23.3,23.6,20.6,0.064,0.089,0.14,0.2,1,3600.0,492.6,376.6,116.0,675.9,492.6,746.1,416.0,318.0,98.0,675.9,416.0,630.1,Tracheophyta; Pinus pinaster Aiton; Eucalyptus L'Hér.
2018,2018-08-26,Setúbal,Alcochete,São Francisco,Cercal de Cima (Cercal de Baixo),38.7336599999997,-8.96103700002035,Desconhecida,30.0,2018-08-26T19:00,25.1,54,15.1,24.0,0.0,0.0,0.0,0.0,0,1012.2,1008.7,0,0,0,0,0.16,1.47,18.9,27.0,346,347,36.4,29.5,25.9,24.0,20.5,0.069,0.085,0.126,0.131,1,2933.47,22.0,11.5,10.5,132.0,19.3,47.6,84.0,44.0,40.0,284.9,84.0,182.0,Quercus suber L.; Pinus pinea L.; Tracheophyta; Eucalyptus L'Hér.; Magnoliopsida; Pinus pinaster Aiton; Olea europaea L.; Vitis vinifera L.; 
2018,2018-08-27,Setúbal,Sesimbra,Sesimbra (Castelo),R. Palmela (Mata do Cervo),38.5103149996863,-9.16231200006273,Desconhecida,36.0,2018-08-27T08:00,21.9,69,16.1,22.1,0.0,0.0,0.0,0.0,1,1012.3,1008.1,25,0,37,10,0.15,0.8,12.9,17.6,347,360,25.9,21.8,25.1,24.5,21.6,0.051,0.09,0.145,0.208,1,3600.0,284.0,187.1,96.9,495.2,284.0,506.2,211.0,139.0,72.0,495.2,211.0,376.1,Tracheophyta; Magnoliopsida; Pinus pinaster Aiton; Pinales
2018,2018-08-28,Setúbal,Almada,Sobreda,R GENERAL HUMBERTO DELGADO (Casal de Santo António),38.6421580002043,-9.17706700007121,NC,47.0,2018-08-28T00:00,19.8,84,17.0,21.0,0.0,0.0,0.0,0.0,0,1012.9,1007.4,0,0,0,0,0.01,0.37,9.0,12.2,270,289,5.8,21.1,25.4,23.5,20.7,0.058,0.086,0.139,0.2,0,0.0,0.0,0.0,0.0,0.0,0.0,0.0,0.0,0.0,0.0,0.0,0.0,0.0,Tracheophyta; Magnoliopsida
2018,2018-08-28,Setúbal,Seixal,Aldeia de Paio Pires,Urbanização colinas do sul (Quinta do Marcelino),38.6177750000027,-9.09283500035604,Desconhecida,33.0,2018-08-28T02:00,18.9,94,17.9,20.2,0.0,0.0,0.0,0.0,0,1013.0,1009.1,4,4,0,0,0.0,0.13,10.7,17.7,282,290,20.5,21.3,25.6,24.0,20.8,0.064,0.081,0.128,0.164,0,0.0,0.0,0.0,0.0,0.0,0.0,0.0,0.0,0.0,0.0,0.0,0.0,0.0,Tracheophyta
2018,2018-08-29,Setúbal,Palmela,Quinta do Anjo,Junto Restaurante Nikita QUINTA_ANJO (Pinhal das Formas),38.6057920000288,-8.9716399998135,NC,47.0,2018-08-29T00:00,18.5,90,16.9,18.2,0.0,0.0,0.0,0.0,2,1019.2,1013.6,61,68,0,0,0.01,0.21,18.7,29.7,341,343,38.2,21.9,25.3,23.9,20.3,0.065,0.078,0.115,0.131,0,0.0,0.0,0.0,0.0,0.0,0.0,0.0,0.0,0.0,0.0,0.0,0.0,0.0,Vitis vinifera L.; Tracheophyta; Magnoliopsida; Pinus pinaster Aiton
2018,2018-08-29,Setúbal,Almada,Sobreda,R LIBERDADE (SOBREDA),38.6501830000016,-9.19206500000424,NC,68.0,2018-08-29T07:00,17.4,84,14.6,16.6,0.0,0.0,0.0,0.0,2,1020.2,1012.1,54,60,0,0,0.04,0.32,15.1,22.0,360,360,29.2,19.0,23.3,23.4,20.6,0.064,0.09,0.142,0.2,1,313.54,76.4,21.8,54.6,123.9,49.5,236.3,35.0,10.0,25.0,80.3,35.0,108.3,Tracheophyta; Magnoliopsida
2018,2018-08-29,Setúbal,Seixal,Corroios,R H Quinta da Aniza (Quinta do Raparolas),38.6123029994965,-9.16003499984741,NC,50.0,2018-08-29T14:00,26.0,38,10.6,24.7,0.0,0.0,0.0,0.0,0,1019.1,1013.3,0,0,0,0,0.62,2.09,20.5,28.1,357,359,43.6,29.9,23.8,23.4,20.8,0.063,0.089,0.143,0.2,1,3600.0,825.8,699.0,126.8,850.4,825.8,1102.5,853.0,722.0,131.0,850.4,853.0,1138.8,Tracheophyta; Eucalyptus L'Hér.; Magnoliopsida; Pinus pinaster Aiton
2018,2018-08-30,Setúbal,Sines,Sines,Av Vasco da Gama (Largo do Poeta Bocage),37.9547680001789,-8.86672699999892,Desconhecida,30.0,2018-08-30T06:00,15.7,93,14.5,15.9,0.0,0.0,0.0,,0,1017.5,1013.9,0,0,0,0,0.0,0.13,9.4,19.5,356,2,17.6,17.6,23.1,23.7,21.1,0.074,0.086,0.143,0.213,0,0.0,0.0,0.0,0.0,0.0,0.0,0.0,0.0,0.0,0.0,0.0,0.0,0.0,Tracheophyta; Magnoliopsida; Eucalyptus L'Hér.
2018,2018-08-30,Setúbal,Almada,Sobreda,R GIL VICENTE (Casal de Santo António),38.6421229998271,-9.17681699964735,NC,47.0,2018-08-30T08:00,19.6,74,14.9,19.8,0.0,0.0,0.0,0.0,0,1018.2,1012.6,0,0,0,0,0.12,0.59,9.9,14.8,19,13,21.6,19.1,22.6,23.4,20.8,0.062,0.089,0.142,0.2,1,3600.0,279.4,183.1,96.3,495.6,279.4,495.8,206.0,135.0,71.0,495.6,206.0,365.5,Tracheophyta; Magnoliopsida
2018,2018-02-03,Setúbal,Moita,Alhos Vedros,R. Cls Operária (Prata),38.6454469998678,-8.9975599998898,NC,8.0,2018-02-03T18:00,12.0,68,6.3,9.8,0.0,0.0,0.0,0.0,3,1021.4,1020.4,100,65,64,74,0.05,0.45,8.6,18.3,272,280,22.7,12.2,11.2,12.3,14.6,0.136,0.156,0.112,0.135,0,0.0,0.0,0.0,0.0,0.0,0.0,0.0,19.0,4.0,15.0,33.0,19.0,110.6,Magnoliopsida; Tracheophyta; Quercus suber L.
2018,2018-09-01,Setúbal,Almada,Pragal,Quinta da Palência de Cima (Casquilho),38.6705250000954,-9.18127200020684,NC,100.0,2018-09-01T00:00,25.8,44,12.5,24.1,0.0,0.0,0.0,0.0,0,1013.9,1002.4,0,0,0,0,0.14,1.87,16.3,33.2,352,356,29.9,25.6,26.0,23.4,20.7,0.151,0.193,0.255,0.298,0,0.0,0.0,0.0,0.0,0.0,0.0,0.0,0.0,0.0,0.0,0.0,0.0,0.0,Tracheophyta; Magnoliopsida; Pinus pinea L.
2018,2018-09-01,Setúbal,Setúbal,Setúbal (São Sebastião),Av. Mestre Lima de Freitas (Cova da Raposa),38.5434999995761,-8.87420199977027,Desconhecida,70.0,2018-09-01T10:00,26.4,49,14.9,26.6,0.0,0.0,0.0,0.0,0,1014.4,1006.3,0,0,0,0,0.42,1.74,10.8,13.7,176,175,26.3,27.4,25.6,23.9,20.8,0.059,0.082,0.123,0.146,1,3600.0,641.1,517.5,123.5,748.8,641.1,928.3,576.0,465.0,111.0,748.8,576.0,834.1,Magnoliopsida; Tracheophyta; Quercus suber L.; Pinus pinea L.
2018,2018-09-01,Setúbal,Almada,Charneca de Caparica,R CABECO VERDE 7 CHARNECA_CAPARICA#CABECO_VERDE CHARNECA_CAPARICA_SOBREDA STB#ALMADA 2820-696 (Vale de Cavala),38.6056200000975,-9.19572299957275,NC,67.0,2018-09-01T11:00,28.7,43,14.9,29.6,0.0,0.0,0.0,0.0,0,1014.3,1006.6,0,0,0,0,0.54,2.23,11.1,13.4,209,200,26.3,30.2,25.2,23.3,20.8,0.058,0.085,0.14,0.199,1,3600.0,766.5,637.5,129.0,802.5,766.5,1067.1,719.0,598.0,121.0,802.5,719.0,1000.9,Pinus pinea L.; Magnoliopsida; Tracheophyta
2018,2018-09-01,Setúbal,Grândola,Grândola,Aldeia do Pico,38.230672999488,-8.56622699949476,Desconhecida,79.0,2018-09-01T16:00,29.8,42,15.4,29.2,0.0,0.0,0.0,0.0,0,1012.8,1003.8,0,0,0,0,0.51,2.44,18.1,23.1,276,275,40.3,37.9,27.8,24.8,21.8,0.046,0.079,0.135,0.169,1,3600.0,532.6,430.7,101.9,751.7,532.6,769.6,601.0,486.0,115.0,751.7,601.0,868.5,Tracheophyta; Pinus pinea L.; Pinus pinaster Aiton; Magnoliopsida; Quercus suber L.
2018,2018-09-03,Setúbal,Moita,Moita,ESTR ESTEIRO FURADO (Chão Duro),38.668249999947,-8.98667300012377,Desconhecida,19.0,2018-09-03T18:00,22.4,62,14.8,22.1,0.0,0.0,0.0,0.0,0,1011.3,1009.1,5,6,0,0,0.17,1.02,12.5,16.3,226,227,31.3,27.4,25.7,24.1,21.0,0.068,0.08,0.13,0.13,1,3600.0,148.5,95.7,52.8,482.1,148.5,266.8,222.0,143.0,79.0,482.1,222.0,398.8,Magnoliopsida; Tracheophyta
2018,2018-09-07,Setúbal,Almada,Caparica,R LUGAR jt Campo Bola (Quinta do Poço do Casal),38.6608420001136,-9.19330499966939,NC,86.0,2018-09-07T16:00,21.1,72,15.9,21.4,0.0,0.0,0.0,0.0,0,1012.2,1002.2,4,0,0,15,0.33,0.7,12.8,16.2,260,258,33.1,27.5,22.3,22.8,20.9,0.081,0.083,0.141,0.199,1,3600.0,506.4,396.1,110.3,720.2,506.4,741.0,574.0,449.0,125.0,720.2,574.0,840.0,Tracheophyta; Magnoliopsida
2018,2018-09-08,Setúbal,Seixal,Amora,R. de Maputo. Lar Arifa (Santa Marta de Corroios),38.6343709999985,-9.13914300017887,NC,28.0,2018-09-08T17:00,21.5,74,16.7,22.0,0.0,0.0,0.0,0.0,1,1015.6,1012.3,26,5,4,64,0.23,0.66,12.3,16.3,218,215,29.9,25.7,22.6,23.0,21.4,0.099,0.084,0.141,0.198,1,3600.0,310.4,224.1,86.3,603.7,310.4,500.5,385.0,278.0,107.0,603.7,385.0,620.7,Tracheophyta; Pinus pinea L.; Magnoliopsida; Eucalyptus L'Hér.; Pinus pinaster Aiton
2018,2018-09-09,Setúbal,Moita,Alhos Vedros,Tras.  Escola  José Afonso (Casal do Bacelo),38.6591719998254,-9.021261999872,Desconhecida,6.0,2018-09-09T12:00,26.4,51,15.4,28.1,0.0,0.0,0.0,0.0,0,1019.4,1018.7,0,0,0,0,0.55,1.69,10.9,12.8,34,32,27.4,26.0,21.8,23.2,21.6,0.126,0.095,0.147,0.163,1,3600.0,819.3,692.7,126.6,838.1,819.3,1114.6,796.0,673.0,123.0,838.1,796.0,1082.8,Tracheophyta
2018,2018-09-10,Setúbal,Seixal,Amora,TALAMINHO (Barroca),38.6380830001831,-9.12830799950494,NC,16.0,2018-09-10T00:00,19.9,73,14.9,19.4,0.0,0.0,0.0,0.0,0,1020.7,1018.8,0,0,0,0,0.04,0.63,14.6,27.8,16,10,25.9,20.5,23.0,22.8,21.5,0.094,0.085,0.142,0.198,0,0.0,0.0,0.0,0.0,0.0,0.0,0.0,0.0,0.0,0.0,0.0,0.0,0.0,Tracheophyta; Magnoliopsida; Pinus pinea L.; Eucalyptus L'Hér.
2018,2018-09-11,Setúbal,Almada,Caparica,Av. Torrado da Silva,38.6654770003425,-9.18264499982198,Desconhecida,68.0,2018-09-11T10:00,25.7,50,14.5,25.5,0.0,0.0,0.0,0.0,0,1020.5,1012.6,0,0,0,0,0.39,1.65,11.3,14.7,59,65,28.8,24.8,23.5,22.8,21.4,0.177,0.194,0.256,0.297,1,3600.0,606.2,488.7,117.4,741.5,606.2,889.7,542.0,437.0,105.0,741.5,542.0,795.5,Tracheophyta; Magnoliopsida
2018,2018-09-11,Setúbal,Alcochete,Alcochete,Passil Park,38.7113750002119,-8.89455799950494,Desconhecida,11.0,2018-09-11T14:00,32.9,32,14.2,33.3,0.0,0.0,0.0,0.0,0,1017.5,1016.3,7,0,12,0,0.66,3.38,14.4,17.8,13,21,31.0,33.1,24.7,23.2,21.4,0.071,0.085,0.138,0.13,1,3600.0,739.6,608.6,131.0,790.2,739.6,1039.8,768.0,632.0,136.0,790.2,768.0,1079.8,Oryza sativa L.; Quercus suber L.; Tracheophyta; Magnoliopsida
2018,2018-09-11,Setúbal,Moita,Alhos Vedros,R CAMPINOS MOITA ALHOS_VEDROS STB#MOITA 2860,38.6584080002043,-9.43768200000127,Desconhecida,0.0,2018-09-11T19:00,22.1,72,16.9,20.5,0.0,0.0,0.0,0.0,1,1016.9,1016.9,31,0,51,0,0.11,0.74,28.1,41.5,344,356,38.5,18.8,18.8,18.8,18.8,0.0,0.0,0.0,0.0,0,557.9,0.0,0.0,0.0,0.0,0.0,0.0,31.0,12.0,19.0,101.7,31.0,100.6,
2018,2018-09-12,Setúbal,Setúbal,Setúbal (São Sebastião),ESTR GRACA (Praceta Grupo Desportivo Os Amarelo),38.5213980001873,-8.88213900036282,NC,8.0,2018-09-12T07:00,20.5,88,18.5,22.4,0.0,0.0,0.0,0.0,0,1019.4,1018.5,5,0,8,0,0.02,0.28,8.5,13.8,118,129,15.8,21.6,26.6,25.0,23.4,0.031,0.072,0.124,0.181,1,60.44,46.9,15.6,31.3,112.7,27.6,187.3,21.0,7.0,14.0,66.2,21.0,83.9,Tracheophyta; Pinus pinaster Aiton; Magnoliopsida
2018,2018-09-13,Setúbal,Seixal,Arrentela,R. Quinta de Cima. Jto. Centro Saúde Torre (Quinta de Nossa Senhora do Monte Sião),38.619750000106,-9.09429500050015,NC,33.0,2018-09-13T01:00,20.8,72,15.6,21.9,0.0,0.0,0.0,0.0,0,1019.6,1015.7,1,0,1,0,0.01,0.69,5.8,14.2,30,21,14.8,22.8,25.6,23.2,21.5,0.078,0.086,0.14,0.163,0,0.0,0.0,0.0,0.0,0.0,0.0,0.0,0.0,0.0,0.0,0.0,0.0,0.0,Tracheophyta
2018,2018-09-14,Setúbal,Almada,Sobreda,Rua  Deniz Jacinto (Casal de Santo António),38.6443209997813,-9.17561500019497,NC,31.0,2018-09-14T17:00,25.3,55,15.6,25.7,0.0,0.0,0.0,0.0,0,1016.7,1013.1,2,1,1,1,0.27,1.46,10.5,13.8,278,290,28.8,30.4,24.8,23.1,21.5,0.057,0.077,0.136,0.197,1,3600.0,287.9,218.3,69.6,641.2,287.9,460.5,364.0,276.0,88.0,641.2,364.0,582.1,Tracheophyta; Magnoliopsida
2018,2018-09-15,Setúbal,Almada,Sobreda,R MANUEL FIGUEIREDO 18 SOBREDA#CARCEREIRA CHARNECA_CAPARICA_SOBREDA STB#ALMADA 2815-746: ESTE (Pinhal Vidal),38.6306500000424,-9.17432999981774,NC,35.0,2018-09-15T19:00,23.0,70,17.2,24.3,0.0,0.0,0.0,0.0,0,1017.7,1013.6,0,0,0,0,0.05,0.84,8.2,14.3,311,326,17.6,27.5,25.0,23.2,21.5,0.059,0.079,0.137,0.197,0,336.99,0.0,0.0,0.0,0.0,0.0,0.0,24.0,10.0,14.0,94.7,24.0,84.0,Tracheophyta; Magnoliopsida; Eucalyptus L'Hér.
2018,2018-09-15,Setúbal,Palmela,Palmela,Estrada de Enxarrapais (Autoexport),38.5740229998695,-8.8651979997423,NC,44.0,2018-09-15T22:00,21.5,73,16.4,21.6,0.0,0.0,0.0,0.0,0,1019.1,1013.9,4,0,7,0,0.05,0.7,14.7,25.5,349,351,26.3,24.9,26.0,23.7,21.5,0.06,0.088,0.132,0.138,0,0.0,0.0,0.0,0.0,0.0,0.0,0.0,0.0,0.0,0.0,0.0,0.0,0.0,Vitis vinifera L.; ; Magnoliopsida; Quercus suber L.; Tracheophyta; Pinus pinea L.; Quercus rotundifolia Lam.
2018,2018-09-16,Setúbal,Almada,Feijó,R ALAMEDA GUERRA JUNQUEIRO ALMADA LARANJEIRO_FEIJO STB#ALMADA 2810 (Feijó),38.6566989999347,-9.16128300031026,NC,55.0,2018-09-16T19:00,24.9,60,16.5,26.5,0.0,0.0,0.0,0.0,0,1016.9,1010.5,18,0,15,31,0.05,1.27,5.0,13.7,330,346,14.0,28.6,24.8,23.0,21.4,0.056,0.077,0.135,0.197,0,158.11,0.0,0.0,0.0,0.0,0.0,0.0,21.0,8.0,13.0,77.7,21.0,80.4,Magnoliopsida; Pinus pinea L.; Tracheophyta
2018,2018-09-17,Setúbal,Seixal,Aldeia de Paio Pires,R Desembargadores jt restaurante Agricultor (Farinheiras),38.6203939999474,-9.08727900001738,NC,18.0,2018-09-17T04:00,22.1,81,18.7,24.5,0.0,0.0,0.0,0.0,0,1015.3,1013.2,1,0,2,0,0.0,0.5,5.5,7.1,32,15,8.6,20.4,24.6,23.6,21.7,0.073,0.09,0.143,0.163,0,0.0,0.0,0.0,0.0,0.0,0.0,0.0,0.0,0.0,0.0,0.0,0.0,0.0,Tracheophyta; Magnoliopsida
2018,2018-09-17,Setúbal,Moita,Alhos Vedros,Frente ao Minipreço (ALHOS VEDROS),38.6578040001127,-9.02688899993897,Desconhecida,9.0,2018-09-17T07:00,19.6,96,19.0,22.6,0.0,0.0,0.0,0.0,0,1015.6,1014.5,10,2,13,0,0.01,0.08,2.3,2.8,141,40,5.8,20.2,24.1,23.7,21.8,0.073,0.09,0.143,0.163,1,0.0,36.2,11.3,24.9,91.6,20.1,167.4,16.0,5.0,11.0,50.9,16.0,74.0,Tracheophyta
2018,2018-09-17,Setúbal,Almada,Almada,ARIALVA (CRISTO REI),38.6787220001221,-9.17141099982791,NC,109.0,2018-09-17T23:00,20.1,63,12.8,19.9,0.0,0.0,0.0,0.0,0,1015.5,1002.7,0,0,0,0,0.03,0.87,7.2,18.7,360,2,16.9,22.5,24.6,23.1,21.3,0.157,0.193,0.255,0.296,0,0.0,0.0,0.0,0.0,0.0,0.0,0.0,0.0,0.0,0.0,0.0,0.0,0.0,Tracheophyta; Magnoliopsida; Pinus pinea L.
2018,2018-09-18,Setúbal,Sesimbra,Sesimbra (Castelo),Av do Alcaide (Mata do Cervo),38.5098230001662,-9.16271999994914,Desconhecida,29.0,2018-09-18T14:00,26.5,57,17.2,27.5,0.0,0.0,0.0,0.0,1,1016.7,1013.3,27,0,0,90,0.52,1.49,18.2,21.0,295,301,37.1,33.3,24.7,24.0,22.5,0.055,0.082,0.135,0.204,1,3600.0,724.3,599.4,124.9,807.2,724.3,1006.3,754.0,624.0,130.0,807.2,754.0,1047.5,Tracheophyta; Magnoliopsida; Pinus pinaster Aiton; Pinales
2018,2018-09-19,Setúbal,Moita,Alhos Vedros,Vale Gru (ALHOS VEDROS),38.6578040001127,-9.02688899993897,Desconhecida,9.0,2018-09-19T09:00,21.6,60,13.4,20.9,0.0,0.0,0.0,0.0,1,1020.1,1019.0,29,0,0,95,0.24,1.04,12.1,15.6,27,26,27.0,21.4,23.6,23.8,21.9,0.071,0.09,0.143,0.162,1,3600.0,426.8,321.3,105.5,654.6,426.8,665.5,352.0,265.0,87.0,654.6,352.0,548.8,Tracheophyta
2018,2018-09-21,Setúbal,Palmela,Quinta do Anjo,Lote Industrial Quinta da Torre Vila Amélia,38.5745300001568,-9.01183700031704,Desconhecida,43.0,2018-09-21T12:00,28.1,47,15.6,29.0,0.0,0.0,0.0,0.0,0,1020.2,1015.2,0,0,0,0,0.57,2.03,14.8,18.6,14,10,40.7,28.1,24.1,24.1,22.2,0.057,0.078,0.128,0.17,1,3600.0,784.9,660.4,124.5,844.2,784.9,1061.7,763.0,642.0,121.0,844.2,763.0,1032.2,Vitis vinifera L.; Pinus pinaster Aiton; Magnoliopsida; Tracheophyta
2018,2018-09-22,Setúbal,Santiago do Cacém,Santo André,Vale Besteiros do Sul (ER261 (ER261) Km 35),38.0870469999313,-8.74450300004747,Desconhecida,44.0,2018-09-22T18:00,26.6,55,16.9,27.7,0.0,0.0,0.0,0.0,0,1019.3,1014.2,14,0,0,47,0.14,1.56,9.3,17.0,298,324,28.4,34.0,27.0,24.8,23.1,0.043,0.082,0.136,0.2,1,3600.0,66.3,40.5,25.9,422.3,66.3,130.2,136.0,83.0,53.0,422.3,136.0,266.9,Pinus pinea L.; Pinus pinaster Aiton; Magnoliopsida; Quercus suber L.; Tracheophyta; Oryza sativa L.; Eucalyptus L'Hér.; Vitis vinifera L.; 
2018,2018-09-22,Setúbal,Moita,Vale da Amoreira,Junto Escola do Mato (Massito),38.6422679996491,-9.03207999971178,Desconhecida,11.0,2018-09-22T18:00,28.2,51,17.0,28.7,0.0,0.0,0.0,0.0,0,1019.6,1018.3,12,0,0,39,0.18,1.9,14.0,23.2,342,344,32.0,30.8,25.2,23.7,22.0,0.067,0.091,0.145,0.162,1,3600.0,70.0,43.5,26.5,436.1,70.0,135.5,140.0,87.0,53.0,436.1,140.0,271.0,Magnoliopsida; Tracheophyta
2018,2018-09-23,Setúbal,Moita,Moita,R VASCO GAMA (MOITA),38.6546880001492,-8.99012300014496,Desconhecida,14.0,2018-09-23T15:00,35.1,29,14.1,34.8,0.0,0.0,0.0,0.0,0,1019.2,1017.6,0,0,0,0,0.61,4.04,14.8,19.1,356,358,31.0,34.3,25.1,23.7,21.7,0.06,0.08,0.126,0.129,1,3600.0,590.5,489.7,100.9,798.0,590.5,833.9,644.0,534.0,110.0,798.0,644.0,909.4,Tracheophyta; Quercus suber L.; Magnoliopsida
2018,2018-09-24,Setúbal,Palmela,Pinhal Novo,CM 1027 jt Escola (Carregueira),38.6484759998322,-8.94751500023736,NC,19.0,2018-09-24T14:00,35.5,24,12.0,35.7,0.0,0.0,0.0,0.0,0,1018.1,1016.0,0,0,0,0,0.64,4.38,10.2,12.4,352,352,24.5,34.1,25.3,23.8,21.7,0.057,0.078,0.125,0.129,1,3600.0,705.7,595.6,110.1,835.8,705.7,968.8,737.0,622.0,115.0,835.8,737.0,1011.8,Vitis vinifera L.; Tracheophyta; Magnoliopsida
2018,2018-09-24,Setúbal,Seixal,Aldeia de Paio Pires,EN10 jt Bombas CEPSA (Quinta da Hortinha),38.6285090001424,-9.086238000128,NC,20.0,2018-09-24T15:00,35.6,23,11.4,35.6,0.0,0.0,0.0,0.0,0,1017.6,1015.4,0,0,0,0,0.53,4.45,6.4,8.7,16,7,21.2,34.7,25.6,23.8,22.0,0.06,0.088,0.143,0.162,1,3600.0,586.6,486.7,99.9,798.3,586.6,829.0,640.0,531.0,109.0,798.3,640.0,904.4,Tracheophyta; Pinus pinaster Aiton; Magnoliopsida
2018,2018-09-24,Setúbal,Almada,Laranjeiro,ESTR ALGAZARRA (LARANJEIRO),38.6577249998517,-9.15162499997351,NC,48.0,2018-09-24T19:00,29.2,43,15.5,29.0,0.0,0.0,0.0,0.0,0,1016.9,1011.4,0,0,0,0,0.16,2.29,14.7,26.8,349,353,25.9,32.8,26.9,23.5,21.7,0.053,0.077,0.134,0.196,0,0.0,0.0,0.0,0.0,0.0,0.0,0.0,9.0,3.0,6.0,36.8,9.0,51.7,Magnoliopsida; Pinus pinea L.; Tracheophyta; Pinus pinaster Aiton
2018,2018-09-24,Setúbal,Almada,Feijó,Parque da Paz (Quinta do Chegadinho),38.665232000351,-9.16681299999356,NC,13.0,2018-09-24T22:00,25.6,51,14.7,26.0,0.0,0.0,0.0,0.0,0,1018.0,1016.5,0,0,0,0,0.06,1.61,8.2,20.8,23,9,24.1,27.6,27.4,24.0,22.2,0.144,0.189,0.253,0.295,0,0.0,0.0,0.0,0.0,0.0,0.0,0.0,0.0,0.0,0.0,0.0,0.0,0.0,Tracheophyta; Pinus pinea L.
2018,2018-09-25,Setúbal,Seixal,Corroios,R PAUL BOQUILOBO (Verdizela),38.5779329999288,-9.15669699986776,NC,62.0,2018-09-25T13:00,28.4,46,15.5,29.6,0.0,0.0,0.0,0.0,0,1018.4,1011.3,0,0,0,0,0.57,2.11,12.5,14.5,213,203,27.7,35.0,26.5,24.6,22.7,0.042,0.101,0.158,0.217,1,3600.0,754.9,640.7,114.2,838.4,754.9,1039.5,760.0,645.0,115.0,838.4,760.0,1046.5,Tracheophyta; Pinus pinaster Aiton
2018,2018-09-26,Setúbal,Moita,Vale da Amoreira,R. Afonso Domingues (Rainha),38.6439600001441,-9.03032800038656,Desconhecida,9.0,2018-09-26T01:00,20.3,82,17.2,21.9,0.0,0.0,0.0,0.0,0,1019.5,1018.4,0,0,0,0,0.0,0.42,6.5,10.8,186,210,10.8,22.2,26.3,24.1,22.1,0.056,0.084,0.141,0.162,0,0.0,0.0,0.0,0.0,0.0,0.0,0.0,0.0,0.0,0.0,0.0,0.0,0.0,Magnoliopsida; Tracheophyta; Quercus suber L.
2018,2018-09-26,Setúbal,Almada,Caparica,Junto á Ponte da Fumega (MONTE DA CAPARICA),38.6653759998745,-9.19817200024923,NC,110.0,2018-09-26T06:00,20.7,81,17.4,22.6,0.0,0.0,0.0,0.0,0,1020.1,1007.2,0,0,0,0,0.0,0.46,5.5,9.0,122,157,8.3,20.0,24.5,23.6,21.6,0.137,0.184,0.249,0.295,0,0.0,0.0,0.0,0.0,0.0,0.0,0.0,0.0,0.0,0.0,0.0,0.0,0.0,Tracheophyta; Magnoliopsida
2018,2018-09-26,Setúbal,Santiago do Cacém,Santiago do Cacém,Barragem da Ortiga (Vale Lagos),37.9796880001492,-8.72600300047133,Desconhecida,120.0,2018-09-26T11:00,31.7,37,15.1,31.5,0.0,0.0,0.0,0.0,0,1021.4,1007.8,0,0,0,0,0.56,2.96,16.2,20.3,143,143,36.7,30.5,25.7,24.5,22.5,0.041,0.075,0.135,0.204,1,3600.0,689.1,569.5,119.7,792.3,689.1,978.2,645.0,533.0,112.0,792.3,645.0,915.6,Quercus suber L.; Magnoliopsida; Tracheophyta; Pinus pinaster Aiton; Eucalyptus L'Hér.
2018,2018-09-27,Setúbal,Almada,Feijó,PARQUE DA PAZ (Alto da Ponte),38.6631319999695,-9.16859300004111,NC,16.0,2018-09-27T00:00,23.1,77,18.9,25.2,0.0,0.0,0.0,0.0,0,1024.2,1022.3,10,0,17,0,0.02,0.64,8.8,17.3,71,59,10.1,23.0,26.0,24.0,22.0,0.052,0.073,0.131,0.196,0,0.0,0.0,0.0,0.0,0.0,0.0,0.0,0.0,0.0,0.0,0.0,0.0,0.0,Tracheophyta; Pinus pinea L.; Magnoliopsida
2018,2018-09-27,Setúbal,Setúbal,São Lourenço,Rua da Mata. Brejos de Azeitão,38.5577799998389,-9.02740800009834,Desconhecida,42.0,2018-09-27T18:00,27.9,52,17.1,28.5,0.0,0.0,0.0,0.0,1,1021.7,1016.8,45,6,28,76,0.15,1.8,12.9,20.4,333,334,32.8,33.0,27.2,24.6,22.4,0.042,0.073,0.126,0.169,1,3599.53,32.8,13.9,18.9,159.3,32.8,98.9,78.0,33.0,45.0,191.2,78.0,235.1,Magnoliopsida; Tracheophyta; Pinus pinea L.
2018,2018-09-27,Setúbal,Almada,Caparica,R MANOBRA (Quinta da Manobra),38.6656069999271,-9.18416200002035,NC,74.0,2018-09-27T20:00,25.1,58,16.2,24.2,0.0,0.0,0.0,0.0,1,1021.8,1013.2,26,0,7,72,0.12,1.34,20.9,36.0,349,352,39.2,27.5,26.6,24.0,21.9,0.141,0.182,0.247,0.294,0,0.0,0.0,0.0,0.0,0.0,0.0,0.0,0.0,0.0,0.0,0.0,0.0,0.0,Tracheophyta; Magnoliopsida
2018,2018-09-28,Setúbal,Alcácer do Sal,Torrão,Estrada da BARRAGEM DE VALE GAIO BARRAGEM (ED5 (ED5) Km 84),38.266947999994,-8.31641199959649,Desconhecida,80.0,2018-09-28T13:00,33.3,22,8.8,33.0,0.0,0.0,0.0,0.0,0,1017.2,1008.2,0,0,0,0,0.61,3.97,7.8,10.2,68,67,22.3,32.0,26.9,25.8,22.9,0.127,0.166,0.231,0.287,1,3600.0,747.8,627.9,119.8,835.3,747.8,1024.4,755.0,634.0,121.0,835.3,755.0,1034.3,Tracheophyta; Quercus suber L.; Pinus pinea L.; Quercus rotundifolia Lam.; Magnoliopsida; Eucalyptus L'Hér.; Oryza sativa L.; Olea europaea L.; Pinus pinaster Aiton; Vitis vinifera L.; Quercus L.; 
2018,2018-09-29,Setúbal,Seixal,Amora,VIA A2 SEIXAL Jt Estação da Amora (Soutelo),38.6197149999936,-9.12838299963209,NC,31.0,2018-09-29T11:00,25.5,47,13.5,26.7,0.0,0.0,0.0,0.0,0,1016.2,1012.6,5,0,8,0,0.42,1.72,2.9,4.0,360,10,15.8,26.7,24.6,24.1,22.0,0.054,0.073,0.131,0.195,1,3600.0,670.1,555.6,114.5,796.2,670.1,951.4,626.0,519.0,107.0,796.2,626.0,888.7,Tracheophyta; Pinus pinaster Aiton; Eucalyptus L'Hér.
2018,2018-09-29,Setúbal,Moita,Alhos Vedros,Traseira MiniPreço (Brejo),38.6547000000212,-9.01679799999628,Desconhecida,5.0,2018-09-29T18:00,23.2,62,15.5,23.1,0.0,0.0,0.0,0.0,0,1014.9,1014.3,8,0,13,0,0.12,1.09,13.4,18.8,336,334,30.6,28.5,25.7,24.4,22.3,0.061,0.082,0.14,0.161,1,3406.84,38.2,21.0,17.2,241.2,37.0,84.2,100.0,55.0,45.0,329.3,100.0,220.4,Tracheophyta
2018,2018-09-30,Setúbal,Barreiro,Santo António da Charneca,R MANUEL CARRAPETO 20 VILA_CHA SANTO_ANTONIO_CHARNECA STB#BARREIRO 2835-765: ESTE (Vila Chã),38.6340279999706,-9.03996199978723,NC,47.0,2018-09-30T00:00,19.1,81,15.8,19.6,0.0,0.0,0.0,0.0,0,1016.3,1010.7,2,0,3,0,0.01,0.41,9.7,16.2,4,4,20.2,21.2,25.2,24.2,22.0,0.062,0.082,0.139,0.161,0,0.0,0.0,0.0,0.0,0.0,0.0,0.0,0.0,0.0,0.0,0.0,0.0,0.0,Magnoliopsida; Tracheophyta; Quercus suber L.; Pinus pinaster Aiton; Pinus pinea L.; 
2018,2018-09-30,Setúbal,Seixal,Arrentela,Arrentela Jt Telepiza (Lagoa Seca),38.6224830002255,-9.09634300020006,NC,23.0,2018-09-30T16:00,28.4,50,16.9,28.7,0.0,0.0,0.0,0.0,0,1016.7,1014.1,0,0,0,0,0.38,1.95,14.4,18.3,347,344,29.9,31.0,24.7,24.2,22.2,0.066,0.085,0.141,0.161,1,3600.0,395.3,313.7,81.6,725.4,395.3,590.0,465.0,369.0,96.0,725.4,465.0,694.0,Tracheophyta
2018,2018-10-02,Setúbal,Setúbal,São Lourenço,Quinta do Picão (Casal Bolinhos),38.534201999969,-9.03242499987284,NC,58.0,2018-10-02T19:00,25.8,41,11.6,25.5,0.0,0.0,0.0,0.0,1,1017.8,1011.1,25,0,0,84,0.08,1.96,5.6,12.1,297,330,8.3,28.3,25.4,24.5,22.5,0.055,0.076,0.128,0.168,0,0.0,0.0,0.0,0.0,0.0,0.0,0.0,2.0,0.0,2.0,0.0,2.0,21.0,Pinus pinea L.; Quercus suber L.; Tracheophyta; Pinus pinaster Aiton; Magnoliopsida
2018,2018-10-02,Setúbal,Montijo,Montijo,Samouco. junto deposito (Samouco),38.7140600003137,-9.00682999981774,Desconhecida,13.0,2018-10-02T21:00,24.4,52,13.8,23.8,0.0,0.0,0.0,0.0,0,1018.8,1017.3,4,0,0,14,0.09,1.47,12.5,24.0,12,17,22.3,24.7,24.8,24.0,22.1,0.063,0.081,0.137,0.128,0,0.0,0.0,0.0,0.0,0.0,0.0,0.0,0.0,0.0,0.0,0.0,0.0,0.0,Tracheophyta; Pinus pinea L.
2018,2018-10-02,Setúbal,Setúbal,Gâmbia-pontes-alto da Guerra,Rua da Liberdade - Gâmbia,38.5567850001653,-8.77068200005425,Desconhecida,13.0,2018-10-02T21:00,23.6,39,8.8,21.6,0.0,0.0,0.0,0.0,0,1018.7,1017.2,20,0,0,66,0.11,1.79,12.0,21.9,353,9,20.2,25.7,25.5,24.4,22.4,0.056,0.076,0.123,0.137,0,0.0,0.0,0.0,0.0,0.0,0.0,0.0,0.0,0.0,0.0,0.0,0.0,0.0,Vitis vinifera L.; Quercus suber L.; Tracheophyta; Pinus pinea L.; Magnoliopsida
2018,2018-10-02,Setúbal,Sesimbra,Sesimbra (Santiago),Junto Vilas de Sesimbra (Casal do Jaco),38.4468349997203,-9.10515199979146,Desconhecida,74.0,2018-10-02T21:00,21.7,65,14.8,21.3,0.0,0.0,0.0,0.0,1,1018.6,1009.9,24,0,0,80,0.06,0.91,14.0,20.2,1,4,16.2,18.7,18.7,18.7,18.7,0.0,0.0,0.0,0.0,0,0.0,0.0,0.0,0.0,0.0,0.0,0.0,0.0,0.0,0.0,0.0,0.0,0.0,Magnoliopsida; Tracheophyta
2018,2018-10-03,Setúbal,Palmela,Quinta do Anjo,Vila Amelia (Quinta dos Leões),38.5704280000263,-9.010998000039,Desconhecida,43.0,2018-10-03T00:00,20.5,46,8.6,19.0,0.0,0.0,0.0,0.0,0,1019.7,1014.6,0,0,0,0,0.05,1.29,7.4,18.3,47,74,13.0,21.4,25.4,24.6,22.6,0.055,0.075,0.127,0.168,0,0.0,0.0,0.0,0.0,0.0,0.0,0.0,0.0,0.0,0.0,0.0,0.0,0.0,Vitis vinifera L.; Pinus pinaster Aiton; Magnoliopsida; Tracheophyta
2018,2018-10-04,Setúbal,Moita,Vale da Amoreira,PCTA PABLO NERUDA (Baixa da Serra),38.6504929999842,-9.0348200000657,Desconhecida,4.0,2018-10-04T12:00,28.2,30,9.2,28.5,0.0,0.0,0.0,0.0,0,1018.5,1018.0,0,0,0,0,0.5,2.66,3.7,3.2,349,333,20.2,25.9,22.2,23.9,22.4,0.056,0.081,0.139,0.161,1,3600.0,738.2,627.1,111.0,864.0,738.2,992.5,718.0,610.0,108.0,864.0,718.0,965.4,Magnoliopsida; Tracheophyta
2018,2018-10-04,Setúbal,Seixal,Corroios,R. Armindo Rodrigues. Qt Valadares (Pinhal do Conde),38.6031030000581,-9.15939700020684,NC,54.0,2018-10-04T14:00,25.8,44,12.5,25.6,0.0,0.0,0.0,0.0,0,1017.6,1011.3,0,0,0,0,0.5,1.88,12.9,15.0,243,243,28.8,29.7,22.5,23.5,22.0,0.057,0.076,0.132,0.194,1,3600.0,669.2,566.3,103.0,852.0,669.2,908.9,702.0,594.0,108.0,852.0,702.0,953.4,Tracheophyta; Eucalyptus L'Hér.; Pinus pinaster Aiton; Magnoliopsida
2018,2018-10-04,Setúbal,Santiago do Cacém,Abela,Galvões - Abela (Galvões),38.0022250000636,-8.57429499997033,Desconhecida,110.0,2018-10-04T19:00,21.3,48,9.7,19.3,0.0,0.0,0.0,0.0,0,1016.8,1003.9,0,0,0,0,0.12,1.33,13.6,24.6,292,295,25.9,26.6,25.5,25.2,23.1,0.101,0.162,0.219,0.244,0,0.0,0.0,0.0,0.0,0.0,0.0,0.0,1.0,0.0,1.0,0.0,1.0,10.3,Quercus suber L.; Tracheophyta; Eucalyptus L'Hér.; Magnoliopsida; Olea europaea L.; Pinus pinea L.; Quercus rotundifolia Lam.; 
2018,2018-10-05,Setúbal,Palmela,Pinhal Novo,Aceiro Francisco Silvestre –Espinhaço de Cão,38.6487669997745,-8.92065700001187,Desconhecida,45.0,2018-10-05T15:00,30.4,22,6.4,29.0,0.0,0.0,0.0,0.0,0,1013.5,1008.4,10,0,0,34,0.45,3.39,5.9,6.9,317,313,17.3,31.4,22.6,23.5,21.9,0.059,0.067,0.117,0.128,1,3600.0,539.5,435.2,104.3,788.4,539.5,755.3,595.0,480.0,115.0,788.4,595.0,833.0,Vitis vinifera L.; Tracheophyta; Magnoliopsida
2018,2018-10-06,Setúbal,Almada,Charneca de Caparica,R HELENA FELIX. jt dps água do Caçapo (Cassapo),38.6217120001051,-9.20496700021956,Desconhecida,65.0,2018-10-06T19:00,19.6,61,11.8,17.0,0.0,0.0,0.0,0.0,0,1017.0,1009.3,0,0,0,0,0.11,0.9,21.2,35.5,10,6,39.2,25.2,23.2,23.2,22.0,0.048,0.073,0.13,0.194,0,0.0,0.0,0.0,0.0,0.0,0.0,0.0,1.0,0.0,1.0,0.0,1.0,7.7,Magnoliopsida; Tracheophyta; Pinus pinaster Aiton; Pinus pinea L.
2018,2018-10-06,Setúbal,Palmela,Quinta do Anjo,Estrada de Vila Amélia (Quinta da Marquesa),38.5838939999872,-8.97028500000636,Desconhecida,60.0,2018-10-06T21:00,18.0,72,12.9,15.7,0.0,0.0,0.0,0.0,0,1018.6,1011.5,1,1,0,0,0.06,0.58,22.1,36.0,354,358,45.0,23.0,24.1,23.8,22.2,0.04,0.06,0.112,0.142,0,0.0,0.0,0.0,0.0,0.0,0.0,0.0,0.0,0.0,0.0,0.0,0.0,0.0,Vitis vinifera L.; Eucalyptus L'Hér.; Tracheophyta; Quercus suber L.; Pinus pinaster Aiton
2018,2018-10-06,Setúbal,Moita,Vale da Amoreira,R. Gonçalo Anes Ponte (Rainha),38.6447170003255,-9.02990699979994,Desconhecida,5.0,2018-10-06T22:00,18.0,75,13.4,16.3,0.0,0.0,0.0,0.0,0,1019.2,1018.6,1,1,0,0,0.05,0.53,19.7,32.1,9,10,39.6,21.2,23.3,23.5,22.5,0.052,0.077,0.137,0.161,0,0.0,0.0,0.0,0.0,0.0,0.0,0.0,0.0,0.0,0.0,0.0,0.0,0.0,Tracheophyta; Magnoliopsida; Quercus suber L.
2018,2018-10-14,Setúbal,Almada,Pragal,JUNTO CRISTO REI (PRAGAL),38.6770780001746,-9.17283499982622,NC,90.0,2018-10-14T00:00,15.1,77,11.2,11.1,0.0,0.0,0.0,0.0,0,1011.4,1000.7,18,20,0,0,0.06,0.39,30.1,48.2,320,322,58.0,18.6,21.4,22.0,22.1,0.254,0.176,0.233,0.292,0,0.0,0.0,0.0,0.0,0.0,0.0,0.0,0.0,0.0,0.0,0.0,0.0,0.0,Tracheophyta; Magnoliopsida; Pinus pinea L.
2018,2018-10-14,Setúbal,Moita,Vale da Amoreira,R TULIPAS 60 VALE_AMOREIRA (Massito),38.6431120003594,-9.03470000002119,Desconhecida,18.0,2018-10-14T16:00,18.3,49,7.3,14.5,0.0,0.0,0.0,0.0,2,1016.3,1014.2,70,45,14,69,0.25,1.09,21.5,29.9,320,320,45.4,21.4,20.8,22.2,22.4,0.149,0.08,0.132,0.16,1,3600.0,262.9,159.1,103.9,442.2,262.9,494.8,319.0,193.0,126.0,442.2,319.0,600.3,Magnoliopsida; Tracheophyta
2018,2018-10-14,Setúbal,Seixal,Arrentela,Jto a Rotunda da Torre da Marinha (ARRENTELA),38.6259229999118,-9.10571999973721,NC,0.0,2018-10-14T18:00,16.8,57,8.2,14.2,0.0,0.0,0.0,0.0,0,1016.4,1016.4,3,1,3,0,0.09,0.82,14.3,24.0,319,320,39.2,19.9,21.0,22.4,22.6,0.148,0.08,0.132,0.16,1,1893.59,0.0,0.0,0.0,0.0,0.0,0.0,46.0,22.0,24.0,172.8,46.0,116.0,Tracheophyta
2018,2018-10-15,Setúbal,Seixal,Arrentela,R ROQUE GAMEIRO (Foros da Catrapona),38.5892970000373,-9.08162700017293,NC,37.0,2018-10-15T19:00,17.1,91,15.6,17.7,0.0,0.0,0.0,0.0,3,1009.4,1005.0,100,35,100,46,0.0,0.18,9.2,18.7,281,289,20.5,18.4,19.4,22.3,22.9,0.176,0.085,0.124,0.167,0,0.0,0.0,0.0,0.0,0.0,0.0,0.0,0.0,0.0,0.0,0.0,0.0,0.0,Tracheophyta; Pinus pinaster Aiton; Magnoliopsida; Pinus pinea L.; Eucalyptus L'Hér.
2018,2018-10-19,Setúbal,Palmela,Poceirão,Prédio Rustico junto Rua José Gaspar da Silva,38.6149120002323,-8.75408799992667,Desconhecida,37.0,2018-10-19T15:00,23.5,48,11.9,21.7,0.2,0.2,0.0,0.0,51,1011.1,1006.8,59,33,47,4,0.3,1.51,16.8,22.9,45,46,41.4,22.9,19.1,21.3,22.2,0.15,0.073,0.109,0.121,1,3600.0,307.0,191.0,116.0,398.6,307.0,660.9,344.0,214.0,130.0,398.6,344.0,740.5,Vitis vinifera L.; Tracheophyta
2018,2018-10-24,Setúbal,Moita,Sarilhos Pequenos,Jt Urbanização Corte Real (Quinta do Mocho),38.6770049995846,-8.98287499957615,Desconhecida,8.0,2018-10-24T13:00,24.4,62,16.6,26.0,0.0,0.0,0.0,0.0,0,1023.3,1022.4,12,9,6,0,0.4,1.16,7.2,8.7,333,343,21.2,24.6,19.9,20.9,22.2,0.149,0.081,0.116,0.127,1,3600.0,606.5,500.0,106.5,801.6,606.5,862.6,615.0,507.0,108.0,801.6,615.0,874.7,Magnoliopsida; Tracheophyta; Quercus suber L.
2018,2018-02-06,Setúbal,Santiago do Cacém,Alvalade,Jt Estação CP (Alvalade),37.9372900001208,-8.38321999973721,Desconhecida,49.0,2018-02-06T02:00,4.6,75,0.5,0.8,0.0,0.0,0.0,0.0,0,1012.2,1006.1,0,0,0,0,0.02,0.22,12.4,26.0,350,354,25.9,6.6,9.2,11.8,15.1,0.128,0.146,0.097,0.127,0,0.0,0.0,0.0,0.0,0.0,0.0,0.0,0.0,0.0,0.0,0.0,0.0,0.0,Olea europaea L.; Tracheophyta; Quercus suber L.; Quercus rotundifolia Lam.; Pinus pinea L.; Eucalyptus L'Hér.; Oryza sativa L.; Magnoliopsida; Vitis vinifera L.; 
2018,2018-10-27,Setúbal,Santiago do Cacém,Vale de Água,Porto Covo (ED390 (ED390) Km 20),37.8552950000763,-8.61828999996185,Desconhecida,121.0,2018-10-27T13:00,17.7,48,6.6,13.1,0.0,0.0,0.0,0.0,0,1010.8,996.6,1,1,0,0,0.38,1.05,28.5,39.7,335,336,54.0,19.4,17.8,20.2,22.4,0.178,0.131,0.13,0.157,1,3600.0,647.0,546.5,100.4,881.5,647.0,858.9,657.0,555.0,102.0,881.5,657.0,872.2,Quercus suber L.; Eucalyptus L'Hér.; Magnoliopsida; Oryza sativa L.; Tracheophyta; Olea europaea L.; Quercus rotundifolia Lam.; Pinus pinea L.; Pinus pinaster Aiton; 
2018,2018-10-27,Setúbal,Montijo,Montijo,R MARIO VIEGAS (Caneira),38.7058549997542,-8.99283699989319,Desconhecida,4.0,2018-10-27T14:00,16.9,37,2.2,9.3,0.0,0.0,0.0,0.0,0,1012.1,1011.6,0,0,0,0,0.39,1.21,41.4,56.8,349,349,85.7,19.9,19.0,20.9,22.2,0.121,0.074,0.11,0.127,1,3600.0,566.8,472.6,94.1,860.2,566.8,761.1,602.0,502.0,100.0,860.2,602.0,808.4,Tracheophyta; Magnoliopsida
2018,2018-10-27,Setúbal,Setúbal,Setúbal (Nossa Senhora da Anunciada),EN10 Estrada São Luís Serra (Quinta da Rotura),38.5315110005273,-8.91650399949816,Desconhecida,49.0,2018-10-27T16:00,15.4,43,2.8,8.3,0.0,0.0,0.0,0.0,0,1011.4,1005.6,14,0,0,47,0.27,1.0,37.0,53.4,342,343,77.8,19.5,19.2,20.8,22.2,0.107,0.075,0.105,0.142,1,3600.0,279.1,216.3,62.8,729.4,279.1,410.7,351.0,272.0,79.0,729.4,351.0,516.6,Tracheophyta; Magnoliopsida; Pinus pinaster Aiton; Quercus suber L.
2018,2018-10-28,Setúbal,Montijo,Santo Isidro de Pegões,EN 4 (Santo Isidro de Pegães),38.6856520001094,-8.65916300031874,NC,64.0,2018-10-28T10:00,12.1,39,-1.4,6.4,0.0,0.0,0.0,0.0,0,1008.8,1001.1,0,0,0,0,0.24,0.86,22.8,32.2,354,354,44.3,12.1,16.4,20.7,22.0,0.091,0.052,0.089,0.122,1,3600.0,466.2,368.3,97.8,763.2,466.2,668.9,405.0,320.0,85.0,763.2,405.0,581.1,Tracheophyta; Pinus pinea L.; Quercus suber L.; Pinus pinaster Aiton; Eucalyptus L'Hér.; Magnoliopsida
2018,2018-10-28,Setúbal,Moita,Moita,RUA DA PAZ (Carvalhinho),38.6469769997067,-8.99206999990675,Desconhecida,3.0,2018-10-28T12:00,14.2,50,3.8,9.2,0.0,0.0,0.0,0.0,1,1008.4,1008.0,22,12,18,0,0.31,0.81,26.0,35.8,343,345,59.4,16.3,16.4,20.5,22.1,0.109,0.086,0.101,0.127,1,3600.0,635.6,529.7,105.9,860.9,635.6,852.7,618.0,515.0,103.0,860.9,618.0,829.0,Tracheophyta; Quercus suber L.; Magnoliopsida; Eucalyptus L'Hér.
2018,2018-02-06,Setúbal,Grândola,Grândola,IC 1. km 601.800,38.1295649994744,-8.46881299999025,Desconhecida,48.0,2018-02-06T15:00,11.6,34,-3.7,5.8,0.0,0.0,0.0,0.0,0,1014.3,1008.5,0,0,0,0,0.28,0.9,21.7,30.1,339,339,47.5,12.2,9.4,12.0,15.2,0.102,0.148,0.106,0.129,1,3600.0,483.3,397.7,85.5,844.9,483.3,662.2,531.0,437.0,94.0,844.9,531.0,727.6,Quercus suber L.; Tracheophyta; Olea europaea L.
2018,2018-11-06,Setúbal,Moita,Sarilhos Pequenos,Quinta dos Ingleses - Jto a vacaria (Quinta do Lourenço),38.6763419999017,-8.99481499989827,NC,5.0,2018-11-06T18:00,15.3,85,12.8,13.4,0.7,0.7,0.0,0.0,53,1013.1,1012.5,100,81,80,3,0.04,0.26,19.6,31.4,212,214,37.1,15.4,15.1,17.8,21.7,0.216,0.179,0.102,0.127,0,0.0,0.0,0.0,0.0,0.0,0.0,0.0,3.0,0.0,3.0,0.0,3.0,47.0,Tracheophyta; Magnoliopsida; Quercus suber L.
2018,2018-10-13,Setúbal,Almada,Pragal,Almada. Cova da Piedade. Pragal e Cacilhas (Quinta da Arrábida),38.6798609998491,-9.17415099991692,NC,53.0,2018-10-13T23:00,15.9,82,12.8,12.3,0.0,0.0,0.0,0.0,2,1007.5,1001.2,51,57,0,0,0.04,0.33,30.6,49.1,302,309,76.0,20.4,21.7,22.2,22.4,0.231,0.176,0.234,0.292,0,0.0,0.0,0.0,0.0,0.0,0.0,0.0,0.0,0.0,0.0,0.0,0.0,0.0,Tracheophyta; Magnoliopsida; Pinus pinea L.
2018,2018-02-07,Setúbal,Setúbal,São Lourenço,Ribeira de Coina (A2-N-S Km 22),38.5786130004459,-9.03576300011741,NC,10.0,2018-02-07T10:00,6.8,58,-0.8,2.0,0.0,0.0,0.0,0.0,1,1018.7,1017.5,46,0,39,74,0.12,0.41,17.3,25.5,31,33,34.2,6.6,7.9,11.5,14.2,0.106,0.16,0.154,0.149,1,3600.0,341.4,223.5,117.9,570.4,341.4,551.1,278.0,182.0,96.0,570.4,278.0,448.8,Tracheophyta; Pinus pinaster Aiton; Magnoliopsida; Pinales
2018,2018-02-07,Setúbal,Grândola,Carvalhal,Dunas Brejos da Carregueira (Vala Real),38.3321350002289,-8.78047700034248,Desconhecida,15.0,2018-02-07T16:00,12.1,33,-3.7,6.1,0.0,0.0,0.0,0.0,2,1016.4,1014.6,58,0,96,0,0.22,0.94,22.9,31.4,37,37,43.6,12.2,10.2,12.1,14.5,0.159,0.171,0.167,0.188,1,3600.0,227.1,101.4,125.7,292.2,227.1,488.0,271.0,121.0,150.0,292.2,271.0,582.3,Pinus pinaster Aiton; Magnoliopsida; Oryza sativa L.
2018,2018-02-13,Setúbal,Sesimbra,Sesimbra (Castelo),SERRA AZOIA (Fonte da Carreira),38.4432269997067,-9.17581499947442,NC,143.0,2018-02-13T15:00,11.5,66,5.4,8.0,0.0,0.0,0.0,0.0,3,1023.9,1006.5,92,70,1,93,0.19,0.46,16.3,18.6,225,229,26.3,12.5,12.5,12.5,12.5,0.0,0.0,0.0,0.0,1,3600.0,359.3,159.5,199.8,317.5,359.3,704.9,392.0,174.0,218.0,317.5,392.0,769.0,Magnoliopsida; Eucalyptus L'Hér.; Tracheophyta
2018,2018-02-17,Setúbal,Montijo,Santo Isidro de Pegões,Rua da Escola Primaria (EN4 (EN4) Km 42),38.690972000228,-8.64547499974569,NC,67.0,2018-02-17T18:00,12.4,88,10.4,11.8,0.0,0.0,0.0,0.0,1,1024.0,1015.8,23,15,0,33,0.03,0.18,5.2,12.0,12,16,18.4,12.6,11.8,11.8,14.1,0.094,0.118,0.085,0.126,1,1477.04,15.0,4.7,10.3,53.4,13.0,46.5,58.0,18.0,40.0,121.8,58.0,180.1,Tracheophyta; Pinus pinea L.; Quercus suber L.; Eucalyptus L'Hér.; Pinus pinaster Aiton; Pinales
2018,2018-02-18,Setúbal,Barreiro,Coina,Jt Retail Park (Quinta da Areia),38.5812629996406,-9.03962200005849,Desconhecida,11.0,2018-02-18T12:00,15.8,51,5.6,12.8,0.0,0.0,0.0,0.0,0,1022.4,1021.1,0,0,0,0,0.32,0.89,14.8,19.8,34,37,34.2,13.5,10.9,12.2,13.5,0.097,0.147,0.148,0.148,1,3600.0,628.4,509.7,118.7,818.2,628.4,872.5,598.0,485.0,113.0,818.2,598.0,830.3,Magnoliopsida; Eucalyptus L'Hér.; Pinus pinaster Aiton; Pinus pinea L.; Tracheophyta; Quercus suber L.; Pinales; 
2018,2018-02-21,Setúbal,Setúbal,Setúbal (São Julião),Qt do Hilário (Quinta do Hilário),38.5463169998593,-8.8975599998898,NC,30.0,2018-02-21T12:00,17.1,38,2.8,13.3,0.0,0.0,0.0,0.0,0,1012.1,1008.5,0,0,0,0,0.37,1.2,17.5,23.6,9,12,36.0,15.5,12.2,12.5,13.5,0.092,0.122,0.128,0.153,1,3600.0,661.0,549.8,111.2,861.9,661.0,892.3,630.0,524.0,106.0,861.9,630.0,850.5,Olea europaea L.; Tracheophyta; Pinus pinea L.; Pinus pinaster Aiton; Quercus suber L.; Magnoliopsida
2018,2018-02-23,Setúbal,Barreiro,Santo André,Sete Portais (ED10-3 (ED10-3) Km 5),38.6353079999818,-9.05499799993303,NC,20.0,2018-02-23T15:00,15.6,39,1.5,13.5,0.0,0.0,0.0,0.0,0,1004.2,1001.8,0,0,0,0,0.33,1.09,4.4,4.4,351,351,18.0,16.0,11.0,12.4,13.5,0.101,0.131,0.122,0.151,1,3600.0,562.7,467.8,94.9,860.9,562.7,759.5,611.0,508.0,103.0,860.9,611.0,824.7,Pinus pinea L.; Pinus pinaster Aiton; Magnoliopsida; Quercus suber L.; Tracheophyta; Oryza sativa L.; Eucalyptus L'Hér.; Vitis vinifera L.; 
2018,2018-02-23,Setúbal,Almada,Charneca de Caparica,R SEBASTIAO GAMA 13 (Quinta da Primavera),38.6188159999583,-9.19245400004917,NC,72.0,2018-02-23T15:00,14.7,42,1.9,13.0,0.0,0.0,0.0,0.0,0,1004.3,995.8,0,0,0,0,0.32,0.98,2.2,2.2,351,9,17.3,15.6,10.9,12.0,12.8,0.098,0.143,0.173,0.183,1,3600.0,564.8,468.1,96.7,859.9,564.8,760.7,613.0,508.0,105.0,859.9,613.0,825.7,Tracheophyta; Magnoliopsida; Pinus pinaster Aiton; Pinales; Pinus pinea L.
2018,2018-02-23,Setúbal,Santiago do Cacém,Ermidas-sado,Monte Novo das Almas dos Modernos - Ermidas do Sado,38.0044520001941,-8.38576699998644,Desconhecida,47.0,2018-02-23T20:00,10.3,47,-0.5,6.7,0.0,0.0,0.0,0.0,0,1002.8,997.1,0,0,0,0,0.05,0.67,9.9,21.2,316,325,20.2,12.7,12.6,12.5,13.9,0.065,0.114,0.095,0.141,0,0.0,0.0,0.0,0.0,0.0,0.0,0.0,0.0,0.0,0.0,0.0,0.0,0.0,Quercus suber L.; Tracheophyta; Eucalyptus L'Hér.; Pinus pinea L.; Olea europaea L.; Magnoliopsida; Quercus rotundifolia Lam.; 
2018,2018-02-25,Setúbal,Seixal,Aldeia de Paio Pires,Junto siderurgia (Quinta Maciel),38.6139869997236,-9.07315299987793,NC,6.0,2018-02-25T13:00,18.0,43,5.1,14.9,0.0,0.0,0.0,0.0,0,1010.3,1009.6,18,0,0,59,0.41,1.18,18.1,23.7,137,138,38.2,15.3,10.7,12.1,13.5,0.094,0.128,0.122,0.151,1,3600.0,697.2,578.5,118.7,859.2,697.2,940.2,693.0,575.0,118.0,859.2,693.0,934.6,Tracheophyta; Magnoliopsida; Pinus pinaster Aiton
2018,2018-02-25,Setúbal,Almada,Charneca de Caparica,R RODRIGUES LAPA 7 (Quinta das Pereiras),38.6215650002162,-9.17558499972026,Desconhecida,52.0,2018-02-25T19:00,11.0,88,9.1,9.4,0.0,0.0,0.0,0.0,0,1009.4,1003.1,4,1,3,4,0.02,0.16,9.7,15.6,153,173,13.0,13.4,12.5,11.8,12.8,0.086,0.138,0.172,0.183,0,0.0,0.0,0.0,0.0,0.0,0.0,0.0,6.0,1.0,5.0,14.1,6.0,38.6,Eucalyptus L'Hér.; Tracheophyta; Magnoliopsida
2018,2018-01-17,Setúbal,Palmela,Poceirão,Rua do depósito da água,38.6284130001068,-8.74597299999661,Desconhecida,37.0,2018-01-17T17:00,14.7,68,8.8,12.5,0.0,0.0,0.0,0.0,0,1025.3,1020.8,0,0,0,0,0.09,0.54,13.0,23.9,3,5,32.0,14.3,12.4,11.7,16.3,0.213,0.211,0.091,0.125,1,3600.0,82.0,54.7,27.3,530.4,82.0,145.7,147.0,98.0,49.0,530.4,147.0,261.1,Vitis vinifera L.; Magnoliopsida; Tracheophyta
2018,2018-04-05,Setúbal,Sesimbra,Sesimbra (Castelo),Rua do Casalinho (Azoia),38.4357950001293,-9.18447900003857,NC,145.0,2018-04-05T11:00,11.8,82,8.9,10.8,0.0,0.0,0.0,0.0,1,1017.6,1000.1,31,1,0,99,0.27,0.24,6.9,6.9,118,118,13.3,12.8,12.8,12.8,12.8,0.0,0.0,0.0,0.0,1,3600.0,643.1,327.4,315.7,423.3,643.1,1057.9,601.0,306.0,295.0,423.3,601.0,988.7,Tracheophyta; Pinus pinea L.
2018,2018-04-05,Setúbal,Seixal,Corroios,Vale Milhaços (Quinta da Queimada),38.6123419994778,-9.17496000025007,Desconhecida,60.0,2018-04-05T14:00,17.2,65,10.6,16.4,0.0,0.0,0.0,0.0,1,1015.0,1007.9,23,0,5,68,0.36,0.68,10.8,13.4,195,186,24.8,17.9,13.6,13.2,12.7,0.199,0.21,0.248,0.213,1,3600.0,642.6,268.1,374.5,336.6,642.6,1089.2,664.0,277.0,387.0,336.6,664.0,1125.4,Tracheophyta; Eucalyptus L'Hér.; Pinus pinaster Aiton
2018,2018-04-12,Setúbal,Seixal,Arrentela,R Joaquim de Carvalho jt Funland (Godinho),38.605480000178,-9.09268799993727,NC,39.0,2018-04-12T16:00,12.7,67,6.8,7.8,0.4,0.4,0.0,0.0,51,1001.6,996.9,50,38,26,2,0.22,0.48,28.0,40.9,263,264,62.3,14.7,13.2,12.8,13.0,0.291,0.272,0.215,0.154,1,3600.0,426.3,275.9,150.4,472.3,426.3,795.6,479.0,310.0,169.0,472.3,479.0,894.0,Tracheophyta; Pinus pinaster Aiton; Pinales; Magnoliopsida
2018,2018-04-18,Setúbal,Palmela,Poceirão,R. José Gaspar da Silva (Monte do Francisco Custódio),38.6152000003391,-8.75491300000085,NC,38.0,2018-04-18T16:00,25.0,47,12.9,25.7,0.0,0.0,0.0,0.0,0,1018.7,1014.3,0,0,0,0,0.45,1.67,6.1,7.7,230,229,18.7,22.1,16.4,13.1,13.1,0.2,0.217,0.198,0.126,1,3600.0,591.0,485.8,105.2,814.7,591.0,809.4,663.0,545.0,118.0,814.7,663.0,908.1,Vitis vinifera L.; Tracheophyta
2018,2018-04-25,Setúbal,Seixal,Amora,Muxito,38.627761999766,-9.13522700005107,Desconhecida,21.0,2018-04-25T15:00,21.2,63,13.9,20.7,0.0,0.0,0.0,0.0,0,1016.2,1013.7,0,0,0,0,0.46,0.93,20.5,28.8,359,358,41.4,22.6,18.6,15.8,13.3,0.23,0.254,0.256,0.222,1,3600.0,757.3,637.5,119.8,843.0,757.3,1022.5,809.0,681.0,128.0,843.0,809.0,1092.3,Tracheophyta; Pinus pinea L.; Pinus pinaster Aiton; Magnoliopsida; Eucalyptus L'Hér.
2018,2018-05-01,Setúbal,Alcácer do Sal,Alcácer do Sal (Santa Maria do Castelo),EN 253 - Km 24.050 (Herdade Moinho da Ordem de Baixo),38.367556999988,-8.54595300038656,Desconhecida,7.0,2018-05-01T03:00,9.4,91,8.0,7.4,0.0,0.0,0.0,0.0,2,1017.7,1016.8,56,62,0,0,0.0,0.11,10.5,21.3,333,341,18.4,11.8,14.8,15.9,14.6,0.124,0.162,0.185,0.126,0,0.0,0.0,0.0,0.0,0.0,0.0,0.0,0.0,0.0,0.0,0.0,0.0,0.0,Oryza sativa L.; Pinus pinea L.; Tracheophyta
2018,2018-05-01,Setúbal,Palmela,Marateca,R Pedro Azenha (Bairro Margaça),38.6049630000856,-8.70263299994999,Desconhecida,36.0,2018-05-01T13:00,17.3,37,2.6,14.3,0.0,0.0,0.0,0.0,1,1017.8,1013.5,44,0,73,2,0.47,1.24,18.1,24.2,329,330,39.2,17.5,13.8,14.8,13.6,0.172,0.176,0.181,0.126,1,3600.0,815.9,613.6,202.2,673.1,815.9,1228.9,819.0,616.0,203.0,673.1,819.0,1233.6,Vitis vinifera L.; Tracheophyta; Pinus pinea L.; Magnoliopsida
2018,2018-06-16,Vila Real,Mondim de Basto,Atei,BAIRRO NOVO (Minas),41.4757449997796,-7.92698499997457,Reacendimento,300.0,2018-06-16T18:00,25.4,58,16.6,26.3,0.0,0.0,0.0,0.0,1,1016.8,982.6,26,0,0,86,0.28,1.35,9.5,15.1,335,342,29.9,24.9,20.6,16.1,13.1,0.275,0.326,0.348,0.381,1,3600.0,311.4,238.2,73.2,660.6,311.4,477.9,387.0,296.0,91.0,660.6,387.0,593.9,Magnoliopsida; Pinales; Pinus pinaster Aiton; Eucalyptus L'Hér.; Tracheophyta
2018,2018-06-17,Vila Real,Mesão Frio,Vila Marim,Donsumil,41.1798770003849,-7.8786120001475,Desconhecida,740.0,2018-06-17T13:00,24.1,51,13.2,26.1,0.0,0.0,0.0,0.0,0,1021.6,938.9,0,0,0,0,0.64,1.48,9.7,13.3,92,92,34.2,22.5,16.9,13.6,10.2,0.289,0.31,0.31,0.378,1,3600.0,962.9,833.3,129.6,879.8,962.9,1255.2,966.0,836.0,130.0,879.8,966.0,1259.2,Eucalyptus L'Hér.; Tracheophyta; Magnoliopsida; Quercus L.; Vitis vinifera L.; Pinus pinaster Aiton
2018,2018-06-20,Vila Real,Boticas,Beça,Fonte Madruga (EM520. 5460. Portugal),41.6966666666667,-7.74416666666667,Natural,938.0,2018-06-20T16:00,26.0,46,13.4,27.7,0.0,0.0,0.0,0.0,0,1017.5,915.1,16,0,6,40,0.46,1.81,1.1,1.5,360,14,15.5,25.6,19.6,14.4,9.9,0.236,0.288,0.337,0.382,1,3600.0,611.1,455.8,155.3,662.4,611.1,911.5,669.0,499.0,170.0,662.4,669.0,997.9,Pinus pinaster Aiton; Magnoliopsida; Tracheophyta
2018,2018-06-20,Vila Real,Vila Pouca de Aguiar,Parada de Monteiros,PARADA MONTEIROS (Cilha),41.551877999968,-7.72578500005934,Natural,545.0,2018-06-20T17:00,28.5,46,15.6,30.2,0.0,0.0,0.0,0.0,0,1016.7,956.2,19,0,9,45,0.31,2.12,1.5,1.6,166,153,11.9,27.9,21.8,16.1,11.8,0.197,0.263,0.297,0.376,1,3600.0,379.8,252.6,127.2,473.0,379.8,707.4,436.0,290.0,146.0,473.0,436.0,812.1,Magnoliopsida; Pinus pinaster Aiton; Tracheophyta
2018,2018-06-20,Vila Real,Ribeira de Pena,Santa Marinha,Melhe (Alto de Seris),41.5553980000814,-7.75592299991184,Natural,382.0,2018-06-20T17:00,29.4,50,17.9,32.1,0.0,0.0,0.0,0.0,0,1016.8,974.0,18,0,8,43,0.33,2.04,0.8,0.0,207,180,13.0,28.6,22.7,17.2,12.8,0.212,0.275,0.321,0.379,1,3600.0,403.5,272.8,130.7,509.4,403.5,709.3,463.0,313.0,150.0,509.4,463.0,813.8,Tracheophyta; Pinus pinaster Aiton; Magnoliopsida
2018,2018-06-20,Vila Real,Ribeira de Pena,Santa Marinha,ALDEIA DO OURO (Alto da Lameira),41.5426199997796,-7.74210800011953,Natural,774.0,2018-06-20T20:00,25.0,55,15.2,26.4,0.0,0.0,0.0,0.0,1,1017.7,932.0,36,0,10,99,0.04,1.43,2.3,3.2,252,297,6.5,23.5,20.9,15.0,10.6,0.208,0.272,0.317,0.379,1,0.0,3.1,0.5,2.6,5.9,2.3,10.7,36.0,6.0,30.0,47.3,36.0,124.5,Magnoliopsida; Pinus pinaster Aiton; Tracheophyta
2018,2018-06-21,Vila Real,Ribeira de Pena,Ribeira de Pena (Salvador),Bacelar (Paço),41.5201220001115,-7.79170500013563,Natural,443.0,2018-06-21T19:00,25.8,69,19.7,28.9,0.0,0.0,0.0,0.0,1,1016.9,966.9,27,0,14,61,0.12,1.04,4.7,11.8,67,67,18.4,26.2,22.8,17.2,12.5,0.199,0.266,0.319,0.376,1,3600.0,102.9,48.4,54.5,262.9,102.9,243.8,153.0,72.0,81.0,262.9,153.0,362.6,Tracheophyta; Magnoliopsida; Vitis vinifera L.; Pinus pinaster Aiton
2018,2018-06-28,Vila Real,Chaves,Vidago,Campilho (N2 79. 5425 Vidago. Portugal),41.6375,-7.57111111111111,Natural,335.0,2018-06-28T15:00,27.8,44,14.3,29.1,0.0,0.0,0.0,0.0,0,1010.8,973.2,7,0,7,10,0.59,2.1,10.2,13.1,262,262,28.4,28.9,22.6,19.9,13.9,0.169,0.211,0.259,0.347,1,3600.0,756.3,606.9,149.4,746.2,756.3,1076.3,800.0,642.0,158.0,746.2,800.0,1138.6,Magnoliopsida; Tracheophyta; Pinus pinaster Aiton; Vitis vinifera L.
2018,2018-06-28,Vila Real,Sabrosa,São Martinho de Antas,SÃO MARTINHO DE ANTAS (Chão),41.2585879998737,-7.6176019999716,Desconhecida,634.0,2018-06-28T18:00,21.3,63,14.1,20.4,0.0,0.0,0.0,0.0,1,1011.1,939.9,37,0,37,50,0.21,0.93,15.4,22.4,281,285,38.2,25.4,21.3,18.0,12.3,0.158,0.192,0.22,0.37,1,3600.0,227.9,115.2,112.8,317.2,227.9,480.6,283.0,143.0,140.0,317.2,283.0,596.7,Eucalyptus L'Hér.; Tracheophyta; Pinus pinaster Aiton; Magnoliopsida
2018,2018-06-29,Vila Real,Alijó,São Mamede de Ribatua,SAFRES,41.2626570002238,-7.41119199964735,Natural,499.0,2018-06-29T13:00,26.5,45,13.5,28.8,0.0,0.0,0.0,0.0,2,1007.2,951.8,62,17,33,88,0.54,1.91,1.3,1.9,146,158,21.2,29.2,22.2,19.8,13.9,0.156,0.183,0.224,0.331,1,3600.0,755.8,510.5,245.3,539.6,755.8,1252.0,758.0,512.0,246.0,539.6,758.0,1255.7,Magnoliopsida; Pinus pinaster Aiton
2018,2018-07-09,Vila Real,Murça,Fiolhoso,Cadaval,41.3972420003679,-7.48264700041877,Desconhecida,654.0,2018-07-09T18:00,28.2,37,12.3,27.3,0.0,0.0,0.0,0.0,0,1017.4,945.2,8,0,14,0,0.31,2.4,11.6,16.5,334,337,25.2,29.0,23.7,18.6,14.0,0.187,0.209,0.217,0.314,1,3600.0,259.9,173.2,86.6,485.3,259.9,472.3,324.0,216.0,108.0,485.3,324.0,588.9,Magnoliopsida; Vitis vinifera L.; Tracheophyta; Pinus pinaster Aiton; Quercus L.; Olea europaea L.; Castanea sativa Mill.; 
2018,2018-07-10,Vila Real,Sabrosa,São Martinho de Antas,Antas (Corredoura),41.2704620001051,-7.63179299990336,Desconhecida,631.0,2018-07-10T15:00,29.1,38,13.2,30.2,0.0,0.0,0.0,0.0,0,1016.1,946.6,19,0,29,4,0.53,2.52,5.9,7.0,232,235,17.3,29.5,22.8,18.4,14.0,0.2,0.228,0.257,0.353,1,3600.0,660.8,498.2,162.6,613.9,660.8,1074.0,699.0,527.0,172.0,613.9,699.0,1136.0,Magnoliopsida; Tracheophyta; Pinus pinaster Aiton; Castanea sativa Mill.; Vitis vinifera L.
2018,2018-07-11,Vila Real,Vila Pouca de Aguiar,Telões,TELÕES (Fraga da Raposa),41.4535649998983,-7.70455199983385,Reacendimento,827.0,2018-07-11T10:00,21.0,59,12.8,21.4,0.0,0.0,0.0,0.0,1,1016.3,924.0,30,1,48,0,0.4,1.01,7.0,8.8,78,78,23.8,22.2,20.5,17.5,12.9,0.261,0.286,0.302,0.373,1,3600.0,684.7,534.8,150.0,678.1,684.7,1043.5,630.0,492.0,138.0,678.1,630.0,960.1,Pinales; Pinus pinaster Aiton; Magnoliopsida
2018,2018-02-22,Vila Real,Ribeira de Pena,Santa Marinha,Moledo (Granja Velha),41.538353000217,-7.78243000030518,Desconhecida,264.0,2018-02-22T15:00,12.7,50,2.5,10.6,0.0,0.0,0.0,0.0,0,1010.0,978.7,0,0,0,0,0.28,0.74,3.1,3.6,234,233,15.5,12.4,8.0,9.1,10.6,0.362,0.378,0.403,0.382,1,3600.0,515.9,433.6,82.3,872.0,515.9,695.3,564.0,474.0,90.0,872.0,564.0,760.1,Pinus pinaster Aiton; Magnoliopsida; Vitis vinifera L.; Pinales; Eucalyptus L'Hér.
2018,2018-08-15,Vila Real,Valpaços,Algeriz,Argemil (ER206 (ER206) Km 150),41.5923520003425,-7.4130099995931,NC,802.0,2018-08-15T16:00,29.4,24,6.7,28.4,0.0,0.0,0.0,0.0,0,1014.7,927.6,0,0,0,0,0.49,3.12,5.6,7.4,310,309,23.0,32.6,23.0,20.4,16.0,0.094,0.171,0.251,0.338,1,3600.0,590.9,493.7,97.1,805.2,590.9,817.7,657.0,549.0,108.0,805.2,657.0,909.3,Olea europaea L.; Magnoliopsida; Tracheophyta; Castanea sativa Mill.; Quercus L.; Pinus pinaster Aiton
2018,2018-08-16,Vila Real,Mondim de Basto,Mondim de Basto,MONTÃO (Bouça),41.4007800000244,-7.944277999666,Reacendimento,190.0,2018-08-16T15:00,29.9,49,18.1,32.2,0.0,0.0,0.0,0.0,0,1015.5,994.0,0,0,0,0,0.59,2.15,12.4,16.3,287,288,32.4,33.4,25.6,23.0,19.0,0.105,0.17,0.255,0.35,1,3600.0,720.7,604.4,116.4,809.7,720.7,995.7,768.0,644.0,124.0,809.7,768.0,1061.0,Tracheophyta; Pinus pinaster Aiton; Eucalyptus L'Hér.; Magnoliopsida; Vitis vinifera L.
2018,2018-08-16,Vila Real,Alijó,Sanfins do Douro,Cabeda (Gaiteira),41.3105069997576,-7.53765499989192,Desconhecida,386.0,2018-08-16T23:00,19.9,63,12.5,19.4,0.0,0.0,0.0,0.0,0,1017.8,973.2,0,0,0,0,0.03,0.87,8.6,20.5,358,358,26.3,25.4,27.7,23.7,18.9,0.135,0.153,0.19,0.288,0,0.0,0.0,0.0,0.0,0.0,0.0,0.0,0.0,0.0,0.0,0.0,0.0,0.0,Vitis vinifera L.; Olea europaea L.; Pinus pinaster Aiton
2018,2018-08-17,Vila Real,Alijó,Sanfins do Douro,ALIJO VILAR_MACADA VLR#ALIJO 5070: @VILAR MACADA (SF#169179) (Quinta de São Vicente),41.3093580002255,-7.53914199988047,Desconhecida,383.0,2018-08-17T06:00,17.4,74,12.7,17.2,0.0,0.0,0.0,0.0,1,1019.1,974.4,29,0,0,98,0.04,0.51,7.0,18.0,35,33,24.5,21.0,25.9,23.7,18.9,0.136,0.153,0.19,0.288,1,0.0,5.8,0.0,5.8,0.0,1.6,62.3,2.0,0.0,2.0,0.0,2.0,21.3,Vitis vinifera L.; Olea europaea L.; Pinus pinaster Aiton
2018,2018-08-18,Vila Real,Montalegre,Cabril,Chelo (R. das Corujeiras 2. 5470. Portugal),41.7216666666667,-8.01777777777778,Reacendimento,600.0,2018-08-18T10:00,23.7,34,7.0,21.9,0.0,0.0,0.0,0.0,0,1019.1,951.5,0,0,0,0,0.43,1.93,9.9,13.8,80,81,34.6,22.4,21.3,20.1,16.3,0.12,0.204,0.298,0.363,1,3600.0,674.5,558.8,115.7,782.6,674.5,953.2,612.0,507.0,105.0,782.6,612.0,864.8,Pinus pinaster Aiton; Magnoliopsida
2018,2018-08-18,Vila Real,Murça,Jou,Mascanho (ER314 (ER314) Km 35),41.463894999822,-7.44337500042386,Desconhecida,646.0,2018-08-18T10:00,19.8,42,6.5,17.2,0.0,0.0,0.0,0.0,0,1021.8,948.2,0,0,0,0,0.4,1.34,14.1,18.5,84,83,33.8,22.6,23.3,22.3,17.8,0.12,0.147,0.212,0.315,1,3600.0,685.4,566.6,118.8,785.6,685.4,962.7,623.0,515.0,108.0,785.6,623.0,875.1,Castanea sativa Mill.; Magnoliopsida; Olea europaea L.; Tracheophyta; Vitis vinifera L.; Pinus pinaster Aiton; Pinales; Quercus suber L.; 
2018,2018-08-19,Vila Real,Vila Real,Adoufe,Couto (Pipa),41.336017999914,-7.72794500033061,Desconhecida,539.0,2018-08-19T23:00,21.3,32,3.8,18.5,0.0,0.0,0.0,0.0,0,1018.5,957.1,0,0,0,0,0.09,1.74,9.7,19.4,88,89,30.6,22.1,23.9,21.2,17.4,0.137,0.169,0.258,0.359,0,0.0,0.0,0.0,0.0,0.0,0.0,0.0,0.0,0.0,0.0,0.0,0.0,0.0,Magnoliopsida; Tracheophyta; Vitis vinifera L.; Pinus pinaster Aiton
2018,2018-08-22,Vila Real,Mondim de Basto,Mondim de Basto,MONTÃO,41.3836319999893,-7.9562019999822,Reacendimento,391.0,2018-08-22T13:00,31.5,38,15.4,33.8,0.0,0.0,0.0,0.0,0,1015.6,972.2,0,0,0,0,0.67,2.88,9.3,11.6,286,286,26.6,32.6,24.9,22.3,18.1,0.103,0.162,0.249,0.345,1,3600.0,856.9,734.2,122.7,849.4,856.9,1155.7,859.0,736.0,123.0,849.4,859.0,1158.6,Tracheophyta; Pinus pinaster Aiton; Magnoliopsida; Eucalyptus L'Hér.
2018,2018-08-23,Vila Real,Vila Pouca de Aguiar,Alfarela de Jales,Cidadelha de Jales,41.4650570000543,-7.56982700003518,Desconhecida,784.0,2018-08-23T20:00,24.4,38,9.0,21.9,0.0,0.0,0.0,0.0,0,1018.5,931.5,1,0,0,4,0.16,1.9,15.3,28.6,333,337,30.6,28.2,25.8,21.7,17.3,0.118,0.143,0.205,0.313,0,0.0,0.0,0.0,0.0,0.0,0.0,0.0,2.0,0.0,2.0,0.0,2.0,17.7,Tracheophyta; Magnoliopsida; Pinus pinaster Aiton
2018,2018-08-24,Vila Real,Vila Real,Folhadela,VILA_NOVA_CIMA FOLHADELA VLR#VILA_REAL 5000-101: @AERODROMO MUNICIPAL VILA REAL (AERODROMO#4864) (Aérodromo de Vila Real),41.2775650003221,-7.71746799998813,Desconhecida,555.0,2018-08-24T10:00,25.2,39,10.3,25.2,0.0,0.0,0.0,0.0,0,1020.2,957.8,0,0,0,0,0.42,1.96,3.9,4.3,124,114,16.9,25.0,24.0,22.5,18.2,0.128,0.145,0.219,0.333,1,3600.0,682.8,568.1,114.7,804.9,682.8,944.5,619.0,515.0,104.0,804.9,619.0,856.3,Magnoliopsida; Tracheophyta; Vitis vinifera L.
2018,2018-08-27,Vila Real,Chaves,Sanfins,MOSTEIRO,41.7909899997711,-7.24405000050863,Desconhecida,706.0,2018-08-27T13:00,30.1,29,9.9,30.4,0.0,0.0,0.0,0.0,1,1013.9,936.9,29,0,0,97,0.66,3.05,9.7,12.3,149,148,27.0,30.2,22.7,21.4,17.4,0.123,0.142,0.21,0.322,1,3600.0,848.1,729.6,118.5,865.0,848.1,1130.4,852.0,733.0,119.0,865.0,852.0,1135.6,Pinus pinaster Aiton; Magnoliopsida; Tracheophyta; Vitis vinifera L.
2018,2018-08-28,Vila Real,Vila Real,Vila Marim,Alto das Muas,41.3400369999144,-7.78905900001526,Natural,1013.0,2018-08-28T01:00,18.4,53,8.7,17.1,0.0,0.0,0.0,0.0,1,1013.4,901.2,21,0,19,33,0.03,1.0,6.6,16.5,338,350,38.5,18.9,21.2,18.8,15.2,0.141,0.17,0.259,0.355,0,0.0,0.0,0.0,0.0,0.0,0.0,0.0,0.0,0.0,0.0,0.0,0.0,0.0,Tracheophyta; Pinus pinaster Aiton; Magnoliopsida
2018,2018-08-30,Vila Real,Vila Real,Torgueda,TORGUEDA (Monte das Malhadinhas),41.2650550005171,-7.81041799969143,Desconhecida,705.0,2018-08-30T01:00,16.1,82,12.9,16.5,0.0,0.0,0.0,0.0,0,1020.3,939.4,0,0,0,0,0.0,0.34,3.3,4.5,49,119,13.3,17.9,21.9,20.1,16.6,0.141,0.165,0.242,0.344,0,0.0,0.0,0.0,0.0,0.0,0.0,0.0,0.0,0.0,0.0,0.0,0.0,0.0,Magnoliopsida; Vitis vinifera L.; Olea europaea L.; Tracheophyta; Pinales
2018,2018-08-30,Vila Real,Montalegre,Cabril,Cachadoiro (Cabril. 5470. Portugal),41.7280555555556,-8.045,Reacendimento,449.0,2018-08-30T12:00,26.6,49,15.1,28.9,0.0,0.0,0.0,0.0,0,1019.4,968.8,17,0,0,57,0.56,1.76,6.2,7.0,277,282,25.2,27.0,22.0,21.8,18.2,0.124,0.189,0.283,0.356,1,3600.0,825.0,693.5,131.5,833.0,825.0,1117.2,803.0,675.0,128.0,833.0,803.0,1087.4,Tracheophyta; Pinus pinaster Aiton; Magnoliopsida
2018,2018-08-31,Vila Real,Montalegre,Cabril,Alto da Tojeira (CM1021. 5470. Portugal),41.7183333333333,-8.02166666666667,Reacendimento,553.0,2018-08-31T13:00,29.6,34,12.0,31.5,0.0,0.0,0.0,0.0,0,1017.3,956.1,0,0,0,0,0.61,2.75,3.9,4.2,248,239,16.2,29.4,22.2,21.2,17.7,0.121,0.187,0.281,0.355,1,3600.0,835.1,720.5,114.6,866.1,835.1,1116.8,838.0,723.0,115.0,866.1,838.0,1120.7,Magnoliopsida
2018,2018-09-01,Vila Real,Santa Marta de Penaguião,Sever,Pedras de Baixo (Pedras),41.2181629999479,-7.78693699995677,Desconhecida,272.0,2018-09-01T04:00,20.8,54,11.2,20.1,0.0,0.0,0.0,0.0,0,1018.1,986.5,0,0,0,0,0.04,1.13,7.7,21.6,41,53,23.4,22.1,26.1,24.2,20.3,0.133,0.147,0.194,0.313,0,0.0,0.0,0.0,0.0,0.0,0.0,0.0,0.0,0.0,0.0,0.0,0.0,0.0,Vitis vinifera L.; Tracheophyta; Olea europaea L.
2018,2018-09-01,Vila Real,Mondim de Basto,Atei,ATEI (Eiral),41.4538230000602,-7.93207599957784,Reacendimento,232.0,2018-09-01T13:00,33.6,30,13.6,35.1,0.0,0.0,0.0,0.0,0,1015.2,989.4,0,0,0,0,0.68,3.65,9.1,12.0,99,99,29.9,32.7,25.2,23.5,19.8,0.099,0.161,0.25,0.34,1,3600.0,830.7,715.1,115.5,860.9,830.7,1115.8,834.0,718.0,116.0,860.9,834.0,1120.3,Pinus pinaster Aiton; Vitis vinifera L.; Eucalyptus L'Hér.; Magnoliopsida; Tracheophyta
2018,2018-09-03,Vila Real,Ribeira de Pena,Ribeira de Pena (Salvador),OLGAS (Lameiras),41.5128670003679,-7.78394299997224,Natural,542.0,2018-09-03T04:00,18.5,74,13.8,18.8,0.0,0.0,0.0,0.0,1,1011.2,949.4,35,0,15,87,0.01,0.55,6.0,10.8,73,53,16.2,20.4,24.5,21.8,18.0,0.102,0.155,0.24,0.336,0,0.0,0.0,0.0,0.0,0.0,0.0,0.0,0.0,0.0,0.0,0.0,0.0,0.0,Pinales; Magnoliopsida; Tracheophyta; Vitis vinifera L.; Pinus pinaster Aiton
2018,2018-09-03,Vila Real,Valpaços,Carrazedo de Montenegro,Silva (Regato do Muro),41.5510299999846,-7.40073499997457,Natural,642.0,2018-09-03T05:00,21.6,54,11.8,21.7,0.0,0.0,0.0,0.0,1,1011.3,939.3,33,0,10,90,0.01,1.2,3.4,5.4,328,37,7.6,21.2,25.1,22.5,18.6,0.126,0.156,0.193,0.307,0,0.0,0.0,0.0,0.0,0.0,0.0,0.0,0.0,0.0,0.0,0.0,0.0,0.0,Magnoliopsida; Tracheophyta; Castanea sativa Mill.; Vitis vinifera L.; Olea europaea L.
2018,2018-09-03,Vila Real,Murça,Palheiros,Salgueiro (Ribeiro do Salgueiro),41.4342219999764,-7.41427300029331,Natural,588.0,2018-09-03T05:00,20.3,58,11.7,20.1,0.0,0.0,0.0,0.0,1,1011.1,944.6,32,0,12,83,0.02,1.01,5.1,11.0,356,11,12.6,22.4,26.0,23.0,18.8,0.126,0.126,0.169,0.273,0,0.0,0.0,0.0,0.0,0.0,0.0,0.0,0.0,0.0,0.0,0.0,0.0,0.0,Vitis vinifera L.; Pinus pinaster Aiton; Pinales; Magnoliopsida; Quercus rotundifolia Lam.; Quercus suber L.; Olea europaea L.; Tracheophyta; Eucalyptus L'Hér.; 
2018,2018-09-03,Vila Real,Ribeira de Pena,Santo Aleixo de Além-tâmega,Bragadas (Alto da Tejueira),41.5525699999597,-7.8319529999627,Natural,450.0,2018-09-03T07:00,21.3,60,13.3,21.3,0.0,0.0,0.0,0.0,1,1011.7,960.5,31,0,7,90,0.06,1.01,7.4,15.5,51,62,19.8,20.9,24.3,22.3,18.6,0.108,0.167,0.254,0.342,1,1107.68,90.7,34.5,56.1,191.6,59.8,242.4,42.0,16.0,26.0,126.4,42.0,112.3,Eucalyptus L'Hér.; Pinus pinaster Aiton
2018,2018-09-06,Vila Real,Montalegre,Cabril,Eirães (CM1361. 5470. Portugal),41.6958333333333,-8.08722222222222,Reacendimento,417.0,2018-09-06T12:00,23.5,48,11.9,24.1,0.0,0.0,0.0,0.0,1,1016.1,968.7,50,31,36,0,0.46,1.5,5.8,8.0,86,85,22.7,23.6,20.5,22.1,18.9,0.268,0.197,0.28,0.352,1,3600.0,701.6,545.5,156.1,674.5,701.6,1088.8,683.0,531.0,152.0,674.5,683.0,1059.9,Pinus pinaster Aiton; Magnoliopsida
2018,2018-09-13,Vila Real,Alijó,Vila Verde,Balsa (Serrinha),41.3722139999602,-7.55987600008647,Desconhecida,667.0,2018-09-13T01:00,18.2,48,7.0,16.8,0.0,0.0,0.0,0.0,0,1021.0,944.7,0,0,0,0,0.02,1.09,4.4,2.4,325,27,7.9,20.6,24.1,21.8,19.2,0.148,0.127,0.17,0.294,0,0.0,0.0,0.0,0.0,0.0,0.0,0.0,0.0,0.0,0.0,0.0,0.0,0.0,Magnoliopsida; Pinus pinaster Aiton; Tracheophyta
2018,2018-09-14,Vila Real,Alijó,Alijó,VILARELHO (Tapada Velha),41.2834579999993,-7.48397499998411,Desconhecida,759.0,2018-09-14T13:00,28.0,32,10.0,28.4,0.0,0.0,0.0,0.0,0,1017.6,934.3,0,0,0,0,0.58,2.55,6.8,7.9,198,204,22.3,28.0,22.0,20.8,18.3,0.134,0.137,0.199,0.324,1,3600.0,783.0,672.8,110.2,862.9,783.0,1054.2,789.0,678.0,111.0,862.9,789.0,1062.3,Magnoliopsida; Pinus pinaster Aiton; Tracheophyta
2018,2018-09-15,Vila Real,Vila Real,Folhadela,FOLHADELA (Quinta da Lameira),41.2755620002747,-7.74761199951172,NC,325.0,2018-09-15T21:00,22.1,76,17.7,24.3,0.0,0.0,0.0,0.0,0,1019.6,982.1,6,0,10,0,0.0,0.63,3.7,7.9,299,267,11.5,26.7,26.4,23.7,21.1,0.134,0.138,0.201,0.324,0,0.0,0.0,0.0,0.0,0.0,0.0,0.0,0.0,0.0,0.0,0.0,0.0,0.0,Magnoliopsida; Pinus pinaster Aiton; Vitis vinifera L.; Tracheophyta; Pinales
2018,2018-09-15,Vila Real,Ribeira de Pena,Cerva,Barreiro (Ribeiro Mosqueiro),41.4533429998822,-7.87230500009325,Reacendimento,492.0,2018-09-15T21:00,20.7,65,13.8,21.3,0.0,0.0,0.0,0.0,0,1020.0,963.6,0,0,0,0,0.01,0.86,4.0,4.5,270,256,11.2,23.3,23.7,21.1,18.9,0.101,0.154,0.236,0.333,0,0.0,0.0,0.0,0.0,0.0,0.0,0.0,0.0,0.0,0.0,0.0,0.0,0.0,Magnoliopsida; Tracheophyta; Pinus pinaster Aiton
2018,2018-09-15,Vila Real,Valpaços,Ervões,Carvalhas,41.6697980001238,-7.3550299999449,NC,719.0,2018-09-15T21:00,21.4,66,14.9,22.3,0.0,0.0,0.0,0.0,0,1019.5,938.5,5,0,9,0,0.01,0.86,5.0,13.0,291,304,18.4,25.0,24.2,21.0,18.3,0.125,0.131,0.177,0.304,0,0.0,0.0,0.0,0.0,0.0,0.0,0.0,0.0,0.0,0.0,0.0,0.0,0.0,Tracheophyta; Magnoliopsida; Pinus pinaster Aiton
2018,2018-09-16,Vila Real,Vila Real,São Tomé do Castelo,Linhares,41.3622299999661,-7.65330000003179,Desconhecida,838.0,2018-09-16T16:00,26.0,34,9.0,24.2,0.0,0.0,0.0,0.0,1,1018.7,926.5,29,0,0,97,0.34,2.21,10.5,13.7,266,267,28.4,27.6,21.9,20.3,18.0,0.148,0.147,0.223,0.337,1,3600.0,351.3,161.8,189.5,342.4,351.3,639.7,406.0,187.0,219.0,342.4,406.0,739.3,Magnoliopsida
2018,2018-02-23,Vila Real,Vila Real,Parada de Cunhos,Parada de Cunhos (IP3 (EN2) Km 70),41.2684199999438,-7.78112000041538,Desconhecida,511.0,2018-02-23T17:00,8.4,45,-3.0,4.9,0.0,0.0,0.0,0.0,0,1005.8,945.7,0,0,0,0,0.12,0.61,6.5,9.1,71,72,19.4,9.5,7.3,8.5,10.1,0.327,0.336,0.338,0.29,1,3600.0,198.6,151.1,47.5,709.3,198.6,297.8,276.0,210.0,66.0,709.3,276.0,413.8,Magnoliopsida; Vitis vinifera L.; Tracheophyta; Pinales; Pinus pinaster Aiton
2018,2018-09-19,Vila Real,Montalegre,Cabril,Rio de Escalheiro (Cabril. 5470. Portugal),41.7158333333333,-8.05916666666667,Reacendimento,617.0,2018-09-19T14:00,24.4,34,7.7,24.0,0.0,0.0,0.0,0.0,0,1021.0,951.6,0,0,0,0,0.51,2.01,7.2,9.0,273,275,24.1,25.6,19.3,19.9,18.2,0.126,0.177,0.26,0.346,1,3600.0,716.6,618.9,97.7,883.2,716.6,950.0,748.0,646.0,102.0,883.2,748.0,991.7,Tracheophyta; Magnoliopsida; Pinus pinaster Aiton
2018,2018-09-25,Vila Real,Valpaços,Vilarandelo,VILARANDELO (Chicharreiro),41.642597000334,-7.31783999999364,NC,580.0,2018-09-25T00:00,17.7,32,0.7,14.7,0.0,0.0,0.0,0.0,0,1024.4,957.4,0,0,0,0,0.06,1.39,6.7,16.9,74,78,21.6,21.5,25.1,22.8,20.2,0.103,0.118,0.157,0.264,0,0.0,0.0,0.0,0.0,0.0,0.0,0.0,0.0,0.0,0.0,0.0,0.0,0.0,Magnoliopsida; Olea europaea L.; Pinus pinaster Aiton; Tracheophyta
2018,2018-09-27,Vila Real,Montalegre,Outeiro,Candela (PNP Gerês) (Abelheira),41.8137129995558,-7.96881800002522,Reacendimento,932.0,2018-09-27T13:00,22.9,60,14.8,23.9,1.0,1.0,0.0,0.0,55,1027.6,923.8,31,16,7,42,0.44,1.12,9.2,12.0,228,226,31.0,25.1,19.7,18.4,16.4,0.233,0.303,0.343,0.433,1,3600.0,668.2,542.5,125.7,758.3,668.2,974.2,675.0,548.0,127.0,758.3,675.0,984.2,Magnoliopsida; Tracheophyta
2018,2018-09-30,Vila Real,Chaves,Eiras,Quinta do Castelo (Estr. Ribeira de Sampaio 2. 5400-623. Portugal),41.725,-7.42638888888889,Reacendimento,499.0,2018-09-30T17:00,26.5,29,7.2,23.3,0.0,0.0,0.0,0.0,0,1018.0,962.0,0,0,0,0,0.3,2.44,16.8,25.1,351,353,39.6,29.4,23.7,22.2,20.4,0.089,0.14,0.213,0.313,1,3600.0,192.2,145.8,46.4,659.9,192.2,301.4,269.0,204.0,65.0,659.9,269.0,421.8,Magnoliopsida; Vitis vinifera L.; Pinus pinaster Aiton; Tracheophyta; Quercus L.; Olea europaea L.
2018,2018-10-02,Vila Real,Montalegre,Cabril,CHAMIÇAIS (Cabril. 5470. Portugal),41.7744444444444,-8.03694444444444,Desconhecida,1202.0,2018-10-02T14:00,18.5,22,-3.7,14.6,0.0,0.0,0.0,0.0,0,1023.2,890.5,0,0,0,0,0.45,1.67,14.2,19.7,111,111,37.1,19.5,15.3,16.6,14.8,0.221,0.3,0.345,0.431,1,3600.0,664.6,573.3,91.3,905.9,664.6,864.3,699.0,603.0,96.0,905.9,699.0,909.1,Tracheophyta; Magnoliopsida
2018,2018-10-04,Vila Real,Montalegre,Meixide,Alto das Fragas (EM508. 5470. Portugal),41.8161111111111,-7.61388888888889,Reacendimento,912.0,2018-10-04T23:00,15.0,63,8.0,13.7,0.0,0.0,0.0,0.0,0,1018.0,914.7,0,0,0,0,0.01,0.64,5.4,7.8,307,326,16.2,17.3,18.5,18.3,17.0,0.223,0.287,0.332,0.426,0,0.0,0.0,0.0,0.0,0.0,0.0,0.0,0.0,0.0,0.0,0.0,0.0,0.0,Magnoliopsida; Tracheophyta; Quercus L.
2018,2018-10-06,Vila Real,Vila Real,Torgueda,MOÇAES (TORGUEDA),41.2689740000831,-7.8133000002967,Desconhecida,746.0,2018-10-06T01:00,12.8,54,3.7,10.4,0.0,0.0,0.0,0.0,0,1016.3,930.3,9,0,0,31,0.03,0.68,6.6,8.3,319,275,19.1,13.9,19.0,19.5,18.6,0.116,0.123,0.2,0.329,0,0.0,0.0,0.0,0.0,0.0,0.0,0.0,0.0,0.0,0.0,0.0,0.0,0.0,Magnoliopsida; Vitis vinifera L.; Pinus pinaster Aiton; Tracheophyta; Pinales
2018,2018-10-06,Vila Real,Vila Real,São Tomé do Castelo,Leirós (Regadinhos),41.3603469996982,-7.64317500008477,Desconhecida,820.0,2018-10-06T18:00,14.0,63,7.2,11.3,0.0,0.0,0.0,0.0,1,1018.4,924.6,27,3,0,81,0.07,0.59,14.1,22.0,356,356,33.1,20.1,18.6,19.4,18.7,0.124,0.137,0.216,0.33,1,2234.71,0.0,0.0,0.0,0.0,0.0,0.0,58.0,31.0,27.0,235.4,58.0,130.6,Magnoliopsida; Pinus pinaster Aiton
2018,2018-10-08,Vila Real,Vila Pouca de Aguiar,Tresminas,Filhagosa),41.4788888888889,-7.51638888888889,Desconhecida,723.0,2018-10-08T12:00,15.7,49,5.0,13.1,0.0,0.0,0.0,0.0,0,1019.0,936.1,0,0,0,0,0.37,0.91,14.3,19.1,102,102,37.4,16.9,15.4,19.2,19.1,0.132,0.149,0.199,0.315,1,3600.0,686.2,584.8,101.4,868.3,686.2,923.0,670.0,571.0,99.0,868.3,670.0,901.3,Magnoliopsida; Pinus pinaster Aiton; Tracheophyta; Castanea sativa Mill.
2018,2018-10-10,Vila Real,Montalegre,Outeiro,Alto da Mulher Calca (Unnamed Road. 5470. Portugal),41.8052777777778,-7.95416666666667,Reacendimento,898.0,2018-10-10T15:00,16.6,54,7.2,13.1,0.0,0.0,0.0,0.0,2,1003.8,903.9,75,51,0,98,0.28,0.87,19.2,28.2,206,207,65.5,18.3,14.0,16.2,16.2,0.265,0.288,0.329,0.436,1,3600.0,414.6,254.8,159.7,523.2,414.6,668.3,462.0,284.0,178.0,523.2,462.0,744.8,Magnoliopsida; Tracheophyta
2018,2018-10-13,Vila Real,Vila Pouca de Aguiar,Santa Marta da Montanha,Viduedo (Recorte),41.4903099997838,-7.75476699988047,Desconhecida,898.0,2018-10-13T14:00,21.9,51,11.3,19.5,0.1,0.1,0.0,0.0,51,1011.3,912.3,48,6,22,98,0.34,1.29,18.8,27.1,185,185,47.5,20.5,15.7,16.9,17.9,0.227,0.156,0.229,0.325,1,3600.0,437.0,237.8,199.1,412.1,437.0,793.2,463.0,252.0,211.0,412.1,463.0,840.5,Quercus L.; Magnoliopsida; Tracheophyta; Pinus pinaster Aiton
2018,2018-10-22,Vila Real,Santa Marta de Penaguião,Cumieira,VEIGA (Quinta do Val Flores),41.2367120001051,-7.78266199959649,NC,175.0,2018-10-22T12:00,22.9,43,9.6,21.4,0.0,0.0,0.0,0.0,0,1023.3,1002.9,0,0,0,0,0.4,1.6,11.4,15.3,72,71,30.2,22.0,18.8,20.3,22.2,0.233,0.201,0.183,0.3,1,3600.0,600.4,503.1,97.3,826.0,600.4,841.4,586.0,491.0,95.0,826.0,586.0,821.2,Magnoliopsida; Vitis vinifera L.; Olea europaea L.; Tracheophyta; Pinus pinaster Aiton
2018,2018-10-22,Vila Real,Vila Real,Lordelo,Cales,41.3278770001729,-7.76741000003285,Desconhecida,623.0,2018-10-22T16:00,20.9,38,6.2,18.7,0.0,0.0,0.0,0.0,0,1022.1,951.2,0,0,0,1,0.23,1.53,9.0,16.7,90,84,34.2,20.1,16.9,17.2,19.1,0.28,0.276,0.218,0.325,1,3600.0,261.6,205.5,56.1,727.3,261.6,390.3,331.0,260.0,71.0,727.3,331.0,493.9,Magnoliopsida; Tracheophyta; Pinus pinaster Aiton
2018,2018-10-24,Vila Real,Peso da Régua,Sedielos,SEDIELOS (Sobre-a-Fonte),41.2085879998737,-7.85963500022888,Desconhecida,545.0,2018-10-24T15:00,20.0,43,7.1,18.6,0.0,0.0,0.0,0.0,0,1024.0,961.3,0,0,0,0,0.28,1.32,4.7,5.7,157,145,20.5,18.8,14.9,16.7,18.7,0.268,0.274,0.223,0.325,1,3600.0,407.9,336.5,71.4,803.2,407.9,579.4,463.0,382.0,81.0,803.2,463.0,657.7,Tracheophyta; Vitis vinifera L.; Magnoliopsida; Pinales; Pinus pinaster Aiton
2018,2018-10-29,Vila Real,Alijó,Carlão,CARLÃO (Bacelos),41.3059750000636,-7.41217500050863,Desconhecida,514.0,2018-10-29T15:00,10.7,42,-1.6,6.0,0.0,0.0,0.0,0.0,2,1007.0,946.9,57,33,45,0,0.17,0.74,15.9,23.1,274,275,42.8,11.8,10.6,16.5,20.1,0.214,0.195,0.173,0.274,1,3600.0,191.9,80.3,111.7,205.7,191.9,541.1,220.0,92.0,128.0,205.7,220.0,620.3,Magnoliopsida; Vitis vinifera L.; Pinus pinaster Aiton; Tracheophyta; Olea europaea L.
2018,2018-02-24,Vila Real,Vila Pouca de Aguiar,Vreia de Jales,CERDEIRA DE JALES,41.4395169999864,-7.59398200035095,Desconhecida,868.0,2018-02-24T15:00,8.1,45,-3.1,5.8,0.0,0.0,0.0,0.0,0,1006.1,906.4,0,0,0,0,0.27,0.6,0.4,0.4,90,90,13.0,7.1,3.3,6.0,7.8,0.341,0.35,0.361,0.31,1,3600.0,541.7,460.2,81.4,910.5,541.7,706.1,592.0,503.0,89.0,910.5,592.0,771.8,Magnoliopsida; Quercus L.; Tracheophyta; Pinus pinaster Aiton
2018,2018-02-25,Vila Real,Vila Pouca de Aguiar,Bornes de Aguiar,Tinhela de Cima (Regato da Mina Velha),41.5214469999737,-7.58747800005807,Desconhecida,904.0,2018-02-25T13:00,8.8,40,-4.0,5.7,0.0,0.0,0.0,0.0,0,1012.5,908.5,0,0,0,0,0.31,0.68,8.9,12.2,133,137,28.8,6.6,2.5,4.9,7.0,0.336,0.351,0.372,0.316,1,3600.0,692.6,596.4,96.2,940.3,692.6,885.7,691.0,595.0,96.0,940.3,691.0,883.6,Pinus pinaster Aiton; Castanea sativa Mill.; Tracheophyta
2018,2018-02-25,Vila Real,Montalegre,Salto,Corga do Rio Covo (CM1032 15. 5470. Portugal),41.6416666666667,-7.92305555555556,NC,939.0,2018-02-25T19:00,2.4,67,-3.1,-1.4,0.0,0.0,0.0,0.0,0,1012.3,902.2,0,0,0,0,0.03,0.24,8.7,15.0,48,80,18.0,4.8,4.4,4.9,6.8,0.349,0.367,0.398,0.409,0,0.0,0.0,0.0,0.0,0.0,0.0,0.0,2.0,0.0,2.0,0.0,2.0,18.1,Magnoliopsida; Tracheophyta
2018,2018-02-26,Vila Real,Murça,Jou,Castelo (Alto dos Bacelos),41.491501999961,-7.40932799975077,Desconhecida,640.0,2018-02-26T14:00,12.6,46,1.2,10.3,0.0,0.0,0.0,0.0,1,1005.2,931.7,41,0,21,95,0.31,0.79,5.2,6.9,102,99,17.6,9.2,4.4,6.1,8.3,0.301,0.314,0.317,0.293,1,3600.0,591.3,420.1,171.1,701.0,591.3,836.6,615.0,437.0,178.0,701.0,615.0,870.2,Castanea sativa Mill.; Magnoliopsida; Olea europaea L.; Tracheophyta; Vitis vinifera L.; Pinus pinaster Aiton; Pinales; Quercus suber L.; 
2018,2018-04-19,Vila Real,Vila Real,Borbela,Barroca (Paço),41.3280020003849,-7.75726800017887,Desconhecida,585.0,2018-04-19T15:00,22.2,48,10.7,21.0,0.0,0.0,0.0,0.0,1,1017.5,951.3,37,4,41,30,0.39,1.39,10.2,14.1,129,130,31.0,18.9,13.5,9.5,8.1,0.359,0.371,0.394,0.423,1,3600.0,520.3,373.0,147.3,522.5,520.3,968.4,558.0,400.0,158.0,522.5,558.0,1038.5,Magnoliopsida; Tracheophyta; Pinus pinaster Aiton
2018,2018-04-19,Vila Real,Vila Real,Mouçós,Lagares (Fraga das Cortiças),41.3314699999491,-7.64578500005934,NC,858.0,2018-04-19T15:00,20.4,48,8.9,18.7,0.0,0.0,0.0,0.0,1,1017.5,921.7,37,4,41,30,0.37,1.26,10.2,14.1,129,130,31.0,17.2,11.7,7.8,6.4,0.359,0.371,0.394,0.423,1,3600.0,520.3,373.0,147.3,522.5,520.3,968.4,558.0,400.0,158.0,522.5,558.0,1038.5,Magnoliopsida; Pinus pinaster Aiton; Quercus L.; Tracheophyta; Pinales
2018,2018-04-19,Vila Real,Vila Real,Adoufe,Vila Seca (Quinta da Gricha),41.3324429999457,-7.72002799987793,Desconhecida,542.0,2018-04-19T17:00,22.3,48,10.9,22.2,0.0,0.0,0.0,0.0,0,1016.5,955.1,16,0,26,0,0.22,1.39,2.6,3.7,74,79,13.3,19.4,14.6,10.0,8.8,0.354,0.366,0.396,0.387,1,3600.0,279.7,197.0,82.8,480.2,279.7,556.4,338.0,238.0,100.0,480.2,338.0,672.3,Magnoliopsida; Pinus pinaster Aiton; Tracheophyta; Vitis vinifera L.
2018,2018-04-19,Vila Real,Vila Real,Lamares,LAMARES,41.3376739999983,-7.63495999998517,Desconhecida,859.0,2018-04-19T18:00,18.7,74,13.9,19.8,0.0,0.0,0.0,0.0,0,1017.1,920.7,18,1,29,0,0.12,0.56,0.8,1.0,333,45,10.1,16.7,12.8,8.1,6.9,0.36,0.373,0.403,0.404,1,3600.0,145.3,93.1,52.2,414.4,145.3,304.7,206.0,132.0,74.0,414.4,206.0,432.1,Magnoliopsida; Pinus pinaster Aiton; Pinales
2018,2018-04-20,Vila Real,Vila Real,Vila Marim,RAMADAS,41.3276809999678,-7.77429400020176,Desconhecida,598.0,2018-04-20T13:00,20.9,47,9.3,20.0,0.0,0.0,0.0,0.0,0,1015.9,948.1,17,0,0,56,0.54,1.3,16.2,23.1,87,86,45.4,18.6,13.5,10.0,8.1,0.349,0.361,0.388,0.422,1,3600.0,875.7,701.6,174.1,813.6,875.7,1169.2,880.0,705.0,175.0,813.6,880.0,1174.9,Magnoliopsida; Tracheophyta; Pinus pinaster Aiton
2018,2018-02-04,Vila Real,Alijó,Ribalonga,RIBALONGA (Olhadela),41.3599930000305,-7.49342299991184,Desconhecida,678.0,2018-02-04T15:00,5.8,55,-2.7,0.3,0.0,0.0,0.0,0.0,2,1013.1,933.0,68,60,24,0,0.15,0.42,20.2,28.1,360,359,44.3,6.5,5.1,7.2,10.4,0.333,0.333,0.311,0.275,1,3600.0,295.4,142.3,153.1,343.6,295.4,582.9,328.0,158.0,170.0,343.6,328.0,647.3,Magnoliopsida; Tracheophyta
2018,2018-04-20,Vila Real,Alijó,Pópulo,Cal de Bois (Touca Rota),41.3707770000564,-7.486261999872,Desconhecida,704.0,2018-04-20T15:00,21.2,39,6.7,18.7,0.0,0.0,0.0,0.0,2,1015.0,935.9,62,0,87,33,0.49,1.53,17.4,23.5,84,86,40.7,18.9,13.7,9.6,8.0,0.34,0.356,0.388,0.337,1,3600.0,680.5,521.1,159.4,729.5,680.5,968.4,730.0,559.0,171.0,729.5,730.0,1038.9,Pinus pinaster Aiton; Magnoliopsida; Tracheophyta
2018,2018-04-20,Vila Real,Alijó,Carlão,CARLÃO,41.3193559998936,-7.40698400020599,Desconhecida,499.0,2018-04-20T17:00,22.1,43,8.8,20.4,0.0,0.0,0.0,0.0,0,1014.3,957.7,18,0,18,24,0.3,1.53,9.6,16.2,103,103,33.5,19.6,15.2,10.6,8.5,0.323,0.344,0.391,0.323,1,3600.0,349.9,260.6,89.3,635.6,349.9,555.9,423.0,315.0,108.0,635.6,423.0,671.9,Vitis vinifera L.; Pinus pinaster Aiton; Magnoliopsida; Tracheophyta
2018,2018-04-22,Vila Real,Vila Real,Adoufe,PAREDES (Cabanas),41.3510019999743,-7.73406700001823,Reacendimento,661.0,2018-04-22T14:00,17.7,67,11.5,17.2,0.1,0.1,0.0,0.0,51,1015.4,940.1,49,14,17,88,0.32,0.67,7.1,9.1,156,146,23.8,17.6,13.4,10.4,7.9,0.348,0.355,0.384,0.42,1,3600.0,507.2,170.0,337.1,207.8,507.2,1108.2,525.0,176.0,349.0,207.8,525.0,1147.2,Magnoliopsida; Tracheophyta; Pinus pinaster Aiton
2018,2018-04-22,Vila Real,Boticas,Sapiãos,Sapelos (Crasto de Sapelos),41.7151920000712,-7.6075779999627,NC,517.0,2018-04-22T21:00,13.6,87,11.5,13.3,0.0,0.0,0.0,0.0,1,1017.1,956.7,23,0,7,62,0.0,0.2,5.2,13.5,335,351,12.2,14.5,14.8,10.9,8.3,0.337,0.348,0.386,0.368,0,0.0,0.0,0.0,0.0,0.0,0.0,0.0,0.0,0.0,0.0,0.0,0.0,0.0,Magnoliopsida; Tracheophyta; Vitis vinifera L.
2018,2018-04-23,Vila Real,Valpaços,Vales,Zebras (Vale dos Sapateiros),41.4727920002408,-7.39424699995253,Reacendimento,651.0,2018-04-23T15:00,22.3,53,12.2,22.9,0.0,0.0,0.0,0.0,0,1016.1,942.9,14,5,3,24,0.49,1.27,8.7,10.5,85,84,23.0,20.9,14.7,11.2,8.6,0.367,0.374,0.382,0.355,1,3600.0,698.7,576.5,122.2,798.5,698.7,977.3,749.0,618.0,131.0,798.5,749.0,1047.6,Pinales; Magnoliopsida; Pinus pinaster Aiton; Tracheophyta
2018,2018-04-23,Vila Real,Ribeira de Pena,Ribeira de Pena (Salvador),Reboriça (Quinta do Cascudo),41.5256769996219,-7.81406499968635,Reacendimento,392.0,2018-04-23T18:00,20.8,73,15.8,22.3,0.0,0.0,0.0,0.0,1,1016.1,971.0,27,3,27,28,0.11,0.66,3.5,6.4,24,27,20.2,20.1,16.4,12.0,9.1,0.332,0.353,0.381,0.42,1,3600.0,116.8,53.3,63.4,221.6,116.8,325.8,162.0,74.0,88.0,221.6,162.0,452.0,Tracheophyta; Eucalyptus L'Hér.; Magnoliopsida
2018,2018-04-24,Vila Real,Vila Real,Campeã,COTORINHO (Ribeira do Osso),41.2707569999165,-7.87603800031874,Desconhecida,734.0,2018-04-24T16:00,23.3,45,10.5,22.8,0.0,0.0,0.0,0.0,1,1014.9,933.2,29,0,46,4,0.38,1.58,5.2,6.6,326,331,15.1,21.3,15.3,10.6,7.4,0.335,0.349,0.375,0.418,1,3600.0,509.4,386.9,122.4,652.4,509.4,802.4,570.0,433.0,137.0,652.4,570.0,897.9,Pinus pinaster Aiton; Magnoliopsida
2018,2018-04-24,Vila Real,Vila Pouca de Aguiar,Vreia de Jales,Quinta Jales (Fonte Fria),41.4182829999924,-7.62201200008392,Desconhecida,870.0,2018-04-24T15:00,22.1,47,10.2,22.3,0.0,0.0,0.0,0.0,0,1016.0,919.6,18,0,29,1,0.47,1.41,6.2,7.8,21,22,18.0,20.3,14.3,10.1,7.1,0.36,0.37,0.386,0.414,1,3600.0,672.1,545.1,126.9,751.3,672.1,981.7,720.0,584.0,136.0,751.3,720.0,1051.7,Quercus L.; Magnoliopsida; Tracheophyta
2018,2018-02-06,Vila Real,Chaves,Redondelo,Casas Novas (Casa do Guarda Florestal),41.7247700002458,-7.56899499999152,NC,593.0,2018-02-06T15:00,4.6,57,-3.2,-0.9,0.0,0.0,0.0,0.0,3,1016.9,945.8,100,94,68,1,0.14,0.36,19.6,27.9,354,353,42.5,4.7,3.1,6.2,9.5,0.325,0.337,0.338,0.294,1,3600.0,322.0,193.0,129.0,460.8,322.0,589.4,357.0,214.0,143.0,460.8,357.0,653.4,Magnoliopsida; Pinus pinaster Aiton; Tracheophyta
2018,2018-04-25,Vila Real,Ribeira de Pena,Santo Aleixo de Além-tâmega,SANTO ALEIXO DE ALÉM TÂMEGA (Vale da Lança),41.5434320004781,-7.81546699947781,Reacendimento,423.0,2018-04-25T15:00,25.0,47,12.8,26.6,0.0,0.0,0.0,0.0,0,1016.8,968.9,0,0,0,0,0.54,1.69,5.7,6.7,342,344,17.6,23.3,16.9,12.6,9.1,0.303,0.337,0.374,0.418,1,3600.0,748.4,642.8,105.6,880.7,748.4,987.0,801.0,688.0,113.0,880.7,801.0,1056.3,Magnoliopsida; Tracheophyta; Eucalyptus L'Hér.; Pinus pinaster Aiton
2018,2018-04-25,Vila Real,Ribeira de Pena,Ribeira de Pena (Salvador),ESTERRADOURO (Ribeiro da Carvalha Seca),41.5221330001619,-7.82391200012631,Reacendimento,392.0,2018-04-25T16:00,24.0,49,12.7,24.0,0.0,0.0,0.0,0.0,0,1016.6,972.0,0,0,0,0,0.45,1.52,10.7,14.2,20,21,27.4,23.3,17.4,12.8,9.3,0.301,0.336,0.374,0.418,1,3600.0,593.9,500.0,93.9,839.9,593.9,804.9,664.0,559.0,105.0,839.9,664.0,899.9,Magnoliopsida; Eucalyptus L'Hér.; Pinus pinaster Aiton; Tracheophyta
2018,2018-04-25,Vila Real,Vila Real,Folhadela,Vilalva (Quinta da Lama),41.2894180001153,-7.72844200028314,Desconhecida,436.0,2018-04-25T16:00,24.9,47,12.9,24.8,0.0,0.0,0.0,0.0,0,1016.0,966.7,0,0,0,0,0.45,1.66,10.4,14.0,2,360,24.8,23.8,18.2,13.3,9.8,0.322,0.34,0.379,0.387,1,3600.0,583.3,488.6,94.7,823.8,583.3,802.0,653.0,547.0,106.0,823.8,653.0,897.8,Pinales; Magnoliopsida; Vitis vinifera L.; Pinus pinaster Aiton; Tracheophyta
2018,2018-02-06,Vila Real,Vila Real,Mondrões,Galegos da Serra (Boucinhas),41.3197199998962,-7.79844200028313,NC,674.0,2018-02-06T16:00,4.3,53,-4.4,-0.5,0.0,0.0,0.0,0.0,1,1016.1,935.8,44,31,26,1,0.12,0.39,13.8,21.7,353,355,43.2,4.3,3.0,6.2,9.5,0.363,0.369,0.381,0.334,1,3600.0,234.2,140.5,93.7,466.4,234.2,423.8,285.0,171.0,114.0,466.4,285.0,515.8,Magnoliopsida; Pinus pinaster Aiton
2018,2018-04-25,Vila Real,Boticas,Beça,Lavradas (Fonte Madruga),41.698363000022,-7.74897199948629,NC,959.0,2018-04-25T16:00,17.1,62,9.7,14.6,0.0,0.0,0.0,0.0,0,1018.4,910.8,0,0,0,0,0.36,0.74,20.6,29.1,348,348,49.0,19.2,14.5,9.7,6.2,0.327,0.35,0.378,0.418,1,3600.0,597.4,504.4,93.0,849.8,597.4,802.5,668.0,564.0,104.0,849.8,668.0,897.4,Pinus pinaster Aiton; Magnoliopsida; Tracheophyta
2018,2018-04-26,Vila Real,Ribeira de Pena,Cerva,Alvite (Redondo),41.4770449998644,-7.83249300003052,Reacendimento,645.0,2018-04-26T13:00,20.0,57,11.1,22.3,0.0,0.0,0.0,0.0,0,1017.0,943.9,0,0,0,0,0.58,1.01,3.5,4.4,66,81,21.6,19.5,14.1,11.7,8.0,0.298,0.33,0.369,0.416,1,3600.0,922.2,800.8,121.4,913.1,922.2,1185.3,927.0,805.0,122.0,913.1,927.0,1191.5,Magnoliopsida; Pinus pinaster Aiton; Tracheophyta
2018,2018-04-26,Vila Real,Vila Real,Torgueda,MENESES,41.270365000036,-7.81941199991438,Desconhecida,757.0,2018-04-26T13:00,18.5,59,10.4,19.7,0.0,0.0,0.0,0.0,0,1017.4,931.8,0,0,0,0,0.53,0.87,7.9,9.7,137,129,27.7,18.7,14.2,11.3,7.4,0.307,0.324,0.364,0.416,1,3600.0,916.1,791.8,124.3,901.1,916.1,1187.5,921.0,796.0,125.0,901.1,921.0,1193.8,Magnoliopsida; Vitis vinifera L.; Pinus pinaster Aiton; Tracheophyta
2018,2018-04-26,Vila Real,Santa Marta de Penaguião,Sanhoane,TRAVASSINHOS (Ribeira dos Lagares),41.1966149997711,-7.80407700008816,Desconhecida,253.0,2018-04-26T13:00,21.9,57,13.0,23.9,0.0,0.0,0.0,0.0,0,1017.0,987.7,0,0,0,0,0.57,1.13,7.2,9.7,117,117,30.6,21.6,17.1,14.3,10.5,0.295,0.327,0.368,0.416,1,3600.0,898.6,763.3,135.3,867.7,898.6,1188.9,903.0,767.0,136.0,867.7,903.0,1194.6,Vitis vinifera L.; Magnoliopsida; Pinus pinaster Aiton
2018,2018-04-26,Vila Real,Vila Real,Lordelo,RUA DOS MOINHOS (Moinhos),41.3304249996609,-7.77053800000085,Desconhecida,660.0,2018-04-26T17:00,20.1,60,12.1,18.8,0.0,0.0,0.0,0.0,0,1014.8,940.2,11,10,3,0,0.29,0.94,13.2,18.5,259,263,34.6,20.4,16.1,12.0,8.1,0.302,0.322,0.363,0.416,1,3600.0,393.6,305.9,87.8,708.7,393.6,583.2,471.0,366.0,105.0,708.7,471.0,697.9,Magnoliopsida; Tracheophyta; Pinus pinaster Aiton
2018,2018-04-26,Vila Real,Vila Real,Ermida,Povoação,41.2202119999462,-7.74878200001187,Desconhecida,362.0,2018-04-26T20:00,15.9,81,12.7,15.4,0.0,0.0,0.0,0.0,0,1015.2,972.9,1,1,0,0,0.03,0.34,9.4,22.0,263,272,30.2,18.9,18.0,13.7,9.9,0.299,0.321,0.366,0.366,0,0.0,0.0,0.0,0.0,0.0,0.0,0.0,3.0,1.0,2.0,15.7,3.0,27.2,Vitis vinifera L.; Olea europaea L.; Pinales; Magnoliopsida; Pinus pinaster Aiton
2018,2018-04-27,Vila Real,Ribeira de Pena,Cerva,Alvite (Pedreira),41.4701530000899,-7.83630499998728,Reacendimento,421.0,2018-04-27T13:00,14.3,54,5.2,13.1,0.0,0.0,0.0,0.0,1,1016.7,967.3,34,38,0,0,0.42,0.75,10.1,12.6,276,275,29.2,16.6,14.4,13.2,9.3,0.286,0.321,0.37,0.416,1,3600.0,799.1,551.3,247.8,626.1,799.1,1189.5,803.0,554.0,249.0,626.1,803.0,1195.2,Magnoliopsida; Tracheophyta; Pinus pinaster Aiton
2018,2018-04-27,Vila Real,Alijó,Castedo,Serra de São Domingos (Vale de Lousas),41.2277880001068,-7.47404799991184,Desconhecida,654.0,2018-04-27T14:00,14.8,59,6.8,13.4,0.0,0.0,0.0,0.0,1,1015.3,940.0,21,23,0,0,0.41,0.69,14.0,18.4,258,259,37.4,17.7,14.1,12.3,8.1,0.268,0.3,0.371,0.352,1,3600.0,790.5,598.5,192.1,721.5,790.5,1120.4,819.0,620.0,199.0,721.5,819.0,1160.7,Olea europaea L.; Magnoliopsida; Vitis vinifera L.; Pinus pinaster Aiton; Tracheophyta
2018,2018-04-28,Vila Real,Ribeira de Pena,Ribeira de Pena (Salvador),REBORIÇA (RIBEIRA DE PENA),41.5214100000593,-7.80616799990336,Desconhecida,514.0,2018-04-28T16:00,9.9,69,4.4,6.9,0.8,0.8,0.0,0.0,53,1010.3,949.9,59,20,42,52,0.19,0.38,11.4,15.5,252,252,42.8,14.6,12.9,12.4,8.7,0.314,0.315,0.362,0.415,1,3600.0,368.2,206.0,162.1,341.7,368.2,814.1,411.0,230.0,181.0,341.7,411.0,908.8,Tracheophyta; Eucalyptus L'Hér.; Magnoliopsida; Vitis vinifera L.; Pinus pinaster Aiton
2018,2018-05-05,Vila Real,Vila Pouca de Aguiar,Vreia de Bornes,SOUTELINHO DO MONTE (Albardeira),41.5733950000339,-7.57486299991608,Desconhecida,638.0,2018-05-05T13:00,18.4,52,8.3,18.6,0.0,0.0,0.0,0.0,0,1016.6,943.9,0,0,0,0,0.54,1.02,10.9,14.3,99,100,36.0,17.6,12.0,10.7,8.7,0.279,0.317,0.356,0.367,1,3600.0,934.4,810.1,124.3,903.3,934.4,1206.5,940.0,815.0,125.0,903.3,940.0,1213.8,Magnoliopsida; Pinales; Pinus pinaster Aiton; Quercus L.; Tracheophyta
2018,2018-05-05,Vila Real,Alijó,Pópulo,POPULO (Pópulo),41.3755669996474,-7.4999449994829,Reacendimento,712.0,2018-05-05T14:00,18.4,50,7.7,18.7,0.0,0.0,0.0,0.0,0,1016.2,935.5,0,0,0,0,0.53,1.06,8.3,10.5,85,82,26.6,17.8,12.2,10.7,8.8,0.278,0.298,0.344,0.339,1,3600.0,874.5,753.7,120.8,889.7,874.5,1139.6,905.0,780.0,125.0,889.7,905.0,1179.4,Pinus pinaster Aiton; Tracheophyta; Magnoliopsida
2018,2018-05-06,Vila Real,Vila Real,Campeã,MONTES,41.2669200000001,-7.87728999985589,Desconhecida,781.0,2018-05-06T12:00,18.9,57,10.1,19.8,0.0,0.0,0.0,0.0,0,1016.2,928.2,1,0,1,0,0.53,0.95,8.7,11.0,128,122,25.6,17.3,12.2,10.1,7.9,0.298,0.316,0.344,0.407,1,3600.0,918.7,777.7,141.0,861.0,918.7,1214.5,899.0,761.0,138.0,861.0,899.0,1188.4,Pinus pinaster Aiton; Magnoliopsida; Olea europaea L.
2018,2018-05-06,Vila Real,Vila Pouca de Aguiar,Telões,Castelo (Chão do Mouco),41.4678779999415,-7.6848529999786,Desconhecida,910.0,2018-05-06T12:00,18.0,60,10.0,18.8,0.0,0.0,0.0,0.0,0,1016.5,914.5,0,0,0,0,0.51,0.84,8.6,10.8,105,105,23.8,16.9,11.6,9.6,7.6,0.309,0.325,0.354,0.407,1,3600.0,911.4,760.2,151.2,842.4,911.4,1213.3,892.0,744.0,148.0,842.4,892.0,1187.5,Quercus L.; Castanea sativa Mill.; Pinales; Magnoliopsida; Pinus pinaster Aiton
2018,2018-05-06,Vila Real,Mesão Frio,Mesão Frio (Santa Cristina),ROJÃO (Rojão do Meio),41.1722570000754,-7.88887699974908,Desconhecida,470.0,2018-05-06T13:00,21.4,54,11.7,22.9,0.0,0.0,0.0,0.0,0,1015.5,961.9,2,0,3,0,0.54,1.17,6.7,8.8,74,78,28.1,19.4,13.7,11.6,9.5,0.294,0.311,0.345,0.402,1,3600.0,855.3,705.2,150.2,781.3,855.3,1213.5,860.0,709.0,151.0,781.3,860.0,1220.1,Eucalyptus L'Hér.; Vitis vinifera L.; Pinus pinaster Aiton; Magnoliopsida; Pinales
2018,2018-05-06,Vila Real,Peso da Régua,Sedielos,PAÇOS (Passos),41.186875,-7.8767550002204,Desconhecida,761.0,2018-05-06T16:00,20.5,47,8.8,19.8,0.0,0.0,0.0,0.0,0,1014.1,928.9,11,0,18,0,0.33,1.27,2.2,2.6,351,344,16.2,18.6,13.0,9.8,7.6,0.29,0.31,0.344,0.402,1,3600.0,471.9,342.5,129.4,550.1,471.9,837.1,525.0,381.0,144.0,550.1,525.0,931.3,Pinales; Tracheophyta; Magnoliopsida; Quercus L.; Vitis vinifera L.; Eucalyptus L'Hér.; Pinus pinaster Aiton
2018,2018-05-06,Vila Real,Murça,Valongo de Milhais,Parque de Merendas de Serapicos,41.4530419998699,-7.40589999993642,Desconhecida,711.0,2018-05-06T17:00,20.6,51,10.2,20.0,0.0,0.0,0.0,0.0,1,1014.5,934.6,23,8,26,0,0.27,1.18,4.9,5.6,163,165,15.8,20.2,15.2,11.2,9.0,0.267,0.297,0.342,0.355,1,3600.0,359.7,263.4,96.2,579.3,359.7,611.4,426.0,312.0,114.0,579.3,426.0,724.1,Magnoliopsida; Pinus pinaster Aiton; Castanea sativa Mill.; Olea europaea L.; Pinales; Tracheophyta; Eucalyptus L'Hér.; Vitis vinifera L.; ; Quercus L.
