year,date,district,municipality,parish,local,latitude,longitude,cause,elevation,hourly.time,hourly.temperature_2m,hourly.relative_humidity_2m,hourly.dew_point_2m,hourly.apparent_temperature,hourly.precipitation,hourly.rain,hourly.snowfall,hourly.snow_depth,hourly.weather_code,hourly.pressure_msl,hourly.surface_pressure,hourly.cloud_cover,hourly.cloud_cover_low,hourly.cloud_cover_mid,hourly.cloud_cover_high,hourly.et0_fao_evapotranspiration,hourly.vapour_pressure_deficit,hourly.wind_speed_10m,hourly.wind_speed_100m,hourly.wind_direction_10m,hourly.wind_direction_100m,hourly.wind_gusts_10m,hourly.soil_temperature_0_to_7cm,hourly.soil_temperature_7_to_28cm,hourly.soil_temperature_28_to_100cm,hourly.soil_temperature_100_to_255cm,hourly.soil_moisture_0_to_7cm,hourly.soil_moisture_7_to_28cm,hourly.soil_moisture_28_to_100cm,hourly.soil_moisture_100_to_255cm,hourly.is_day,hourly.sunshine_duration,hourly.shortwave_radiation_instant,hourly.direct_radiation_instant,hourly.diffuse_radiation_instant,hourly.direct_normal_irradiance_instant,hourly.global_tilted_irradiance_instant,hourly.terrestrial_radiation_instant,hourly.shortwave_radiation,hourly.direct_radiation,hourly.diffuse_radiation,hourly.direct_normal_irradiance,hourly.global_tilted_irradiance,hourly.terrestrial_radiation,scientificNames
2018,2018-10-03,Porto,Baião,Ancede,Duas Igrejas (Cimo de Vila),41.1041700000233,-8.04908800019158,Desconhecida,420.0,2018-10-03T00:00,15.6,38,1.3,11.8,0.0,0.0,0.0,0.0,0,1022.4,973.1,0,0,0,0,0.09,1.1,13.1,24.4,111,104,36.7,15.6,20.5,21.2,19.9,0.131,0.155,0.225,0.341,0,0.0,0.0,0.0,0.0,0.0,0.0,0.0,0.0,0.0,0.0,0.0,0.0,0.0,Magnoliopsida; Pinus pinaster Aiton; Tracheophyta; Vitis vinifera L.; Quercus suber L.; Acacia Mill.; Eucalyptus L'Hér.; Quercus L.; 
2018,2018-10-03,Porto,Maia,Maia,SOUTO (Travessa do Souto),41.2299590004815,-8.63232199986776,NC,59.0,2018-10-03T00:00,20.8,25,-0.1,15.9,0.0,0.0,0.0,0.0,0,1021.1,1014.1,0,0,0,0,0.18,1.84,18.4,36.2,96,100,28.4,17.9,21.4,21.2,20.3,0.137,0.159,0.245,0.331,0,0.0,0.0,0.0,0.0,0.0,0.0,0.0,0.0,0.0,0.0,0.0,0.0,0.0,Tracheophyta; Magnoliopsida; Pinus pinaster Aiton
2018,2018-10-03,Porto,Matosinhos,Custóias,Viela Candida dos Reis (Rua António Ferro),41.1996140003204,-8.65489099979401,NC,68.0,2018-10-03T02:00,20.3,26,-0.0,14.6,0.0,0.0,0.0,0.0,0,1021.0,1013.0,0,0,0,0,0.22,1.77,24.2,44.0,93,94,40.7,18.3,21.0,21.1,20.2,0.137,0.159,0.245,0.331,0,0.0,0.0,0.0,0.0,0.0,0.0,0.0,0.0,0.0,0.0,0.0,0.0,0.0,Tracheophyta; Magnoliopsida
2018,2018-10-03,Porto,Vila Nova de Gaia,Vilar de Andorinho,Monte da Virgem (Viela do Monte da Virgem),41.1046400001314,-8.58668700006273,NC,216.0,2018-10-03T03:00,16.4,36,1.3,12.0,0.0,0.0,0.0,0.0,0,1021.4,995.8,0,0,0,0,0.12,1.19,16.7,32.7,65,76,30.6,16.5,20.7,21.3,20.3,0.134,0.158,0.236,0.332,0,0.0,0.0,0.0,0.0,0.0,0.0,0.0,0.0,0.0,0.0,0.0,0.0,0.0,Tracheophyta; Magnoliopsida; Pinus pinaster Aiton; Pinus pinea L.
2018,2018-10-03,Porto,Marco de Canaveses,Freixo,Lg. Moinho (Fontes),41.1622280004289,-8.15741999997033,Desconhecida,236.0,2018-10-03T03:00,16.3,34,0.3,12.4,0.0,0.0,0.0,0.0,0,1022.0,994.0,0,0,0,0,0.1,1.23,12.9,30.3,77,88,28.8,15.5,20.6,21.8,20.5,0.109,0.15,0.233,0.322,0,0.0,0.0,0.0,0.0,0.0,0.0,0.0,0.0,0.0,0.0,0.0,0.0,0.0,Eucalyptus L'Hér.; Tracheophyta; Pinus pinaster Aiton; Magnoliopsida; Vitis vinifera L.; ; Castanea sativa Mill.; Acacia Mill.; Quercus L.
2018,2018-02-25,Porto,Marco de Canaveses,Freixo,franqueira (Covas de Baixo),41.1531699999173,-8.1485749997033,Desconhecida,266.0,2018-02-25T17:00,14.1,54,5.0,12.3,0.0,0.0,0.0,0.0,0,1010.8,979.4,0,0,0,0,0.14,0.74,4.4,8.2,9,23,10.4,12.5,8.4,8.7,10.6,0.318,0.343,0.376,0.352,1,3600.0,208.2,157.6,50.6,691.2,208.2,318.5,284.0,215.0,69.0,691.2,284.0,434.3,Eucalyptus L'Hér.; Tracheophyta; Pinus pinaster Aiton; Magnoliopsida; Vitis vinifera L.; ; Quercus L.
2018,2018-10-03,Porto,Maia,Águas Santas,DOM AFONSO HENRIQUES (Mirante),41.2134719996982,-8.56409999953376,NC,118.0,2018-10-03T05:00,17.2,35,1.6,11.8,0.0,0.0,0.0,0.0,0,1021.6,1007.5,0,0,0,0,0.17,1.27,24.1,43.6,88,89,43.6,18.2,21.4,22.1,21.0,0.112,0.176,0.263,0.325,0,0.0,0.0,0.0,0.0,0.0,0.0,0.0,0.0,0.0,0.0,0.0,0.0,0.0,Tracheophyta; Pinus pinaster Aiton; Magnoliopsida; Eucalyptus L'Hér.; 
2018,2018-10-03,Porto,Vila Nova de Gaia,Vilar de Andorinho,Lg. Vila d´Este (Rua da Quinta da Serpente),41.0985249996185,-8.59403299967448,NC,151.0,2018-10-03T06:00,15.7,42,2.9,10.5,0.0,0.0,0.0,0.0,0,1021.0,1003.0,0,0,0,0,0.14,1.03,24.1,41.0,73,77,43.6,17.0,20.1,20.6,19.7,0.136,0.176,0.261,0.341,0,0.0,0.0,0.0,0.0,0.0,0.0,0.0,0.0,0.0,0.0,0.0,0.0,0.0,Tracheophyta; Magnoliopsida; Pinus pinaster Aiton; Pinus pinea L.
2018,2018-10-03,Porto,Paredes,Recarei,ALEM RIO (Além do Rio),41.1466719998254,-8.41141500049167,NC,117.0,2018-10-03T07:00,15.3,41,2.0,11.1,0.0,0.0,0.0,0.0,0,1022.4,1008.3,0,0,0,0,0.12,1.03,16.4,30.2,64,75,32.0,16.9,21.1,22.5,21.2,0.132,0.137,0.202,0.325,1,0.0,19.7,7.4,12.3,84.7,8.2,104.6,8.0,3.0,5.0,40.2,8.0,42.5,Magnoliopsida; Pinus pinaster Aiton; Eucalyptus L'Hér.; Tracheophyta; Vitis vinifera L.
2018,2018-10-03,Porto,Paredes,Sobreira,AGUIM (Aguins),41.1577170001136,-8.39708200030857,NC,154.0,2018-10-03T07:00,15.0,41,1.8,10.8,0.0,0.0,0.0,0.0,0,1022.4,1003.9,0,0,0,0,0.12,1.02,16.4,30.2,64,75,32.0,16.6,20.8,22.3,21.0,0.132,0.137,0.202,0.325,1,0.0,19.7,7.4,12.3,84.7,8.2,104.6,8.0,3.0,5.0,40.2,8.0,42.5,Magnoliopsida; Pinus pinaster Aiton; Eucalyptus L'Hér.; Tracheophyta; Vitis vinifera L.
2018,2018-10-03,Porto,Vila Nova de Gaia,Sandim,LG. Linhares (Travessa da Teixugueira),41.0245269997915,-8.50126499997245,NC,161.0,2018-10-03T07:00,15.4,40,1.7,11.6,0.0,0.0,0.0,0.0,0,1021.5,1002.2,0,0,0,0,0.11,1.05,13.3,26.3,77,94,23.0,16.4,20.7,21.9,20.7,0.137,0.157,0.23,0.331,1,0.0,17.3,7.4,9.9,85.0,7.1,103.2,7.0,3.0,4.0,40.5,7.0,41.8,Tracheophyta; Eucalyptus L'Hér.; Quercus L.; Magnoliopsida
2018,2018-10-03,Porto,Santo Tirso,Monte Córdova,Monte Padrão (Quinta de Linhares),41.3167249999982,-8.44729500028822,NC,359.0,2018-10-03T08:00,16.0,36,0.9,10.8,0.0,0.0,0.0,0.0,0,1022.9,980.6,0,0,0,0,0.18,1.17,22.3,38.9,92,93,47.2,16.1,19.7,21.3,20.0,0.099,0.158,0.246,0.324,1,3600.0,194.3,126.4,67.8,480.8,194.3,359.3,126.0,82.0,44.0,480.8,126.0,233.0,Pinus pinaster Aiton; Tracheophyta; Eucalyptus L'Hér.; Vitis vinifera L.; Magnoliopsida
2018,2018-10-03,Porto,Marco de Canaveses,Paredes de Viadores,Lug. Monte (Poças do Monte),41.1237170002196,-8.1249700000551,Desconhecida,467.0,2018-10-03T09:00,17.9,35,2.2,13.6,0.0,0.0,0.0,0.0,0,1023.2,968.9,0,0,0,0,0.25,1.33,17.3,26.6,102,103,49.3,16.6,18.7,20.8,19.6,0.131,0.155,0.225,0.341,1,3600.0,390.8,303.6,87.3,700.0,390.8,592.6,318.0,247.0,71.0,700.0,318.0,482.1,Magnoliopsida; Pinus pinaster Aiton; Eucalyptus L'Hér.; Tracheophyta; Vitis vinifera L.; 
2018,2018-10-03,Porto,Maia,Pedrouços,Bouça das Pretas (Travessa da Cabine),41.1906430000729,-8.5867430000835,NC,148.0,2018-10-03T10:00,21.9,31,3.9,17.3,0.0,0.0,0.0,0.0,0,1022.2,1004.9,0,0,0,0,0.39,1.82,21.6,31.3,88,89,45.0,19.7,19.7,20.4,19.5,0.147,0.171,0.257,0.338,1,3600.0,547.5,448.2,99.3,797.1,547.5,768.3,485.0,397.0,88.0,797.1,485.0,680.6,Tracheophyta; Magnoliopsida; 
2018,2018-10-03,Porto,Marco de Canaveses,Banho e Carvalhosa,Lug. Bouças (Bouças),41.244902999666,-8.15973699993557,Desconhecida,290.0,2018-10-03T10:00,19.7,31,2.3,15.0,0.0,0.0,0.0,0.0,0,1023.5,989.6,0,0,0,0,0.36,1.58,20.2,29.7,95,96,52.6,19.0,19.8,21.9,20.6,0.112,0.158,0.241,0.328,1,3600.0,548.6,452.9,95.8,801.0,548.6,772.6,487.0,402.0,85.0,801.0,487.0,685.8,Tracheophyta; Pinus pinaster Aiton; Magnoliopsida; Vitis vinifera L.; Eucalyptus L'Hér.; 
2018,2018-10-03,Porto,Felgueiras,Pedreira,COTO (Moinho),41.3381799999873,-8.20724800003899,Desconhecida,267.0,2018-10-03T10:00,21.9,31,4.2,18.1,0.0,0.0,0.0,0.0,0,1023.5,992.4,0,0,0,0,0.37,1.81,16.9,23.1,88,88,37.4,19.5,20.1,22.2,20.8,0.104,0.148,0.229,0.322,1,3600.0,546.4,450.7,95.8,799.4,546.4,770.4,485.0,400.0,85.0,799.4,485.0,683.7,Tracheophyta; Magnoliopsida; Vitis vinifera L.; Eucalyptus L'Hér.
2018,2018-10-03,Porto,Paredes,Sobreira,Lug. Monte de Cima (Aguins),41.1597689999474,-8.39859699991014,NC,147.0,2018-10-03T11:00,24.0,26,3.4,20.6,0.0,0.0,0.0,0.0,0,1022.8,1005.7,0,0,0,0,0.47,2.2,15.6,20.5,71,75,37.4,22.0,20.6,22.3,21.0,0.131,0.137,0.202,0.325,1,3600.0,663.9,562.3,101.6,856.6,663.9,897.1,621.0,526.0,95.0,856.6,621.0,839.1,Magnoliopsida; Pinus pinaster Aiton; Eucalyptus L'Hér.; Tracheophyta; Vitis vinifera L.
2018,2018-10-03,Porto,Penafiel,Fonte Arcada,Lg. Calvário (Ordem),41.1467260000441,-8.36303400039673,NC,197.0,2018-10-03T11:00,23.7,26,3.1,20.2,0.0,0.0,0.0,0.0,0,1022.8,999.9,0,0,0,0,0.47,2.16,15.6,20.5,71,75,37.4,21.7,20.3,22.0,20.7,0.131,0.137,0.202,0.325,1,3600.0,663.9,562.3,101.6,856.6,663.9,897.1,621.0,526.0,95.0,856.6,621.0,839.1,Magnoliopsida; Eucalyptus L'Hér.; Vitis vinifera L.; Tracheophyta
2018,2018-10-03,Porto,Gondomar,Lomba,Lugar do Portal (Portal),41.032261999978,-8.40549499988556,Reacendimento,191.0,2018-10-03T11:00,26.2,26,5.2,24.6,0.0,0.0,0.0,0.0,0,1022.4,1000.4,0,0,0,0,0.43,2.51,5.8,7.8,90,103,21.2,23.0,20.6,22.3,21.0,0.104,0.156,0.235,0.321,1,3600.0,667.1,566.6,100.5,860.8,667.1,899.5,624.0,530.0,94.0,860.8,624.0,841.4,Magnoliopsida; Eucalyptus L'Hér.; Vitis vinifera L.; Pinus pinaster Aiton; Tracheophyta; 
2018,2018-10-03,Porto,Paços de Ferreira,Sanfins de Ferreira,Varzea (Várzea),41.3105120001899,-8.36250500043233,Desconhecida,331.0,2018-10-03T12:00,24.5,25,3.3,21.3,0.0,0.0,0.0,0.0,0,1022.5,984.5,0,0,0,0,0.53,2.31,16.9,22.5,106,106,42.8,23.2,19.9,21.4,20.2,0.101,0.157,0.245,0.324,1,3600.0,718.6,615.9,102.7,881.1,718.6,955.3,700.0,600.0,100.0,881.1,700.0,930.6,Tracheophyta
2018,2018-10-03,Porto,Póvoa de Varzim,Terroso,FOJO (Pedreiras do Fojo),41.4072029998567,-8.72140199979146,Reacendimento,93.0,2018-10-03T12:00,27.2,25,5.4,24.9,0.0,0.0,0.0,0.0,0,1021.9,1011.2,0,0,0,0,0.54,2.7,13.4,17.8,110,111,33.1,24.0,20.1,21.0,20.2,0.114,0.166,0.235,0.317,1,3600.0,716.0,612.3,103.8,878.5,716.0,952.4,697.0,596.0,101.0,878.5,697.0,927.1,Eucalyptus L'Hér.; Tracheophyta; Pinus pinaster Aiton
2018,2018-10-03,Porto,Maia,Avioso (Santa Maria),DIAGONAL (Ribeira do Arquinho),41.2596079995897,-8.60581299993727,NC,82.0,2018-10-03T14:00,27.4,23,4.3,26.2,0.0,0.0,0.0,0.0,0,1020.7,1011.2,0,0,0,0,0.48,2.82,5.2,5.6,254,243,17.3,26.9,20.9,21.0,20.2,0.136,0.157,0.244,0.331,1,3600.0,657.9,560.8,97.1,879.4,657.9,871.4,691.0,589.0,102.0,879.4,691.0,915.3,Tracheophyta; Magnoliopsida
2018,2018-10-03,Porto,Felgueiras,Margaride (Santa Eulália),MONTE SANTA QUITERIA (Quinta de Samoca),41.3743319998847,-8.19931200027466,Desconhecida,387.0,2018-10-03T14:00,26.9,22,3.3,24.9,0.0,0.0,0.0,0.0,0,1021.2,977.4,0,0,0,0,0.5,2.78,8.9,11.2,133,130,27.4,26.3,20.0,21.4,20.0,0.106,0.147,0.228,0.322,1,3600.0,646.5,553.3,93.2,873.6,646.5,865.6,680.0,582.0,98.0,873.6,680.0,910.5,Magnoliopsida; Eucalyptus L'Hér.; Tracheophyta; Pinus pinaster Aiton
2018,2018-10-03,Porto,Matosinhos,Custóias,CÂndido Reis (Rua João Paulo II),41.2030669999123,-8.6516950000657,NC,82.0,2018-10-03T14:00,27.4,23,4.3,26.2,0.0,0.0,0.0,0.0,0,1020.7,1011.2,0,0,0,0,0.48,2.82,5.2,5.6,254,243,17.3,26.9,20.9,21.0,20.2,0.136,0.157,0.244,0.331,1,3600.0,657.9,560.8,97.1,879.4,657.9,871.4,691.0,589.0,102.0,879.4,691.0,915.3,Magnoliopsida; Tracheophyta
2018,2018-10-03,Porto,Santo Tirso,Lamelas,R RIO 450 REFOJOS_RIBA_AVE CARREIRA_REFOJOS_RIBA_AVE PRT#SANTO_TIRSO 4825-330: ESTE (Forjães),41.2918930000729,-8.46516500049167,NC,146.0,2018-10-03T15:00,28.8,21,4.5,27.3,0.0,0.0,0.0,0.0,0,1020.4,1003.7,0,0,0,0,0.39,3.11,2.3,2.8,231,230,16.6,27.4,21.4,21.7,20.6,0.146,0.164,0.235,0.33,1,3600.0,532.0,448.6,83.4,841.5,532.0,728.6,587.0,495.0,92.0,841.5,587.0,803.9,Tracheophyta; Pinus pinaster Aiton; Eucalyptus L'Hér.; Vitis vinifera L.; Magnoliopsida
2018,2018-10-03,Porto,Paredes,Recarei,Largo do Rochão (Aguins),41.1584680000941,-8.40605700016022,NC,133.0,2018-10-03T15:00,28.8,22,5.0,27.3,0.0,0.0,0.0,0.0,0,1020.2,1005.0,0,0,0,0,0.41,3.09,3.9,4.4,22,35,17.6,28.5,21.6,22.4,21.1,0.133,0.136,0.201,0.325,1,3600.0,531.7,448.4,83.3,840.9,531.7,728.8,587.0,495.0,92.0,840.9,587.0,804.5,Magnoliopsida; Pinus pinaster Aiton; Eucalyptus L'Hér.; Tracheophyta; Vitis vinifera L.
2018,2018-10-03,Porto,Felgueiras,Idães,SENHORA SAUDE (Polvoreira),41.3222229999966,-8.2586720000373,Reacendimento,384.0,2018-10-03T15:00,26.8,20,1.9,24.3,0.0,0.0,0.0,0.0,0,1020.7,977.2,0,0,0,0,0.42,2.82,6.2,7.5,111,107,23.4,26.7,20.2,21.3,20.0,0.101,0.151,0.239,0.324,1,3600.0,530.6,446.4,84.2,840.7,530.6,725.7,586.0,493.0,93.0,840.7,586.0,801.4,Vitis vinifera L.; Tracheophyta; Eucalyptus L'Hér.; Magnoliopsida
2018,2018-02-25,Porto,Santo Tirso,Monte Córdova,ESPINHEIROS (SENHORA DA ASCENÇÃO),41.3247689999474,-8.44543400022719,NC,456.0,2018-02-25T16:00,12.9,47,1.7,9.8,0.0,0.0,0.0,0.0,0,1010.9,957.6,0,0,0,0,0.23,0.79,8.3,10.8,88,92,22.3,11.1,6.9,7.8,9.4,0.327,0.35,0.384,0.363,1,3600.0,386.7,313.3,73.4,804.8,386.7,543.6,453.0,367.0,86.0,804.8,453.0,636.8,Pinus pinaster Aiton; Tracheophyta; Eucalyptus L'Hér.
2018,2018-10-03,Porto,Matosinhos,Lavra,cavadas (Fontão),41.2589019997915,-8.72139699988895,NC,7.0,2018-10-03T16:00,25.3,32,7.3,22.9,0.0,0.0,0.0,0.0,0,1020.3,1019.5,0,0,0,0,0.35,2.2,11.4,16.1,298,294,22.7,27.6,21.9,21.5,20.6,0.135,0.157,0.243,0.331,1,3600.0,376.0,304.5,71.5,776.3,376.0,536.1,447.0,362.0,85.0,776.3,447.0,637.3,Magnoliopsida; Tracheophyta
2018,2018-10-03,Porto,Baião,Mesquinhata,Cocheca (Santo António),41.1343480000231,-8.10931299951341,Desconhecida,312.0,2018-10-03T16:00,27.2,23,4.1,24.7,0.0,0.0,0.0,0.0,0,1020.5,985.0,0,0,0,0,0.34,2.79,7.6,9.8,65,66,22.0,27.9,21.0,21.9,20.7,0.091,0.152,0.234,0.327,1,3600.0,369.6,300.9,68.7,777.2,369.6,529.1,441.0,359.0,82.0,777.2,441.0,631.3,Magnoliopsida; Tracheophyta; Eucalyptus L'Hér.
2018,2018-10-03,Porto,Santo Tirso,Campo (São Martinho),Lugar do Monte (Outeiro),41.3521499999364,-8.36629000027974,NC,193.0,2018-10-03T17:00,25.6,34,8.5,24.3,0.0,0.0,0.0,0.0,0,1020.5,998.3,0,0,0,0,0.2,2.17,6.4,10.5,286,292,13.3,26.8,21.7,21.8,20.7,0.117,0.168,0.246,0.323,1,3600.0,185.4,138.5,46.9,640.8,185.4,295.4,261.0,195.0,66.0,640.8,261.0,415.9,Magnoliopsida; Tracheophyta; Vitis vinifera L.
2018,2018-10-03,Porto,Vila Nova de Gaia,Oliveira do Douro,LAVANDEIRA (Beco Conde Silva Monteiro),41.1222369999356,-8.58884499973721,NC,101.0,2018-10-03T17:00,23.2,38,8.1,21.2,0.0,0.0,0.0,0.0,0,1020.4,1008.6,0,0,0,0,0.22,1.76,9.8,16.2,336,328,20.2,26.0,21.6,20.9,20.1,0.135,0.173,0.259,0.341,1,3600.0,189.8,142.0,47.8,645.1,189.8,300.8,266.0,199.0,67.0,645.1,266.0,421.6,Magnoliopsida; Tracheophyta
2018,2018-10-03,Porto,Vila do Conde,Vilar,Souto,41.2864640000131,-8.66502699957953,NC,48.0,2018-10-03T17:00,22.9,39,8.4,21.2,0.0,0.0,0.0,0.0,0,1020.4,1014.8,0,0,0,0,0.2,1.69,8.8,13.2,325,315,23.8,26.8,22.0,21.4,20.5,0.106,0.171,0.251,0.325,1,3600.0,190.5,142.0,48.5,647.0,190.5,300.0,267.0,199.0,68.0,647.0,267.0,420.4,Tracheophyta; Eucalyptus L'Hér.
2018,2018-10-03,Porto,Penafiel,Luzim,Campo de Tiro (ED312 (ED312) Km 127),41.1643480004205,-8.24462199952867,NC,327.0,2018-10-03T18:00,26.0,22,2.4,23.8,0.0,0.0,0.0,0.0,0,1020.3,983.0,0,0,0,0,0.06,2.64,3.3,4.0,103,90,11.2,25.4,21.3,21.8,20.6,0.091,0.152,0.234,0.327,1,2668.97,15.2,9.2,6.0,105.3,12.5,30.4,81.0,49.0,32.0,341.2,81.0,162.3,Eucalyptus L'Hér.; Magnoliopsida; Pinus pinaster Aiton; Tracheophyta; Quercus L.; Vitis vinifera L.
2018,2018-10-03,Porto,Penafiel,Galegos,Bairro (Fonte),41.163125,-8.31997700002458,NC,242.0,2018-10-03T18:00,22.3,35,6.1,20.2,0.0,0.0,0.0,0.0,0,1020.1,992.0,0,0,0,0,0.1,1.75,7.2,16.6,307,311,15.1,25.8,21.7,21.7,20.4,0.133,0.136,0.201,0.325,1,2730.77,17.4,10.5,6.9,120.3,14.6,35.0,83.0,50.0,33.0,344.3,83.0,166.8,Eucalyptus L'Hér.; Tracheophyta
2018,2018-10-03,Porto,Gondomar,Medas,Póvoa (Portelinha),41.0590180004968,-8.42447500016954,Desconhecida,126.0,2018-10-03T19:00,19.0,49,8.0,17.0,0.0,0.0,0.0,0.0,0,1020.6,1005.7,0,0,0,0,0.09,1.13,10.2,13.4,8,346,13.3,23.7,22.3,21.9,20.9,0.133,0.156,0.234,0.331,0,0.0,0.0,0.0,0.0,0.0,0.0,0.0,1.0,0.0,1.0,0.0,1.0,8.6,Eucalyptus L'Hér.; Magnoliopsida; Pinus pinaster Aiton; Tracheophyta
2018,2018-10-03,Porto,Baião,Ancede,Cimo de Vila,41.1068499999576,-8.05021199999584,Desconhecida,472.0,2018-10-03T18:00,24.5,26,3.8,22.8,0.0,0.0,0.0,0.0,0,1020.6,967.1,0,0,0,0,0.04,2.28,1.8,2.9,360,30,12.6,24.3,20.5,20.7,19.5,0.131,0.152,0.223,0.341,1,2669.81,15.1,9.2,6.0,105.1,12.5,30.4,81.0,49.0,32.0,341.0,81.0,162.4,Magnoliopsida; Pinus pinaster Aiton; Tracheophyta; Vitis vinifera L.; Quercus suber L.; Acacia Mill.; Eucalyptus L'Hér.; Quercus L.; 
2018,2018-02-26,Porto,Baião,Teixeira,Lug. Varzea (Várzea),41.1846749999788,-7.91278800010681,Desconhecida,585.0,2018-02-26T00:00,6.3,46,-4.6,2.5,0.0,0.0,0.0,0.0,0,1011.6,942.2,2,0,0,6,0.03,0.52,7.1,11.3,114,97,28.1,3.6,5.3,6.3,8.3,0.316,0.325,0.341,0.312,0,0.0,0.0,0.0,0.0,0.0,0.0,0.0,0.0,0.0,0.0,0.0,0.0,0.0,Magnoliopsida; Tracheophyta; Eucalyptus L'Hér.; Pinus pinaster Aiton; Vitis vinifera L.; Pinales; Quercus L.; 
2018,2018-10-03,Porto,Vila Nova de Gaia,Sandim,Linhares (Roçadas),41.0242780001958,-8.51934799989064,NC,116.0,2018-10-03T19:00,22.8,33,5.5,20.8,0.0,0.0,0.0,0.0,0,1020.6,1007.0,0,0,0,0,0.09,1.86,6.1,9.4,45,353,10.8,24.0,22.7,22.1,21.1,0.138,0.154,0.228,0.331,0,0.0,0.0,0.0,0.0,0.0,0.0,0.0,1.0,0.0,1.0,0.0,1.0,8.5,Eucalyptus L'Hér.; Tracheophyta; Magnoliopsida
2018,2018-10-03,Porto,Trofa,Bougado (São Martinho),Alto de Paradela (Castelinhos),41.3242030000687,-8.54112199995253,NC,80.0,2018-10-03T20:00,18.6,50,7.9,16.9,0.0,0.0,0.0,0.0,0,1020.7,1011.2,0,0,0,0,0.05,1.08,8.4,12.3,50,5,11.9,22.0,22.6,22.1,21.0,0.145,0.163,0.234,0.33,0,0.0,0.0,0.0,0.0,0.0,0.0,0.0,0.0,0.0,0.0,0.0,0.0,0.0,Eucalyptus L'Hér.; Pinales; Magnoliopsida; Pinus pinaster Aiton
2018,2018-10-03,Porto,Santo Tirso,Monte Córdova,Lugar Pereiras (Rio Leça),41.3129230001238,-8.44042199982537,NC,348.0,2018-10-03T21:00,16.9,51,6.6,15.0,0.0,0.0,0.0,0.0,0,1021.0,980.2,0,0,0,0,0.04,0.95,7.4,11.4,51,11,13.7,20.1,21.4,21.2,20.1,0.099,0.156,0.244,0.324,0,0.0,0.0,0.0,0.0,0.0,0.0,0.0,0.0,0.0,0.0,0.0,0.0,0.0,Tracheophyta; Vitis vinifera L.; Eucalyptus L'Hér.; Pinus pinaster Aiton; Magnoliopsida
2018,2018-10-03,Porto,Marco de Canaveses,Soalhães,Oliveira (SOALHÃES),41.1619849999746,-8.09688799964057,Desconhecida,368.0,2018-10-03T22:00,16.7,50,6.3,15.1,0.0,0.0,0.0,0.0,0,1021.2,978.0,0,0,0,0,0.02,0.95,4.5,3.3,104,49,9.0,18.8,21.2,21.5,20.4,0.091,0.152,0.234,0.327,0,0.0,0.0,0.0,0.0,0.0,0.0,0.0,0.0,0.0,0.0,0.0,0.0,0.0,Magnoliopsida; Tracheophyta; Quercus L.; Eucalyptus L'Hér.; Pinus pinaster Aiton; Vitis vinifera L.; Castanea sativa Mill.; Pinales; 
2018,2018-10-03,Porto,Vila Nova de Gaia,Vilar de Andorinho,Lugar do Castelo (Rua do Castelo),41.0966450002458,-8.5654870001475,NC,99.0,2018-10-03T22:00,16.8,66,10.3,15.9,0.0,0.0,0.0,0.0,0,1020.7,1008.9,0,0,0,0,0.02,0.65,7.0,12.5,78,49,13.0,19.2,21.6,20.9,20.1,0.135,0.173,0.259,0.341,0,0.0,0.0,0.0,0.0,0.0,0.0,0.0,0.0,0.0,0.0,0.0,0.0,0.0,Eucalyptus L'Hér.; Magnoliopsida; Tracheophyta
2018,2018-10-03,Porto,Trofa,Bougado (São Martinho),Lugar dos Carriços (Castelinhos),41.3208369999462,-8.53642000012928,NC,165.0,2018-10-03T22:00,17.9,45,5.8,16.1,0.0,0.0,0.0,0.0,0,1020.8,1001.3,0,0,0,0,0.04,1.13,5.8,9.8,86,28,10.8,19.5,21.9,21.5,20.5,0.145,0.163,0.234,0.33,0,0.0,0.0,0.0,0.0,0.0,0.0,0.0,0.0,0.0,0.0,0.0,0.0,0.0,Eucalyptus L'Hér.; Pinales; Magnoliopsida; Pinus pinaster Aiton
2018,2018-10-03,Porto,Vila Nova de Gaia,Olival,António Magalhaes (Rua Professora Doutora Angelina Costa Cabral),41.0751199997796,-8.5232329999076,NC,128.0,2018-10-03T22:00,17.0,61,9.5,15.8,0.0,0.0,0.0,0.0,0,1020.8,1005.6,0,0,0,0,0.03,0.75,7.0,11.8,78,63,11.9,19.8,22.1,21.9,20.9,0.133,0.156,0.234,0.331,0,0.0,0.0,0.0,0.0,0.0,0.0,0.0,0.0,0.0,0.0,0.0,0.0,0.0,Eucalyptus L'Hér.; Tracheophyta; Magnoliopsida
2018,2018-10-03,Porto,Paredes,Sobreira,Lugar Aguim (Aguins),41.156613000234,-8.39804800033569,NC,137.0,2018-10-03T22:00,16.9,55,7.8,15.2,0.0,0.0,0.0,0.0,0,1021.0,1004.7,0,0,0,0,0.04,0.87,7.7,10.4,49,56,11.9,20.4,22.5,22.4,21.2,0.132,0.136,0.201,0.325,0,0.0,0.0,0.0,0.0,0.0,0.0,0.0,0.0,0.0,0.0,0.0,0.0,0.0,Magnoliopsida; Pinus pinaster Aiton; Eucalyptus L'Hér.; Tracheophyta; Vitis vinifera L.
2018,2018-10-04,Porto,Vila Nova de Gaia,Vilar de Andorinho,CONCEIÇAO FERNANDES (Viela do Monte da Virgem),41.1029600000381,-8.58729199992286,NC,201.0,2018-10-04T01:00,15.2,64,8.5,13.7,0.0,0.0,0.0,0.0,0,1019.8,995.9,0,0,0,0,0.02,0.62,7.6,12.4,71,68,14.0,16.3,21.2,21.3,20.4,0.124,0.15,0.23,0.331,0,0.0,0.0,0.0,0.0,0.0,0.0,0.0,0.0,0.0,0.0,0.0,0.0,0.0,Tracheophyta; Magnoliopsida; Pinus pinaster Aiton; Pinus pinea L.
2018,2018-10-04,Porto,Baião,Ancede,Lugar da Porta (ANCEDE),41.1049100001653,-8.05740699979994,Desconhecida,362.0,2018-10-04T04:00,14.0,57,5.7,11.9,0.0,0.0,0.0,0.0,0,1019.0,976.2,0,0,0,0,0.03,0.68,7.6,15.5,98,94,18.4,14.4,19.7,20.8,19.7,0.114,0.157,0.248,0.328,0,0.0,0.0,0.0,0.0,0.0,0.0,0.0,0.0,0.0,0.0,0.0,0.0,0.0,Magnoliopsida; Pinus pinaster Aiton; Tracheophyta; Vitis vinifera L.; Quercus suber L.; Acacia Mill.; Eucalyptus L'Hér.; Quercus L.; 
2018,2018-10-04,Porto,Amarante,Candemil,Espinheiro (Rechão do Carvalhal),41.2449930000305,-7.97208199977875,Desconhecida,412.0,2018-10-04T07:00,14.4,59,6.4,12.1,0.0,0.0,0.0,0.0,0,1020.0,971.5,0,0,0,0,0.06,0.68,9.6,21.2,103,108,30.2,15.0,19.7,21.4,20.2,0.092,0.151,0.232,0.33,1,0.0,19.6,7.4,12.3,84.4,8.3,106.2,8.0,3.0,5.0,39.9,8.0,43.3,Magnoliopsida; Quercus L.; Tracheophyta; Eucalyptus L'Hér.; Pinus pinaster Aiton; 
2018,2018-10-04,Porto,Baião,Ancede,Porta (ANCEDE),41.1046819999483,-8.05701000001695,Desconhecida,362.0,2018-10-04T09:00,21.2,48,9.9,20.7,0.0,0.0,0.0,0.0,0,1019.5,977.7,0,0,0,0,0.18,1.31,3.7,4.8,79,103,14.8,16.8,18.8,20.8,19.8,0.113,0.157,0.248,0.328,1,3600.0,377.1,290.9,86.3,678.8,377.1,585.8,306.0,236.0,70.0,678.8,306.0,475.3,Magnoliopsida; Pinus pinaster Aiton; Tracheophyta; Vitis vinifera L.; Quercus suber L.; Acacia Mill.; Eucalyptus L'Hér.; Quercus L.; 
2018,2018-10-04,Porto,Gondomar,Lomba,Sargaça (Serra),41.0273380004035,-8.40398300011953,Desconhecida,250.0,2018-10-04T10:00,25.0,32,7.4,23.9,0.0,0.0,0.0,0.0,0,1019.2,990.5,0,0,0,0,0.31,2.15,3.0,3.2,284,270,12.2,20.9,20.2,21.8,20.7,0.093,0.149,0.232,0.321,1,3600.0,535.9,441.2,94.8,785.4,535.9,768.0,475.0,391.0,84.0,785.4,475.0,680.7,Magnoliopsida; Eucalyptus L'Hér.; Vitis vinifera L.; Pinus pinaster Aiton; Tracheophyta; 
2018,2018-10-04,Porto,Santo Tirso,Negrelos (São Mamede),Pidre (Rojais),41.3522029999892,-8.35035699999995,NC,138.0,2018-10-04T12:00,27.7,30,8.7,27.7,0.0,0.0,0.0,0.0,0,1018.6,1002.8,0,0,0,0,0.47,2.59,3.3,4.0,193,180,17.3,25.9,20.9,22.0,21.1,0.107,0.161,0.243,0.323,1,3600.0,699.1,597.5,101.6,861.6,699.1,948.1,681.0,582.0,99.0,861.6,681.0,923.6,Tracheophyta; Pinus pinaster Aiton; Magnoliopsida; Eucalyptus L'Hér.; Vitis vinifera L.
2018,2018-10-04,Porto,Santo Tirso,Monte Córdova,Lugar de espinheiros (Quinta de Linhares),41.3176319999827,-8.44738300005595,NC,366.0,2018-10-04T12:00,26.3,29,7.1,25.9,0.0,0.0,0.0,0.0,0,1018.7,977.2,0,0,0,0,0.46,2.42,3.4,3.9,212,202,15.8,25.4,19.9,21.1,20.0,0.087,0.15,0.24,0.324,1,3600.0,700.1,598.5,101.6,862.0,700.1,949.3,682.0,583.0,99.0,862.0,682.0,924.8,Pinus pinaster Aiton; Tracheophyta; Eucalyptus L'Hér.; Vitis vinifera L.; Magnoliopsida
2018,2018-10-04,Porto,Gondomar,São Pedro da Cova,Lg. Ervedosa (Vila Verde),41.1650029998355,-8.50705199983385,NC,157.0,2018-10-04T12:00,27.9,29,8.1,27.4,0.0,0.0,0.0,0.0,0,1018.5,1000.5,0,0,0,0,0.49,2.68,6.1,7.6,242,245,17.6,25.6,20.6,21.6,20.7,0.112,0.149,0.227,0.332,1,3600.0,702.3,600.7,101.7,863.1,702.3,951.6,684.0,585.0,99.0,863.1,684.0,926.7,Tracheophyta; Pinus pinaster Aiton; Eucalyptus L'Hér.; Magnoliopsida
2018,2018-10-04,Porto,Santo Tirso,Vilarinho,Lg. Lamelas (Salgueirinho),41.3524080000983,-8.33263500001695,NC,337.0,2018-10-04T12:00,26.7,30,7.5,26.4,0.0,0.0,0.0,0.0,0,1018.8,980.6,0,0,0,0,0.47,2.47,3.5,4.5,156,151,19.4,25.4,20.1,21.4,20.3,0.096,0.144,0.22,0.322,1,3600.0,701.9,600.3,101.6,865.6,701.9,948.3,684.0,585.0,99.0,865.6,684.0,924.1,Vitis vinifera L.; Magnoliopsida; Eucalyptus L'Hér.; Tracheophyta; Pinus pinaster Aiton
2018,2018-02-26,Porto,Baião,Ovil,Lug. QUEIMADA (Cimo de Vila),41.19625,-7.98888299994999,Desconhecida,666.0,2018-02-26T02:00,0.0,64,-5.9,-4.3,0.0,0.0,0.0,0.0,0,1010.9,930.7,0,0,0,0,0.02,0.22,9.9,15.8,100,102,36.7,1.7,4.4,5.7,7.7,0.333,0.34,0.359,0.336,0,0.0,0.0,0.0,0.0,0.0,0.0,0.0,0.0,0.0,0.0,0.0,0.0,0.0,Tracheophyta; Pinus pinaster Aiton; Magnoliopsida; Eucalyptus L'Hér.; Pinales; Quercus L.; Vitis vinifera L.; 
2018,2018-10-04,Porto,Matosinhos,São Mamede de Infesta,ESTR CIRCUNVALACAO 10801 (Quinta do Rocha),41.1804380003611,-8.62278499974145,NC,94.0,2018-10-04T13:00,24.9,38,9.5,24.5,0.0,0.0,0.0,0.0,0,1018.3,1007.4,0,0,0,0,0.49,1.97,9.0,10.9,241,236,23.0,25.1,20.2,20.7,19.9,0.137,0.163,0.251,0.338,1,3600.0,704.7,603.7,100.9,875.3,704.7,943.1,712.0,610.0,102.0,875.3,712.0,952.9,Tracheophyta; Magnoliopsida
2018,2018-10-04,Porto,Baião,Baião (Santa Leocádia),Lg. Venda Nova (Tasco),41.123122999933,-8.08721199989319,Desconhecida,365.0,2018-10-04T14:00,27.2,26,5.9,25.7,0.0,0.0,0.0,0.0,0,1017.4,976.2,0,0,0,0,0.5,2.69,8.3,10.1,275,276,22.3,27.0,19.7,20.7,19.8,0.112,0.156,0.247,0.328,1,3600.0,640.6,548.4,92.2,868.0,640.6,864.0,674.0,577.0,97.0,868.0,674.0,909.0,Vitis vinifera L.; Magnoliopsida; Tracheophyta; Pinus pinaster Aiton
2018,2018-10-04,Porto,Vila Nova de Gaia,Grijó,Moleiros (Travessa da Relva),41.0226050000721,-8.55711200025346,NC,200.0,2018-10-04T14:00,27.6,27,6.7,25.8,0.0,0.0,0.0,0.0,0,1017.6,994.8,0,0,0,0,0.52,2.7,11.2,13.7,270,270,25.6,27.7,20.9,21.5,20.5,0.13,0.146,0.221,0.331,1,3600.0,643.0,548.8,94.2,865.7,643.0,866.9,676.0,577.0,99.0,865.7,676.0,911.4,Tracheophyta; Magnoliopsida; Eucalyptus L'Hér.
2018,2018-10-04,Porto,Santo Tirso,Monte Córdova,Cemitério (Quinta de Linhares),41.3168569999933,-8.44606799973382,NC,381.0,2018-10-04T15:00,27.4,28,7.2,25.2,0.0,0.0,0.0,0.0,0,1017.3,974.4,0,0,0,0,0.46,2.64,11.5,14.4,274,274,25.9,29.0,20.6,21.1,20.0,0.088,0.145,0.234,0.324,1,3600.0,519.2,435.0,84.1,827.7,519.2,718.7,574.0,481.0,93.0,827.7,574.0,794.6,Pinus pinaster Aiton; Tracheophyta; Eucalyptus L'Hér.; Vitis vinifera L.; Magnoliopsida
2018,2018-10-04,Porto,Valongo,Sobrado,Lugar 5 Caminhos (Vale da Mouta),41.2278329997593,-8.47598999977112,NC,223.0,2018-10-04T15:00,25.8,32,8.0,23.8,0.0,0.0,0.0,0.0,0,1017.6,992.1,0,0,0,0,0.44,2.26,11.5,14.8,270,270,26.3,28.4,21.3,21.3,20.4,0.099,0.166,0.256,0.325,1,3600.0,523.3,439.1,84.2,831.1,523.3,722.4,578.0,485.0,93.0,831.1,578.0,798.0,Magnoliopsida; Pinus pinaster Aiton; Eucalyptus L'Hér.
2018,2018-10-04,Porto,Gondomar,São Pedro da Cova,Paradela (Vila Verde),41.1614629999797,-8.51594500011868,Desconhecida,156.0,2018-10-04T16:00,25.1,34,8.2,23.1,0.0,0.0,0.0,0.0,0,1017.5,999.5,0,0,0,0,0.33,2.1,10.3,13.4,282,284,25.9,28.2,21.8,21.6,20.7,0.112,0.149,0.227,0.332,1,3600.0,364.7,295.1,69.6,765.0,364.7,527.5,435.0,352.0,83.0,765.0,435.0,629.2,Tracheophyta; Magnoliopsida; Eucalyptus L'Hér.
2018,2018-10-04,Porto,Gondomar,São Pedro da Cova,R PRESA CALEIRAS 260 SAO_PEDRO_COVA FANZERES_SAO_PEDRO_COVA PRT#GONDOMAR 4510-399: ESTE (Vila Verde),41.159724000295,-8.51415799988641,NC,95.0,2018-10-04T15:00,27.0,31,8.3,25.0,0.0,0.0,0.0,0.0,0,1017.6,1006.7,0,0,0,0,0.45,2.47,11.5,14.8,274,273,25.9,29.0,21.9,22.0,21.1,0.112,0.149,0.227,0.332,1,3600.0,524.2,440.0,84.2,831.9,524.2,723.3,579.0,486.0,93.0,831.9,579.0,798.9,Tracheophyta; Magnoliopsida; Eucalyptus L'Hér.
2018,2018-10-04,Porto,Vila do Conde,Gião,Igreja (GIÃO),41.3123190000322,-8.67268099996779,NC,70.0,2018-10-04T15:00,23.1,42,9.7,21.6,0.0,0.0,0.0,0.0,0,1017.7,1009.5,0,0,0,0,0.4,1.63,11.3,13.8,263,264,25.9,27.8,21.1,21.2,20.4,0.094,0.164,0.248,0.325,1,3600.0,524.5,438.4,86.1,829.1,524.5,723.1,579.0,484.0,95.0,829.1,579.0,798.3,Magnoliopsida; Tracheophyta; Eucalyptus L'Hér.
2018,2018-10-04,Porto,Valongo,Valongo,Calvário (Lugar do Túmulo),41.1996380000644,-8.49205300013224,NC,177.0,2018-10-04T16:00,24.7,35,8.2,22.7,0.0,0.0,0.0,0.0,0,1017.6,997.2,0,0,0,0,0.33,2.02,10.2,13.3,280,283,26.3,28.2,21.9,21.6,20.7,0.099,0.166,0.256,0.325,1,3600.0,363.8,295.1,68.7,765.8,363.8,527.0,434.0,352.0,82.0,765.8,434.0,628.6,Tracheophyta; Magnoliopsida; Eucalyptus L'Hér.
2018,2018-10-04,Porto,Gondomar,Medas,Varziela (Igreja),41.0601000001695,-8.42881299972534,Desconhecida,158.0,2018-10-04T17:00,23.4,40,9.1,22.0,0.0,0.0,0.0,0.0,0,1017.3,999.0,0,0,0,0,0.2,1.73,8.0,10.7,280,290,23.4,26.9,21.9,21.6,20.7,0.124,0.149,0.229,0.331,1,3600.0,181.6,135.6,45.9,636.8,181.6,291.3,257.0,192.0,65.0,636.8,257.0,412.3,Eucalyptus L'Hér.; Tracheophyta; Pinus pinaster Aiton; Magnoliopsida
2018,2018-10-04,Porto,Santo Tirso,Agrela,Pé da Serra (Serra da Agrela),41.2607229995728,-8.45793799983131,NC,243.0,2018-10-04T18:00,18.8,58,10.3,18.2,0.0,0.0,0.0,0.0,0,1017.3,988.9,0,0,0,0,0.05,0.92,5.4,10.0,278,308,16.9,24.9,21.8,21.1,20.2,0.099,0.166,0.256,0.325,1,2658.19,14.8,8.9,5.9,101.6,12.2,29.8,80.0,48.0,32.0,335.4,80.0,161.4,Eucalyptus L'Hér.; Quercus L.; Tracheophyta
2018,2018-10-04,Porto,Lousada,Sousela,Secos (Soutelo),41.2987430000305,-8.32500999980503,Desconhecida,383.0,2018-10-04T21:00,18.6,49,7.5,17.4,0.0,0.0,0.0,0.0,0,1018.0,973.5,0,0,0,0,0.02,1.1,3.8,4.3,197,270,9.4,20.4,21.5,21.1,20.1,0.088,0.145,0.234,0.324,0,0.0,0.0,0.0,0.0,0.0,0.0,0.0,0.0,0.0,0.0,0.0,0.0,0.0,Eucalyptus L'Hér.; Tracheophyta; Magnoliopsida; Pinus pinaster Aiton
2018,2018-10-04,Porto,Amarante,Figueiró (Santa Cristina),Lg. Santa Cristina (Lamela),41.2886950000127,-8.1709680000941,Desconhecida,290.0,2018-10-04T21:00,18.2,54,8.8,16.9,0.0,0.0,0.0,0.0,0,1018.0,984.1,0,0,0,0,0.03,0.95,6.5,5.9,183,218,9.7,21.6,22.5,22.1,20.9,0.084,0.141,0.229,0.325,0,0.0,0.0,0.0,0.0,0.0,0.0,0.0,0.0,0.0,0.0,0.0,0.0,0.0,Tracheophyta; Magnoliopsida; Vitis vinifera L.; Pinus pinaster Aiton; Eucalyptus L'Hér.
2018,2018-10-04,Porto,Gondomar,São Pedro da Cova,R FONTANARIO 42 SAO_PEDRO_COVA FANZERES_SAO_PEDRO_COVA PRT#GONDOMAR 4510-279: ESTE (Vila Verde),41.1615999995338,-8.51579499986437,NC,137.0,2018-10-04T21:00,18.6,55,9.4,18.1,0.0,0.0,0.0,0.0,0,1017.8,1001.6,0,0,0,0,0.01,0.97,3.0,5.8,76,4,5.0,20.4,22.3,21.7,20.8,0.112,0.149,0.227,0.332,0,0.0,0.0,0.0,0.0,0.0,0.0,0.0,0.0,0.0,0.0,0.0,0.0,0.0,Tracheophyta; Magnoliopsida; Eucalyptus L'Hér.
2018,2018-10-05,Porto,Gondomar,São Pedro da Cova,Passal,41.1480679999457,-8.49794200049506,NC,102.0,2018-10-05T02:00,13.7,70,8.3,12.6,0.0,0.0,0.0,0.0,0,1016.9,1004.6,0,0,0,0,0.0,0.47,4.4,2.6,55,16,6.5,15.1,21.6,21.9,21.1,0.104,0.143,0.223,0.331,0,0.0,0.0,0.0,0.0,0.0,0.0,0.0,0.0,0.0,0.0,0.0,0.0,0.0,Tracheophyta; Eucalyptus L'Hér.; Pinus pinaster Aiton; Magnoliopsida
2018,2018-10-05,Porto,Amarante,Telões,Todeia (Casal),41.3066500001484,-8.10646700011359,Desconhecida,206.0,2018-10-05T02:00,14.4,64,7.7,13.2,0.0,0.0,0.0,0.0,0,1017.0,992.5,0,0,0,0,0.0,0.59,3.8,2.5,73,172,6.1,15.4,21.9,22.2,21.2,0.079,0.14,0.231,0.324,0,0.0,0.0,0.0,0.0,0.0,0.0,0.0,0.0,0.0,0.0,0.0,0.0,0.0,Magnoliopsida; Pinus pinaster Aiton; Tracheophyta; Vitis vinifera L.; Eucalyptus L'Hér.; 
2018,2018-02-26,Porto,Penafiel,Santa Marta,Anta Santa Marta (Rio Cavalúm),41.2102670001984,-8.2543450000551,NC,366.0,2018-02-26T08:00,3.7,61,-3.2,-0.9,0.0,0.0,0.0,0.0,1,1008.3,964.0,28,0,0,92,0.04,0.31,13.6,29.6,79,93,36.4,3.8,6.2,8.2,9.9,0.333,0.347,0.381,0.358,1,664.8,66.4,28.8,37.6,207.8,39.3,193.2,30.0,13.0,17.0,123.0,30.0,87.3,Magnoliopsida; Eucalyptus L'Hér.; Tracheophyta; Vitis vinifera L.
2018,2018-10-05,Porto,Gondomar,São Pedro da Cova,PRESA (Vila Verde),41.1596110004849,-8.51413599967957,NC,95.0,2018-10-05T04:00,12.5,71,7.4,11.1,0.0,0.0,0.0,0.0,0,1016.1,1004.6,0,0,0,0,0.01,0.42,5.4,2.3,70,51,7.6,14.6,21.2,22.0,21.1,0.104,0.143,0.223,0.331,0,0.0,0.0,0.0,0.0,0.0,0.0,0.0,0.0,0.0,0.0,0.0,0.0,0.0,Tracheophyta; Magnoliopsida; Eucalyptus L'Hér.
2018,2018-10-05,Porto,Paços de Ferreira,Sanfins de Ferreira,Vista Alegre (Várzea),41.3103700002034,-8.36172199991014,Reacendimento,331.0,2018-10-05T06:00,11.7,66,5.5,10.0,0.0,0.0,0.0,0.0,0,1015.9,976.5,0,0,0,0,0.0,0.48,4.4,3.7,99,169,8.6,12.9,20.0,21.2,20.2,0.078,0.146,0.237,0.323,0,0.0,0.0,0.0,0.0,0.0,0.0,0.0,0.0,0.0,0.0,0.0,0.0,0.0,Tracheophyta; Magnoliopsida; Eucalyptus L'Hér.
2018,2018-10-05,Porto,Paredes,Louredo,Forca (Quinta de Cima),41.2412720002068,-8.33571699990167,NC,244.0,2018-10-05T10:00,22.7,33,5.5,21.4,0.0,0.0,0.0,0.0,0,1016.8,988.6,4,0,0,15,0.28,1.86,1.6,1.9,243,248,11.9,19.3,19.6,21.5,20.5,0.118,0.129,0.2,0.328,1,3600.0,539.8,447.2,92.6,805.7,539.8,759.4,478.0,396.0,82.0,805.7,478.0,672.4,Tracheophyta; Magnoliopsida; Eucalyptus L'Hér.; Pinus pinaster Aiton; Vitis vinifera L.; 
2018,2018-10-05,Porto,Maia,Gemunde,Terra Branca (Rua da Terra Branca),41.2698450001081,-8.62780300034417,NC,136.0,2018-10-05T11:00,21.1,47,9.5,20.4,0.0,0.0,0.0,0.0,1,1016.5,1000.6,27,0,0,91,0.35,1.31,4.3,3.4,265,252,15.8,20.5,18.8,20.7,20.0,0.084,0.161,0.245,0.324,1,3600.0,614.5,485.0,129.5,752.3,614.5,881.9,574.0,453.0,121.0,752.3,574.0,823.8,Eucalyptus L'Hér.; Tracheophyta; Pinus pinaster Aiton; Magnoliopsida
2018,2018-10-05,Porto,Maia,Milheirós,R GAGO COUTINHO 193 MAIA AGUAS_SANTAS PRT#MAIA 4425-089: ESTE (Rua Ponte de Alvura),41.2103079997169,-8.5890150001314,NC,70.0,2018-10-05T12:00,21.0,58,12.3,20.9,0.0,0.0,0.0,0.0,0,1016.2,1008.0,13,1,0,40,0.39,1.06,9.4,9.4,272,266,20.9,21.2,19.1,20.9,20.3,0.126,0.153,0.243,0.331,1,3600.0,661.5,492.0,169.5,712.9,661.5,944.2,644.0,479.0,165.0,712.9,644.0,919.2,Tracheophyta; Magnoliopsida; Eucalyptus L'Hér.; 
2018,2018-10-05,Porto,Maia,Avioso (Santa Maria),Serafim Cruz (Rua Serafim da Cruz),41.2574420001772,-8.61034200032552,NC,96.0,2018-10-05T14:00,19.6,57,10.9,18.6,0.0,0.0,0.0,0.0,1,1015.7,1004.4,20,0,0,67,0.38,0.98,12.4,15.0,300,300,28.8,23.4,19.3,20.8,20.1,0.126,0.153,0.242,0.33,1,3600.0,614.3,488.8,125.5,779.3,614.3,858.2,646.0,514.0,132.0,779.3,646.0,902.4,Tracheophyta; Eucalyptus L'Hér.; Pinus pinaster Aiton
2018,2018-10-05,Porto,Paredes,Sobreira,Aguins (Quinta),41.151877999968,-8.38339999999851,NC,99.0,2018-10-05T15:00,25.6,38,10.4,23.9,0.0,0.0,0.0,0.0,1,1014.9,1003.5,22,0,0,72,0.42,2.02,12.6,15.8,283,282,29.2,28.0,21.5,22.4,21.4,0.121,0.121,0.191,0.324,1,3600.0,500.7,390.5,110.3,747.4,500.7,714.8,554.0,432.0,122.0,747.4,554.0,790.9,Magnoliopsida; Pinus pinaster Aiton; Eucalyptus L'Hér.; Tracheophyta; Vitis vinifera L.
2018,2018-10-05,Porto,Paredes,Sobreira,Lugar de Vilar (Quinta da Torre),41.1396689997779,-8.38149200015598,NC,144.0,2018-10-05T16:00,23.8,39,9.2,21.9,0.0,0.0,0.0,0.0,0,1015.1,998.4,19,0,0,62,0.32,1.79,11.8,15.3,290,289,29.2,27.4,21.4,22.1,21.1,0.121,0.121,0.191,0.324,1,3600.0,350.9,268.2,82.7,707.9,350.9,518.4,420.0,321.0,99.0,707.9,420.0,620.5,Magnoliopsida; Pinus pinaster Aiton; Eucalyptus L'Hér.; Tracheophyta; Vitis vinifera L.
2018,2018-10-05,Porto,Valongo,Ermesinde,Mirante dos Sonhos (Sá),41.2121850003137,-8.54012800004747,NC,149.0,2018-10-05T17:00,19.8,57,10.9,18.5,0.0,0.0,0.0,0.0,0,1015.5,998.0,8,0,0,27,0.17,1.0,10.2,13.5,309,314,24.5,25.0,21.2,21.7,20.9,0.096,0.162,0.254,0.324,1,3600.0,172.5,122.7,49.8,592.5,172.5,283.3,246.0,175.0,71.0,592.5,246.0,404.1,Magnoliopsida; Pinus pinaster Aiton; Tracheophyta; Eucalyptus L'Hér.
2018,2018-10-05,Porto,Vila Nova de Gaia,Vilar de Andorinho,CARVALHEIRAS (Viela do Monte da Virgem),41.1055129999585,-8.58690800004535,NC,223.0,2018-10-05T19:00,15.2,82,12.2,15.3,0.0,0.0,0.0,0.0,0,1016.0,989.6,8,0,0,28,0.02,0.31,4.6,11.6,321,344,12.6,21.2,20.7,21.0,20.3,0.12,0.143,0.226,0.331,0,0.0,0.0,0.0,0.0,0.0,0.0,0.0,0.0,0.0,0.0,0.0,0.0,1.1,Tracheophyta; Magnoliopsida; Pinus pinaster Aiton; Pinus pinea L.
2018,2018-10-05,Porto,Felgueiras,Margaride (Santa Eulália),Lg. Monte de Stª Quiteria (SÃO DOMINGOS),41.3776369995541,-8.20032299998734,Reacendimento,451.0,2018-10-05T19:00,16.6,59,8.5,15.5,0.0,0.0,0.0,0.0,0,1015.9,963.6,0,0,0,0,0.02,0.78,5.2,6.4,282,308,13.7,21.9,20.5,20.7,19.7,0.095,0.143,0.225,0.321,0,0.0,0.0,0.0,0.0,0.0,0.0,0.0,0.0,0.0,0.0,0.0,0.0,0.0,Magnoliopsida; Eucalyptus L'Hér.; Tracheophyta; Pinus pinaster Aiton
2018,2018-10-05,Porto,Paredes,Sobreira,Lg. Vilar (Vilar),41.1399549998177,-8.3808780002594,NC,144.0,2018-10-05T19:00,16.9,70,11.3,16.7,0.0,0.0,0.0,0.0,0,1015.9,998.8,5,0,0,17,0.0,0.59,4.4,8.5,305,324,12.6,23.0,21.9,22.1,21.1,0.121,0.121,0.191,0.324,0,0.0,0.0,0.0,0.0,0.0,0.0,0.0,0.0,0.0,0.0,0.0,0.0,0.0,Magnoliopsida; Pinus pinaster Aiton; Eucalyptus L'Hér.; Tracheophyta; Vitis vinifera L.
2018,2018-10-05,Porto,Paredes,Astromil,Lugar Ferreira (Astromil),41.2000300000008,-8.42181799994575,NC,191.0,2018-10-05T19:00,16.6,72,11.5,16.4,0.0,0.0,0.0,0.0,0,1016.0,993.4,7,0,0,22,0.0,0.53,4.1,9.7,315,333,13.0,22.6,21.6,21.8,20.9,0.118,0.13,0.203,0.328,0,0.0,0.0,0.0,0.0,0.0,0.0,0.0,0.0,0.0,0.0,0.0,0.0,0.0,Magnoliopsida; Pinus pinaster Aiton; Eucalyptus L'Hér.; Tracheophyta; Vitis vinifera L.
2018,2018-10-05,Porto,Penafiel,Bustelo,CABANELAS BAIXO (Cabanelas de Baixo),41.2363870000839,-8.25842000007629,NC,280.0,2018-10-05T20:00,15.8,71,10.5,15.3,0.0,0.0,0.0,0.0,0,1016.2,983.2,0,0,0,0,0.0,0.52,4.1,3.1,308,339,10.4,20.6,21.0,21.3,20.4,0.105,0.135,0.236,0.324,0,0.0,0.0,0.0,0.0,0.0,0.0,0.0,0.0,0.0,0.0,0.0,0.0,0.0,Magnoliopsida; Tracheophyta; Eucalyptus L'Hér.; Pinus pinaster Aiton; Vitis vinifera L.; Pinales; 
2018,2018-10-05,Porto,Baião,Campelo,Ingilde,41.150007,-8.05173499994808,Desconhecida,576.0,2018-10-05T22:00,16.8,58,8.4,16.0,0.0,0.0,0.0,0.0,0,1016.6,950.3,0,0,0,1,0.0,0.81,2.6,2.8,164,220,14.4,17.1,19.8,19.9,19.2,0.096,0.163,0.248,0.332,0,0.0,0.0,0.0,0.0,0.0,0.0,0.0,0.0,0.0,0.0,0.0,0.0,0.0,Tracheophyta; Pinus pinaster Aiton; Magnoliopsida; Eucalyptus L'Hér.; Pinales; Quercus L.; Vitis vinifera L.; 
2018,2018-10-05,Porto,Santo Tirso,Água Longa,Lugar de São Roque (ÁGUA LONGA),41.2598170004951,-8.50184900005658,NC,126.0,2018-10-05T22:00,13.2,93,12.1,12.8,0.0,0.0,0.0,0.0,0,1016.7,1001.6,0,0,0,0,0.0,0.11,7.5,10.2,343,342,10.1,18.1,21.3,21.8,21.0,0.097,0.162,0.253,0.324,0,0.0,0.0,0.0,0.0,0.0,0.0,0.0,0.0,0.0,0.0,0.0,0.0,0.0,Eucalyptus L'Hér.; Tracheophyta; Pinales; Pinus pinaster Aiton; Vitis vinifera L.
2018,2018-10-06,Porto,Felgueiras,Vila Fria,Lugar do Monte (Castanheira),41.3862469998995,-8.2381549999449,Desconhecida,201.0,2018-10-06T01:00,12.4,86,10.1,11.6,0.0,0.0,0.0,0.0,0,1016.3,992.2,10,0,0,34,0.0,0.2,6.0,6.6,65,9,8.6,15.0,20.7,21.5,20.7,0.097,0.156,0.239,0.322,0,0.0,0.0,0.0,0.0,0.0,0.0,0.0,0.0,0.0,0.0,0.0,0.0,0.0,Tracheophyta; Pinus pinaster Aiton; Magnoliopsida; Eucalyptus L'Hér.
2018,2018-10-06,Porto,Maia,Silva Escura,Cavadinha (Rua João Paulo II),41.256385000017,-8.57557700051202,Reacendimento,152.0,2018-10-06T05:00,12.5,91,11.0,11.4,0.0,0.0,0.0,0.0,1,1016.7,998.4,30,0,8,83,0.0,0.14,9.0,21.8,360,351,15.8,13.7,18.4,20.3,19.8,0.12,0.151,0.24,0.33,0,0.0,0.0,0.0,0.0,0.0,0.0,0.0,0.0,0.0,0.0,0.0,0.0,0.0,Magnoliopsida; Eucalyptus L'Hér.; Tracheophyta; Pinus pinaster Aiton; 
2018,2018-10-06,Porto,Matosinhos,Custóias,Esposade (VELA),41.2157850000593,-8.64951699998644,Reacendimento,43.0,2018-10-06T05:00,13.2,91,11.7,12.4,0.0,0.0,0.0,0.0,1,1016.7,1011.5,30,0,8,83,0.0,0.14,9.0,21.8,360,351,15.8,14.4,19.1,21.0,20.5,0.12,0.151,0.24,0.33,0,0.0,0.0,0.0,0.0,0.0,0.0,0.0,0.0,0.0,0.0,0.0,0.0,0.0,Eucalyptus L'Hér.; Magnoliopsida; Acacia Mill.; Tracheophyta
2018,2018-10-06,Porto,Vila Nova de Gaia,Vilar de Andorinho,Ultramar (Viela do Monte da Virgem),41.1027749999364,-8.58640799999237,NC,197.0,2018-10-06T11:00,20.6,51,10.1,19.0,0.0,0.0,0.0,0.0,1,1018.4,995.4,29,0,15,66,0.35,1.19,11.1,13.9,335,335,26.6,19.9,18.7,21.1,20.5,0.118,0.141,0.225,0.331,1,3600.0,587.6,455.9,131.6,708.6,587.6,880.8,549.0,426.0,123.0,708.6,549.0,823.0,Tracheophyta; Magnoliopsida; Pinus pinaster Aiton; Pinus pinea L.
2018,2018-10-06,Porto,Santo Tirso,Água Longa,São Gião,41.2616310003069,-8.50644000000424,NC,147.0,2018-10-06T11:00,20.3,56,11.1,18.8,0.0,0.0,0.0,0.0,1,1018.5,1001.2,26,0,7,72,0.34,1.06,12.9,16.6,333,336,29.9,20.0,19.3,21.6,20.9,0.093,0.161,0.252,0.324,1,3600.0,580.1,436.7,143.4,680.6,580.1,878.3,542.0,408.0,134.0,680.6,542.0,820.6,Eucalyptus L'Hér.; Tracheophyta; Pinales; Pinus pinaster Aiton; Vitis vinifera L.
2018,2018-10-06,Porto,Baião,Ancede,Ancede (Cimo de Vila),41.1079329999288,-8.04657100041707,Desconhecida,449.0,2018-10-06T13:00,20.5,48,9.2,19.3,0.0,0.0,0.0,0.0,0,1017.9,966.3,8,0,0,27,0.41,1.24,11.0,13.8,308,309,34.2,22.8,18.7,20.5,19.7,0.118,0.145,0.214,0.34,1,3600.0,651.0,494.9,156.1,728.4,651.0,930.1,659.0,501.0,158.0,728.4,659.0,941.6,Magnoliopsida; Pinus pinaster Aiton; Tracheophyta; Vitis vinifera L.; Quercus suber L.; Acacia Mill.; Eucalyptus L'Hér.; Quercus L.; 
2018,2018-10-06,Porto,Felgueiras,Várzea,Lugar de Passos (Barreiras),41.3508570000198,-8.19956199963888,Desconhecida,284.0,2018-10-06T14:00,22.4,45,9.7,20.4,0.0,0.0,0.0,0.0,0,1017.5,984.7,4,5,0,0,0.44,1.5,16.0,20.9,314,315,37.1,24.3,19.8,21.6,20.8,0.089,0.14,0.223,0.321,1,3600.0,610.3,513.5,96.8,831.2,610.3,845.6,643.0,541.0,102.0,831.2,643.0,891.0,Magnoliopsida; Eucalyptus L'Hér.; Tracheophyta; Pinus pinaster Aiton; Vitis vinifera L.; Castanea sativa Mill.; Quercus L.; Olea europaea L.; Acacia Mill.; Pinales; 
2018,2018-10-06,Porto,Paredes,Beire,Monte (Cerrado),41.2520679999722,-8.32191699981689,NC,221.0,2018-10-06T13:00,21.9,49,10.6,20.8,0.0,0.0,0.0,0.0,0,1017.9,992.2,1,1,0,0,0.44,1.35,13.5,17.7,331,333,32.4,22.8,19.5,21.5,20.7,0.116,0.129,0.202,0.328,1,3600.0,666.3,546.7,119.6,805.9,666.3,928.6,674.0,553.0,121.0,805.9,674.0,939.3,Magnoliopsida; Pinus pinaster Aiton; Eucalyptus L'Hér.; Tracheophyta; Vitis vinifera L.; Quercus L.
2018,2018-10-06,Porto,Valongo,Alfena,FIDALGA (Barreiro de Cima),41.2406319999695,-8.53676000012292,NC,146.0,2018-10-06T14:00,21.6,56,12.6,20.1,0.0,0.0,0.0,0.0,0,1018.0,1000.9,1,1,0,0,0.4,1.13,19.1,24.8,317,320,40.0,23.8,19.6,21.5,20.9,0.094,0.162,0.252,0.324,1,3600.0,606.2,505.5,100.7,813.5,606.2,850.6,638.0,532.0,106.0,813.5,638.0,895.2,Tracheophyta; Eucalyptus L'Hér.; Pinus pinaster Aiton; Magnoliopsida
2018,2018-02-26,Porto,Penafiel,Eja,Passal (Alminhas),41.0894719998042,-8.29974200036791,NC,213.0,2018-02-26T11:00,13.4,45,1.6,9.4,0.0,0.0,0.0,0.0,1,1005.7,980.5,28,0,0,94,0.27,0.85,14.5,19.2,48,56,33.5,9.0,7.4,9.2,10.9,0.308,0.32,0.344,0.317,1,3600.0,558.1,417.5,140.6,735.2,558.1,792.6,508.0,380.0,128.0,735.2,508.0,721.4,Vitis vinifera L.; Eucalyptus L'Hér.; Tracheophyta; Magnoliopsida
2018,2018-10-06,Porto,Amarante,Gouveia (São Simão),Sequeiros (Era),41.2197880000538,-8.05220699999068,Desconhecida,422.0,2018-10-06T15:00,21.5,45,9.2,19.3,0.0,0.0,0.0,0.0,0,1017.4,969.0,1,1,0,0,0.37,1.4,13.4,18.5,301,303,40.7,24.7,19.6,21.0,20.2,0.084,0.144,0.227,0.329,1,3600.0,493.1,409.3,83.8,797.4,493.1,702.6,547.0,454.0,93.0,797.4,547.0,779.5,Magnoliopsida; Eucalyptus L'Hér.; Pinus pinaster Aiton; Castanea sativa Mill.
2018,2018-10-06,Porto,Amarante,Lomba,Chouzela,41.2397119998932,-8.0697900001208,Desconhecida,166.0,2018-10-06T15:00,23.1,45,10.6,21.1,0.0,0.0,0.0,0.0,0,1017.4,998.1,2,2,0,0,0.39,1.55,15.0,19.6,314,316,34.6,25.3,20.3,21.9,21.2,0.101,0.134,0.234,0.324,1,3600.0,492.7,404.3,88.4,784.4,492.7,705.6,546.0,448.0,98.0,784.4,546.0,781.9,Magnoliopsida; Eucalyptus L'Hér.; Vitis vinifera L.; Pinus pinaster Aiton; Tracheophyta; ; Pinales
2018,2018-10-06,Porto,Gondomar,Foz do Sousa,Lg. Zebreiros (ER108 (ER108) Km 11),41.0771240001255,-8.51529799991184,NC,11.0,2018-10-06T16:00,19.3,68,13.3,16.9,0.0,0.0,0.0,0.0,0,1018.0,1016.7,14,0,0,47,0.24,0.72,24.2,33.5,330,333,49.3,22.8,19.7,21.1,20.7,0.124,0.162,0.253,0.34,1,3600.0,338.2,264.7,73.5,702.8,338.2,515.6,405.0,317.0,88.0,702.8,405.0,617.5,Eucalyptus L'Hér.; Pinus pinaster Aiton; Magnoliopsida; Tracheophyta
2018,2018-10-06,Porto,Santo Tirso,Palmeira,Lugar Real (Arquinho),41.3555420001348,-8.50759699980418,NC,35.0,2018-10-06T16:00,22.1,50,11.3,20.1,0.0,0.0,0.0,0.0,0,1017.8,1013.7,8,1,0,23,0.3,1.32,16.6,22.2,342,343,40.3,24.0,20.1,21.9,21.3,0.126,0.149,0.222,0.326,1,3600.0,335.4,262.8,72.6,703.5,335.4,511.4,402.0,315.0,87.0,703.5,402.0,613.0,Magnoliopsida; Tracheophyta; Pinus pinaster Aiton; Vitis vinifera L.; Eucalyptus L'Hér.
2018,2018-10-06,Porto,Gondomar,Gondomar (São Cosme),Lg. Congro (ER108 (ER108) Km 5),41.1172710000144,-8.54075500011444,NC,32.0,2018-10-06T17:00,18.5,68,12.4,15.9,0.0,0.0,0.0,0.0,0,1018.2,1014.4,11,0,0,37,0.17,0.69,23.1,34.9,329,334,46.4,22.1,19.7,21.0,20.6,0.124,0.162,0.253,0.34,1,3600.0,163.2,115.7,47.4,568.5,163.2,278.7,234.0,166.0,68.0,568.5,234.0,399.8,Tracheophyta; Magnoliopsida
2018,2018-10-06,Porto,Baião,Gestaçô,Lg. Santo (Casa Nova),41.1685599999958,-7.941261999872,Desconhecida,720.0,2018-10-06T18:00,15.6,60,7.7,13.6,0.0,0.0,0.0,0.0,0,1017.9,935.4,11,0,0,38,0.06,0.72,9.5,18.9,281,288,41.4,19.9,17.6,18.4,17.9,0.121,0.135,0.2,0.328,1,2301.5,1.6,0.9,0.7,10.2,1.2,3.4,63.0,35.0,28.0,261.9,63.0,135.6,Pinus pinaster Aiton; Magnoliopsida; Eucalyptus L'Hér.; Tracheophyta; Vitis vinifera L.; Quercus L.; 
2018,2018-10-06,Porto,Amarante,Mancelos,Travancela (Travanceca),41.2642380004459,-8.17097199996313,Desconhecida,233.0,2018-10-06T18:00,18.1,56,9.2,16.4,0.0,0.0,0.0,0.0,1,1018.1,990.7,24,0,0,79,0.08,0.92,10.3,19.1,306,314,34.9,22.9,20.7,21.7,21.0,0.091,0.14,0.228,0.327,1,2361.82,3.7,2.1,1.6,23.7,2.8,8.0,64.0,36.0,28.0,266.4,64.0,139.9,Tracheophyta; Magnoliopsida; Eucalyptus L'Hér.; Pinus pinaster Aiton; Vitis vinifera L.; 
2018,2018-02-26,Porto,Marco de Canaveses,Soalhães,Vale Castela (Coriscadas),41.1799330001407,-8.09025699986352,Desconhecida,364.0,2018-02-26T11:00,10.6,46,-0.6,5.7,0.0,0.0,0.0,0.0,1,1006.3,963.3,26,0,0,85,0.25,0.69,18.7,27.8,89,93,47.2,7.4,6.0,8.1,9.9,0.319,0.339,0.374,0.352,1,3600.0,573.0,443.4,129.5,780.2,573.0,793.3,522.0,404.0,118.0,780.2,522.0,722.8,Magnoliopsida; Tracheophyta; Quercus L.; Eucalyptus L'Hér.; Pinus pinaster Aiton; Vitis vinifera L.; Castanea sativa Mill.; Pinales; 
2018,2018-10-06,Porto,Penafiel,Duas Igrejas,Lg. Santo António (Castanheira de Baixo),41.1941270001729,-8.27835799958971,NC,345.0,2018-10-06T20:00,14.6,67,8.6,13.3,0.0,0.0,0.0,0.0,0,1019.1,978.4,0,0,0,0,0.01,0.55,6.5,10.4,289,326,15.1,19.9,20.6,21.3,20.6,0.079,0.142,0.223,0.326,0,0.0,0.0,0.0,0.0,0.0,0.0,0.0,0.0,0.0,0.0,0.0,0.0,0.0,Eucalyptus L'Hér.; Magnoliopsida; Tracheophyta
2018,2018-10-06,Porto,Maia,Silva Escura,Monte Santo António (Rua da Fonte do Carvão),41.2592249997457,-8.58985599994659,Reacendimento,107.0,2018-10-06T20:00,15.4,61,8.0,12.0,0.0,0.0,0.0,0.0,0,1019.6,1006.8,0,0,0,0,0.08,0.68,20.3,34.3,348,350,35.6,18.2,19.1,20.4,20.0,0.124,0.152,0.24,0.33,0,0.0,0.0,0.0,0.0,0.0,0.0,0.0,0.0,0.0,0.0,0.0,0.0,0.0,Magnoliopsida; Eucalyptus L'Hér.; Tracheophyta; Pinus pinaster Aiton; 
2018,2018-10-06,Porto,Valongo,Valongo,Serra Pias (Azenhas do Vicente),41.1495269997915,-8.4783180003696,NC,91.0,2018-10-06T20:00,15.5,63,8.5,13.1,0.0,0.0,0.0,0.0,0,1019.4,1008.5,0,0,0,0,0.05,0.65,13.4,27.1,340,346,24.1,20.0,20.7,21.7,21.1,0.105,0.143,0.224,0.331,0,0.0,0.0,0.0,0.0,0.0,0.0,0.0,0.0,0.0,0.0,0.0,0.0,0.0,Eucalyptus L'Hér.; Pinus pinaster Aiton; Magnoliopsida
2018,2018-10-06,Porto,Penafiel,Paço de Sousa,Lg. Salgadinha (Salgadinha),41.163857000139,-8.32754499965244,NC,227.0,2018-10-06T21:00,14.8,55,5.9,11.6,0.0,0.0,0.0,0.0,0,1019.7,992.7,0,0,0,0,0.07,0.76,14.8,28.1,356,4,28.4,19.0,20.5,21.4,20.6,0.119,0.121,0.19,0.323,0,0.0,0.0,0.0,0.0,0.0,0.0,0.0,0.0,0.0,0.0,0.0,0.0,0.0,Tracheophyta; Eucalyptus L'Hér.; Magnoliopsida
2018,2018-02-26,Porto,Vila do Conde,Vilar de Pinheiro,Carvalhido (Souto da Rosa),41.2751030000051,-8.661347000334,NC,67.0,2018-02-26T11:00,13.7,42,1.2,8.7,0.0,0.0,0.0,0.0,1,1005.8,997.8,27,0,0,90,0.28,0.9,20.9,30.0,92,94,40.7,10.5,9.3,10.5,11.9,0.324,0.347,0.375,0.348,1,3600.0,533.5,366.3,167.2,650.0,533.5,786.6,485.0,333.0,152.0,650.0,485.0,715.1,Magnoliopsida; Eucalyptus L'Hér.; Tracheophyta
2018,2018-10-07,Porto,Valongo,Alfena,Travagem (Barreiro de Cima),41.2377230000496,-8.54022200001611,NC,134.0,2018-10-07T04:00,10.6,72,5.8,7.3,0.0,0.0,0.0,0.0,0,1020.5,1004.2,2,0,0,6,0.03,0.36,15.4,29.9,33,36,27.7,13.7,19.3,21.5,20.9,0.096,0.162,0.252,0.324,0,0.0,0.0,0.0,0.0,0.0,0.0,0.0,0.0,0.0,0.0,0.0,0.0,0.0,Tracheophyta; Magnoliopsida; Pinus pinaster Aiton
2018,2018-10-07,Porto,Maia,Gondim,Via Diagonal (Via Central de Gondim),41.2593639998966,-8.6001350000004,NC,92.0,2018-10-07T05:00,10.8,69,5.4,7.4,0.0,0.0,0.0,0.0,0,1020.6,1009.4,14,0,0,48,0.04,0.4,15.8,29.5,24,30,29.2,13.4,18.1,20.5,20.1,0.125,0.152,0.24,0.33,0,0.0,0.0,0.0,0.0,0.0,0.0,0.0,0.0,0.0,0.0,0.0,0.0,0.0,Tracheophyta; Eucalyptus L'Hér.; Magnoliopsida
2018,2018-10-07,Porto,Maia,Silva Escura,Monte de stº Antonio (Rua João Paulo II),41.2559579997593,-8.57484699991014,Reacendimento,145.0,2018-10-07T06:00,10.2,68,4.6,6.6,0.0,0.0,0.0,0.0,0,1020.7,1003.0,7,0,0,23,0.04,0.4,15.9,29.4,25,31,27.4,12.8,17.6,20.1,19.8,0.125,0.152,0.24,0.33,0,0.0,0.0,0.0,0.0,0.0,0.0,0.0,0.0,0.0,0.0,0.0,0.0,0.0,Magnoliopsida; Eucalyptus L'Hér.; Tracheophyta; Pinus pinaster Aiton; 
2018,2018-10-07,Porto,Maia,Silva Escura,Monte Stº António (Rua João Paulo II),41.2562669997745,-8.57477700021532,Reacendimento,145.0,2018-10-07T07:00,10.1,68,4.4,6.4,0.0,0.0,0.0,0.0,0,1020.9,1003.2,0,0,0,0,0.06,0.4,16.1,29.6,27,32,28.1,12.6,17.4,20.1,19.8,0.125,0.152,0.24,0.33,1,0.0,10.6,2.6,7.9,30.4,3.6,80.6,4.0,1.0,3.0,15.2,4.0,30.4,Magnoliopsida; Eucalyptus L'Hér.; Tracheophyta; Pinus pinaster Aiton; 
2018,2018-10-07,Porto,Vila Nova de Gaia,Vilar de Andorinho,Monte da Virgem (Viela do Monte da Virgem),41.1052670001984,-8.5869349998898,NC,223.0,2018-10-07T08:00,12.4,58,4.3,8.7,0.0,0.0,0.0,0.0,0,1021.0,994.2,0,0,0,0,0.09,0.61,16.1,26.5,42,46,29.5,13.2,17.9,20.7,20.3,0.12,0.143,0.226,0.33,1,3385.06,179.9,111.4,68.5,448.8,173.6,340.1,113.0,70.0,43.0,433.1,113.0,213.6,Tracheophyta; Magnoliopsida; Pinus pinaster Aiton; Pinus pinea L.
2018,2018-10-07,Porto,Paredes,Duas Igrejas,Lug de Sá Carneiro (Soutinho),41.2204520000352,-8.38054000006782,NC,410.0,2018-10-07T08:00,11.1,59,3.3,7.6,0.0,0.0,0.0,0.0,0,1021.4,972.5,0,0,0,0,0.08,0.55,13.2,21.6,45,53,31.0,12.0,17.4,20.1,19.6,0.102,0.135,0.235,0.324,1,3432.32,183.5,113.9,69.6,455.0,178.5,342.7,116.0,72.0,44.0,442.7,116.0,216.7,Magnoliopsida; Pinus pinaster Aiton; Eucalyptus L'Hér.; Tracheophyta; Vitis vinifera L.; Quercus L.; Acacia Mill.
2018,2018-10-07,Porto,Maia,Gondim,Via Diagonal (Via Central de Gondim),41.2603130001492,-8.59938300026788,NC,92.0,2018-10-07T09:00,14.8,50,4.6,11.2,0.0,0.0,0.0,0.0,0,1021.4,1010.3,0,0,0,0,0.19,0.83,15.8,21.3,35,39,31.3,14.5,17.5,20.4,20.1,0.125,0.152,0.24,0.33,1,3600.0,364.5,273.7,90.8,665.2,364.5,563.5,293.0,220.0,73.0,665.2,293.0,452.9,Tracheophyta; Eucalyptus L'Hér.; Magnoliopsida
2018,2018-10-07,Porto,Paredes,Duas Igrejas,Lugar da Indústria (Alto da Vila),41.2179779999786,-8.38387700001399,NC,440.0,2018-10-07T09:00,12.9,50,2.8,8.9,0.0,0.0,0.0,0.0,0,1021.4,969.4,0,0,0,0,0.18,0.74,15.8,21.6,66,66,36.4,13.1,17.1,19.9,19.4,0.102,0.135,0.235,0.324,1,3600.0,370.7,281.4,89.3,677.7,370.7,568.8,299.0,227.0,72.0,677.7,299.0,458.8,Magnoliopsida; Pinus pinaster Aiton; Eucalyptus L'Hér.; Tracheophyta; Vitis vinifera L.; Quercus L.; Acacia Mill.
2018,2018-10-07,Porto,Santo Tirso,Agrela,Lug. Serra (Lanço Grande),41.2652549997965,-8.47632200029161,NC,129.0,2018-10-07T11:00,18.5,38,4.0,15.0,0.0,0.0,0.0,0.0,0,1020.7,1005.4,0,0,0,0,0.38,1.32,15.9,21.1,77,76,36.0,18.4,18.4,21.4,21.0,0.096,0.162,0.252,0.324,1,3600.0,641.3,536.4,104.9,841.9,641.3,872.7,599.0,501.0,98.0,841.9,599.0,815.1,Eucalyptus L'Hér.; Pinus pinaster Aiton; Vitis vinifera L.
2018,2018-10-07,Porto,Paredes,Lordelo,Zona Industrial (Ferrujenta),41.2505420000023,-8.42352300008138,NC,315.0,2018-10-07T13:00,19.7,30,1.7,17.0,0.0,0.0,0.0,0.0,0,1019.4,982.8,0,0,0,0,0.45,1.61,12.0,15.7,74,74,31.7,20.9,17.9,20.6,20.1,0.117,0.13,0.203,0.327,1,3600.0,694.8,594.0,100.8,882.2,694.8,922.3,703.0,601.0,102.0,882.2,703.0,933.2,Magnoliopsida; Pinus pinaster Aiton; Eucalyptus L'Hér.; Tracheophyta; Vitis vinifera L.
2018,2018-10-07,Porto,Paredes,Recarei,Alvre (ED319-2 (ED319-2) Km 3),41.1438120004866,-8.41497499995761,NC,87.0,2018-10-07T15:00,22.7,29,3.7,20.2,0.0,0.0,0.0,0.0,0,1018.1,1007.9,0,0,0,0,0.38,1.97,8.0,10.0,72,69,28.8,24.2,19.4,21.6,21.2,0.107,0.144,0.225,0.331,1,3600.0,509.8,425.9,83.9,830.5,509.8,702.5,565.0,472.0,93.0,830.5,565.0,778.5,Magnoliopsida; Pinus pinaster Aiton; Eucalyptus L'Hér.; Tracheophyta; Vitis vinifera L.
2018,2018-10-07,Porto,Paredes,Recarei,Terronhas (ED15-3 (ED15-3) Km 3),41.1707870001263,-8.4412019999822,NC,160.0,2018-10-07T16:00,22.1,28,3.0,19.9,0.0,0.0,0.0,0.0,0,1017.5,998.9,0,0,0,0,0.26,1.91,4.1,5.8,75,60,20.2,24.0,19.1,21.0,20.8,0.108,0.144,0.225,0.331,1,3600.0,348.7,280.4,68.2,759.2,348.7,506.0,419.0,337.0,82.0,759.2,419.0,608.1,Magnoliopsida; Pinus pinaster Aiton; Eucalyptus L'Hér.; Tracheophyta; Vitis vinifera L.; Pinales
2018,2018-10-07,Porto,Baião,Santa Cruz do Douro,PAREDES_CIMA (Currô),41.1286949994829,-8.01703999999497,Desconhecida,577.0,2018-10-07T16:00,18.5,32,1.3,14.7,0.0,0.0,0.0,0.0,0,1018.0,951.9,0,0,0,0,0.29,1.45,13.0,18.8,85,86,38.9,21.4,17.3,19.5,19.2,0.097,0.161,0.247,0.331,1,3600.0,347.3,280.2,67.1,770.0,347.3,498.5,419.0,338.0,81.0,770.0,419.0,601.3,Magnoliopsida; Pinus pinaster Aiton; Vitis vinifera L.; Quercus L.; Tracheophyta; Eucalyptus L'Hér.; Olea europaea L.; 
2018,2018-10-07,Porto,Gondomar,Melres,Lg. Santiago (EN108 (EN108) Km 22),41.074750000106,-8.41587699996101,NC,41.0,2018-10-07T16:00,22.8,28,3.4,20.3,0.0,0.0,0.0,0.0,0,1017.5,1012.7,0,0,0,0,0.29,2.0,6.6,9.0,41,37,24.1,24.4,19.8,21.8,21.5,0.12,0.143,0.226,0.33,1,3600.0,348.7,281.3,67.4,760.5,348.7,506.6,419.0,338.0,81.0,760.5,419.0,608.8,Magnoliopsida; Tracheophyta; Eucalyptus L'Hér.
2018,2018-10-07,Porto,Lousada,Ordem,Lg. Ranho (Fontão),41.2971479998695,-8.28848200003306,Desconhecida,348.0,2018-10-07T16:00,21.0,29,2.0,18.2,0.0,0.0,0.0,0.0,0,1017.6,977.4,0,0,0,0,0.28,1.77,6.8,8.8,72,71,21.2,23.9,18.8,20.8,20.3,0.074,0.141,0.231,0.323,1,3600.0,346.4,278.3,68.1,760.7,346.4,501.1,417.0,335.0,82.0,760.7,417.0,603.3,Tracheophyta; Magnoliopsida; Vitis vinifera L.; Eucalyptus L'Hér.; Pinus pinaster Aiton
2018,2018-10-07,Porto,Gondomar,Foz do Sousa,AV CLUBE CACADORES EN108 GONDOMAR GONDOMAR_SAO_COSME_VALBOM_JOVIM PRT#GONDOMAR 4420-088 (ER108 (ER108) Km 12),41.0727920002408,-8.50775800016191,NC,68.0,2018-10-07T17:00,21.8,31,4.0,19.7,0.0,0.0,0.0,0.0,0,1017.0,1009.0,0,0,0,0,0.16,1.81,5.1,8.9,8,14,16.6,23.7,19.8,21.6,21.3,0.12,0.143,0.226,0.33,1,3600.0,166.2,122.7,43.4,624.3,166.2,269.3,241.0,178.0,63.0,624.3,241.0,390.6,Eucalyptus L'Hér.; Pinus pinaster Aiton; Magnoliopsida; Tracheophyta
2018,2018-10-07,Porto,Póvoa de Varzim,Terroso,R GIESTAS 59 POVOA_VARZIM POVOA_VARZIM_BEIRIZ_ARGIVAI PRT#POVOA_VARZIM 4495-255: ESTE (Pedreiras do Fojo),41.4068470001221,-8.72107299990124,Reacendimento,93.0,2018-10-07T17:00,20.3,42,6.9,17.5,0.0,0.0,0.0,0.0,0,1017.3,1006.4,0,0,0,0,0.21,1.39,14.0,21.4,325,335,25.6,23.3,18.9,20.4,20.2,0.098,0.155,0.228,0.316,1,3600.0,166.0,121.0,45.0,614.1,166.0,270.0,240.0,175.0,65.0,614.1,240.0,390.4,Eucalyptus L'Hér.; Tracheophyta; Pinus pinaster Aiton; Magnoliopsida
2018,2018-10-07,Porto,Gondomar,Fânzeres,Alto de Barreiros (Montezelo),41.173507999844,-8.52535999986861,NC,141.0,2018-10-07T18:00,20.1,32,2.8,18.1,0.0,0.0,0.0,0.0,0,1017.2,1000.7,0,0,0,0,0.03,1.61,2.2,4.0,279,10,4.0,22.2,19.6,21.2,20.9,0.108,0.144,0.225,0.331,1,2355.68,3.7,2.2,1.5,25.0,2.8,7.6,68.0,40.0,28.0,296.5,68.0,139.5,Magnoliopsida; Tracheophyta; Eucalyptus L'Hér.; Castanea sativa Mill.
2018,2018-10-07,Porto,Paredes,Rebordosa,Seixoso (Nabeiros),41.2184850000011,-8.38825300004747,NC,401.0,2018-10-07T18:00,16.4,38,2.0,13.6,0.0,0.0,0.0,0.0,0,1017.2,970.4,0,0,0,0,0.07,1.16,6.8,14.0,122,113,17.3,20.7,18.4,20.1,19.6,0.102,0.135,0.235,0.324,1,2292.23,1.4,0.9,0.6,10.0,1.1,3.0,65.0,39.0,26.0,292.8,65.0,134.8,Magnoliopsida; Pinus pinaster Aiton; Eucalyptus L'Hér.; Tracheophyta; Vitis vinifera L.; Quercus L.; Acacia Mill.
2018,2018-10-07,Porto,Penafiel,Marecos,Rande (Aveleira de Além),41.2008870000309,-8.28096400048998,NC,240.0,2018-10-07T21:00,16.7,34,1.0,13.1,0.0,0.0,0.0,0.0,0,1018.1,989.8,0,0,0,0,0.09,1.25,11.6,25.4,64,74,29.2,18.2,19.5,21.1,20.7,0.102,0.135,0.235,0.324,0,0.0,0.0,0.0,0.0,0.0,0.0,0.0,0.0,0.0,0.0,0.0,0.0,0.0,Tracheophyta; Magnoliopsida; Eucalyptus L'Hér.
2018,2018-10-07,Porto,Trofa,Covelas,Serra Cantoneiros (Alto dos Cantoneiros),41.2957029999627,-8.51001500023736,NC,247.0,2018-10-07T23:00,14.8,37,0.3,10.7,0.0,0.0,0.0,0.0,0,1018.1,988.8,0,0,0,0,0.1,1.06,13.8,29.3,75,79,24.5,15.8,18.4,20.3,20.0,0.133,0.156,0.226,0.328,0,0.0,0.0,0.0,0.0,0.0,0.0,0.0,0.0,0.0,0.0,0.0,0.0,0.0,Magnoliopsida; Pinus pinaster Aiton; Vitis vinifera L.; Quercus L.; Tracheophyta; Eucalyptus L'Hér.; Olea europaea L.; 
2018,2018-10-07,Porto,Baião,Ancede,Cimo de Vila,41.107644999822,-8.04695499949985,Desconhecida,464.0,2018-10-07T23:00,13.6,41,0.7,10.1,0.0,0.0,0.0,0.0,0,1018.0,963.5,0,0,0,0,0.06,0.92,10.1,26.7,92,93,42.8,14.7,18.1,20.0,19.6,0.119,0.144,0.214,0.339,0,0.0,0.0,0.0,0.0,0.0,0.0,0.0,0.0,0.0,0.0,0.0,0.0,0.0,Magnoliopsida; Pinus pinaster Aiton; Tracheophyta; Vitis vinifera L.; Quercus suber L.; Acacia Mill.; Eucalyptus L'Hér.; Quercus L.; 
2018,2018-10-07,Porto,Baião,Ovil,Outureça (Outoreca),41.1707029999627,-8.00929999987284,Desconhecida,579.0,2018-10-07T23:00,13.0,42,0.4,8.5,0.0,0.0,0.0,0.0,0,1018.6,951.0,0,0,0,0,0.09,0.87,17.0,33.5,94,92,55.4,14.8,17.5,19.5,19.2,0.097,0.161,0.247,0.331,0,0.0,0.0,0.0,0.0,0.0,0.0,0.0,0.0,0.0,0.0,0.0,0.0,0.0,Tracheophyta; Pinus pinaster Aiton; Magnoliopsida; Eucalyptus L'Hér.; Pinales; Quercus L.; Vitis vinifera L.; 
2018,2018-10-08,Porto,Santo Tirso,Couto (Santa Cristina),Monte do Rego (Bouças do Monte),41.3264949999915,-8.48669699986776,NC,104.0,2018-10-08T00:00,16.0,39,2.0,11.6,0.0,0.0,0.0,0.0,0,1018.0,1005.6,0,0,0,0,0.12,1.11,18.1,34.2,84,88,31.3,15.1,19.2,21.2,20.9,0.134,0.156,0.226,0.328,0,0.0,0.0,0.0,0.0,0.0,0.0,0.0,0.0,0.0,0.0,0.0,0.0,0.0,Eucalyptus L'Hér.; Vitis vinifera L.; Tracheophyta; Magnoliopsida; Pinus pinaster Aiton
2018,2018-10-08,Porto,Vila do Conde,Vila do Conde,VILA_CONDE#PEDREIRAS VILA_CONDE PRT#VILA_CONDE 4480: @ESTACAO METRO STA CLARA (ESTACAO#49412) (Santo Amaro),41.356998000145,-8.73796200010512,NC,18.0,2018-10-08T05:00,13.9,53,4.4,9.5,0.0,0.0,0.0,0.0,0,1016.7,1014.5,0,0,0,0,0.09,0.75,20.6,36.5,78,85,35.6,14.9,18.9,20.8,20.7,0.085,0.151,0.227,0.319,0,0.0,0.0,0.0,0.0,0.0,0.0,0.0,0.0,0.0,0.0,0.0,0.0,0.0,Tracheophyta; Magnoliopsida
2018,2018-10-08,Porto,Maia,Silva Escura,CAVADINHA (Rua da Terra Cavada),41.2634649997287,-8.58149799982707,Reacendimento,115.0,2018-10-08T06:00,13.7,52,4.2,8.2,0.0,0.0,0.0,0.0,0,1016.2,1002.4,0,0,0,0,0.12,0.75,28.8,48.6,91,93,50.4,14.8,17.9,20.1,20.0,0.126,0.153,0.241,0.33,0,0.0,0.0,0.0,0.0,0.0,0.0,0.0,0.0,0.0,0.0,0.0,0.0,0.0,Magnoliopsida; Eucalyptus L'Hér.; Tracheophyta; Pinus pinaster Aiton; 
2018,2018-10-08,Porto,Gondomar,Jovim,Lg. Aboinha (Quinta da Palmeira),41.1157150003645,-8.53936199982961,Desconhecida,10.0,2018-10-08T10:00,20.3,43,7.3,16.7,0.0,0.0,0.0,0.0,0,1016.8,1015.6,1,0,0,3,0.33,1.36,20.1,26.9,80,82,41.8,18.0,18.3,20.7,20.7,0.127,0.163,0.253,0.339,1,3600.0,514.3,416.9,97.4,768.9,514.3,743.0,454.0,368.0,86.0,768.9,454.0,655.9,Tracheophyta; Vitis vinifera L.; Magnoliopsida
2018,2018-10-08,Porto,Maia,Silva Escura,Monte Stº António (Rua Joaquim Francisco da Rocha),41.2559330002467,-8.57684700012207,Reacendimento,131.0,2018-10-08T12:00,22.0,36,6.2,18.9,0.0,0.0,0.0,0.0,0,1016.5,1001.2,0,0,0,0,0.46,1.7,18.7,24.5,92,93,44.3,20.2,17.6,19.9,19.9,0.127,0.153,0.24,0.33,1,3600.0,683.0,576.2,106.8,852.6,683.0,926.3,665.0,561.0,104.0,852.6,665.0,901.8,Magnoliopsida; Eucalyptus L'Hér.; Tracheophyta; Pinus pinaster Aiton; 
2018,2018-10-08,Porto,Gondomar,São Pedro da Cova,Lg. Bela Vista (Farrobo),41.1661179998186,-8.51811999996503,NC,183.0,2018-10-08T13:00,23.3,33,6.3,20.5,0.0,0.0,0.0,0.0,0,1015.6,994.4,0,0,0,0,0.49,1.91,17.4,22.4,84,85,38.2,22.4,18.3,20.7,20.6,0.111,0.144,0.225,0.33,1,3600.0,681.0,581.1,99.8,868.1,681.0,917.5,689.0,588.0,101.0,868.1,689.0,928.3,Magnoliopsida; Tracheophyta; Eucalyptus L'Hér.
2018,2018-10-08,Porto,Santo Tirso,Agrela,Aldeia Nova (Lanço Grande),41.2654370000627,-8.47628300031026,NC,129.0,2018-10-08T14:00,23.8,31,5.7,21.1,0.0,0.0,0.0,0.0,0,1014.8,999.9,0,0,0,0,0.47,2.03,14.9,19.2,98,98,37.1,23.1,18.5,20.9,20.8,0.134,0.155,0.226,0.328,1,3600.0,615.0,522.9,92.1,857.0,615.0,836.3,648.0,551.0,97.0,857.0,648.0,881.2,Eucalyptus L'Hér.; Vitis vinifera L.
2018,2018-10-08,Porto,Paredes,Recarei,Lg. Campo Lindo (Alegrete),41.1486980003781,-8.42973699993557,NC,140.0,2018-10-08T14:00,23.8,31,5.8,21.1,0.0,0.0,0.0,0.0,0,1014.7,998.5,0,0,0,0,0.48,2.03,15.3,19.9,81,84,37.8,24.1,19.2,21.5,21.2,0.123,0.122,0.191,0.323,1,3600.0,617.6,525.6,92.0,860.2,617.6,837.4,651.0,554.0,97.0,860.2,651.0,882.7,Magnoliopsida; Pinus pinaster Aiton; Eucalyptus L'Hér.; Tracheophyta; Vitis vinifera L.
2018,2018-10-08,Porto,Santo Tirso,Agrela,Serra Agrela (Fonte),41.2536069999801,-8.4680950000551,NC,150.0,2018-10-08T15:00,24.4,29,5.3,21.1,0.0,0.0,0.0,0.0,0,1014.0,996.7,0,0,0,0,0.43,2.17,15.5,19.4,91,91,33.1,24.3,19.0,21.0,20.9,0.1,0.162,0.252,0.324,1,3600.0,499.3,417.3,82.0,823.2,499.3,694.8,554.0,463.0,91.0,823.2,554.0,770.9,Eucalyptus L'Hér.; Tracheophyta; Quercus L.; Magnoliopsida
2018,2018-10-08,Porto,Paredes,Aguiar de Sousa,Senhora do Salto (ED319-2 (ED319-2) Km 6),41.130876999961,-8.43340199999925,NC,152.0,2018-10-08T15:00,23.9,31,5.5,20.7,0.0,0.0,0.0,0.0,0,1014.0,996.5,0,0,0,0,0.42,2.06,14.2,18.1,74,77,34.6,24.8,19.3,21.5,21.1,0.123,0.122,0.19,0.323,1,3600.0,499.0,417.1,82.0,823.5,499.0,694.1,554.0,463.0,91.0,823.5,554.0,770.6,Magnoliopsida; Pinus pinaster Aiton; Eucalyptus L'Hér.; Tracheophyta; Vitis vinifera L.
2018,2018-10-08,Porto,Trofa,Guidões,Sanguinhal (Monte de Baixo),41.326511999766,-8.60657999992371,NC,72.0,2018-10-08T16:00,21.9,42,8.5,19.5,0.0,0.0,0.0,0.0,0,1013.6,1005.2,0,0,0,0,0.3,1.51,13.8,17.4,327,330,26.6,25.2,19.2,20.4,20.4,0.091,0.163,0.246,0.324,1,3600.0,340.7,272.5,68.1,747.6,340.7,499.7,410.0,328.0,82.0,747.6,410.0,601.4,Magnoliopsida; Tracheophyta; Eucalyptus L'Hér.; Pinales; Pinus pinaster Aiton
2018,2018-10-08,Porto,Baião,Ancede,Casa Nova (Casal),41.1114129998949,-8.03499300003052,Desconhecida,344.0,2018-10-08T16:00,22.3,34,5.7,19.7,0.0,0.0,0.0,0.0,0,1014.0,974.6,0,0,0,0,0.3,1.78,10.6,14.8,80,84,31.0,24.2,18.6,20.6,20.4,0.118,0.143,0.213,0.339,1,3600.0,339.3,273.1,66.2,757.9,339.3,493.9,410.0,330.0,80.0,757.9,410.0,596.8,Magnoliopsida; Pinus pinaster Aiton; Tracheophyta; Vitis vinifera L.; Quercus suber L.; Acacia Mill.; Eucalyptus L'Hér.; Quercus L.; ; Pinales
2018,2018-10-08,Porto,Valongo,Sobrado,Balselhas (ER209 (ER209) Km 17),41.1978070004781,-8.47310499986013,NC,165.0,2018-10-08T17:00,22.9,32,5.5,20.6,0.0,0.0,0.0,0.0,0,1013.5,994.4,0,0,0,0,0.19,1.9,8.7,15.4,83,79,25.9,23.9,19.4,20.8,20.8,0.1,0.162,0.252,0.323,1,3600.0,159.3,116.9,42.4,612.7,159.3,261.5,233.0,171.0,62.0,612.7,233.0,382.5,Pinus pinaster Aiton; Tracheophyta; Eucalyptus L'Hér.; Magnoliopsida
2018,2018-10-08,Porto,Paredes,Sobreira,Vilar,41.1398870001899,-8.38082800017463,NC,152.0,2018-10-08T17:00,23.2,32,5.7,19.6,0.0,0.0,0.0,0.0,0,1013.4,995.8,0,0,0,0,0.26,1.93,17.1,25.7,68,75,36.4,24.4,19.8,21.4,21.1,0.123,0.122,0.19,0.323,1,3600.0,158.1,115.9,42.3,611.7,158.1,259.7,232.0,170.0,62.0,611.7,232.0,381.0,Magnoliopsida; Pinus pinaster Aiton; Eucalyptus L'Hér.; Tracheophyta; Vitis vinifera L.
2018,2018-10-08,Porto,Valongo,Alfena,Codiceira (Pedrouços),41.2417620001899,-8.51621200031704,NC,93.0,2018-10-08T17:00,23.4,32,6.0,21.1,0.0,0.0,0.0,0.0,0,1013.5,1002.7,0,0,0,0,0.2,1.95,8.7,15.4,83,79,25.9,24.4,19.9,21.3,21.3,0.1,0.162,0.252,0.323,1,3600.0,159.3,116.9,42.4,612.7,159.3,261.5,233.0,171.0,62.0,612.7,233.0,382.5,Eucalyptus L'Hér.; Tracheophyta; Magnoliopsida
2018,2018-02-26,Porto,Paredes,Vandoma,Boavista (Lagar),41.196501999961,-8.40441199991438,NC,353.0,2018-02-26T13:00,12.2,45,0.5,7.4,0.0,0.0,0.0,0.0,2,1005.0,963.6,59,0,49,100,0.25,0.79,19.1,27.4,86,88,41.0,9.7,7.6,8.9,10.5,0.332,0.345,0.381,0.363,1,3582.35,443.8,115.5,328.4,179.4,443.8,898.4,442.0,115.0,327.0,179.4,442.0,894.7,Magnoliopsida; Pinus pinaster Aiton; Eucalyptus L'Hér.; Tracheophyta; Vitis vinifera L.
2018,2018-10-08,Porto,Penafiel,Capela,Serra (Alto da Pena Branca),41.1019299999873,-8.37062700006697,NC,262.0,2018-10-08T19:00,19.1,40,5.2,16.2,0.0,0.0,0.0,0.0,0,1013.1,982.6,0,0,0,0,0.09,1.32,11.2,24.0,57,64,28.8,21.4,19.4,20.5,20.5,0.101,0.145,0.228,0.318,0,0.0,0.0,0.0,0.0,0.0,0.0,0.0,0.0,0.0,0.0,0.0,0.0,0.0,Magnoliopsida; Eucalyptus L'Hér.
2018,2018-10-08,Porto,Vila do Conde,Aveleda,Zona Industrial (Bouça Nova),41.2576629998949,-8.68975200017293,NC,55.0,2018-10-08T21:00,16.8,50,6.2,14.5,0.0,0.0,0.0,0.0,0,1013.5,1007.0,0,0,0,0,0.05,0.97,9.3,21.6,54,72,15.1,18.6,19.6,20.3,20.4,0.126,0.152,0.24,0.33,0,0.0,0.0,0.0,0.0,0.0,0.0,0.0,0.0,0.0,0.0,0.0,0.0,0.0,Tracheophyta; Eucalyptus L'Hér.
2018,2018-10-08,Porto,Penafiel,Boelhe,Samardã (BOELHE),41.1352009999752,-8.24032099988725,NC,231.0,2018-10-08T22:00,14.6,52,4.9,12.3,0.0,0.0,0.0,0.0,0,1013.8,986.4,0,0,0,0,0.03,0.8,7.3,15.2,57,86,16.6,17.1,19.3,20.8,20.7,0.106,0.142,0.227,0.32,0,0.0,0.0,0.0,0.0,0.0,0.0,0.0,0.0,0.0,0.0,0.0,0.0,0.0,Magnoliopsida; Tracheophyta; Vitis vinifera L.; Eucalyptus L'Hér.
2018,2018-10-08,Porto,Baião,Ancede,Silveira (Casal),41.1115219995711,-8.03519800000721,Desconhecida,369.0,2018-10-08T23:00,13.3,58,5.2,10.6,0.0,0.0,0.0,0.0,0,1013.8,970.3,0,0,0,0,0.04,0.64,10.4,18.3,104,105,34.2,15.5,18.8,20.4,20.2,0.118,0.143,0.213,0.339,0,0.0,0.0,0.0,0.0,0.0,0.0,0.0,0.0,0.0,0.0,0.0,0.0,0.0,Magnoliopsida; Pinus pinaster Aiton; Tracheophyta; Vitis vinifera L.; Quercus suber L.; Acacia Mill.; Eucalyptus L'Hér.; Quercus L.; ; Pinales
2018,2018-02-26,Porto,Marco de Canaveses,Várzea da Ovelha e Aliviada,Venda da Giesta (Merelhe),41.1977219994863,-8.07966799947951,Desconhecida,428.0,2018-02-26T13:00,11.5,47,0.5,6.9,0.0,0.0,0.0,0.0,1,1005.6,955.5,37,0,11,100,0.26,0.73,17.7,26.1,102,102,55.4,8.8,6.0,7.8,9.6,0.326,0.346,0.387,0.362,1,3600.0,480.5,164.5,316.0,255.7,480.5,898.0,479.0,164.0,315.0,255.7,479.0,895.2,Magnoliopsida; Tracheophyta; Vitis vinifera L.; Eucalyptus L'Hér.; Pinus pinaster Aiton; Pinales
2018,2018-10-08,Porto,Penafiel,Lagares,PENAFIEL LAGARES_FIGUEIRA PRT#PENAFIEL 4560: @LAGARES (SF#177253) (LAGARES),41.1275269995795,-8.36914000007841,NC,195.0,2018-10-08T19:00,19.6,39,5.2,16.9,0.0,0.0,0.0,0.0,0,1013.3,990.6,0,0,0,0,0.09,1.4,10.6,22.9,55,71,27.0,21.7,19.8,21.1,20.8,0.123,0.123,0.19,0.323,0,0.0,0.0,0.0,0.0,0.0,0.0,0.0,0.0,0.0,0.0,0.0,0.0,0.0,Eucalyptus L'Hér.; Magnoliopsida; Tracheophyta
2018,2018-10-09,Porto,Paredes,Sobreira,Aguim (ER319 (ER319) Km 52),41.1564420000712,-8.39584799978468,NC,147.0,2018-10-09T00:00,16.1,47,4.8,13.5,0.0,0.0,0.0,0.0,0,1013.3,995.9,0,0,0,0,0.06,0.97,9.5,20.8,61,80,20.5,16.3,20.1,21.4,21.1,0.12,0.121,0.188,0.323,0,0.0,0.0,0.0,0.0,0.0,0.0,0.0,0.0,0.0,0.0,0.0,0.0,0.0,Magnoliopsida; Pinus pinaster Aiton; Eucalyptus L'Hér.; Tracheophyta; Vitis vinifera L.
2018,2018-10-09,Porto,Vila Nova de Gaia,Vilar de Andorinho,moinhos (Rua de Moinhos),41.1148429997762,-8.56831699993875,NC,33.0,2018-10-09T01:00,16.4,53,6.7,13.4,0.0,0.0,0.0,0.0,0,1012.5,1008.6,0,0,0,0,0.08,0.89,14.9,29.2,83,89,27.0,16.1,19.6,20.5,20.5,0.125,0.16,0.251,0.339,0,0.0,0.0,0.0,0.0,0.0,0.0,0.0,0.0,0.0,0.0,0.0,0.0,0.0,Magnoliopsida; Tracheophyta
2018,2018-10-09,Porto,Póvoa de Varzim,Beiriz,PARQUE DESPORTIVO TERROSO AVER_MAR_AMORIM_TERROSO PRT#POVOA_VARZIM 4495-561 (Santo António),41.4065650002162,-8.72068799999025,Reacendimento,96.0,2018-10-09T06:00,14.4,54,5.2,10.5,0.0,0.0,0.0,0.0,0,1011.2,999.7,0,0,0,0,0.08,0.75,18.4,34.7,78,85,32.4,14.8,18.5,20.1,20.2,0.098,0.152,0.225,0.316,0,0.0,0.0,0.0,0.0,0.0,0.0,0.0,0.0,0.0,0.0,0.0,0.0,0.0,Eucalyptus L'Hér.; Tracheophyta; Pinus pinaster Aiton; Magnoliopsida
2018,2018-10-09,Porto,Vila Nova de Gaia,Vilar de Andorinho,Lugar  Dos Moinhos (Rua de Moinhos),41.1148919995626,-8.56811299999555,NC,33.0,2018-10-09T08:00,16.2,56,7.5,12.7,0.0,0.0,0.0,0.0,0,1011.0,1007.1,0,0,0,0,0.12,0.81,19.9,33.8,77,82,36.0,16.2,18.8,20.4,20.5,0.125,0.161,0.251,0.339,1,3222.22,167.6,102.5,65.1,428.2,157.0,328.2,103.0,63.0,40.0,401.1,103.0,201.8,Magnoliopsida; Tracheophyta
2018,2018-10-09,Porto,Maia,Silva Escura,Friães (Rua de Friães),41.2554230001238,-8.57560199949477,Reacendimento,143.0,2018-10-09T09:00,18.3,47,6.8,14.3,0.0,0.0,0.0,0.0,0,1011.1,994.3,0,0,0,0,0.23,1.12,22.1,31.9,97,96,41.4,16.9,18.0,19.7,19.8,0.122,0.15,0.237,0.33,1,3600.0,351.0,263.5,87.4,653.2,351.0,553.2,281.0,211.0,70.0,653.2,281.0,442.9,Magnoliopsida; Eucalyptus L'Hér.; Tracheophyta; Pinus pinaster Aiton; 
2018,2018-10-09,Porto,Paços de Ferreira,Eiriz,Via Panoramica (Cabo),41.3073879999585,-8.37918800036113,Desconhecida,344.0,2018-10-09T10:00,18.4,46,6.6,14.8,0.0,0.0,0.0,0.0,0,1011.6,971.8,0,0,0,0,0.3,1.14,18.6,25.9,100,100,43.2,17.2,17.8,20.2,20.2,0.078,0.146,0.237,0.322,1,3600.0,510.9,413.5,97.4,769.4,510.9,736.8,451.0,365.0,86.0,769.4,451.0,650.5,Tracheophyta; Eucalyptus L'Hér.; Magnoliopsida; ; Pinus pinaster Aiton; Quercus L.
2018,2018-02-26,Porto,Paredes,Rebordosa,Alto do Facho (Guimbra),41.2215750000212,-8.39733999994066,NC,334.0,2018-02-26T13:00,12.3,45,0.6,7.5,0.0,0.0,0.0,0.0,2,1005.0,965.8,59,0,49,100,0.26,0.79,19.1,27.4,86,88,41.0,9.8,7.7,9.0,10.6,0.332,0.345,0.381,0.363,1,3582.35,443.8,115.5,328.4,179.4,443.8,898.4,442.0,115.0,327.0,179.4,442.0,894.7,Magnoliopsida; Pinus pinaster Aiton; Eucalyptus L'Hér.; Tracheophyta; Vitis vinifera L.
2018,2018-10-09,Porto,Paços de Ferreira,Penamaior,Pilar (Senhora do Pilar),41.2900290001763,-8.42327699979146,Desconhecida,470.0,2018-10-09T11:00,19.3,41,5.5,16.0,0.0,0.0,0.0,0.0,0,1011.2,957.4,0,0,0,0,0.38,1.33,16.2,21.8,107,106,37.8,18.0,17.0,19.6,19.6,0.073,0.138,0.229,0.322,1,3600.0,624.1,522.4,101.7,831.3,624.1,861.7,583.0,488.0,95.0,831.3,583.0,805.0,Magnoliopsida; Eucalyptus L'Hér.; Tracheophyta; Vitis vinifera L.; 
2018,2018-10-09,Porto,Valongo,Valongo,Povoas (Azenhas do Vicente),41.1503820000092,-8.47806299951341,NC,93.0,2018-10-09T11:00,22.5,38,7.5,20.0,0.0,0.0,0.0,0.0,0,1010.6,999.8,0,0,0,0,0.41,1.69,14.0,18.0,90,93,36.0,20.8,19.1,21.1,21.2,0.107,0.14,0.224,0.33,1,3600.0,623.4,521.7,101.8,829.3,623.4,862.6,582.0,487.0,95.0,829.3,582.0,805.3,Eucalyptus L'Hér.; Pinus pinaster Aiton; Magnoliopsida
2018,2018-10-09,Porto,Santo Tirso,Refojos de Riba de Ave,Gandra (Represas),41.2988320000966,-8.4389479997423,NC,427.0,2018-10-09T11:00,19.5,41,5.8,16.3,0.0,0.0,0.0,0.0,0,1011.2,962.3,0,0,0,0,0.38,1.35,16.2,21.8,107,106,37.8,18.3,17.3,19.9,19.8,0.073,0.138,0.229,0.322,1,3600.0,624.1,522.4,101.7,831.3,624.1,861.7,583.0,488.0,95.0,831.3,583.0,805.0,Eucalyptus L'Hér.; Tracheophyta; Magnoliopsida; Pinus pinaster Aiton
2018,2018-10-09,Porto,Paredes,Recarei,Alegrete (ED15-3 (ED15-3) Km 2),41.1576379998525,-8.43252799987793,NC,178.0,2018-10-09T12:00,22.8,37,7.3,21.0,0.0,0.0,0.0,0.0,0,1010.2,989.7,0,0,0,0,0.45,1.75,11.7,14.8,81,86,32.4,22.0,19.0,21.1,20.9,0.121,0.121,0.189,0.323,1,3600.0,680.5,578.9,101.6,861.0,680.5,921.9,663.0,564.0,99.0,861.0,663.0,898.3,Magnoliopsida; Pinus pinaster Aiton; Eucalyptus L'Hér.; Tracheophyta; Vitis vinifera L.
2018,2018-10-09,Porto,Santo Tirso,Monte Córdova,Lugar de Curtinhas (Lage),41.3108469994863,-8.4252819999059,NC,356.0,2018-10-09T12:00,21.6,36,5.8,19.1,0.0,0.0,0.0,0.0,0,1010.4,969.7,0,0,0,0,0.45,1.66,14.2,18.1,114,113,37.8,21.0,17.9,20.1,20.1,0.078,0.146,0.238,0.322,1,3600.0,678.5,575.8,102.6,858.8,678.5,919.4,661.0,561.0,100.0,858.8,661.0,895.7,Eucalyptus L'Hér.; Tracheophyta; Vitis vinifera L.; Pinus pinaster Aiton; Magnoliopsida
2018,2018-10-09,Porto,Paredes,Aguiar de Sousa,Senhora do Salto (ED319-2 (ED319-2) Km 6),41.1305080000559,-8.43348300000032,NC,120.0,2018-10-09T12:00,23.6,35,7.3,22.3,0.0,0.0,0.0,0.0,0,1010.1,996.3,0,0,0,0,0.45,1.89,9.0,10.8,92,94,30.6,22.6,19.2,21.0,21.0,0.109,0.141,0.225,0.33,1,3600.0,679.7,577.0,102.7,858.4,679.7,921.7,662.0,562.0,100.0,858.4,662.0,897.7,Magnoliopsida; Pinus pinaster Aiton; Eucalyptus L'Hér.; Tracheophyta; Vitis vinifera L.
2018,2018-10-09,Porto,Paredes,Rebordosa,Lugar Da Igreja (Portela),41.2006100000276,-8.4252159998152,NC,193.0,2018-10-09T12:00,22.5,36,6.8,20.3,0.0,0.0,0.0,0.0,0,1010.4,988.2,0,0,0,0,0.45,1.73,14.0,17.7,102,103,36.4,21.7,18.9,21.0,20.9,0.115,0.128,0.202,0.327,1,3600.0,680.5,576.8,103.7,859.2,680.5,920.7,663.0,562.0,101.0,859.2,663.0,897.0,Magnoliopsida; Pinus pinaster Aiton; Eucalyptus L'Hér.; Tracheophyta; Vitis vinifera L.
2018,2018-10-09,Porto,Paredes,Recarei,Lg. Terronhas (ED15-3 (ED15-3) Km 2),41.1609420002831,-8.43416200002035,NC,163.0,2018-10-09T13:00,24.3,32,6.6,23.6,0.0,0.0,0.0,0.0,0,1009.0,990.3,0,0,0,0,0.45,2.06,4.7,5.8,86,83,22.3,24.2,19.1,20.7,20.7,0.109,0.141,0.225,0.33,1,3600.0,671.9,572.1,99.8,861.0,671.9,911.2,680.0,579.0,101.0,861.0,680.0,922.2,Magnoliopsida; Pinus pinaster Aiton; Eucalyptus L'Hér.; Tracheophyta; Vitis vinifera L.
2018,2018-10-09,Porto,Paredes,Aguiar de Sousa,Senhora do salto (ED319-2 (ED319-2) Km 6),41.130736000273,-8.43352700000008,NC,120.0,2018-10-09T13:00,24.6,32,6.9,23.9,0.0,0.0,0.0,0.0,0,1009.0,995.2,0,0,0,0,0.45,2.09,4.7,5.8,86,83,22.3,24.5,19.4,21.0,21.0,0.109,0.141,0.225,0.33,1,3600.0,671.9,572.1,99.8,861.0,671.9,911.2,680.0,579.0,101.0,861.0,680.0,922.2,Magnoliopsida; Pinus pinaster Aiton; Eucalyptus L'Hér.; Tracheophyta; Vitis vinifera L.
2018,2018-10-09,Porto,Vila Nova de Gaia,Gulpilhares,Monte (Pereirinho),41.0822280004289,-8.62682300037808,NC,82.0,2018-10-09T15:00,22.5,37,7.2,19.6,0.0,0.0,0.0,0.0,0,1007.9,998.4,0,0,0,0,0.39,1.7,14.9,18.5,285,283,30.6,25.2,19.5,20.1,20.2,0.126,0.161,0.251,0.339,1,3600.0,490.0,406.2,83.8,806.1,490.0,691.1,544.0,451.0,93.0,806.1,544.0,767.3,Tracheophyta; Magnoliopsida; Eucalyptus L'Hér.
2018,2018-10-09,Porto,Matosinhos,Custóias,Lugar Capela Esposade (VELA),41.2161819998423,-8.65023700000511,NC,39.0,2018-10-09T15:00,22.4,37,6.9,19.4,0.0,0.0,0.0,0.0,0,1008.0,1003.5,0,0,0,0,0.39,1.72,15.5,19.4,283,280,31.7,25.5,19.8,20.3,20.5,0.122,0.15,0.237,0.329,1,3600.0,490.9,406.2,84.7,808.1,490.9,689.4,545.0,451.0,94.0,808.1,545.0,765.4,Eucalyptus L'Hér.; Magnoliopsida; Acacia Mill.; Tracheophyta
2018,2018-10-09,Porto,Paredes,Recarei,Outeiro (Alegrete),41.1487449995677,-8.42965000046624,NC,140.0,2018-10-09T15:00,24.7,30,5.9,22.8,0.0,0.0,0.0,0.0,0,1007.6,991.6,0,0,0,0,0.37,2.18,6.1,7.4,45,51,20.2,26.3,19.9,21.3,21.2,0.121,0.121,0.189,0.322,1,3600.0,489.5,406.7,82.8,811.5,489.5,687.3,544.0,452.0,92.0,811.5,544.0,763.9,Magnoliopsida; Pinus pinaster Aiton; Eucalyptus L'Hér.; Tracheophyta; Vitis vinifera L.
2018,2018-02-26,Porto,Penafiel,Boelhe,OUTEIRO,41.135129999982,-8.23825300004747,NC,200.0,2018-02-26T13:00,14.1,44,1.9,10.2,0.0,0.0,0.0,0.0,1,1004.7,981.1,49,0,31,100,0.27,0.9,14.3,20.5,72,79,35.6,10.1,7.4,9.0,10.7,0.329,0.347,0.375,0.348,1,3600.0,461.8,131.5,330.3,204.0,461.8,899.6,460.0,131.0,329.0,204.0,460.0,896.2,Magnoliopsida; Tracheophyta; Vitis vinifera L.; Eucalyptus L'Hér.
2018,2018-10-09,Porto,Paredes,Beire,Sobroso,41.2508599999878,-8.3289250002967,NC,280.0,2018-10-09T19:00,16.7,47,5.4,14.3,0.0,0.0,0.0,0.0,0,1007.3,974.7,1,0,1,0,0.05,1.0,8.4,19.4,353,345,21.2,21.3,19.8,20.4,20.3,0.115,0.128,0.201,0.327,0,0.0,0.0,0.0,0.0,0.0,0.0,0.0,0.0,0.0,0.0,0.0,0.0,0.0,Magnoliopsida; Pinus pinaster Aiton; Eucalyptus L'Hér.; Tracheophyta; Vitis vinifera L.; Quercus L.
2018,2018-10-09,Porto,Paredes,Recarei,R POVOAS 486 CAMPO CAMPO_SOBRADO PRT#VALONGO 4440-077: ESTE (Bustelo),41.1500230000003,-8.46040699958801,Desconhecida,176.0,2018-10-09T12:00,23.2,35,6.9,21.8,0.0,0.0,0.0,0.0,0,1010.1,989.9,0,0,0,0,0.45,1.85,9.0,10.8,92,94,30.6,22.2,18.8,20.6,20.6,0.109,0.141,0.225,0.33,1,3600.0,679.7,577.0,102.7,858.4,679.7,921.7,662.0,562.0,100.0,858.4,662.0,897.7,Magnoliopsida; Pinus pinaster Aiton; Eucalyptus L'Hér.; Tracheophyta; Vitis vinifera L.
2018,2018-10-09,Porto,Valongo,Campo,VIA A41 VALONGO CAMPO_SOBRADO PRT#VALONGO 4440 (Ribeira),41.1821040005154,-8.45299699995253,NC,134.0,2018-10-09T11:00,22.3,38,7.3,19.7,0.0,0.0,0.0,0.0,0,1010.6,995.1,0,0,0,0,0.41,1.67,14.0,18.0,90,93,36.0,20.6,18.9,20.9,20.9,0.107,0.14,0.224,0.33,1,3600.0,623.4,521.7,101.8,829.3,623.4,862.6,582.0,487.0,95.0,829.3,582.0,805.3,Magnoliopsida; Tracheophyta; Quercus suber L.; Pinus pinaster Aiton
2018,2018-10-09,Porto,Paredes,Recarei,R JOAO PAULO II EN15 3 REBORDOSA RECAREI PRT#PAREDES 4585-438 (ED15-3 (ED15-3) Km 2),41.1636469999949,-8.43202900038825,NC,148.0,2018-10-09T11:00,21.7,39,7.2,19.1,0.0,0.0,0.0,0.0,0,1010.8,993.6,0,0,0,0,0.4,1.58,14.2,18.4,81,86,37.4,20.3,19.0,21.3,21.1,0.12,0.121,0.188,0.323,1,3600.0,625.3,523.6,101.7,831.6,625.3,863.4,584.0,489.0,95.0,831.6,584.0,806.3,Magnoliopsida; Pinus pinaster Aiton; Eucalyptus L'Hér.; Tracheophyta; Vitis vinifera L.; Pinales
2018,2018-10-09,Porto,Paredes,Sobrosa,Lomba,41.2497550000085,-8.34382200029161,NC,350.0,2018-10-09T22:00,13.3,65,6.9,11.6,0.0,0.0,0.0,0.0,0,1007.0,966.0,1,0,1,0,0.01,0.53,6.2,6.5,83,71,10.1,17.2,19.3,19.9,19.9,0.115,0.128,0.201,0.327,0,0.0,0.0,0.0,0.0,0.0,0.0,0.0,0.0,0.0,0.0,0.0,0.0,0.0,Magnoliopsida; Pinus pinaster Aiton; Eucalyptus L'Hér.; Tracheophyta; Vitis vinifera L.
2018,2018-10-09,Porto,Vila Nova de Gaia,Serzedo,Estrada da Rainha (Rua do Caminho do Senhor),41.0619629997677,-8.62193299982283,NC,75.0,2018-10-09T22:00,16.0,60,8.2,14.0,0.0,0.0,0.0,0.0,0,1006.8,997.9,0,0,0,0,0.04,0.73,10.1,17.0,96,77,18.0,18.0,20.1,20.2,20.3,0.125,0.161,0.251,0.339,0,0.0,0.0,0.0,0.0,0.0,0.0,0.0,0.0,0.0,0.0,0.0,0.0,0.0,Eucalyptus L'Hér.; Tracheophyta; Magnoliopsida; Pinus pinaster Aiton; Acacia Mill.
2018,2018-10-10,Porto,Santo Tirso,Vilarinho,Eiró (Eiro),41.3666600004832,-8.33686699999703,NC,162.0,2018-10-10T08:00,15.8,49,5.0,12.9,0.0,0.0,0.0,0.0,0,1004.6,985.6,0,0,0,0,0.1,0.92,11.6,19.3,112,123,24.1,15.2,18.8,20.8,21.0,0.1,0.153,0.239,0.321,1,3185.74,161.7,96.3,65.3,407.7,150.4,324.2,99.0,59.0,40.0,379.3,99.0,198.6,Eucalyptus L'Hér.; Tracheophyta; Pinus pinaster Aiton; Vitis vinifera L.; Magnoliopsida
2018,2018-10-10,Porto,Santo Tirso,Agrela,Lugar 25 de Abril (Lanço Grande),41.2656400002374,-8.47604500028822,NC,129.0,2018-10-10T08:00,16.4,48,5.5,13.8,0.0,0.0,0.0,0.0,0,1004.5,989.4,0,0,0,0,0.09,0.97,10.1,15.5,117,149,18.7,15.5,18.8,20.6,20.8,0.129,0.152,0.224,0.328,1,3162.69,160.6,98.3,62.3,417.8,148.8,323.0,98.0,60.0,38.0,387.0,98.0,197.0,Eucalyptus L'Hér.; Vitis vinifera L.
2018,2018-10-10,Porto,Paredes,Recarei,Além Rio (Além do Rio),41.1467219999101,-8.40967000007629,NC,122.0,2018-10-10T11:00,23.3,37,7.6,21.3,0.0,0.0,0.0,0.0,0,1004.4,990.4,0,0,0,0,0.4,1.82,10.8,14.1,201,199,24.8,21.1,19.1,21.4,21.3,0.12,0.121,0.188,0.322,1,3600.0,616.9,515.2,101.7,824.1,616.9,857.7,576.0,481.0,95.0,824.1,576.0,800.8,Magnoliopsida; Pinus pinaster Aiton; Eucalyptus L'Hér.; Tracheophyta; Vitis vinifera L.
2018,2018-10-10,Porto,Penafiel,Boelhe,L. Samardã (BOELHE),41.1352009999752,-8.24032099988725,NC,231.0,2018-10-10T14:00,21.5,51,11.0,18.9,0.0,0.0,0.0,0.0,1,1003.8,977.3,50,0,34,97,0.29,1.25,19.9,27.5,235,233,48.6,22.5,18.3,20.4,20.7,0.108,0.142,0.228,0.319,1,3600.0,326.8,154.4,172.4,257.3,326.8,823.3,345.0,163.0,182.0,257.3,345.0,869.2,Magnoliopsida; Tracheophyta; Vitis vinifera L.; Eucalyptus L'Hér.
2018,2018-10-10,Porto,Felgueiras,Sousa,Lg. São Vicente (Lamosa),41.3446560001373,-8.2467970000373,Desconhecida,302.0,2018-10-10T14:00,21.0,51,10.5,18.1,0.0,0.0,0.0,0.0,2,1003.9,969.4,62,19,26,98,0.3,1.21,20.4,27.9,221,219,49.7,23.0,18.8,20.5,20.6,0.082,0.137,0.216,0.32,1,3600.0,362.8,224.5,138.3,375.6,362.8,820.1,383.0,237.0,146.0,375.6,383.0,865.8,Tracheophyta; Eucalyptus L'Hér.; Magnoliopsida; Vitis vinifera L.
2018,2018-02-26,Porto,Penafiel,Bustelo,Lg. Novo (Chousal),41.2292950005002,-8.28020300017463,NC,173.0,2018-02-26T14:00,14.2,44,2.3,10.3,0.0,0.0,0.0,0.0,2,1004.1,983.7,79,0,82,99,0.28,0.9,15.1,22.0,89,89,38.5,11.0,8.1,9.4,11.2,0.332,0.352,0.386,0.356,1,3600.0,443.4,152.3,291.1,251.1,443.4,846.6,460.0,158.0,302.0,251.1,460.0,878.4,Magnoliopsida; Tracheophyta; Eucalyptus L'Hér.; Pinus pinaster Aiton; Vitis vinifera L.; Pinales; 
2018,2018-10-10,Porto,Vila Nova de Gaia,Sandim,Lg. Santa marinha (Rua do Uima),41.0311400000254,-8.49341799947951,NC,97.0,2018-10-10T15:00,21.6,55,12.2,19.4,0.0,0.0,0.0,0.0,1,1003.8,992.6,32,2,2,97,0.32,1.15,19.4,25.8,223,220,39.2,23.7,19.8,21.1,21.2,0.133,0.144,0.22,0.329,1,3600.0,406.4,235.6,170.9,472.8,406.4,683.7,452.0,262.0,190.0,472.8,452.0,760.3,Tracheophyta; Quercus L.; Pinus pinea L.; Magnoliopsida; Eucalyptus L'Hér.
2018,2018-10-10,Porto,Santo Tirso,Monte Córdova,L. Padrão (ER319 (ER319) Km 8),41.3178410000271,-8.42860299958123,NC,367.0,2018-10-10T15:00,19.9,52,9.8,17.0,0.0,0.0,0.0,0.0,1,1003.8,961.9,40,10,3,98,0.32,1.11,19.2,26.5,214,214,49.3,23.0,18.5,19.9,20.0,0.077,0.147,0.238,0.322,1,3600.0,421.5,270.5,151.0,546.9,421.5,678.8,469.0,301.0,168.0,546.9,469.0,755.3,Eucalyptus L'Hér.; Magnoliopsida; Tracheophyta; Pinus pinaster Aiton
2018,2018-10-10,Porto,Santo Tirso,Negrelos (São Tomé),Lugar da Agra (Carvocelos),41.3473219998678,-8.39270000033908,NC,276.0,2018-10-10T14:00,20.7,52,10.5,17.7,0.0,0.0,0.0,0.0,1,1003.9,972.3,32,3,0,98,0.35,1.17,21.8,30.3,214,212,52.2,22.6,18.5,20.0,20.2,0.103,0.154,0.24,0.321,1,3600.0,473.8,355.4,118.5,593.9,473.8,821.1,500.0,375.0,125.0,593.9,500.0,866.5,Magnoliopsida; Tracheophyta; Vitis vinifera L.; Eucalyptus L'Hér.; Quercus suber L.
2018,2018-10-10,Porto,Penafiel,Recezinhos (São Mamede),Mato (Pinheiro da India),41.2416379997465,-8.19294299973382,NC,285.0,2018-10-10T15:00,21.2,52,10.9,19.0,0.0,0.0,0.0,0.0,1,1003.6,971.0,46,0,28,98,0.33,1.21,16.9,22.9,230,228,46.4,22.9,18.5,20.2,20.4,0.103,0.135,0.233,0.323,1,3600.0,433.9,288.3,145.5,583.4,433.9,678.2,483.0,321.0,162.0,583.4,483.0,755.0,Magnoliopsida; Eucalyptus L'Hér.; Tracheophyta; Vitis vinifera L.
2018,2018-10-10,Porto,Santo Tirso,Monte Córdova,L. Alto - Monte Padrão (ED319-1 (ED319-1) Km 0),41.321613000234,-8.44297300020854,NC,428.0,2018-10-10T15:00,20.0,53,10.2,17.5,0.0,0.0,0.0,0.0,1,1003.7,955.1,47,8,18,98,0.32,1.09,17.3,23.5,222,220,44.6,22.7,18.0,19.6,19.8,0.072,0.139,0.23,0.322,1,3600.0,433.0,286.5,146.4,580.5,433.0,677.3,482.0,319.0,163.0,580.5,482.0,754.0,Pinus pinaster Aiton; Tracheophyta; Eucalyptus L'Hér.; Vitis vinifera L.
2018,2018-10-10,Porto,Paredes,Vilela,Lugar de Campos (Quinta do Penedo),41.2416780000263,-8.38544199996524,NC,292.0,2018-10-10T15:00,20.4,53,10.4,17.8,0.0,0.0,0.0,0.0,1,1003.8,970.4,37,6,4,98,0.32,1.14,18.9,25.3,222,220,45.0,22.9,18.7,20.2,20.2,0.115,0.129,0.202,0.326,1,3600.0,424.2,270.5,153.7,546.2,424.2,679.7,472.0,301.0,171.0,546.2,472.0,756.2,Magnoliopsida; Pinus pinaster Aiton; Eucalyptus L'Hér.; Tracheophyta; Vitis vinifera L.
2018,2018-10-10,Porto,Amarante,Travanca,Lg. Barreiro (Barreiro),41.2623599995507,-8.20399800009198,Desconhecida,246.0,2018-10-10T15:00,21.4,52,11.1,19.3,0.0,0.0,0.0,0.0,1,1003.6,975.4,46,0,28,98,0.33,1.23,16.9,22.9,230,228,46.4,23.2,18.7,20.4,20.6,0.103,0.135,0.233,0.323,1,3600.0,433.9,288.3,145.5,583.4,433.9,678.2,483.0,321.0,162.0,583.4,483.0,755.0,Tracheophyta; Magnoliopsida; Eucalyptus L'Hér.; Vitis vinifera L.; Pinus pinaster Aiton; 
2018,2018-10-10,Porto,Gondomar,São Pedro da Cova,Lugar PASSAL (Passal),41.1477969996134,-8.49849999957615,NC,96.0,2018-10-10T15:00,21.2,53,11.1,18.9,0.0,0.0,0.0,0.0,1,1003.9,992.8,33,3,2,98,0.32,1.2,18.4,24.9,220,217,39.6,24.0,19.9,21.0,21.2,0.112,0.142,0.225,0.33,1,3600.0,417.2,253.6,163.7,510.2,417.2,682.0,464.0,282.0,182.0,510.2,464.0,758.4,Tracheophyta; Eucalyptus L'Hér.; Pinus pinaster Aiton; Magnoliopsida
2018,2018-02-26,Porto,Vila Nova de Gaia,Grijó,Casal (Rua das Valhelhas),41.0274349996779,-8.60641700002882,NC,94.0,2018-02-26T14:00,17.2,48,6.1,15.0,0.0,0.0,0.0,0.0,3,1003.1,992.1,86,0,94,97,0.29,1.02,8.4,11.1,47,54,17.6,13.3,9.7,10.4,11.9,0.334,0.353,0.384,0.363,1,3600.0,468.9,174.6,294.3,286.0,468.9,852.4,486.0,181.0,305.0,286.0,486.0,883.4,Tracheophyta; Magnoliopsida; Eucalyptus L'Hér.
2018,2018-10-10,Porto,Paredes,Recarei,LG ALEM RIO (ED319-2 (ED319-2) Km 3),41.1448319996728,-8.41110800001356,NC,95.0,2018-10-10T17:00,20.2,63,13.0,19.0,0.0,0.0,0.0,0.0,1,1003.7,992.7,23,1,0,74,0.14,0.86,14.8,21.4,241,237,35.3,23.3,20.3,21.5,21.5,0.124,0.121,0.19,0.322,1,3136.86,105.1,29.4,75.6,164.6,105.1,245.5,157.0,44.0,113.0,164.6,157.0,366.9,Magnoliopsida; Pinus pinaster Aiton; Eucalyptus L'Hér.; Tracheophyta; Vitis vinifera L.
2018,2018-10-10,Porto,Paredes,Sobreira,Vilar (Santa Comba),41.1195619999038,-8.39393900023566,NC,143.0,2018-10-10T17:00,20.5,61,12.8,19.3,0.0,0.0,0.0,0.0,1,1003.6,987.1,26,1,0,83,0.14,0.94,14.3,20.7,236,231,37.4,22.8,19.8,21.0,21.2,0.108,0.146,0.229,0.318,1,2234.1,97.7,24.1,73.6,134.5,97.7,245.9,146.0,36.0,110.0,134.5,146.0,367.4,Magnoliopsida; Pinus pinaster Aiton; Eucalyptus L'Hér.; Tracheophyta; Vitis vinifera L.
2018,2018-10-10,Porto,Penafiel,Croca,Lg. Corrais (Fundão),41.2158600001865,-8.23208799997965,NC,395.0,2018-10-10T17:00,20.5,49,9.3,18.8,0.0,0.0,0.0,0.0,1,1003.6,958.7,44,19,4,83,0.15,1.23,10.5,16.8,221,215,35.3,21.8,18.3,19.7,20.0,0.089,0.138,0.228,0.325,1,2289.96,101.0,23.9,77.1,136.3,101.0,240.9,152.0,36.0,116.0,136.3,152.0,362.4,Magnoliopsida; Eucalyptus L'Hér.; Vitis vinifera L.; Tracheophyta
2018,2018-10-10,Porto,Gondomar,Medas,Povoa (Portelinha),41.0599349996779,-8.42619299994575,Desconhecida,161.0,2018-10-10T18:00,16.8,81,13.5,15.3,0.0,0.0,0.0,0.0,1,1004.5,985.7,27,2,3,79,0.05,0.37,18.6,31.5,221,218,35.6,21.2,19.7,20.5,20.7,0.126,0.143,0.225,0.329,1,1134.82,0.0,0.0,0.0,0.0,0.0,0.0,47.0,16.0,31.0,126.0,47.0,118.3,Eucalyptus L'Hér.; Tracheophyta; Magnoliopsida; Pinus pinaster Aiton
2018,2018-10-10,Porto,Amarante,Bustelo,Lg. Reboreda (Reboreda),41.2245379998949,-8.00100999997722,Desconhecida,538.0,2018-10-10T19:00,15.6,70,10.2,14.7,0.0,0.0,0.0,0.0,1,1005.0,943.4,42,21,11,56,0.01,0.52,6.6,14.9,283,278,23.0,19.0,17.9,19.2,19.5,0.084,0.143,0.227,0.327,0,0.0,0.0,0.0,0.0,0.0,0.0,0.0,0.0,0.0,0.0,0.0,0.0,0.0,Magnoliopsida; Tracheophyta; Eucalyptus L'Hér.; Pinus pinaster Aiton; Vitis vinifera L.; Pinales; 
2018,2018-10-10,Porto,Felgueiras,Vizela (São Jorge),Lug. Casal (Cruzeiro),41.3819070000119,-8.24790300051371,Desconhecida,240.0,2018-10-10T18:00,17.2,73,12.3,16.0,0.0,0.0,0.0,0.0,1,1004.4,976.5,50,5,30,90,0.05,0.53,13.0,21.6,236,233,28.1,21.8,19.8,20.9,21.0,0.083,0.137,0.216,0.32,1,1130.79,0.0,0.0,0.0,0.0,0.0,0.0,45.0,16.0,29.0,128.1,45.0,113.1,Vitis vinifera L.; Tracheophyta; Magnoliopsida; Pinus pinaster Aiton; Eucalyptus L'Hér.
2018,2018-10-10,Porto,Paços de Ferreira,Eiriz,Lugar Souto (Lagoinhos),41.3036529999309,-8.39733800040351,Reacendimento,405.0,2018-10-10T19:00,14.8,86,12.5,13.1,0.0,0.0,0.0,0.0,1,1005.1,958.2,22,16,8,8,0.01,0.24,17.4,30.0,218,219,34.6,19.4,18.6,19.8,20.0,0.072,0.139,0.23,0.321,0,0.0,0.0,0.0,0.0,0.0,0.0,0.0,0.0,0.0,0.0,0.0,0.0,0.0,Tracheophyta; Eucalyptus L'Hér.; Magnoliopsida; ; Pinus pinaster Aiton
2018,2018-10-10,Porto,Penafiel,Duas Igrejas,Lug. Oliveira (Vila),41.1782519997491,-8.28458500001166,NC,359.0,2018-10-10T20:00,14.8,89,13.1,15.0,0.0,0.0,0.0,0.0,1,1005.9,964.1,43,18,6,77,0.0,0.18,5.8,15.7,274,250,23.0,18.9,19.1,20.2,20.5,0.081,0.139,0.224,0.325,0,0.0,0.0,0.0,0.0,0.0,0.0,0.0,0.0,0.0,0.0,0.0,0.0,0.0,Eucalyptus L'Hér.; Magnoliopsida
