year,date,district,municipality,parish,local,latitude,longitude,cause,elevation,hourly.time,hourly.temperature_2m,hourly.relative_humidity_2m,hourly.dew_point_2m,hourly.apparent_temperature,hourly.precipitation,hourly.rain,hourly.snowfall,hourly.snow_depth,hourly.weather_code,hourly.pressure_msl,hourly.surface_pressure,hourly.cloud_cover,hourly.cloud_cover_low,hourly.cloud_cover_mid,hourly.cloud_cover_high,hourly.et0_fao_evapotranspiration,hourly.vapour_pressure_deficit,hourly.wind_speed_10m,hourly.wind_speed_100m,hourly.wind_direction_10m,hourly.wind_direction_100m,hourly.wind_gusts_10m,hourly.soil_temperature_0_to_7cm,hourly.soil_temperature_7_to_28cm,hourly.soil_temperature_28_to_100cm,hourly.soil_temperature_100_to_255cm,hourly.soil_moisture_0_to_7cm,hourly.soil_moisture_7_to_28cm,hourly.soil_moisture_28_to_100cm,hourly.soil_moisture_100_to_255cm,hourly.is_day,hourly.sunshine_duration,hourly.shortwave_radiation_instant,hourly.direct_radiation_instant,hourly.diffuse_radiation_instant,hourly.direct_normal_irradiance_instant,hourly.global_tilted_irradiance_instant,hourly.terrestrial_radiation_instant,hourly.shortwave_radiation,hourly.direct_radiation,hourly.diffuse_radiation,hourly.direct_normal_irradiance,hourly.global_tilted_irradiance,hourly.terrestrial_radiation,scientificNames
2020,2020-08-31,Braga,Barcelos,Rio Covo (Santa Eugénia),Caminho da Rainha (Pinheiro),41.5197330000665,-8.60345699999067,Desconhecida,98.0,2020-08-31T12:00,26.2,28,6.2,25.4,0.0,0.0,0.0,0.0,0,1018.9,1007.6,2,0,0,5,0.5,2.45,5.6,7.7,230,229,20.2,23.9,19.8,21.2,20.3,0.141,0.205,0.216,0.331,1,3600.0,729.0,433.9,295.1,523.4,729.0,1113.2,709.0,422.0,287.0,523.4,709.0,1082.6,Tracheophyta; Eucalyptus L'Hér.; Pinus pinaster Aiton
2020,2020-08-31,Braga,Cabeceiras de Basto,Cavês,MOIMENTA,41.5202777777778,-7.90833333333333,Reacendimento,452.0,2020-08-31T16:00,24.2,30,5.6,22.0,0.0,0.0,0.0,0.0,0,1017.2,966.0,18,0,0,61,0.44,2.12,10.1,13.3,272,273,28.8,26.7,19.8,20.5,19.6,0.125,0.192,0.216,0.335,1,3600.0,543.2,466.1,77.1,845.5,543.2,740.3,613.0,526.0,87.0,845.5,613.0,835.4,Magnoliopsida; Eucalyptus L'Hér.; Pinus pinaster Aiton
2020,2020-09-01,Braga,Cabeceiras de Basto,Pedraça,Poça da Parada,41.4919444444444,-7.93388888888889,Reacendimento,322.0,2020-09-01T06:00,16.3,53,6.6,15.3,0.0,0.0,0.0,0.0,1,1015.7,978.0,29,0,30,36,0.0,0.88,0.8,0.8,27,297,6.5,15.7,19.8,21.0,20.2,0.13,0.207,0.206,0.331,1,0.0,0.0,0.0,0.0,0.0,0.0,0.0,0.0,0.0,0.0,0.0,0.0,0.0,Pinus pinaster Aiton; Magnoliopsida; Tracheophyta; Eucalyptus L'Hér.; Vitis vinifera L.
2020,2020-03-29,Braga,Braga,Sobreposta,Parque Industrial (Covais),41.5654779995812,-8.33664800008138,Desconhecida,534.0,2020-03-29T22:00,8.7,83,6.0,6.9,0.0,0.0,0.0,0.0,2,1016.9,953.5,60,0,54,92,0.0,0.19,5.0,10.0,69,75,12.2,10.1,11.3,10.5,10.2,0.328,0.352,0.394,0.413,0,0.0,0.0,0.0,0.0,0.0,0.0,0.0,0.0,0.0,0.0,0.0,0.0,0.0,Magnoliopsida; Tracheophyta; Eucalyptus L'Hér.; Pinus pinaster Aiton; Pinales
2020,2020-09-01,Porto,Felgueiras,Penacova,Junto Auto Estrada (Pena),41.366866999997,-8.24928499963548,Desconhecida,391.0,2020-09-01T18:00,21.7,60,13.5,20.4,0.0,0.0,0.0,0.0,0,1013.4,968.7,0,0,0,0,0.19,1.05,16.2,23.0,307,310,37.1,25.7,21.3,20.4,19.5,0.111,0.174,0.199,0.327,1,3600.0,154.8,111.5,43.2,565.8,154.8,264.8,229.0,165.0,64.0,565.8,229.0,391.8,Magnoliopsida; Eucalyptus L'Hér.; Tracheophyta; Vitis vinifera L.; Pinus pinaster Aiton
2020,2020-03-29,Braga,Vila Verde,Valdreu,Seninha,41.7278889995151,-8.3293379995558,Desconhecida,206.0,2020-03-29T22:00,10.4,81,7.3,8.5,0.0,0.0,0.0,0.0,1,1016.9,992.0,44,0,25,96,0.0,0.24,8.4,15.9,50,57,20.9,12.0,13.1,12.0,11.6,0.303,0.332,0.367,0.41,0,0.0,0.0,0.0,0.0,0.0,0.0,0.0,0.0,0.0,0.0,0.0,0.0,0.0,Eucalyptus L'Hér.; Pinus pinaster Aiton; Magnoliopsida; Tracheophyta
2020,2020-09-02,Braga,Guimarães,Silvares,VIA A11 CREIXOMIL 4835 030868 (Carvalhais),41.4422099998262,-8.32902299986945,Desconhecida,155.0,2020-09-02T19:00,24.1,52,13.7,24.2,0.0,0.0,0.0,0.0,0,1015.8,997.9,0,0,0,0,0.07,1.43,7.1,18.1,330,343,19.8,26.8,23.0,21.2,20.4,0.131,0.187,0.212,0.332,1,2242.49,0.0,0.0,0.0,0.0,0.0,0.0,59.0,34.0,25.0,255.3,59.0,129.8,Tracheophyta; Eucalyptus L'Hér.; Magnoliopsida; Pinales
2020,2020-09-03,Braga,Celorico de Basto,Basto (Santa Tecla),Costa,41.3891666666667,-8.05222222222222,Reacendimento,473.0,2020-09-03T13:00,30.1,23,6.6,30.3,0.0,0.0,0.0,0.0,0,1019.7,967.1,0,0,0,0,0.62,3.3,5.4,6.9,188,189,21.6,28.9,20.9,20.3,19.4,0.111,0.177,0.214,0.335,1,3600.0,838.2,740.6,97.6,901.0,838.2,1105.4,842.0,744.0,98.0,901.0,842.0,1110.4,Magnoliopsida; Olea europaea L.; Tracheophyta; Vitis vinifera L.; Pinus pinaster Aiton
2020,2020-09-03,Braga,Vila Verde,Turiz,S. Simão (São Simão),41.6385550000932,-8.44821500036451,Desconhecida,97.0,2020-09-03T14:00,32.3,28,11.5,33.3,0.0,0.0,0.0,0.0,0,1018.7,1007.7,0,0,0,0,0.63,3.49,7.2,8.1,252,249,19.1,31.2,22.5,21.4,20.7,0.115,0.192,0.194,0.32,1,3600.0,776.9,687.1,89.8,890.0,776.9,1038.3,805.0,712.0,93.0,890.0,805.0,1075.9,Tracheophyta; Pinus pinaster Aiton; Eucalyptus L'Hér.; Magnoliopsida
2020,2020-03-30,Braga,Vila Verde,Cervães,TV CALEIRO 2 CERVAES CERVAES BRG#VILA_VERDE 4730-006: ESTE (Quinta da Costariça),41.6005179999934,-8.52508299986521,Desconhecida,149.0,2020-03-30T07:00,10.1,60,2.8,5.6,0.0,0.0,0.0,0.0,2,1014.9,996.9,59,9,41,89,0.08,0.49,19.4,33.2,91,94,38.2,10.8,12.4,12.4,12.1,0.297,0.33,0.374,0.409,1,0.0,20.6,2.3,18.3,19.8,11.1,158.6,9.0,1.0,8.0,10.6,9.0,69.3,Pinus pinaster Aiton; Eucalyptus L'Hér.; Magnoliopsida; Tracheophyta
2020,2020-03-30,Braga,Celorico de Basto,Carvalho,Casais,41.3722222222222,-8.07138888888889,Desconhecida,663.0,2020-03-30T15:00,6.2,49,-3.7,0.7,0.0,0.0,0.0,0.0,3,1013.2,934.9,100,64,99,99,0.14,0.49,20.2,31.3,91,91,57.2,10.2,9.7,9.9,9.6,0.325,0.339,0.371,0.411,1,0.0,203.3,15.8,187.5,24.2,203.3,895.3,219.0,17.0,202.0,24.2,219.0,964.5,Magnoliopsida; Eucalyptus L'Hér.; Pinus pinaster Aiton
2020,2020-09-06,Braga,Vila Verde,Prado (São Miguel),Rua Marvão (Marvão),41.6987069998847,-8.439736000167,Desconhecida,321.0,2020-09-06T15:00,30.6,39,15.2,32.0,0.0,0.0,0.0,0.0,0,1015.4,979.5,0,0,0,0,0.54,2.66,8.3,10.8,288,296,23.8,30.2,22.8,20.5,19.6,0.132,0.204,0.215,0.327,1,3600.0,651.3,565.9,85.4,854.4,651.3,892.1,702.0,610.0,92.0,854.4,702.0,961.6,Eucalyptus L'Hér.; Magnoliopsida; Quercus L.; Pinus pinaster Aiton
2020,2020-09-06,Braga,Guimarães,Gondomar,Sra. Ajuda (Boa Vista),41.5222849999534,-8.25963500022888,Desconhecida,343.0,2020-09-06T08:00,22.1,51,11.5,19.5,0.0,0.0,0.0,0.0,0,1016.6,977.2,0,0,0,0,0.21,1.3,21.2,33.1,89,89,47.5,21.5,23.0,21.0,19.7,0.099,0.174,0.195,0.326,1,3600.0,271.6,194.2,77.4,551.1,271.6,474.6,200.0,143.0,57.0,551.1,200.0,349.4,Eucalyptus L'Hér.; Pinales; Magnoliopsida; Tracheophyta
2020,2020-09-05,Braga,Guimarães,Azurém,Rua Sa de Miranda (Bons Ares),41.4531980000602,-8.30190300001038,Desconhecida,258.0,2020-09-05T21:00,23.2,58,14.6,23.8,0.0,0.0,0.0,0.0,0,1016.4,986.7,0,0,0,0,0.03,1.18,6.6,15.5,45,46,14.0,26.0,24.9,21.6,20.3,0.103,0.168,0.201,0.327,0,0.0,0.0,0.0,0.0,0.0,0.0,0.0,0.0,0.0,0.0,0.0,0.0,0.0,Magnoliopsida; Tracheophyta; Eucalyptus L'Hér.
2020,2020-09-05,Braga,Fafe,Várzea Cova,ED311 (ED311) Km 16,41.5127777777778,-8.05666666666667,Reacendimento,654.0,2020-09-05T18:00,27.3,37,11.2,26.1,0.0,0.0,0.0,0.0,0,1016.4,944.0,1,0,1,0,0.21,2.29,10.2,19.6,312,316,35.6,29.4,22.6,19.5,18.3,0.103,0.169,0.205,0.332,1,3600.0,130.7,92.0,38.6,536.9,130.7,230.8,203.0,143.0,60.0,536.9,203.0,358.6,Magnoliopsida; Tracheophyta
2020,2020-09-05,Braga,Celorico de Basto,Basto (São Clemente),Pia Temporãos,41.4594444444444,-8.03638888888889,Desconhecida,568.0,2020-09-05T17:00,29.2,32,11.0,27.4,0.0,0.0,0.0,0.0,0,1016.6,953.8,2,0,3,0,0.38,2.74,14.3,20.4,309,311,34.6,30.7,22.8,20.2,19.1,0.112,0.179,0.22,0.335,1,3600.0,320.1,260.4,59.7,724.8,320.1,483.8,397.0,323.0,74.0,724.8,397.0,600.0,Magnoliopsida; Tracheophyta; Pinus pinaster Aiton; Eucalyptus L'Hér.
2020,2020-09-04,Braga,Braga,Pedralva,L. (Deães),41.5513180000252,-8.30194300002522,Desconhecida,377.0,2020-09-04T15:00,27.4,38,11.8,27.2,0.0,0.0,0.0,0.0,0,1020.5,977.9,0,0,0,0,0.54,2.27,12.0,14.9,261,262,30.6,30.2,22.3,20.2,19.3,0.11,0.187,0.196,0.327,1,3600.0,668.8,587.1,81.7,873.3,668.8,904.6,720.0,632.0,88.0,873.3,720.0,973.7,Magnoliopsida; Eucalyptus L'Hér.; Pinus pinaster Aiton; Tracheophyta
2020,2020-09-04,Braga,Vila Nova de Famalicão,Pedome,Rua da Vista Alegre (Pedaço Mau),41.42125,-8.39059000015259,Desconhecida,176.0,2020-09-04T16:00,26.3,41,12.1,25.8,0.0,0.0,0.0,0.0,0,1020.6,1000.3,0,0,0,0,0.43,2.0,9.7,12.3,274,275,27.4,30.0,23.5,21.3,20.3,0.12,0.18,0.208,0.331,1,3600.0,522.1,451.4,70.7,839.0,522.1,724.0,591.0,511.0,80.0,839.0,591.0,819.5,Tracheophyta; Eucalyptus L'Hér.; Vitis vinifera L.; Magnoliopsida; Pinus pinaster Aiton
2020,2020-09-04,Braga,Guimarães,Longos,Fojo (Pedraço),41.5294180001153,-8.35835300021701,Desconhecida,477.0,2020-09-04T15:00,28.2,38,12.5,28.0,0.0,0.0,0.0,0.0,0,1020.6,967.1,0,0,0,0,0.55,2.37,12.3,15.5,277,275,30.2,30.2,22.1,20.0,19.1,0.115,0.193,0.201,0.326,1,3600.0,663.0,575.7,87.3,857.1,663.0,903.8,714.0,620.0,94.0,857.1,714.0,973.3,Eucalyptus L'Hér.; Tracheophyta; Magnoliopsida; Quercus L.; Vitis vinifera L.
2020,2020-09-04,Braga,Guimarães,São Torcato,Rua Segade (Monte de Segade),41.4901149998771,-8.24151700019836,Desconhecida,396.0,2020-09-04T15:00,28.7,38,13.0,28.7,0.0,0.0,0.0,0.0,0,1020.6,976.1,0,0,0,0,0.55,2.44,12.3,15.5,277,275,30.2,30.7,22.6,20.5,19.6,0.115,0.193,0.201,0.326,1,3600.0,663.0,575.7,87.3,857.1,663.0,903.8,714.0,620.0,94.0,857.1,714.0,973.3,Magnoliopsida; Eucalyptus L'Hér.; Tracheophyta; Pinus pinaster Aiton; Vitis vinifera L.
2020,2020-09-03,Braga,Vila Verde,Gomide,031367: @TOJAL (LUGAR#110057) (Tojal),41.7140700001187,-8.38780200004578,Desconhecida,265.0,2020-09-03T21:00,22.0,56,12.9,21.8,0.0,0.0,0.0,0.0,0,1019.9,989.2,0,0,0,0,0.04,1.15,7.6,7.1,59,45,13.0,23.3,23.0,20.4,19.9,0.132,0.214,0.213,0.329,0,0.0,0.0,0.0,0.0,0.0,0.0,0.0,0.0,0.0,0.0,0.0,0.0,0.0,Magnoliopsida; Tracheophyta; Eucalyptus L'Hér.
2020,2020-09-07,Braga,Braga,Pedralva,Pedralva (MONTE ALTO),41.5470820003086,-8.30417699999279,Desconhecida,329.0,2020-09-07T12:00,26.1,35,9.4,24.5,0.0,0.0,0.0,0.0,1,1019.3,981.9,22,0,0,73,0.59,2.2,18.1,24.3,96,96,49.7,26.0,22.7,21.1,19.7,0.113,0.178,0.196,0.325,1,3600.0,807.6,698.7,108.9,868.8,807.6,1083.6,786.0,680.0,106.0,868.8,786.0,1054.7,Eucalyptus L'Hér.; Magnoliopsida; Pinus pinaster Aiton; Tracheophyta
2020,2020-09-07,Braga,Cabeceiras de Basto,Painzela,ERVIDEIRO,41.5227777777778,-8.05222222222222,Reacendimento,759.0,2020-09-07T14:00,24.8,31,6.5,23.1,0.0,0.0,0.0,0.0,1,1019.1,934.8,28,0,0,93,0.57,2.17,14.2,19.6,83,84,42.1,26.4,20.7,19.2,17.7,0.107,0.168,0.205,0.331,1,3600.0,751.6,621.7,129.9,824.5,751.6,1016.0,781.0,646.0,135.0,824.5,781.0,1055.8,Magnoliopsida
2020,2020-09-07,Braga,Póvoa de Lanhoso,Esperança,4830-151_POVOA_DE_LANHOSO 030933: @JUNTA DE FREGUESIA DE ESPERANCA (JUNTA_2013#700798) (Várzeas),41.5813180001577,-8.17139499982198,Desconhecida,272.0,2020-09-07T16:00,28.9,28,8.5,26.9,0.0,0.0,0.0,0.0,0,1017.5,986.8,0,0,0,0,0.47,2.88,11.9,16.3,85,85,29.5,30.2,23.9,21.5,20.0,0.11,0.176,0.196,0.325,1,3600.0,492.6,406.4,86.2,778.9,492.6,703.1,560.0,462.0,98.0,778.9,560.0,799.3,Tracheophyta; Eucalyptus L'Hér.; Magnoliopsida
2020,2020-09-07,Braga,Vila Verde,Atães,Rua do Coto (Côto),41.7200229999754,-8.40748300022549,Desconhecida,368.0,2020-09-07T18:00,26.1,55,16.4,27.6,0.0,0.0,0.0,0.0,0,1017.7,976.0,1,0,0,2,0.15,1.52,5.1,8.7,86,85,14.8,27.1,22.8,20.4,19.3,0.132,0.201,0.217,0.327,1,3600.0,132.5,96.9,35.7,582.6,132.5,224.0,208.0,152.0,56.0,582.6,208.0,351.6,Magnoliopsida; Tracheophyta; Quercus L.; Eucalyptus L'Hér.
2020,2020-09-07,Braga,Vila Verde,Penascais,Portela (Ribeiro de Penascais),41.7336150000162,-8.42880400021871,Desconhecida,321.0,2020-09-07T18:00,26.4,55,16.7,28.0,0.0,0.0,0.0,0.0,0,1017.7,981.2,1,0,0,2,0.15,1.55,5.1,8.7,86,85,14.8,27.4,23.1,20.7,19.6,0.132,0.201,0.217,0.327,1,3600.0,132.5,96.9,35.7,582.6,132.5,224.0,208.0,152.0,56.0,582.6,208.0,351.6,Eucalyptus L'Hér.; Magnoliopsida; Pinus pinaster Aiton; Quercus L.
2020,2020-09-09,Braga,Cabeceiras de Basto,Cabeceiras de Basto,Lapela,41.5477777777778,-8.05472222222222,Reacendimento,697.0,2020-09-09T10:00,22.6,32,5.2,19.8,0.0,0.0,0.0,0.0,0,1022.0,943.5,13,0,0,42,0.4,1.86,11.9,15.9,88,86,30.6,19.9,18.8,19.3,18.2,0.134,0.204,0.228,0.329,1,3600.0,632.7,539.3,93.4,828.6,632.7,877.9,569.0,485.0,84.0,828.6,569.0,789.5,Pinus pinaster Aiton; Magnoliopsida; Tracheophyta
2020,2020-09-09,Braga,Vila Verde,Coucieiro,Pedreiras (Igreja),41.6776019997067,-8.40024599999189,Desconhecida,110.0,2020-09-09T13:00,30.5,23,7.0,30.8,0.0,0.0,0.0,0.0,0,1019.5,1007.0,0,0,0,0,0.59,3.36,3.9,4.7,202,189,17.3,29.9,22.6,22.1,20.7,0.106,0.171,0.193,0.316,1,3600.0,804.1,706.6,97.5,887.2,804.1,1074.3,808.0,710.0,98.0,887.2,808.0,1079.5,Vitis vinifera L.; Eucalyptus L'Hér.; Pinus pinaster Aiton; Tracheophyta
2020,2020-03-30,Braga,Vila Nova de Famalicão,Lousado,Rua da Regedoura (Garrida),41.3524729998906,-8.52368800004323,Reacendimento,38.0,2020-03-30T20:00,10.3,43,-1.9,6.3,0.0,0.0,0.0,0.0,3,1010.6,1006.0,89,0,100,95,0.06,0.72,10.8,22.0,90,93,23.4,11.8,13.1,13.3,13.1,0.32,0.337,0.37,0.402,0,0.0,0.0,0.0,0.0,0.0,0.0,0.0,0.0,0.0,0.0,0.0,0.0,0.0,Pinus pinaster Aiton; Magnoliopsida; Eucalyptus L'Hér.; Tracheophyta
2020,2020-09-09,Braga,Celorico de Basto,Gagos,Codela,41.435,-7.99638888888889,Reacendimento,192.0,2020-09-09T14:00,30.7,23,7.0,30.9,0.0,0.0,0.0,0.0,0,1019.5,997.8,13,0,0,43,0.57,3.42,4.0,4.7,265,270,16.6,32.3,23.8,22.8,21.0,0.1,0.158,0.195,0.322,1,3600.0,753.3,661.0,92.4,884.5,753.3,1008.0,783.0,687.0,96.0,884.5,783.0,1047.7,Tracheophyta; Magnoliopsida; Vitis vinifera L.; Pinus pinaster Aiton
2020,2020-09-08,Braga,Vila Verde,Cabanelas,Sao Gens (ER205 (ER205) Km 37),41.5888390000661,-8.49339699957106,Desconhecida,25.0,2020-09-08T01:00,21.9,37,6.7,18.6,0.0,0.0,0.0,0.0,0,1020.0,1017.1,0,0,0,0,0.14,1.64,16.8,32.4,81,87,33.5,22.7,25.0,22.6,21.2,0.103,0.176,0.198,0.321,0,0.0,0.0,0.0,0.0,0.0,0.0,0.0,0.0,0.0,0.0,0.0,0.0,0.0,Tracheophyta; Magnoliopsida; Eucalyptus L'Hér.
2020,2020-03-30,Braga,Celorico de Basto,Basto (São Clemente),Monte do Marco,41.4713888888889,-8.07083333333333,Desconhecida,749.0,2020-03-30T20:00,5.7,38,-7.7,0.3,0.0,0.0,0.0,0.0,3,1011.1,923.2,90,0,100,99,0.07,0.57,16.2,29.2,86,89,45.7,7.2,8.6,8.9,8.6,0.32,0.344,0.38,0.415,0,0.0,0.0,0.0,0.0,0.0,0.0,0.0,0.0,0.0,0.0,0.0,0.0,0.0,Tracheophyta; Magnoliopsida; Pinus pinaster Aiton
2020,2020-03-30,Braga,Vila Verde,Valdreu,Seninha (Monte Redondo),41.7319979996151,-8.35071699996789,Reacendimento,501.0,2020-03-30T23:00,5.4,41,-6.9,0.0,0.0,0.0,0.0,0.0,2,1011.4,951.5,63,0,91,29,0.07,0.53,16.4,31.8,71,74,56.9,7.2,9.7,10.7,10.3,0.317,0.342,0.378,0.411,0,0.0,0.0,0.0,0.0,0.0,0.0,0.0,0.0,0.0,0.0,0.0,0.0,0.0,Eucalyptus L'Hér.; Tracheophyta; Magnoliopsida
2020,2020-09-08,Braga,Cabeceiras de Basto,Rio Douro,Lomba do Moinho,41.5883333333333,-7.95833333333333,Reacendimento,856.0,2020-09-08T09:00,15.3,50,5.1,11.4,0.0,0.0,0.0,0.0,0,1023.8,926.0,14,0,0,47,0.24,0.86,18.6,26.8,68,73,52.2,16.5,19.2,18.9,17.3,0.109,0.156,0.203,0.328,1,3600.0,481.8,395.2,86.6,760.3,481.8,700.6,406.0,333.0,73.0,760.3,406.0,590.4,Magnoliopsida; Quercus L.
2020,2020-09-08,Braga,Cabeceiras de Basto,Abadim,Bicos de Carvalho,41.5813888888889,-7.96583333333333,Reacendimento,923.0,2020-09-08T10:00,16.9,44,4.4,13.2,0.0,0.0,0.0,0.0,1,1023.5,919.1,23,0,0,76,0.35,1.09,17.3,24.1,73,76,51.5,17.8,18.6,18.4,16.9,0.109,0.156,0.203,0.328,1,3600.0,643.0,549.7,93.3,837.7,643.0,884.7,579.0,495.0,84.0,837.7,579.0,796.7,Tracheophyta; Magnoliopsida
2020,2020-09-08,Braga,Cabeceiras de Basto,Cabeceiras de Basto,Outeiro da Pá,41.53,-8.0525,Reacendimento,677.0,2020-09-08T14:00,25.8,20,1.2,23.7,0.0,0.0,0.0,0.0,1,1020.0,944.6,26,0,0,88,0.57,2.65,10.5,14.0,86,89,35.6,26.6,20.5,19.8,18.3,0.106,0.166,0.205,0.33,1,3600.0,754.2,634.9,119.3,846.9,754.2,1010.7,784.0,660.0,124.0,846.9,784.0,1050.7,Magnoliopsida; Tracheophyta
2020,2020-09-08,Braga,Celorico de Basto,Basto (São Clemente),Urreiro,41.4505555555556,-8.07722222222222,Reacendimento,752.0,2020-09-08T14:00,25.2,21,1.4,23.2,0.0,0.0,0.0,0.0,1,1020.1,936.6,26,0,0,88,0.56,2.52,9.8,13.5,96,99,32.8,25.9,20.0,19.4,18.0,0.113,0.174,0.219,0.333,1,3600.0,753.2,631.0,122.2,841.0,753.2,1011.6,783.0,656.0,127.0,841.0,783.0,1051.6,Tracheophyta; Magnoliopsida
2020,2020-09-08,Braga,Braga,Pedralva,PEDRALVA,41.5602649996016,-8.3213099998898,Desconhecida,390.0,2020-09-08T18:00,25.5,49,13.9,26.1,0.0,0.0,0.0,0.0,1,1018.4,974.1,23,0,0,76,0.14,1.68,4.7,8.3,113,108,16.6,27.2,23.0,21.3,19.9,0.114,0.19,0.214,0.327,1,3600.0,118.3,72.0,46.3,452.8,118.3,214.4,189.0,115.0,74.0,452.8,189.0,342.5,Pinus pinaster Aiton; Eucalyptus L'Hér.
2020,2020-09-09,Braga,Vila Verde,Valdreu,Mixões da Serra (Chã da Castanheira),41.7404219998254,-8.33312699953715,Reacendimento,396.0,2020-09-09T06:00,14.8,52,4.9,12.3,0.0,0.0,0.0,0.0,0,1019.3,972.7,4,0,0,15,0.04,0.81,8.2,14.0,61,78,22.0,15.9,20.3,20.3,19.1,0.128,0.197,0.217,0.326,0,0.0,0.0,0.0,0.0,0.0,0.0,0.0,0.0,0.0,0.0,0.0,0.0,0.0,Magnoliopsida; Tracheophyta; Pinus pinaster Aiton
2020,2020-09-09,Braga,Vila Verde,Turiz,Turiz (Fonte de Covas),41.6325640000237,-8.45064500000742,Desconhecida,86.0,2020-09-09T17:00,28.8,28,8.5,27.1,0.0,0.0,0.0,0.0,0,1018.8,1008.9,18,0,0,60,0.32,2.85,8.7,11.2,265,268,25.9,31.0,24.1,22.4,20.9,0.104,0.169,0.193,0.316,1,3600.0,307.3,247.3,60.0,717.0,307.3,465.2,384.0,309.0,75.0,717.0,384.0,581.4,Eucalyptus L'Hér.; Tracheophyta; Magnoliopsida; Pinus pinaster Aiton
2020,2020-09-09,Braga,Fafe,Aboim,Ribeiro da Vala do Moinho,41.5383333333333,-8.07972222222222,Reacendimento,724.0,2020-09-09T19:00,21.0,44,8.4,19.7,0.0,0.0,0.0,0.0,0,1019.6,938.0,13,0,0,42,0.06,1.39,6.5,9.9,267,289,23.4,25.2,21.5,19.6,18.0,0.102,0.163,0.204,0.329,0,1210.67,0.0,0.0,0.0,0.0,0.0,0.0,34.0,18.0,16.0,161.6,34.0,91.4,Magnoliopsida; Tracheophyta
2020,2020-09-09,Braga,Fafe,Fornelos,Ribeira de Calvelos,41.4586111111111,-8.16777777777778,Reacendimento,315.0,2020-09-09T20:00,23.1,40,8.9,21.9,0.0,0.0,0.0,0.0,0,1019.9,983.6,1,0,0,3,0.05,1.68,6.1,9.7,315,318,13.7,26.0,24.5,22.1,20.3,0.1,0.157,0.195,0.322,0,0.0,0.0,0.0,0.0,0.0,0.0,0.0,0.0,0.0,0.0,0.0,0.0,0.0,Magnoliopsida; Tracheophyta; Pinales
2020,2020-09-09,Braga,Vila Verde,Atães,Vade (EN101 (EN101) Km 69),41.7185650000307,-8.41925299988853,Desconhecida,310.0,2020-09-09T20:00,24.5,43,11.2,24.1,0.0,0.0,0.0,0.0,0,1019.7,984.2,12,0,0,41,0.04,1.74,5.2,7.3,34,9,11.2,23.9,22.9,20.9,19.7,0.12,0.192,0.216,0.325,0,0.0,0.0,0.0,0.0,0.0,0.0,0.0,0.0,0.0,0.0,0.0,0.0,0.0,Quercus L.; Magnoliopsida; Tracheophyta; Eucalyptus L'Hér.
2020,2020-09-09,Braga,Vila Verde,Penascais,Permedelos (Ribeiro de Penascais),41.7322399997711,-8.43366700000233,Desconhecida,370.0,2020-09-09T20:00,24.1,43,10.8,23.6,0.0,0.0,0.0,0.0,0,1019.7,977.4,12,0,0,41,0.04,1.71,5.2,7.3,34,9,11.2,23.5,22.5,20.5,19.3,0.12,0.192,0.216,0.325,0,0.0,0.0,0.0,0.0,0.0,0.0,0.0,0.0,0.0,0.0,0.0,0.0,0.0,Magnoliopsida; Eucalyptus L'Hér.; Pinus pinaster Aiton; Quercus L.
2020,2020-09-09,Braga,Vila Verde,Prado (São Miguel),Prado (São Miguel) (Vergadas),41.7090829997593,-8.43585199991862,Reacendimento,395.0,2020-09-09T21:00,21.0,54,11.3,20.5,0.0,0.0,0.0,0.0,0,1020.1,974.6,11,0,0,37,0.03,1.14,6.4,7.4,47,23,12.6,22.0,22.3,20.4,19.2,0.12,0.192,0.216,0.325,0,0.0,0.0,0.0,0.0,0.0,0.0,0.0,0.0,0.0,0.0,0.0,0.0,0.0,Magnoliopsida; Eucalyptus L'Hér.; Tracheophyta; Pinus pinaster Aiton
2020,2020-09-09,Braga,Vila Verde,Atães,R COTO (Coto),41.7221319998635,-8.41190999984741,Desconhecida,273.0,2020-09-09T21:00,19.6,64,12.6,19.5,0.0,0.0,0.0,0.0,0,1019.9,988.0,8,0,0,28,0.02,0.82,6.5,8.1,354,13,14.4,22.7,22.9,20.9,19.7,0.115,0.186,0.207,0.321,0,0.0,0.0,0.0,0.0,0.0,0.0,0.0,0.0,0.0,0.0,0.0,0.0,0.0,Magnoliopsida; Tracheophyta; Quercus L.
2020,2020-09-09,Braga,Guimarães,Brito,Rua São João Baptista (ER310 (ER310) Km 18),41.4575800000297,-8.36389000044929,Desconhecida,139.0,2020-09-09T22:00,19.8,52,9.8,19.0,0.0,0.0,0.0,0.0,0,1019.9,1003.5,0,0,0,0,0.03,1.1,5.3,4.3,118,48,7.2,23.0,24.7,22.4,20.7,0.111,0.169,0.207,0.328,0,0.0,0.0,0.0,0.0,0.0,0.0,0.0,0.0,0.0,0.0,0.0,0.0,0.0,Tracheophyta; Eucalyptus L'Hér.; Vitis vinifera L.; Magnoliopsida; Pinus pinaster Aiton
2020,2020-09-10,Braga,Vila Verde,Sande,VIA M531-2 4730_VILA_VERDE 031311_031367 (Sande de Baixo),41.6938879998525,-8.39833799997965,Desconhecida,149.0,2020-09-10T03:00,15.6,79,12.0,15.6,0.0,0.0,0.0,0.0,0,1018.9,1001.1,1,0,0,3,0.0,0.36,4.3,4.7,42,81,11.9,18.6,22.8,21.7,20.5,0.115,0.186,0.207,0.321,0,0.0,0.0,0.0,0.0,0.0,0.0,0.0,0.0,0.0,0.0,0.0,0.0,0.0,Eucalyptus L'Hér.; Magnoliopsida; Tracheophyta; Pinus pinaster Aiton; Quercus L.
2020,2020-09-10,Braga,Vieira do Minho,Rossas,Ribeiro Trás do Muro,41.6044444444444,-8.04527777777778,Desconhecida,714.0,2020-09-10T06:00,13.8,69,8.2,11.8,0.0,0.0,0.0,0.0,0,1020.6,938.1,0,0,0,0,0.02,0.49,10.0,23.3,41,52,30.2,15.0,19.3,19.3,18.1,0.126,0.194,0.215,0.331,0,0.0,0.0,0.0,0.0,0.0,0.0,0.0,0.0,0.0,0.0,0.0,0.0,0.0,Acacia Mill.; Magnoliopsida; Quercus L.; Pinus pinaster Aiton
2020,2020-09-10,Braga,Celorico de Basto,Gagos,Padreiro,41.4194444444444,-8.01027777777778,Reacendimento,357.0,2020-09-10T06:00,15.4,68,9.5,14.3,0.0,0.0,0.0,0.0,0,1019.5,977.5,0,0,0,0,0.01,0.56,6.8,16.1,65,66,22.7,17.1,22.3,21.9,20.3,0.097,0.163,0.203,0.327,0,0.0,0.0,0.0,0.0,0.0,0.0,0.0,0.0,0.0,0.0,0.0,0.0,0.0,Pinus pinaster Aiton; Magnoliopsida; Tracheophyta
2020,2020-09-10,Braga,Braga,Escudeiros,Avenida da Granja (Seara),41.4740499999788,-8.43680999994278,Desconhecida,250.0,2020-09-10T09:00,24.4,40,10.1,22.4,0.0,0.0,0.0,0.0,0,1019.1,990.3,12,0,0,41,0.31,1.83,13.8,19.6,97,97,29.9,21.1,22.1,21.7,20.0,0.111,0.169,0.207,0.327,1,3600.0,444.1,346.2,97.9,681.9,444.1,685.2,372.0,290.0,82.0,681.9,372.0,573.9,Eucalyptus L'Hér.; Tracheophyta; Magnoliopsida
2020,2020-09-10,Braga,Celorico de Basto,Rego,Ladeira,41.4122222222222,-8.095,Reacendimento,669.0,2020-09-10T10:00,24.2,39,9.2,22.5,0.0,0.0,0.0,0.0,0,1019.8,944.9,15,0,0,50,0.4,1.85,10.1,13.4,84,85,29.5,21.0,19.8,19.9,18.3,0.096,0.163,0.203,0.327,1,3600.0,624.1,529.5,94.6,816.1,624.1,875.7,561.0,476.0,85.0,816.1,561.0,787.1,Pinus pinaster Aiton; Quercus L.; Magnoliopsida; Eucalyptus L'Hér.
2020,2020-09-10,Braga,Celorico de Basto,Carvalho,Pinheiral,41.3919444444444,-8.05777777777778,Reacendimento,603.0,2020-09-10T11:00,26.4,35,9.6,26.0,0.0,0.0,0.0,0.0,0,1020.3,952.9,8,0,0,28,0.51,2.25,8.2,10.8,131,127,28.1,24.2,20.7,20.8,19.2,0.133,0.153,0.197,0.337,1,3600.0,744.4,648.7,95.7,868.5,744.4,1007.9,700.0,610.0,90.0,868.5,700.0,947.9,Pinus pinaster Aiton; Magnoliopsida; Tracheophyta; Olea europaea L.; Vitis vinifera L.
2020,2020-09-10,Braga,Cabeceiras de Basto,Cabeceiras de Basto,Penedo da Cerdeira,41.5402777777778,-8.05361111111111,Reacendimento,759.0,2020-09-10T12:00,26.8,28,6.6,26.8,0.0,0.0,0.0,0.0,1,1019.2,935.4,24,0,0,81,0.55,2.54,4.7,6.2,94,97,23.8,25.3,19.5,19.3,17.8,0.098,0.161,0.203,0.329,1,3600.0,808.8,714.4,94.4,899.3,808.8,1072.1,788.0,696.0,92.0,899.3,788.0,1044.5,Pinus pinaster Aiton; Magnoliopsida; Tracheophyta
2020,2020-09-10,Braga,Celorico de Basto,Carvalho,Santa Bárbara,41.3916666666667,-8.05805555555555,Reacendimento,603.0,2020-09-10T15:00,28.8,25,6.8,28.2,0.0,0.0,0.0,0.0,0,1017.3,950.6,5,0,0,17,0.48,2.97,3.8,4.6,253,252,18.0,30.2,21.8,20.8,19.2,0.132,0.152,0.196,0.337,1,3600.0,623.5,520.1,103.5,808.6,623.5,868.1,675.0,563.0,112.0,808.6,675.0,939.8,Pinus pinaster Aiton; Magnoliopsida; Tracheophyta; Olea europaea L.; Vitis vinifera L.
2020,2020-09-10,Braga,Celorico de Basto,Borba de Montanha,Porca,41.4044444444444,-8.1,Reacendimento,669.0,2020-09-10T19:00,21.4,54,11.8,20.9,0.0,0.0,0.0,0.0,0,1016.0,940.7,0,0,0,0,0.06,1.16,7.0,10.1,249,276,19.1,25.9,22.1,20.0,18.3,0.104,0.159,0.209,0.33,0,869.89,0.0,0.0,0.0,0.0,0.0,0.0,30.0,15.0,15.0,137.1,30.0,88.8,Pinus pinaster Aiton; Tracheophyta; Magnoliopsida; Quercus L.; Eucalyptus L'Hér.
2020,2020-04-04,Braga,Vila Verde,Gomide,Maninho (Barbeito),41.7300680001577,-8.38645000007418,Desconhecida,650.0,2020-04-04T17:00,13.7,58,5.6,10.9,0.0,0.0,0.0,0.0,3,1010.2,935.5,100,20,96,93,0.11,0.66,11.9,21.3,180,178,52.2,13.5,11.0,9.3,9.3,0.302,0.329,0.364,0.408,1,0.0,86.3,10.6,75.7,28.5,86.3,507.4,106.0,13.0,93.0,28.5,106.0,623.5,Quercus L.; Tracheophyta; Magnoliopsida; Eucalyptus L'Hér.
2020,2020-09-10,Braga,Guimarães,Briteiros (Santa Leocádia),SANTA_LEOCADIA_DE_BRITEIROS (Devezinha),41.5268900002374,-8.33975900014241,Desconhecida,225.0,2020-09-10T21:00,23.7,56,14.3,24.3,0.0,0.0,0.0,0.0,0,1015.8,989.9,0,0,0,0,0.03,1.3,5.2,5.9,205,281,9.0,25.2,24.9,22.4,20.6,0.096,0.161,0.192,0.323,0,0.0,0.0,0.0,0.0,0.0,0.0,0.0,0.0,0.0,0.0,0.0,0.0,0.0,Eucalyptus L'Hér.; Magnoliopsida; Tracheophyta; Pinus pinaster Aiton; Pinales
2020,2020-09-11,Braga,Vila Verde,Covas,Covas (Água dos Chousos),41.7420920001136,-8.41282999992371,Desconhecida,343.0,2020-09-11T10:00,27.4,41,13.2,28.3,0.0,0.0,0.0,0.0,0,1014.4,975.8,17,0,0,56,0.36,2.14,0.5,1.0,315,45,14.4,23.3,21.3,20.8,19.6,0.109,0.185,0.214,0.325,1,3600.0,610.5,518.1,92.5,808.5,610.5,865.2,548.0,465.0,83.0,808.5,548.0,776.6,Eucalyptus L'Hér.; Magnoliopsida; Pinus pinaster Aiton; Quercus L.; Tracheophyta
2020,2020-09-11,Braga,Vila Verde,Turiz,Telheirinhas,41.6339720000161,-8.45041799998946,Desconhecida,86.0,2020-09-11T11:00,30.1,34,12.4,30.8,0.0,0.0,0.0,0.0,0,1014.3,1004.5,19,0,0,62,0.48,2.83,4.4,5.9,145,137,15.5,27.2,23.1,22.5,21.0,0.101,0.165,0.192,0.315,1,3600.0,690.2,531.5,158.7,720.3,690.2,996.2,648.0,499.0,149.0,720.3,648.0,935.4,Tracheophyta; Eucalyptus L'Hér.; Magnoliopsida; Pinus pinaster Aiton
2020,2020-09-11,Braga,Vila Verde,Sande,Avª de Sande (Sande de Baixo),41.6940049997965,-8.39834200011359,Desconhecida,149.0,2020-09-11T12:00,30.4,34,12.9,31.7,0.0,0.0,0.0,0.0,1,1014.1,997.3,27,0,0,91,0.55,2.85,5.4,7.3,176,171,17.6,27.8,22.4,21.8,20.5,0.109,0.18,0.206,0.32,1,3600.0,760.5,608.4,152.1,772.6,760.5,1063.3,740.0,592.0,148.0,772.6,740.0,1034.7,Eucalyptus L'Hér.; Magnoliopsida; Tracheophyta; Pinus pinaster Aiton; Quercus L.
2020,2020-09-11,Braga,Braga,Tebosa,Rua do Monte (Riba),41.4799550003476,-8.48768799993727,Desconhecida,170.0,2020-09-11T14:00,29.6,37,13.3,28.6,0.0,0.0,0.0,0.0,1,1013.7,994.5,30,0,0,99,0.49,2.61,14.2,18.2,263,262,31.7,30.3,23.4,22.2,20.5,0.099,0.16,0.2,0.321,1,3600.0,540.6,210.7,329.9,285.0,540.6,998.2,562.0,219.0,343.0,285.0,562.0,1037.7,Tracheophyta; Magnoliopsida; Eucalyptus L'Hér.
2020,2020-09-11,Braga,Vila Verde,Sande,031367: @CERCA-SANDE (LUGAR#110259) (Cerca),41.6947999996609,-8.39200000021193,Reacendimento,199.0,2020-09-11T13:00,31.7,29,11.6,32.2,0.0,0.0,0.0,0.0,1,1013.8,991.5,29,0,0,98,0.57,3.3,6.5,8.2,199,195,20.2,29.9,22.8,21.8,20.5,0.107,0.184,0.213,0.324,1,3600.0,717.1,494.3,222.8,627.8,717.1,1063.2,721.0,497.0,224.0,627.8,721.0,1069.0,Eucalyptus L'Hér.; Magnoliopsida; Tracheophyta; Pinus pinaster Aiton; Quercus L.
2020,2020-09-11,Braga,Vila Verde,Valdreu,Bezeguimbra,41.7468209997813,-8.34570999993218,Desconhecida,656.0,2020-09-11T16:00,25.8,42,12.0,25.6,0.0,0.0,0.0,0.0,1,1014.2,941.4,30,0,0,99,0.25,1.92,5.4,7.2,278,276,31.0,27.5,21.6,19.6,18.3,0.124,0.201,0.248,0.335,1,2185.91,265.8,66.4,199.3,132.9,265.8,675.3,304.0,76.0,228.0,132.9,304.0,772.4,Magnoliopsida; Tracheophyta; Pinus pinaster Aiton
2020,2020-09-11,Braga,Celorico de Basto,Ourilhe,Padreiro,41.4169444444444,-8.01111111111111,Reacendimento,389.0,2020-09-11T18:00,26.2,48,14.2,26.8,0.0,0.0,0.0,0.0,1,1013.5,969.7,28,0,0,92,0.12,1.77,5.0,11.8,300,308,27.0,28.9,24.0,21.8,20.1,0.093,0.159,0.202,0.326,1,3600.0,76.9,28.6,48.3,202.9,76.9,190.5,129.0,48.0,81.0,202.9,129.0,319.4,Pinus pinaster Aiton; Magnoliopsida; Tracheophyta
2020,2020-09-11,Braga,Guimarães,Sande (São Clemente),R PADRE ANTONIO FRANCISCO RIBEIRO 591 SANDE_SAO_MARTINHO 4805-511_SAO_MARTINHO_SANDE 030858: PRX. (Bouças),41.4835480000079,-8.37044299999873,Desconhecida,174.0,2020-09-11T18:00,26.1,47,14.0,26.6,0.0,0.0,0.0,0.0,1,1013.1,993.2,23,0,0,76,0.13,1.78,5.0,9.3,270,286,14.0,28.7,24.3,22.2,20.5,0.099,0.159,0.2,0.321,1,3600.0,91.4,41.2,50.3,281.7,91.4,197.4,151.0,68.0,83.0,281.7,151.0,326.0,Vitis vinifera L.; Tracheophyta; Eucalyptus L'Hér.
2020,2020-09-11,Braga,Vila Verde,Prado (São Miguel),Portela do Vade (Vilela de Cima),41.7137820000119,-8.43762499994702,Desconhecida,494.0,2020-09-11T18:00,24.9,67,18.3,27.3,0.0,0.0,0.0,0.0,1,1013.3,957.8,24,0,0,79,0.1,1.04,4.0,7.4,297,317,16.6,26.5,22.2,19.9,18.6,0.106,0.183,0.213,0.324,1,3600.0,78.5,26.6,51.9,183.5,78.5,195.6,130.0,44.0,86.0,183.5,130.0,323.9,Magnoliopsida; Eucalyptus L'Hér.; Tracheophyta; Pinus pinaster Aiton
2020,2020-09-11,Braga,Vila Verde,Barros,Sá (São Martinho),41.7145420000288,-8.3948440000746,Desconhecida,195.0,2020-09-11T19:00,27.0,52,16.4,28.6,0.0,0.0,0.0,0.0,0,1013.5,991.3,18,0,1,58,0.05,1.7,4.3,5.6,270,310,10.8,26.9,24.2,21.8,20.5,0.106,0.182,0.213,0.324,0,48.98,0.0,0.0,0.0,0.0,0.0,0.0,26.0,7.0,19.0,64.4,26.0,87.9,Tracheophyta; Magnoliopsida; Quercus L.; Eucalyptus L'Hér.
2020,2020-09-11,Braga,Celorico de Basto,Ribas,Barreiros,41.4486111111111,-8.03833333333333,Desconhecida,501.0,2020-09-11T20:00,23.9,47,12.0,24.3,0.0,0.0,0.0,0.0,0,1014.4,957.9,1,0,0,4,0.0,1.56,0.8,3.8,153,319,15.5,24.8,23.5,21.1,19.4,0.093,0.159,0.202,0.326,0,0.0,0.0,0.0,0.0,0.0,0.0,0.0,0.0,0.0,0.0,0.0,0.0,0.0,Tracheophyta; Magnoliopsida; Pinus pinaster Aiton; Eucalyptus L'Hér.
2020,2020-09-11,Braga,Vieira do Minho,Ruivães,Ruivães (Rio da Peneda),41.6646339999305,-8.03282199965583,Desconhecida,695.0,2020-09-11T23:00,17.7,76,13.4,18.1,0.0,0.0,0.0,0.0,0,1015.8,936.8,0,0,0,0,0.0,0.49,5.2,10.6,34,28,18.4,19.7,21.5,19.6,18.4,0.138,0.213,0.26,0.338,0,0.0,0.0,0.0,0.0,0.0,0.0,0.0,0.0,0.0,0.0,0.0,0.0,0.0,Tracheophyta; Magnoliopsida; Quercus L.; Pinus pinaster Aiton
2020,2020-09-12,Braga,Vieira do Minho,Rossas,Cristelo (Ribeiro de Lamas),41.5647229999966,-8.11130800035265,Reacendimento,411.0,2020-09-12T03:00,17.7,78,13.7,18.1,0.0,0.0,0.0,0.0,0,1014.6,967.0,16,0,0,52,0.0,0.45,5.2,9.4,65,86,15.5,19.4,23.1,21.5,19.9,0.099,0.174,0.209,0.325,0,0.0,0.0,0.0,0.0,0.0,0.0,0.0,0.0,0.0,0.0,0.0,0.0,0.0,Tracheophyta; Magnoliopsida; Quercus L.; Pinus pinaster Aiton
2020,2020-09-12,Braga,Cabeceiras de Basto,Refojos de Basto,Soalheira de Baixo,41.5030555555556,-7.97166666666667,Reacendimento,243.0,2020-09-12T07:00,20.5,57,11.7,18.9,0.0,0.0,0.0,0.0,1,1016.2,987.9,27,0,0,89,0.1,1.03,14.8,30.3,61,62,35.3,20.0,23.3,22.6,21.0,0.099,0.165,0.2,0.324,1,460.86,66.4,24.4,42.1,163.6,40.3,201.0,30.0,11.0,19.0,99.3,30.0,90.8,Vitis vinifera L.; Magnoliopsida; Pinus pinaster Aiton; Eucalyptus L'Hér.; Tracheophyta
2020,2020-09-12,Braga,Braga,Escudeiros,Rua da Seara (ED309 (ED309) Km 26),41.4733819998635,-8.43745500008265,Desconhecida,250.0,2020-09-12T13:00,33.5,20,7.2,31.9,0.0,0.0,0.0,0.0,1,1015.0,987.2,23,0,0,77,0.7,4.16,14.7,20.0,107,108,36.4,29.8,22.8,21.9,20.1,0.108,0.164,0.205,0.326,1,3600.0,778.7,665.3,113.4,846.2,778.7,1062.3,783.0,669.0,114.0,846.2,783.0,1068.1,Eucalyptus L'Hér.; Tracheophyta; Magnoliopsida
2020,2020-09-12,Braga,Celorico de Basto,Rego,Alto do Servelha,41.4077777777778,-8.09138888888889,Reacendimento,677.0,2020-09-12T13:00,30.3,21,5.8,29.1,0.0,0.0,0.0,0.0,0,1016.7,942.6,18,0,0,60,0.64,3.4,10.8,15.3,105,105,32.8,28.5,20.9,20.1,18.6,0.104,0.165,0.216,0.331,1,3600.0,796.7,702.3,94.4,894.3,796.7,1061.0,802.0,707.0,95.0,894.3,802.0,1068.1,Pinus pinaster Aiton; Quercus L.; Magnoliopsida; Tracheophyta; Eucalyptus L'Hér.
2020,2020-09-12,Braga,Vila Verde,Esqueiros,Rua da Pena (Pena),41.6588079998228,-8.45459200011359,Desconhecida,177.0,2020-09-12T14:00,34.3,20,8.4,33.6,0.0,0.0,0.0,0.0,1,1014.8,995.1,26,0,0,88,0.64,4.29,10.0,13.5,103,106,29.2,32.0,23.3,22.0,20.4,0.099,0.162,0.191,0.314,1,3600.0,723.1,617.3,105.8,841.6,723.1,991.0,752.0,642.0,110.0,841.6,752.0,1030.6,Vitis vinifera L.; Eucalyptus L'Hér.; Magnoliopsida; Pinus pinaster Aiton
2020,2020-09-12,Braga,Celorico de Basto,Carvalho,Santa Bárbara,41.3911111111111,-8.05888888888889,Reacendimento,617.0,2020-09-12T14:00,30.9,21,6.3,29.7,0.0,0.0,0.0,0.0,1,1016.6,948.9,29,0,0,96,0.61,3.51,9.8,13.3,126,123,34.2,30.1,21.9,20.8,19.1,0.13,0.149,0.194,0.336,1,3600.0,729.8,622.2,107.5,848.5,729.8,990.8,760.0,648.0,112.0,848.5,760.0,1031.8,Pinus pinaster Aiton; Magnoliopsida; Olea europaea L.; Vitis vinifera L.
2020,2020-09-12,Braga,Vieira do Minho,Rossas,Celeiro (Ribeiro de Lamas),41.5654219998254,-8.11232300016615,Reacendimento,399.0,2020-09-12T15:00,32.5,21,7.6,31.1,0.0,0.0,0.0,0.0,1,1015.6,971.5,28,0,0,94,0.55,3.86,9.6,12.2,124,124,31.0,32.1,23.5,21.5,19.9,0.099,0.171,0.208,0.325,1,3600.0,598.2,467.1,131.1,736.4,598.2,857.0,648.0,506.0,142.0,736.4,648.0,928.4,Magnoliopsida; Tracheophyta; Quercus L.; Pinus pinaster Aiton
2020,2020-09-12,Braga,Vila Verde,Parada de Gatim,Assento (Cide),41.6193329999182,-8.52810299979316,Desconhecida,144.0,2020-09-12T18:00,30.3,49,18.6,32.6,0.0,0.0,0.0,0.0,1,1014.5,998.2,27,0,0,90,0.15,2.18,6.4,8.4,317,340,8.6,31.4,24.6,22.1,20.6,0.102,0.167,0.194,0.316,1,3600.0,96.6,51.0,45.6,357.6,96.6,192.7,161.0,85.0,76.0,357.6,161.0,321.2,Pinus pinaster Aiton; Tracheophyta
2020,2020-09-12,Braga,Celorico de Basto,Rego,Areeiro,41.4033333333333,-8.07888888888889,Reacendimento,724.0,2020-09-12T19:00,27.4,27,6.6,26.4,0.0,0.0,0.0,0.0,1,1016.1,936.4,21,0,0,71,0.02,2.68,1.3,2.2,56,279,9.4,26.7,22.6,20.1,18.4,0.129,0.148,0.194,0.336,0,164.26,0.0,0.0,0.0,0.0,0.0,0.0,23.0,8.0,15.0,77.6,23.0,80.5,Pinus pinaster Aiton; Magnoliopsida
2020,2020-09-12,Braga,Braga,Adaúfe,R 25 DE ABRIL (Escalheiral),41.5992719999949,-8.39963299963209,Desconhecida,82.0,2020-09-12T19:00,28.0,41,13.6,28.1,0.0,0.0,0.0,0.0,1,1014.2,1004.8,22,0,0,75,0.09,2.23,7.6,15.6,360,7,13.7,30.5,25.5,22.8,21.0,0.098,0.157,0.191,0.318,0,0.0,0.0,0.0,0.0,0.0,0.0,0.0,24.0,5.0,19.0,46.9,24.0,85.3,Magnoliopsida; Pinus pinaster Aiton; Tracheophyta; Eucalyptus L'Hér.
2020,2020-09-12,Braga,Fafe,Fornelos,Ribeira de Calvelos,41.4583333333333,-8.16722222222222,Reacendimento,326.0,2020-09-12T21:00,24.6,40,10.0,23.7,0.0,0.0,0.0,0.0,1,1015.9,978.7,24,0,0,81,0.05,1.87,6.1,12.6,50,53,14.0,26.6,25.2,22.3,20.3,0.098,0.152,0.193,0.32,0,0.0,0.0,0.0,0.0,0.0,0.0,0.0,0.0,0.0,0.0,0.0,0.0,0.0,Magnoliopsida; Tracheophyta; Pinales
2020,2020-09-12,Braga,Celorico de Basto,Carvalho,Santa Bárbara,41.3911111111111,-8.05944444444444,Reacendimento,631.0,2020-09-12T21:00,23.0,38,7.8,21.6,0.0,0.0,0.0,0.0,1,1017.1,946.2,29,0,0,98,0.05,1.76,6.1,10.9,90,81,18.4,24.4,23.4,20.7,19.0,0.129,0.148,0.194,0.336,0,0.0,0.0,0.0,0.0,0.0,0.0,0.0,0.0,0.0,0.0,0.0,0.0,0.0,Pinus pinaster Aiton; Magnoliopsida; Olea europaea L.; Vitis vinifera L.
2020,2020-09-12,Braga,Amares,Goães,R FRAGA 39 GOAES 4720-490_GOAES_AMR 030112: PRX. (Fraga),41.6588609997431,-8.31879699998432,Desconhecida,145.0,2020-09-12T22:00,24.0,50,13.0,23.9,0.0,0.0,0.0,0.0,1,1015.6,998.8,23,0,0,78,0.05,1.49,7.4,17.3,39,31,16.9,25.7,25.2,22.2,20.6,0.098,0.161,0.191,0.314,0,0.0,0.0,0.0,0.0,0.0,0.0,0.0,0.0,0.0,0.0,0.0,0.0,0.0,Magnoliopsida; Eucalyptus L'Hér.; Pinus pinaster Aiton; Tracheophyta; Vitis vinifera L.; Quercus L.; 
2020,2020-09-12,Braga,Vila Verde,Covas,COVAS (Igreja),41.7459429995219,-8.41726300001144,Desconhecida,265.0,2020-09-12T23:00,22.4,55,12.8,22.2,0.0,0.0,0.0,0.0,1,1015.7,985.1,27,0,0,89,0.04,1.23,7.5,16.9,35,50,22.3,23.3,24.0,21.2,19.8,0.104,0.174,0.205,0.319,0,0.0,0.0,0.0,0.0,0.0,0.0,0.0,0.0,0.0,0.0,0.0,0.0,0.0,Eucalyptus L'Hér.; Magnoliopsida; Pinus pinaster Aiton; Quercus L.; Tracheophyta
2020,2020-09-13,Braga,Fafe,Freitas,Monte das Penas Aldas,41.5133333333333,-8.23027777777778,Reacendimento,463.0,2020-09-13T01:00,23.9,27,4.0,20.5,0.0,0.0,0.0,0.0,1,1016.6,964.1,29,0,0,95,0.15,2.16,14.0,31.9,67,74,33.1,21.8,23.8,21.2,19.4,0.1,0.165,0.199,0.321,0,0.0,0.0,0.0,0.0,0.0,0.0,0.0,0.0,0.0,0.0,0.0,0.0,0.0,Magnoliopsida; Eucalyptus L'Hér.; Vitis vinifera L.; Tracheophyta
2020,2020-09-13,Braga,Vila Verde,Aboim da Nóbrega,Casais de Vide (Souto),41.7589430003696,-8.3838730000125,Desconhecida,578.0,2020-09-13T05:00,19.1,38,4.6,16.3,0.0,0.0,0.0,0.0,1,1017.5,951.4,23,0,1,74,0.08,1.36,10.3,21.6,61,79,36.0,18.6,21.5,20.0,18.6,0.163,0.193,0.234,0.34,0,0.0,0.0,0.0,0.0,0.0,0.0,0.0,0.0,0.0,0.0,0.0,0.0,0.0,Tracheophyta; Magnoliopsida; Quercus L.; Pinus pinaster Aiton; Acacia Mill.
2020,2020-09-13,Braga,Vila Verde,Travassós,Travassós (Sande),41.6607949998644,-8.46004300011529,Desconhecida,214.0,2020-09-13T08:00,25.7,36,9.7,24.2,0.0,0.0,0.0,0.0,0,1016.1,991.6,11,0,0,37,0.18,2.1,9.4,20.7,90,98,20.5,21.8,23.5,21.9,20.2,0.098,0.16,0.191,0.314,1,3600.0,245.5,173.0,72.5,527.5,245.5,443.3,176.0,124.0,52.0,527.5,176.0,317.8,Vitis vinifera L.; Eucalyptus L'Hér.; Magnoliopsida; Pinus pinaster Aiton
2020,2020-09-13,Braga,Terras de Bouro,Campo do Gerês,Minas carris (Altar de Cabrões),41.8232099999322,-8.05211300002204,Reacendimento,1447.0,2020-09-13T11:00,23.3,30,4.7,20.7,0.0,0.0,0.0,0.0,1,1019.8,865.4,23,0,2,74,0.48,2.01,13.2,18.6,125,126,35.3,20.7,16.9,15.4,13.6,0.22,0.306,0.315,0.426,1,3600.0,699.0,565.0,134.1,772.3,699.0,988.8,657.0,531.0,126.0,772.3,657.0,929.3,Magnoliopsida
2020,2020-09-13,Braga,Vila Nova de Famalicão,Portela,OUTEIRO-PORTELA (Candeiroa),41.4611940002441,-8.44791899998983,Desconhecida,214.0,2020-09-13T15:00,30.5,30,11.1,29.3,0.0,0.0,0.0,0.0,1,1016.2,992.1,34,0,52,11,0.32,3.04,10.2,13.7,252,247,33.1,31.7,25.1,22.2,20.3,0.107,0.161,0.204,0.325,1,739.2,249.2,53.5,195.7,84.6,249.2,855.0,270.0,58.0,212.0,84.6,270.0,926.3,Pinus pinaster Aiton; Tracheophyta; Eucalyptus L'Hér.; Magnoliopsida; 
2020,2020-09-13,Braga,Vila Verde,Cervães,AV SOBRAL COBROSA 66 ERMIDA-CERVAES 4730-018_CERVAES 031309: PRX. (Campelos),41.598894999822,-8.52574199994405,Desconhecida,142.0,2020-09-13T19:00,22.9,49,11.8,21.8,0.0,0.0,0.0,0.0,1,1017.1,1000.6,25,0,0,82,0.11,1.41,11.5,18.2,238,245,30.2,28.5,25.9,22.5,20.6,0.095,0.159,0.194,0.318,0,0.0,0.0,0.0,0.0,0.0,0.0,0.0,17.0,3.0,14.0,28.6,17.0,82.7,Pinus pinaster Aiton; Eucalyptus L'Hér.; Magnoliopsida; Tracheophyta
2020,2020-09-13,Braga,Vila Verde,Turiz,Rua de Ribeiro (São Bento),41.6336299999886,-8.45995999972026,Desconhecida,107.0,2020-09-13T23:00,20.9,66,14.4,21.6,0.5,0.5,0.0,0.0,53,1019.5,1006.9,84,0,92,96,0.01,0.83,4.8,8.5,132,152,19.8,24.2,25.8,22.7,20.9,0.102,0.158,0.19,0.314,0,0.0,0.0,0.0,0.0,0.0,0.0,0.0,0.0,0.0,0.0,0.0,0.0,0.0,Eucalyptus L'Hér.; Tracheophyta; Pinus pinaster Aiton; Magnoliopsida
2020,2020-09-13,Braga,Póvoa de Lanhoso,Friande,Fradelos (Foz),41.6374230000708,-8.26595799975925,Desconhecida,310.0,2020-09-13T23:00,20.6,57,11.7,20.5,0.0,0.0,0.0,0.0,3,1019.7,983.7,89,0,100,97,0.01,1.06,4.1,5.1,105,141,13.0,23.4,25.2,21.8,19.9,0.1,0.166,0.2,0.322,0,0.0,0.0,0.0,0.0,0.0,0.0,0.0,0.0,0.0,0.0,0.0,0.0,0.0,Tracheophyta; Magnoliopsida; Pinus pinaster Aiton; Eucalyptus L'Hér.
2020,2020-09-15,Braga,Vila Nova de Famalicão,Ribeirão,RIBEIRAO 4760-715_VILA_NOVA_DE_FAMALICAO 031235: @JUNTA DE FREGUESIA DE RIBEIRAO (JUNTA_2013#702762) (Vilar do Monte),41.3613180001577,-8.57879799948798,Reacendimento,84.0,2020-09-15T01:00,18.1,89,16.3,19.3,0.0,0.0,0.0,0.0,0,1020.2,1010.2,13,7,9,3,0.0,0.23,7.1,15.6,135,151,13.7,21.0,24.4,23.0,20.8,0.125,0.141,0.18,0.329,0,0.0,0.0,0.0,0.0,0.0,0.0,0.0,0.0,0.0,0.0,0.0,0.0,0.0,Eucalyptus L'Hér.; Tracheophyta; Magnoliopsida
2020,2020-09-15,Braga,Vila Verde,Cervães,Sobral Cobrosa (Quinta da Costariça),41.6000950000021,-8.52354800012377,Reacendimento,122.0,2020-09-15T07:00,18.0,84,15.3,19.0,0.1,0.1,0.0,0.0,51,1020.3,1005.8,65,53,29,0,0.02,0.33,5.5,11.5,122,166,11.9,19.3,23.0,22.8,20.8,0.101,0.154,0.191,0.317,1,0.0,35.9,11.2,24.7,84.9,20.6,178.8,16.0,5.0,11.0,48.8,16.0,79.7,Pinus pinaster Aiton; Eucalyptus L'Hér.; Magnoliopsida; Tracheophyta
2020,2020-09-15,Braga,Fafe,Freitas,Pardieiros,41.5138888888889,-8.22833333333333,Reacendimento,461.0,2020-09-15T13:00,23.9,48,12.3,22.5,0.0,0.0,0.0,0.0,2,1020.5,968.1,59,15,56,41,0.39,1.54,14.7,19.2,208,208,34.6,24.5,21.0,21.5,19.5,0.148,0.164,0.199,0.32,1,3600.0,511.5,246.3,265.2,319.0,511.5,1044.9,515.0,248.0,267.0,319.0,515.0,1052.0,Magnoliopsida; Eucalyptus L'Hér.; Vitis vinifera L.; Tracheophyta
2020,2020-09-15,Braga,Celorico de Basto,Ourilhe,Padreiro,41.4161111111111,-8.01166666666667,Reacendimento,399.0,2020-09-15T14:00,24.9,44,11.8,23.7,0.0,0.0,0.0,0.0,3,1019.8,974.4,100,39,95,72,0.4,1.77,12.0,15.8,229,225,33.1,26.7,22.0,22.1,20.2,0.117,0.153,0.198,0.324,1,3600.0,489.2,269.5,219.7,374.6,489.2,973.7,510.0,281.0,229.0,374.6,510.0,1015.1,Pinus pinaster Aiton; Magnoliopsida; Tracheophyta
2020,2020-09-15,Braga,Guimarães,Souto (São Salvador),R. ENGENHEIRO DUARTE (Penide),41.4949279997084,-8.31166700045268,Desconhecida,182.0,2020-09-15T16:00,24.4,57,15.2,24.2,0.0,0.0,0.0,0.0,0,1019.1,998.1,12,1,5,27,0.34,1.32,13.2,16.7,253,251,34.6,28.5,23.8,23.2,21.0,0.106,0.155,0.191,0.32,1,3600.0,416.3,300.7,115.6,624.2,416.3,651.9,479.0,346.0,133.0,624.2,479.0,750.1,Magnoliopsida; Vitis vinifera L.; Tracheophyta; Eucalyptus L'Hér.
2020,2020-09-15,Braga,Vila Verde,Aboim da Nóbrega,Campo Futebol (Fornelos),41.7488299994999,-8.37937099986606,Desconhecida,528.0,2020-09-15T19:00,17.8,79,14.2,18.4,0.0,0.0,0.0,0.0,0,1020.1,959.1,7,2,1,16,0.02,0.42,5.2,7.0,245,258,19.8,21.7,21.0,20.8,19.3,0.146,0.196,0.248,0.333,0,168.53,0.0,0.0,0.0,0.0,0.0,0.0,19.0,8.0,11.0,82.7,19.0,72.0,Magnoliopsida; Tracheophyta; Pinus pinaster Aiton
2020,2020-09-15,Braga,Celorico de Basto,Rego,Porçã,41.4058333333333,-8.09722222222222,Reacendimento,662.0,2020-09-15T19:00,18.0,70,12.3,17.8,0.0,0.0,0.0,0.0,0,1019.8,944.1,9,0,0,29,0.03,0.63,6.2,14.7,291,292,22.7,22.3,21.0,20.3,18.5,0.143,0.156,0.207,0.327,0,92.96,0.0,0.0,0.0,0.0,0.0,0.0,18.0,7.0,11.0,73.2,18.0,70.5,Pinus pinaster Aiton; Quercus L.; Tracheophyta; Magnoliopsida; Eucalyptus L'Hér.
2020,2020-09-16,Braga,Vieira do Minho,Anjos,Agra (Chão do Pastor),41.6100919999017,-8.04628300031026,Reacendimento,793.0,2020-09-16T12:00,23.5,42,9.8,22.8,0.0,0.0,0.0,0.0,1,1017.6,929.5,29,0,0,97,0.42,1.69,6.6,8.4,158,155,24.8,21.3,17.5,19.0,17.7,0.15,0.185,0.214,0.328,1,3600.0,610.6,290.4,320.2,377.3,610.6,1042.2,595.0,283.0,312.0,377.3,595.0,1015.6,Acacia Mill.; Magnoliopsida; Quercus L.
2020,2020-09-16,Braga,Vieira do Minho,Rossas,Agra,41.5956570000119,-8.04766199959649,Reacendimento,662.0,2020-09-16T16:00,26.0,36,9.9,24.3,0.0,0.0,0.0,0.0,1,1014.4,941.0,32,0,11,85,0.36,2.14,11.2,15.5,111,112,27.7,24.6,19.6,20.0,18.6,0.154,0.187,0.224,0.325,1,3600.0,378.7,254.8,123.9,538.2,378.7,641.0,437.0,294.0,143.0,538.2,437.0,739.7,Magnoliopsida; Pinus pinaster Aiton; Quercus L.
2020,2020-09-16,Braga,Vizela,Caldas de Vizela (São Miguel),IGREJA DE SAO BENTO (IGREJA#95828) (Lagoas),41.3779350005256,-8.29628200001187,Desconhecida,316.0,2020-09-16T17:00,21.6,64,14.6,20.8,0.0,0.0,0.0,0.0,1,1015.2,978.8,34,0,31,50,0.19,0.92,15.9,22.1,298,298,41.4,27.8,22.9,22.4,20.4,0.11,0.15,0.188,0.318,1,3600.0,172.0,74.7,97.3,243.8,172.0,414.8,221.0,96.0,125.0,243.8,221.0,533.1,Eucalyptus L'Hér.; Magnoliopsida; Tracheophyta; Pinus pinaster Aiton; Quercus L.
2020,2020-09-17,Braga,Vila Verde,Passó,AV IGREJA (Ribeiro da Fonte Fria),41.7247069999907,-8.3527099998792,Desconhecida,368.0,2020-09-17T13:00,26.5,39,11.6,24.5,0.0,0.0,0.0,0.0,1,1008.8,967.5,49,16,40,36,0.45,2.09,16.6,23.0,150,148,43.2,26.3,20.8,21.0,19.6,0.104,0.165,0.21,0.322,1,3600.0,527.4,335.7,191.7,441.0,527.4,1031.3,531.0,338.0,193.0,441.0,531.0,1038.4,Pinus pinaster Aiton; Eucalyptus L'Hér.; Magnoliopsida; Tracheophyta
2020,2020-09-17,Braga,Barcelos,Barqueiros,R. dos Vilares (Criaz),41.4733409998152,-8.72866099993388,Desconhecida,25.0,2020-09-17T15:00,20.5,79,16.7,21.3,0.7,0.7,0.0,0.0,53,1009.6,1006.7,50,15,39,42,0.22,0.52,10.9,13.5,333,335,49.0,25.7,22.5,22.2,20.5,0.124,0.16,0.196,0.318,1,3600.0,319.5,153.8,165.7,250.2,319.5,832.6,347.0,167.0,180.0,250.2,347.0,904.4,Magnoliopsida; Eucalyptus L'Hér.; Pinus pinaster Aiton
2020,2020-09-18,Braga,Vizela,Caldas de Vizela (São Miguel),Montesinhos (Montezinhos),41.3795350000593,-8.29660699950324,Desconhecida,323.0,2020-09-18T15:00,23.7,46,11.4,21.8,0.0,0.0,0.0,0.0,3,1006.7,970.1,100,56,41,89,0.36,1.58,15.9,21.8,123,124,35.3,23.8,20.3,22.0,20.4,0.267,0.165,0.189,0.317,1,3600.0,409.7,220.5,189.2,363.3,409.7,822.6,446.0,240.0,206.0,363.3,446.0,895.4,Eucalyptus L'Hér.; Magnoliopsida; Tracheophyta; Pinus pinaster Aiton; Quercus L.
2020,2020-09-29,Braga,Guimarães,Selho (São Jorge),TV LADOSO (Ladoso),41.4388769997491,-8.36991999997033,Desconhecida,130.0,2020-09-29T14:00,25.0,45,12.4,25.8,0.0,0.0,0.0,0.0,0,1016.7,1001.7,0,0,0,0,0.46,1.74,5.7,6.2,305,306,17.6,23.7,18.4,19.7,21.0,0.242,0.259,0.207,0.321,1,3600.0,652.1,566.3,85.8,868.3,652.1,889.5,684.0,594.0,90.0,868.3,684.0,933.1,Magnoliopsida; Tracheophyta; Quercus L.; Pinus pinaster Aiton
2020,2020-09-29,Braga,Guimarães,Briteiros (Santo Estêvão),Rua da Boavista (Bouça da Laje),41.520478000111,-8.31032700008816,Desconhecida,167.0,2020-09-29T17:00,22.3,62,14.5,22.3,0.0,0.0,0.0,0.0,0,1016.6,997.2,0,0,0,0,0.19,1.04,10.0,15.5,285,288,21.2,22.9,18.8,19.4,20.8,0.228,0.254,0.196,0.315,1,3600.0,201.7,155.8,45.9,662.3,201.7,320.8,277.0,214.0,63.0,662.3,277.0,440.7,Tracheophyta; Eucalyptus L'Hér.; Magnoliopsida; Olea europaea L.
2020,2020-10-10,Braga,Guimarães,Souto (São Salvador),Marco (PICOTO 2º),41.4993529997932,-8.28342000000179,Desconhecida,303.0,2020-10-10T17:00,19.9,61,12.1,18.5,0.0,0.0,0.0,0.0,0,1023.6,988.2,1,0,0,4,0.16,0.91,14.1,24.3,357,7,29.5,20.3,17.6,17.6,19.9,0.29,0.312,0.217,0.314,1,3600.0,143.3,106.1,37.1,612.1,143.3,238.0,216.0,160.0,56.0,612.1,216.0,358.8,Magnoliopsida; Eucalyptus L'Hér.; Tracheophyta
2020,2020-10-12,Braga,Vila Verde,Barros,Olheiro,41.7210070000754,-8.40614299986098,Desconhecida,380.0,2020-10-12T12:00,17.3,57,8.8,16.4,0.0,0.0,0.0,0.0,0,1027.2,982.5,0,0,0,0,0.35,0.85,8.0,10.0,278,285,19.8,15.5,13.3,16.4,18.9,0.294,0.317,0.275,0.317,1,3600.0,653.8,565.5,88.3,872.8,653.8,890.3,637.0,551.0,86.0,872.8,637.0,867.4,Magnoliopsida; Tracheophyta; Quercus L.; Eucalyptus L'Hér.
2020,2020-10-16,Braga,Guimarães,Souto (Santa Maria),Rua Santa maria (Piseiro),41.5115500005086,-8.28523400002056,Desconhecida,201.0,2020-10-16T21:00,11.2,79,7.6,10.1,0.0,0.0,0.0,0.0,1,1018.1,993.9,34,0,7,100,0.0,0.29,3.3,3.3,139,193,7.6,12.6,14.8,17.1,20.3,0.232,0.27,0.219,0.313,0,0.0,0.0,0.0,0.0,0.0,0.0,0.0,0.0,0.0,0.0,0.0,0.0,0.0,Eucalyptus L'Hér.; Magnoliopsida; Tracheophyta
2020,2020-10-17,Braga,Braga,Sequeira,Rua Caldas de Cima (Caldas),41.5366070000331,-8.47355999999576,Desconhecida,183.0,2020-10-17T16:00,16.8,73,11.9,16.2,0.0,0.0,0.0,0.0,3,1017.1,995.5,91,100,1,0,0.08,0.53,8.4,11.7,230,225,21.2,16.3,14.3,17.0,20.0,0.221,0.26,0.202,0.311,1,0.0,68.6,0.0,68.6,0.0,68.6,427.4,85.0,0.0,85.0,0.0,85.0,529.7,Tracheophyta; Magnoliopsida; Pinus pinaster Aiton
2020,2020-10-17,Braga,Vieira do Minho,Rossas,Politeiro (Paules),41.5696380000644,-8.08204700046115,Desconhecida,594.0,2020-10-17T16:00,14.2,76,9.9,13.6,0.0,0.0,0.0,0.0,3,1017.6,948.7,85,94,0,0,0.09,0.39,3.4,4.3,198,204,14.8,14.1,12.0,14.7,18.1,0.285,0.305,0.303,0.321,1,331.19,119.8,21.7,98.1,71.0,119.8,421.1,149.0,27.0,122.0,71.0,149.0,523.8,Magnoliopsida; Pinus pinaster Aiton; Quercus L.
2020,2020-10-17,Braga,Vieira do Minho,Rossas,Peneda Velha,41.5666666666667,-8.08222222222222,Desconhecida,645.0,2020-10-17T19:00,10.5,91,9.1,9.5,0.0,0.0,0.0,0.0,1,1018.2,942.6,29,11,0,65,0.0,0.11,5.0,3.7,60,101,9.4,12.1,12.0,14.3,17.7,0.286,0.305,0.303,0.321,0,0.0,0.0,0.0,0.0,0.0,0.0,0.0,0.0,0.0,0.0,0.0,0.0,0.0,Pinus pinaster Aiton; Magnoliopsida; Quercus L.
2020,2020-10-17,Braga,Guimarães,Longos,Rua Santa Marta (Monte de Oleiros),41.5202470000585,-8.38160699950324,Desconhecida,376.0,2020-10-17T19:00,12.4,90,10.8,12.0,0.0,0.0,0.0,0.0,1,1017.8,973.2,42,26,0,62,0.0,0.14,4.4,6.5,81,109,9.4,13.8,13.6,15.8,19.1,0.239,0.275,0.221,0.312,0,0.0,0.0,0.0,0.0,0.0,0.0,0.0,0.0,0.0,0.0,0.0,0.0,0.0,Eucalyptus L'Hér.; Magnoliopsida; Tracheophyta
2020,2020-10-18,Braga,Guimarães,Longos,Rua de Santa Marta (Monte de Oleiros),41.5200769999292,-8.38240800009833,Desconhecida,386.0,2020-10-18T17:00,18.1,64,11.2,17.8,0.0,0.0,0.0,0.0,2,1015.7,970.9,57,0,46,98,0.09,0.75,5.2,12.6,115,121,17.3,17.7,14.4,15.6,18.9,0.233,0.275,0.222,0.312,1,3600.0,85.4,33.7,51.7,254.9,85.4,182.1,142.0,56.0,86.0,254.9,142.0,303.0,Eucalyptus L'Hér.; Magnoliopsida; Tracheophyta; Pinus pinaster Aiton
2020,2020-10-18,Braga,Vieira do Minho,Rossas,Politeiro (Peneda Velha),41.5662029997508,-8.08729500002331,Desconhecida,682.0,2020-10-18T19:00,14.6,52,4.8,12.0,0.0,0.0,0.0,0.0,2,1016.5,938.0,73,0,72,98,0.05,0.81,9.6,23.8,70,86,26.6,14.0,13.2,13.9,17.4,0.273,0.301,0.303,0.321,0,0.0,0.0,0.0,0.0,0.0,0.0,0.0,0.0,0.0,0.0,0.0,0.0,0.0,Magnoliopsida; Pinus pinaster Aiton; Quercus L.
2020,2020-11-22,Braga,Guimarães,Infantas,R. do Areeiro (Vale do Arieiro),41.4246720001433,-8.23137699974908,Desconhecida,225.0,2020-11-22T21:00,9.4,81,6.2,7.7,0.0,0.0,0.0,0.0,0,1027.6,1000.1,5,0,0,17,0.0,0.23,4.6,3.1,108,21,6.8,10.5,13.0,15.0,17.8,0.345,0.356,0.38,0.326,0,0.0,0.0,0.0,0.0,0.0,0.0,0.0,0.0,0.0,0.0,0.0,0.0,0.0,Eucalyptus L'Hér.; Magnoliopsida; Tracheophyta; Pinus pinaster Aiton; Pinales
2020,2020-05-20,Braga,Vila Verde,Valdreu,Valdreu (Monte Redondo),41.7387529998355,-8.35067700001929,Desconhecida,675.0,2020-05-20T19:00,16.5,81,13.3,16.7,0.0,0.0,0.0,0.0,1,1019.9,942.4,40,4,32,59,0.07,0.35,6.2,8.3,249,265,19.1,19.8,17.8,13.2,10.5,0.312,0.344,0.385,0.417,1,174.51,62.9,9.0,53.9,65.8,62.9,182.3,105.0,15.0,90.0,65.8,105.0,304.4,Tracheophyta; Magnoliopsida; Eucalyptus L'Hér.
2020,2020-05-20,Braga,Vila Verde,Gondomar,VILA_VERDE#AMEIXOEIRA ABOIM_NOBREGA_GONDOMAR BRG#VILA_VERDE 4730: @FOJO LOBO (TURISMO#85841) (Lage),41.7426659997304,-8.35292599995931,Desconhecida,683.0,2020-05-20T19:00,16.5,81,13.2,16.6,0.0,0.0,0.0,0.0,1,1019.9,941.5,40,4,32,59,0.06,0.35,6.2,8.3,249,265,19.1,19.8,17.8,13.2,10.5,0.312,0.344,0.385,0.417,1,174.51,62.9,9.0,53.9,65.8,62.9,182.3,105.0,15.0,90.0,65.8,105.0,304.4,Magnoliopsida; Tracheophyta
2020,2020-05-21,Braga,Vila Verde,Cabanelas,CABANELAS (Trasonteiro),41.5827780003018,-8.49813799964057,Desconhecida,38.0,2020-05-21T22:00,13.0,97,12.5,12.9,0.0,0.0,0.0,0.0,0,1024.2,1019.6,15,0,0,49,0.0,0.05,6.3,8.8,283,279,9.7,17.6,19.5,16.6,14.1,0.279,0.327,0.382,0.401,0,0.0,0.0,0.0,0.0,0.0,0.0,0.0,0.0,0.0,0.0,0.0,0.0,0.0,Tracheophyta; Pinus pinaster Aiton; Eucalyptus L'Hér.; Vitis vinifera L.
2020,2020-05-23,Braga,Vila Verde,Penascais,Vilela de Cima (Marco),41.7197550000085,-8.42974800003899,Desconhecida,381.0,2020-05-23T19:00,20.3,61,12.5,19.8,0.0,0.0,0.0,0.0,1,1025.3,981.0,28,0,0,94,0.12,0.93,8.7,20.2,7,16,27.0,21.8,19.0,15.1,12.0,0.236,0.3,0.361,0.411,1,3600.0,94.7,43.7,51.1,300.0,94.7,194.2,154.0,71.0,83.0,300.0,154.0,315.8,Magnoliopsida; Eucalyptus L'Hér.; Quercus L.; Tracheophyta
2020,2020-05-24,Braga,Vila Verde,Prado (São Miguel),L. Monte (Mendiz),41.6923749997881,-8.4368329999182,Desconhecida,227.0,2020-05-24T19:00,23.0,73,17.9,24.7,0.0,0.0,0.0,0.0,0,1022.9,996.5,6,0,0,21,0.12,0.76,7.9,17.1,336,345,26.6,23.9,20.1,16.1,13.0,0.222,0.293,0.36,0.406,1,3600.0,106.3,68.4,37.9,457.3,106.3,199.5,171.0,110.0,61.0,457.3,171.0,320.8,Eucalyptus L'Hér.; Magnoliopsida; Quercus L.; Tracheophyta; Pinus pinaster Aiton
2020,2020-05-24,Braga,Vizela,Tagilde,Rua s.domingos (Arreconhas),41.382728000217,-8.26996699995465,Desconhecida,189.0,2020-05-24T21:00,18.7,86,16.4,20.0,0.0,0.0,0.0,0.0,0,1023.4,1001.1,0,0,0,0,0.0,0.29,6.1,13.4,298,333,11.9,21.3,20.7,16.7,13.7,0.251,0.308,0.368,0.402,0,0.0,0.0,0.0,0.0,0.0,0.0,0.0,0.0,0.0,0.0,0.0,0.0,0.0,Tracheophyta; Magnoliopsida; Pinus pinaster Aiton; Eucalyptus L'Hér.
2020,2020-05-25,Braga,Vila Verde,Oleiros,Rua do Amor (Ramirez),41.603998000092,-8.48087999979655,Desconhecida,32.0,2020-05-25T19:00,26.5,58,17.5,27.5,0.0,0.0,0.0,0.0,0,1020.5,1016.8,0,0,0,0,0.17,1.46,11.9,25.6,2,4,22.3,26.2,22.3,17.5,14.3,0.217,0.293,0.362,0.399,1,3600.0,107.6,71.3,36.3,468.3,107.6,203.1,172.0,114.0,58.0,468.3,172.0,324.5,Magnoliopsida; Quercus L.; Pinus pinaster Aiton; Eucalyptus L'Hér.
2020,2020-05-27,Braga,Vizela,Tagilde,S. Bento das Peras (Boavista),41.3801570002238,-8.28446000006464,Desconhecida,332.0,2020-05-27T15:00,28.6,42,14.4,29.2,0.0,0.0,0.0,0.0,0,1019.8,982.3,13,0,21,0,0.51,2.27,9.3,12.5,126,123,23.8,27.6,21.4,17.0,13.0,0.178,0.263,0.337,0.401,1,3600.0,613.3,480.5,132.8,603.3,613.3,1061.2,651.0,510.0,141.0,603.3,651.0,1126.4,Eucalyptus L'Hér.; Tracheophyta; Magnoliopsida; Vitis vinifera L.; Pinus pinaster Aiton; Quercus L.
2020,2020-05-27,Braga,Vila Verde,Lage,Hospital (Cardeira),41.6180249999629,-8.46338500022888,Desconhecida,58.0,2020-05-27T17:00,30.7,42,16.1,32.1,0.0,0.0,0.0,0.0,0,1018.6,1012.0,12,0,18,5,0.35,2.58,4.8,6.6,222,209,16.2,29.2,23.1,18.1,14.2,0.156,0.25,0.332,0.398,1,3600.0,385.5,295.6,89.9,577.0,385.5,682.6,446.0,342.0,104.0,577.0,446.0,789.7,Magnoliopsida; Tracheophyta; Eucalyptus L'Hér.
2020,2020-05-27,Braga,Vila Verde,Prado (São Miguel),Marvão (Costa),41.7025299999449,-8.43456900000572,Desconhecida,325.0,2020-05-27T18:00,28.1,51,17.1,29.9,0.0,0.0,0.0,0.0,0,1019.0,982.3,13,0,20,2,0.23,1.84,4.7,9.8,266,264,15.1,27.2,22.0,16.7,12.7,0.157,0.25,0.329,0.407,1,3600.0,244.6,176.5,68.1,525.1,244.6,447.8,309.0,223.0,86.0,525.1,309.0,565.8,Eucalyptus L'Hér.; Pinus pinaster Aiton; Magnoliopsida; Quercus L.; Tracheophyta
2020,2020-05-27,Braga,Vila Verde,Rio Mau,R. do Cabo (Monte da Feira),41.6931480005052,-8.5125370004442,Desconhecida,247.0,2020-05-27T22:00,21.2,76,16.7,22.6,0.0,0.0,0.0,0.0,0,1020.1,991.3,4,0,6,0,0.01,0.62,6.5,16.4,6,15,20.9,22.7,22.3,17.0,13.1,0.157,0.25,0.332,0.403,0,0.0,0.0,0.0,0.0,0.0,0.0,0.0,0.0,0.0,0.0,0.0,0.0,0.0,Tracheophyta; Magnoliopsida; Pinus pinaster Aiton; Eucalyptus L'Hér.
2020,2020-05-28,Braga,Cabeceiras de Basto,Rio Douro,Rachanda,41.5388888888889,-7.95722222222222,Natural,682.0,2020-05-28T16:00,27.0,38,11.6,26.6,0.0,0.0,0.0,0.0,1,1018.7,943.1,29,0,48,2,0.39,2.19,5.5,7.1,328,336,20.2,26.4,20.2,15.7,11.1,0.181,0.267,0.344,0.401,1,3600.0,465.7,337.7,128.0,508.3,465.7,884.9,513.0,372.0,141.0,508.3,513.0,974.7,Pinus pinaster Aiton; Tracheophyta; Magnoliopsida; Eucalyptus L'Hér.
2020,2020-05-29,Braga,Vila Verde,Esqueiros,L. do monte castelo (Pena),41.6582050000297,-8.45845699999068,Desconhecida,264.0,2020-05-29T08:00,25.6,56,16.2,27.5,0.0,0.0,0.0,0.0,0,1015.8,985.7,2,0,3,0,0.23,1.43,1.6,1.5,243,225,8.6,21.8,21.5,17.9,13.3,0.133,0.228,0.313,0.403,1,3600.0,425.3,331.3,94.0,650.6,425.3,678.1,353.0,275.0,78.0,650.6,353.0,562.8,Vitis vinifera L.; Eucalyptus L'Hér.; Magnoliopsida; Pinus pinaster Aiton
2020,2020-06-04,Braga,Vila Verde,Cervães,VIA AVENIDA CRUTO SOBRAL EM541 20 VILA_VERDE CERVAES BRG#VILA_VERDE 4730: ESTE (Barreiro),41.5905229997635,-8.51154299947951,Desconhecida,77.0,2020-06-04T04:00,16.0,93,14.9,16.6,0.0,0.0,0.0,0.0,1,1009.3,1000.2,40,3,25,76,0.0,0.12,6.8,13.0,302,321,13.3,18.5,20.7,19.5,14.9,0.173,0.235,0.321,0.392,0,0.0,0.0,0.0,0.0,0.0,0.0,0.0,0.0,0.0,0.0,0.0,0.0,0.0,Magnoliopsida; Pinus pinaster Aiton; Tracheophyta; Eucalyptus L'Hér.
2020,2020-06-04,Braga,Vila Verde,Mós,Boucinha (Cruz),41.6858369999462,-8.43572800000509,Desconhecida,184.0,2020-06-04T21:00,16.6,67,10.5,14.7,0.0,0.0,0.0,0.0,0,1013.6,991.9,0,0,0,0,0.05,0.62,13.9,27.0,339,344,29.5,19.7,20.5,18.8,14.2,0.187,0.21,0.298,0.391,0,0.0,0.0,0.0,0.0,0.0,0.0,0.0,0.0,0.0,0.0,0.0,0.0,0.0,Eucalyptus L'Hér.; Vitis vinifera L.; Magnoliopsida; Tracheophyta
2020,2020-06-05,Braga,Fafe,Regadas,Pontinha,41.395,-8.16277777777778,Desconhecida,435.0,2020-06-05T15:00,21.0,54,11.2,21.2,0.0,0.0,0.0,0.0,0,1013.7,964.0,0,0,0,0,0.51,1.16,11.9,14.9,284,285,30.6,23.8,18.3,17.6,13.3,0.213,0.237,0.315,0.393,1,3600.0,789.7,660.5,129.3,819.4,789.7,1070.9,837.0,700.0,137.0,819.4,837.0,1134.9,Tracheophyta; Magnoliopsida; Pinales
2020,2020-06-05,Braga,Vizela,Caldas de Vizela (São João),CALDAS_VIZELA CALDAS_VIZELA_SAO_MIGUEL_SAO_JOAO BRG#VIZELA 4815: @CALDAS VIZELA SAO JOAO (SF#168527) (Cruz),41.3747200001611,-8.32555999967787,Desconhecida,143.0,2020-06-05T19:00,17.9,75,13.4,17.1,0.0,0.0,0.0,0.0,0,1013.7,996.9,0,0,0,0,0.12,0.51,12.6,17.7,270,274,30.6,22.7,20.7,19.1,15.0,0.2,0.245,0.32,0.393,1,3600.0,127.5,87.6,39.9,512.9,127.5,226.9,195.0,134.0,61.0,512.9,195.0,347.1,Tracheophyta; Eucalyptus L'Hér.; Magnoliopsida
2020,2020-06-05,Braga,Vila Verde,Prado (São Miguel),Lugar Mendiz (Mendiz),41.6924279997084,-8.43765300008986,Desconhecida,235.0,2020-06-05T21:00,15.4,84,12.6,15.4,0.0,0.0,0.0,0.0,0,1014.2,986.4,1,0,0,2,0.0,0.29,5.4,13.8,318,332,23.8,20.3,20.5,18.5,14.0,0.146,0.205,0.296,0.393,0,0.0,0.0,0.0,0.0,0.0,0.0,0.0,0.0,0.0,0.0,0.0,0.0,0.0,Eucalyptus L'Hér.; Magnoliopsida; Quercus L.; Tracheophyta; Pinus pinaster Aiton
2020,2020-06-08,Braga,Vila Verde,Rio Mau,RIO MAU (Monte da Feira),41.6946679994795,-8.5120500002967,Desconhecida,293.0,2020-06-08T21:00,15.6,62,8.4,13.8,0.0,0.0,0.0,0.0,0,1019.6,985.0,1,0,0,2,0.03,0.67,9.5,22.3,11,18,29.2,19.3,19.4,17.9,14.0,0.128,0.198,0.292,0.392,0,0.0,0.0,0.0,0.0,0.0,0.0,0.0,0.0,0.0,0.0,0.0,0.0,0.0,Tracheophyta; Magnoliopsida; Pinus pinaster Aiton; Eucalyptus L'Hér.
2020,2020-06-10,Braga,Vila Verde,Aboim da Nóbrega,Gandarela (Penedice do Maninho),41.7351919999388,-8.38741300000085,Desconhecida,578.0,2020-06-10T16:00,20.1,51,9.5,19.2,0.0,0.0,0.0,0.0,1,1016.0,950.3,28,31,0,0,0.42,1.17,11.0,14.8,281,284,33.8,24.3,17.9,16.4,13.0,0.142,0.209,0.292,0.393,1,3600.0,624.3,473.7,150.6,692.0,624.3,908.3,684.0,519.0,165.0,692.0,684.0,995.2,Magnoliopsida; Pinus pinaster Aiton; Quercus L.; Tracheophyta; Eucalyptus L'Hér.
2020,2020-06-18,Braga,Guimarães,São Torcato,Rua de Vilar (Pinheiro),41.4859139998754,-8.25949099964566,Desconhecida,287.0,2020-06-18T21:00,13.4,82,10.4,12.2,0.0,0.0,0.0,0.0,0,1018.7,984.5,0,0,0,0,0.01,0.28,9.2,21.9,315,324,25.2,17.4,17.9,16.5,14.9,0.234,0.248,0.287,0.383,0,0.0,0.0,0.0,0.0,0.0,0.0,0.0,0.0,0.0,0.0,0.0,0.0,0.0,Magnoliopsida; Pinus pinaster Aiton; Tracheophyta; Vitis vinifera L.
2020,2020-06-22,Braga,Braga,Espinho,BRAGA#QUEIXADAS ESTE_SAO_PEDRO_SAO_MAM (ED309 (ED309) Km 49),41.557271999783,-8.35238300005595,Desconhecida,455.0,2020-06-22T15:00,30.3,36,13.5,33.1,0.0,0.0,0.0,0.0,0,1018.2,967.6,0,0,0,0,0.63,2.77,2.5,3.0,180,166,18.7,27.9,19.3,16.0,14.3,0.176,0.246,0.277,0.384,1,3600.0,811.7,714.3,97.4,874.2,811.7,1081.9,858.0,755.0,103.0,874.2,858.0,1143.6,Magnoliopsida; Eucalyptus L'Hér.; Pinus pinaster Aiton
2020,2020-06-22,Braga,Braga,Tenões,BRAGA#DADIM NOGUEIRO_TENOES BRG#BRAGA 4715: @IGREJA BOM JESUS (IGREJA#91223) (Bom Jesus),41.5549409998788,-8.37727599991693,Desconhecida,402.0,2020-06-22T15:00,30.4,38,14.7,33.5,0.0,0.0,0.0,0.0,0,1017.6,972.8,0,0,0,0,0.63,2.68,3.1,3.4,324,328,12.6,28.3,19.1,15.9,14.2,0.167,0.238,0.269,0.38,1,3600.0,808.2,708.8,99.4,866.5,808.2,1083.2,854.0,749.0,105.0,866.5,854.0,1144.6,Magnoliopsida; Tracheophyta; Eucalyptus L'Hér.; Vitis vinifera L.; Pinus pinaster Aiton
2020,2020-06-22,Braga,Fafe,Revelhe,Moinhos das Olas,41.4988888888889,-8.16416666666667,Desconhecida,392.0,2020-06-22T18:00,29.0,54,18.9,30.8,0.0,0.0,0.0,0.0,0,1016.4,972.5,0,0,0,0,0.31,1.82,10.3,16.7,324,327,22.0,27.8,20.7,16.4,14.6,0.163,0.236,0.277,0.383,1,3600.0,318.4,255.4,63.0,694.9,318.4,486.6,394.0,316.0,78.0,694.9,394.0,602.1,Pinales; Magnoliopsida; Tracheophyta
2020,2020-06-23,Braga,Braga,Aveleda,R PENEDO CRUZ 15 (Cornido),41.526613000234,-8.46420699967278,Desconhecida,192.0,2020-06-23T14:00,27.5,66,20.5,31.7,0.0,0.0,0.0,0.0,0,1014.2,992.4,0,0,0,0,0.63,1.26,13.8,17.4,263,263,32.8,30.2,22.0,17.6,15.4,0.142,0.211,0.274,0.376,1,3600.0,905.3,801.1,104.2,885.3,905.3,1198.1,930.0,823.0,107.0,885.3,930.0,1230.8,Tracheophyta; Magnoliopsida; Eucalyptus L'Hér.
2020,2020-06-23,Braga,Fafe,Passos,Santa Clara,41.4752777777778,-8.20583333333333,Desconhecida,450.0,2020-06-23T22:00,18.1,92,16.8,19.9,0.0,0.0,0.0,0.0,1,1015.4,963.5,25,0,0,84,0.0,0.17,4.2,4.7,211,176,8.6,22.0,22.0,16.4,14.1,0.153,0.234,0.286,0.383,0,0.0,0.0,0.0,0.0,0.0,0.0,0.0,0.0,0.0,0.0,0.0,0.0,0.0,Pinus pinaster Aiton; Pinales; Eucalyptus L'Hér.; Tracheophyta; Magnoliopsida
2020,2020-06-26,Braga,Vila Verde,Travassós,Revenda (Sande),41.6605550003052,-8.45979800012377,Desconhecida,230.0,2020-06-26T15:00,20.5,57,11.7,19.7,0.0,0.0,0.0,0.0,3,1017.5,990.7,100,100,100,0,0.4,1.04,12.6,15.9,233,232,31.7,24.5,20.3,18.2,15.1,0.125,0.188,0.268,0.372,1,3600.0,603.2,326.7,276.5,398.6,603.2,1084.7,637.0,345.0,292.0,398.6,637.0,1145.5,Vitis vinifera L.; Eucalyptus L'Hér.; Magnoliopsida; Pinus pinaster Aiton
2020,2020-06-26,Braga,Guimarães,Sande (Vila Nova),R. S. Martinho (Penedos Muitos),41.4741620000203,-8.3651979997423,Desconhecida,200.0,2020-06-26T20:00,17.3,84,14.6,17.5,0.1,0.1,0.0,0.0,51,1017.5,993.9,100,100,18,81,0.04,0.31,8.7,13.5,204,209,18.4,20.0,20.3,18.3,15.5,0.165,0.222,0.287,0.376,1,0.0,2.0,0.0,2.0,0.0,1.6,22.6,12.0,0.0,12.0,0.0,12.0,137.1,Eucalyptus L'Hér.; Tracheophyta; Magnoliopsida
2020,2020-06-30,Braga,Vila Verde,Esqueiros,VIA EM537 1 BOUCINHAS (Monte da Santa),41.6669069999953,-8.44091700024075,Desconhecida,174.0,2020-06-30T01:00,19.7,68,13.7,19.6,0.0,0.0,0.0,0.0,0,1013.7,993.4,4,0,6,0,0.03,0.73,9.0,21.2,5,15,22.0,21.2,22.2,18.7,15.7,0.141,0.185,0.264,0.37,0,0.0,0.0,0.0,0.0,0.0,0.0,0.0,0.0,0.0,0.0,0.0,0.0,0.0,Olea europaea L.; Tracheophyta; Pinus pinaster Aiton; Eucalyptus L'Hér.; Magnoliopsida
2020,2020-06-30,Braga,Braga,Arentim,Rua Souto Covo (Samôca),41.4801970005035,-8.50017299999793,Desconhecida,234.0,2020-06-30T13:00,29.0,51,18.0,32.8,0.0,0.0,0.0,0.0,1,1011.9,985.5,25,0,41,0,0.64,1.95,8.0,9.5,278,281,21.2,28.7,21.3,18.5,15.4,0.152,0.209,0.29,0.372,1,3600.0,880.1,704.3,175.8,744.8,880.1,1251.2,881.0,705.0,176.0,744.8,881.0,1252.5,Tracheophyta; Eucalyptus L'Hér.; Magnoliopsida; Pinus pinaster Aiton
2020,2020-02-06,Braga,Póvoa de Lanhoso,Brunhais,EN205 (BRUNHAIS),41.5737540001339,-8.18303400039673,Desconhecida,243.0,2020-02-06T19:00,10.5,89,8.8,9.1,0.0,0.0,0.0,0.0,1,1021.0,991.6,43,15,0,97,0.0,0.14,7.3,10.9,259,262,15.8,12.5,12.3,11.9,11.9,0.37,0.384,0.402,0.426,0,0.0,0.0,0.0,0.0,0.0,0.0,0.0,0.0,0.0,0.0,0.0,0.0,0.0,Tracheophyta; Magnoliopsida
2020,2020-06-30,Braga,Vila Verde,Oriz (Santa Marinha),R. da Escola (Paço),41.7037430000305,-8.36063700040181,Desconhecida,211.0,2020-06-30T15:00,29.5,54,19.2,33.3,0.0,0.0,0.0,0.0,0,1011.5,987.7,15,0,25,0,0.62,1.9,9.7,12.1,301,307,25.6,29.2,21.9,18.6,15.6,0.193,0.24,0.294,0.379,1,3600.0,797.4,673.3,124.1,822.6,797.4,1083.1,842.0,711.0,131.0,822.6,842.0,1143.7,Pinus pinaster Aiton; Tracheophyta; Magnoliopsida; Eucalyptus L'Hér.
2020,2020-06-30,Porto,Felgueiras,Jugueiros,S. Salvador (SÃO SALVADOR),41.4088780000475,-8.18956700007121,Desconhecida,472.0,2020-06-30T17:00,26.8,62,18.9,28.2,0.0,0.0,0.0,0.0,0,1011.7,959.0,5,0,8,0,0.38,1.34,13.9,18.8,280,282,36.4,28.8,22.0,17.8,14.4,0.15,0.217,0.293,0.38,1,3600.0,451.1,354.3,96.9,656.3,451.1,714.3,517.0,406.0,111.0,656.3,517.0,818.6,Magnoliopsida; Eucalyptus L'Hér.; Pinus pinaster Aiton
2020,2020-02-06,Braga,Cabeceiras de Basto,Rio Douro,Corga das Meãs,41.5766666666667,-7.96222222222222,Desconhecida,733.0,2020-02-06T21:00,7.1,84,4.6,5.1,0.0,0.0,0.0,0.0,2,1021.7,935.1,51,24,0,97,0.0,0.16,4.6,3.3,45,77,10.8,6.5,7.8,8.3,8.4,0.378,0.387,0.403,0.425,0,0.0,0.0,0.0,0.0,0.0,0.0,0.0,0.0,0.0,0.0,0.0,0.0,0.0,Tracheophyta; Magnoliopsida
2020,2020-07-02,Braga,Vila Verde,Gondiães,Monte (Bouça),41.6708449999491,-8.44621999952528,Desconhecida,140.0,2020-07-02T22:00,16.2,63,9.2,13.8,0.0,0.0,0.0,0.0,0,1022.1,1005.4,0,0,0,0,0.06,0.68,14.9,28.2,340,346,32.4,20.1,21.9,19.5,16.1,0.127,0.196,0.278,0.367,0,0.0,0.0,0.0,0.0,0.0,0.0,0.0,0.0,0.0,0.0,0.0,0.0,0.0,Eucalyptus L'Hér.; Pinus pinaster Aiton; Magnoliopsida; Tracheophyta; Vitis vinifera L.
2020,2020-07-02,Braga,Vila Verde,Oriz (Santa Marinha),Avenida de Igreja (Cabo),41.7063669999441,-8.3613879998525,Desconhecida,269.0,2020-07-02T22:00,15.0,71,9.8,13.9,0.0,0.0,0.0,0.0,0,1022.1,990.1,0,0,0,0,0.02,0.5,7.6,20.2,352,1,25.6,18.8,20.9,18.6,15.4,0.165,0.228,0.289,0.377,0,0.0,0.0,0.0,0.0,0.0,0.0,0.0,0.0,0.0,0.0,0.0,0.0,0.0,Pinus pinaster Aiton; Eucalyptus L'Hér.; Tracheophyta; Magnoliopsida
2020,2020-07-03,Braga,Barcelos,Galegos (Santa Maria),Rua do Figurado (Eirôgo),41.5682170000341,-8.58619999991523,Reacendimento,43.0,2020-07-03T13:00,25.3,44,12.3,27.3,0.0,0.0,0.0,0.0,0,1022.2,1017.2,0,0,0,0,0.65,1.79,7.7,9.7,332,333,22.3,27.8,21.0,20.2,16.8,0.113,0.186,0.272,0.368,1,3600.0,967.4,858.5,108.9,909.2,967.4,1249.3,968.0,859.0,109.0,909.2,968.0,1250.0,Tracheophyta; Eucalyptus L'Hér.; Magnoliopsida
2020,2020-07-03,Braga,Braga,Arentim,Rua Souto Covo (Samôca),41.4801970005035,-8.50017299999793,Desconhecida,234.0,2020-07-03T21:00,17.6,73,12.8,17.6,0.0,0.0,0.0,0.0,0,1021.7,994.1,0,0,0,0,0.04,0.54,6.6,18.1,319,339,16.2,21.9,21.4,18.9,15.6,0.124,0.195,0.281,0.37,0,0.0,0.0,0.0,0.0,0.0,0.0,0.0,0.0,0.0,0.0,0.0,0.0,0.9,Tracheophyta; Eucalyptus L'Hér.; Magnoliopsida; Pinus pinaster Aiton
2020,2020-07-04,Braga,Guimarães,Gondar,URBN IGREJA MATRIZ (Emboladoura),41.4218549998601,-8.37158800019158,Desconhecida,127.0,2020-07-04T10:00,26.1,45,13.4,27.1,0.0,0.0,0.0,0.0,0,1022.5,1007.8,0,0,0,0,0.49,1.85,7.1,9.2,24,31,20.5,22.7,20.0,19.6,16.5,0.139,0.205,0.286,0.372,1,3600.0,761.1,656.7,104.4,831.9,761.1,1044.5,700.0,604.0,96.0,831.9,700.0,960.7,Tracheophyta; Magnoliopsida
2020,2020-07-04,Braga,Vila Verde,Gomide,Avenida de Igreja (Igreja),41.7175720000267,-8.37772199948629,Desconhecida,444.0,2020-07-04T15:00,28.3,47,16.0,30.5,0.0,0.0,0.0,0.0,1,1021.8,971.9,25,0,0,82,0.62,2.03,10.8,14.2,285,291,32.0,28.2,20.4,18.3,15.0,0.176,0.244,0.301,0.379,1,3600.0,795.4,688.4,107.0,842.7,795.4,1080.7,840.0,727.0,113.0,842.7,840.0,1141.4,Magnoliopsida; Tracheophyta; Eucalyptus L'Hér.; Pinus pinaster Aiton
2020,2020-07-04,Braga,Vila Verde,Travassós,Monte da Santa (TRAVASSOS),41.6636569997999,-8.46035499996609,Desconhecida,174.0,2020-07-04T18:00,26.9,58,18.0,27.2,0.0,0.0,0.0,0.0,0,1020.5,1000.5,13,0,0,44,0.32,1.47,18.1,26.1,343,345,38.9,29.3,22.3,19.2,15.9,0.113,0.188,0.272,0.365,1,3600.0,312.8,240.7,72.1,646.8,312.8,492.3,386.0,297.0,89.0,646.8,386.0,607.5,Eucalyptus L'Hér.; Magnoliopsida; Pinus pinaster Aiton; Vitis vinifera L.
2020,2020-07-04,Braga,Esposende,Apúlia,R ARTUR AIRES (Pedrinhas),41.5010079999765,-8.77412500010596,Desconhecida,14.0,2020-07-04T19:00,23.4,74,18.5,23.8,0.0,0.0,0.0,0.0,0,1020.6,1019.0,13,0,0,43,0.16,0.76,19.2,29.9,334,345,42.8,26.8,22.4,19.7,16.8,0.121,0.185,0.265,0.369,1,3600.0,141.4,93.6,47.8,481.6,141.4,257.0,207.0,137.0,70.0,481.6,207.0,376.4,Tracheophyta; Pinus pinaster Aiton
2020,2020-07-04,Braga,Vila Nova de Famalicão,Brufe,R. Clemente Lopes (Igreja),41.4132339996762,-8.54060400009155,Reacendimento,149.0,2020-07-04T21:00,23.8,72,18.4,25.5,0.0,0.0,0.0,0.0,0,1020.5,1003.2,5,0,0,18,0.06,0.82,9.4,23.8,2,4,21.6,25.0,22.4,19.2,16.1,0.126,0.206,0.282,0.37,0,0.0,0.0,0.0,0.0,0.0,0.0,0.0,0.0,0.0,0.0,0.0,0.0,1.0,Tracheophyta; Eucalyptus L'Hér.; Pinus pinaster Aiton; Quercus L.; Magnoliopsida
2020,2020-07-05,Braga,Braga,Espinho,Parque Industrial (ED309 (ED309) Km 49),41.5567469999525,-8.35278800010681,Desconhecida,452.0,2020-07-05T10:00,28.7,37,12.6,28.5,0.0,0.0,0.0,0.0,0,1020.4,969.7,0,0,0,0,0.54,2.47,12.3,16.9,95,91,37.1,24.9,21.0,18.4,15.1,0.131,0.211,0.285,0.376,1,3600.0,760.7,664.0,96.7,840.7,760.7,1044.9,700.0,611.0,89.0,840.7,700.0,961.6,Magnoliopsida; Eucalyptus L'Hér.; Pinus pinaster Aiton
2020,2020-07-05,Braga,Vila Nova de Famalicão,Louro,R PADRE DOMINGOS JOAQUIM PEREIRA (Monte),41.4203919998805,-8.53745300001568,Reacendimento,147.0,2020-07-05T13:00,34.2,32,14.9,37.5,0.0,0.0,0.0,0.0,0,1018.4,1001.9,0,0,0,0,0.73,3.67,4.9,6.6,324,331,15.8,31.0,22.4,19.3,16.2,0.128,0.205,0.282,0.37,1,3600.0,935.6,829.6,106.0,878.8,935.6,1249.0,936.0,830.0,106.0,878.8,936.0,1249.6,Tracheophyta; Pinus pinaster Aiton; Eucalyptus L'Hér.
2020,2020-07-05,Braga,Vila Verde,Rio Mau,Quinta pena (Igreja),41.6938680002424,-8.51138500001695,Desconhecida,287.0,2020-07-05T21:00,25.3,72,19.8,27.7,0.0,0.0,0.0,0.0,0,1017.9,985.1,1,0,1,0,0.06,0.92,9.7,22.6,356,9,29.9,27.1,23.9,18.7,15.3,0.114,0.187,0.272,0.369,0,0.0,0.0,0.0,0.0,0.0,0.0,0.0,0.0,0.0,0.0,0.0,0.0,1.5,Tracheophyta; Magnoliopsida; Pinus pinaster Aiton; Eucalyptus L'Hér.
2020,2020-07-06,Braga,Vila Verde,Lanhas,R TOME AMARO ABREU SILVA (Lajes),41.6715520000458,-8.41813000003497,Desconhecida,48.0,2020-07-06T01:00,22.3,72,16.9,23.6,0.0,0.0,0.0,0.0,0,1017.8,1012.2,0,0,0,0,0.02,0.77,8.1,20.9,32,44,19.1,24.4,25.4,20.4,16.9,0.104,0.183,0.27,0.364,0,0.0,0.0,0.0,0.0,0.0,0.0,0.0,0.0,0.0,0.0,0.0,0.0,0.0,Pinus pinaster Aiton; Eucalyptus L'Hér.; Vitis vinifera L.; Tracheophyta
2020,2020-07-06,Braga,Braga,Sequeira,R PENEDO CRUZ (Boavista),41.527117000156,-8.46559000015259,Desconhecida,211.0,2020-07-06T12:00,33.0,38,17.0,36.4,0.0,0.0,0.0,0.0,0,1016.5,992.9,0,0,0,0,0.71,3.09,7.8,10.0,112,111,21.6,30.5,23.4,19.6,16.0,0.115,0.189,0.278,0.368,1,3600.0,922.5,814.9,107.6,870.4,922.5,1238.7,900.0,795.0,105.0,870.4,900.0,1208.5,Tracheophyta; Magnoliopsida; Eucalyptus L'Hér.
2020,2020-07-07,Braga,Vila Verde,Barbudo,Monte Castelo (Casal),41.6565229998695,-8.46060199949476,Desconhecida,274.0,2020-07-07T07:00,23.8,50,12.8,23.4,0.0,0.0,0.0,0.0,0,1014.3,982.9,0,0,0,0,0.14,1.47,8.3,18.8,90,94,22.3,21.9,23.9,19.6,15.7,0.116,0.203,0.28,0.373,1,3600.0,238.2,165.7,72.4,518.4,238.2,423.0,171.0,119.0,52.0,518.4,171.0,303.7,Magnoliopsida; Vitis vinifera L.; Eucalyptus L'Hér.; Pinus pinaster Aiton
2020,2020-07-07,Braga,Vila Nova de Famalicão,Arnoso (Santa Maria),Rua Alto Quintela (Souto Longo),41.4614170000288,-8.49287800047133,Reacendimento,224.0,2020-07-07T20:00,21.8,76,17.4,23.9,0.0,0.0,0.0,0.0,0,1013.2,987.3,0,0,0,0,0.03,0.62,3.6,5.4,264,250,15.8,28.0,25.9,20.1,16.1,0.126,0.196,0.281,0.369,1,2341.57,7.4,4.2,3.2,48.1,5.6,16.2,60.0,34.0,26.0,260.8,60.0,131.8,Eucalyptus L'Hér.; Magnoliopsida; Tracheophyta
2020,2020-07-07,Braga,Vila Verde,Barbudo,Monte Castelo (Casal),41.6567569997576,-8.45881300025516,Reacendimento,255.0,2020-07-07T23:00,21.1,80,17.5,23.3,0.0,0.0,0.0,0.0,0,1013.6,984.1,0,0,0,0,0.0,0.5,3.1,4.0,339,350,6.5,23.8,25.6,20.0,15.9,0.116,0.2,0.281,0.372,0,0.0,0.0,0.0,0.0,0.0,0.0,0.0,0.0,0.0,0.0,0.0,0.0,0.0,Magnoliopsida; Vitis vinifera L.; Eucalyptus L'Hér.; Pinus pinaster Aiton
2020,2020-07-09,Braga,Braga,Adaúfe,Rua 25 de Abril (Pinheiro),41.5993769995371,-8.40125999993748,Desconhecida,83.0,2020-07-09T12:00,29.5,53,18.8,33.8,0.0,0.0,0.0,0.0,0,1016.5,1007.0,0,0,0,0,0.65,1.95,7.2,8.7,273,277,20.5,30.2,23.7,21.3,16.9,0.102,0.18,0.267,0.364,1,3600.0,915.6,808.0,107.7,865.4,915.6,1235.3,893.0,788.0,105.0,865.4,893.0,1204.8,Magnoliopsida; Pinus pinaster Aiton; Tracheophyta; Eucalyptus L'Hér.
2020,2020-07-09,Braga,Vila Verde,Gomide,São Frutuoso (Vale),41.7122530004713,-8.38596000009113,Desconhecida,317.0,2020-07-09T16:00,30.5,44,16.9,31.4,0.0,0.0,0.0,0.0,0,1015.0,979.6,0,0,0,0,0.59,2.45,16.8,22.9,325,330,40.7,32.2,24.0,19.9,15.6,0.117,0.197,0.277,0.371,1,3600.0,666.3,581.2,85.1,838.7,666.3,916.9,728.0,635.0,93.0,838.7,728.0,1001.8,Magnoliopsida; Tracheophyta
2020,2020-07-10,Braga,Amares,Figueiredo,L. Transfontão (Morrão),41.631212000317,-8.32180300023821,Desconhecida,75.0,2020-07-10T01:00,20.2,63,13.0,19.9,0.0,0.0,0.0,0.0,0,1016.8,1008.0,0,0,0,0,0.04,0.86,8.8,19.9,351,6,20.5,23.1,25.8,21.5,17.0,0.097,0.17,0.259,0.36,0,0.0,0.0,0.0,0.0,0.0,0.0,0.0,0.0,0.0,0.0,0.0,0.0,0.0,Tracheophyta; Eucalyptus L'Hér.; Magnoliopsida; Pinus pinaster Aiton
2020,2020-07-10,Braga,Braga,Sequeira,Rua Pinheiro da Cruz (Boavista),41.526767999861,-8.46591199980842,Desconhecida,200.0,2020-07-10T08:00,21.7,56,12.5,21.7,0.0,0.0,0.0,0.0,0,1015.9,992.7,0,0,0,0,0.21,1.14,5.5,7.2,349,360,15.5,21.4,23.3,20.8,16.4,0.104,0.179,0.271,0.364,1,3600.0,413.9,326.3,87.7,666.6,413.9,647.7,340.0,268.0,72.0,666.6,340.0,532.0,Tracheophyta; Magnoliopsida; Eucalyptus L'Hér.
2020,2020-07-10,Braga,Vila Verde,Gomide,Serra (Vale),41.7127019998762,-8.38542199995783,Reacendimento,293.0,2020-07-10T19:00,27.0,45,14.2,26.8,0.0,0.0,0.0,0.0,0,1013.5,980.4,0,0,0,0,0.2,1.94,10.5,21.1,22,30,28.8,29.9,24.9,20.3,15.8,0.11,0.193,0.276,0.37,1,3600.0,142.8,104.4,38.4,559.7,142.8,246.9,212.0,155.0,57.0,559.7,212.0,366.4,Magnoliopsida; Tracheophyta
2020,2020-07-10,Braga,Guimarães,Silvares,Rua da Costa (Carvalho),41.4520679999722,-8.33096799956428,Desconhecida,142.0,2020-07-10T20:00,27.2,46,14.5,27.0,0.0,0.0,0.0,0.0,0,1012.8,996.6,0,0,0,0,0.12,1.95,11.5,22.9,356,7,29.9,29.7,25.8,21.2,16.9,0.115,0.186,0.273,0.366,1,2277.31,5.1,2.8,2.3,31.9,3.8,11.8,55.0,30.0,25.0,232.6,55.0,127.7,Eucalyptus L'Hér.; Magnoliopsida; Tracheophyta; Pinales
2020,2020-07-11,Braga,Cabeceiras de Basto,Vila Nune,Casa Nova,41.4680555555556,-7.95305555555556,Desconhecida,286.0,2020-07-11T06:00,20.6,61,12.7,19.4,0.0,0.0,0.0,0.0,0,1015.2,982.1,0,0,0,0,0.08,0.95,13.8,27.0,62,71,39.6,22.0,25.3,21.6,16.5,0.096,0.191,0.279,0.371,1,684.78,61.3,29.5,31.8,219.5,35.1,178.1,27.0,13.0,14.0,125.6,27.0,78.4,Magnoliopsida; Pinus pinaster Aiton; Vitis vinifera L.; Tracheophyta
2020,2020-07-11,Braga,Celorico de Basto,Caçarilhe,Vale Escuro,41.4241666666667,-8.05777777777778,Reacendimento,806.0,2020-07-11T09:00,22.7,48,11.1,21.0,0.0,0.0,0.0,0.0,0,1015.8,926.3,0,0,0,0,0.37,1.44,14.1,20.2,87,90,38.9,22.2,21.8,18.6,13.5,0.107,0.197,0.282,0.373,1,3600.0,606.4,514.4,92.0,786.9,606.4,865.1,534.0,453.0,81.0,786.9,534.0,761.8,Pinus pinaster Aiton; Magnoliopsida; Tracheophyta; Pinales
2020,2020-07-11,Braga,Fafe,Moreira do Rei,Alvarinhos,41.4613888888889,-8.09,Desconhecida,686.0,2020-07-11T12:00,28.9,38,13.3,30.4,0.0,0.0,0.0,0.0,0,1015.0,939.7,0,0,0,0,0.68,2.45,10.9,14.7,99,101,29.5,28.6,22.8,19.4,14.3,0.109,0.202,0.284,0.373,1,3600.0,939.6,839.1,100.4,898.6,939.6,1235.8,917.0,819.0,98.0,898.6,917.0,1206.1,Magnoliopsida; Tracheophyta
2020,2020-02-20,Braga,Braga,Adaúfe,Pedreiras (Pegada),41.5899839999941,-8.39807600021362,Desconhecida,94.0,2020-02-20T16:00,16.0,60,8.2,15.0,0.0,0.0,0.0,0.0,0,1024.2,1012.9,0,0,0,0,0.22,0.73,3.3,3.7,319,331,14.8,14.6,10.4,12.0,12.5,0.374,0.386,0.394,0.417,1,3600.0,350.8,286.4,64.4,786.3,350.8,509.9,414.0,338.0,76.0,786.3,414.0,601.7,Tracheophyta; Magnoliopsida; Pinus pinaster Aiton
2020,2020-07-11,Braga,Fafe,Passos,Outeiro das Corças,41.4802777777778,-8.21277777777778,Desconhecida,550.0,2020-07-11T14:00,31.6,33,13.5,34.2,0.0,0.0,0.0,0.0,0,1013.3,953.1,10,0,9,16,0.7,3.1,5.5,7.1,122,120,26.6,32.2,23.8,19.9,14.8,0.101,0.186,0.27,0.368,1,3600.0,898.7,801.3,97.4,892.0,898.7,1188.7,923.0,823.0,100.0,892.0,923.0,1220.9,Magnoliopsida; Eucalyptus L'Hér.; Pinales; Tracheophyta; Pinus pinaster Aiton
2020,2020-07-12,Braga,Vila Nova de Famalicão,Louro,Rua Clemente Lopes (Monte),41.419872999986,-8.53781500021617,Reacendimento,158.0,2020-07-12T13:00,30.9,47,18.4,34.3,0.0,0.0,0.0,0.0,0,1016.3,998.4,1,1,0,0,0.7,2.34,12.4,15.3,278,279,29.2,33.0,25.5,21.2,16.6,0.105,0.179,0.265,0.364,1,3600.0,926.0,820.0,106.0,872.8,926.0,1243.3,926.0,820.0,106.0,872.8,926.0,1243.4,Tracheophyta; Pinus pinaster Aiton; Eucalyptus L'Hér.
2020,2020-07-12,Braga,Vila Verde,Cabanelas,R MONTE CIMA CABANELAS CABANELAS BRG#VILA_VERDE 4730-096 (Espinheira),41.6025830001301,-8.50158300002416,Desconhecida,67.0,2020-07-12T23:00,24.4,70,18.6,26.7,0.0,0.0,0.0,0.0,0,1017.2,1009.4,0,0,0,0,0.02,0.92,6.3,17.3,13,17,13.3,27.3,27.8,22.3,17.3,0.101,0.169,0.258,0.36,0,0.0,0.0,0.0,0.0,0.0,0.0,0.0,0.0,0.0,0.0,0.0,0.0,0.0,Magnoliopsida; Pinus pinaster Aiton; Eucalyptus L'Hér.; Tracheophyta
2020,2020-07-13,Braga,Guimarães,Souto (São Salvador),Carvalhas (Penide),41.4952729998694,-8.31082699987623,Desconhecida,152.0,2020-07-13T10:00,29.8,45,16.6,30.7,0.0,0.0,0.0,0.0,0,1019.2,1001.9,0,0,0,0,0.54,2.3,14.4,19.8,89,90,35.6,28.6,25.8,22.0,17.0,0.101,0.171,0.262,0.361,1,3600.0,742.1,640.7,101.3,822.3,742.1,1031.3,681.0,588.0,93.0,822.3,681.0,946.4,Magnoliopsida; Vitis vinifera L.; Tracheophyta; Eucalyptus L'Hér.
2020,2020-07-13,Braga,Braga,Sequeira,Rua Penedo da Cruz (Nogueira),41.5278079997169,-8.46517999966939,Desconhecida,197.0,2020-07-13T16:00,33.1,37,16.5,34.7,0.0,0.0,0.0,0.0,0,1016.6,994.6,1,0,1,0,0.6,3.19,11.1,13.6,324,328,24.8,35.9,26.8,21.8,16.7,0.1,0.168,0.261,0.361,1,3600.0,654.0,562.6,91.5,814.0,654.0,914.8,715.0,615.0,100.0,814.0,715.0,1000.0,Tracheophyta; Magnoliopsida; Eucalyptus L'Hér.
2020,2020-07-13,Braga,Vila Verde,Gomide,Rua do Vale (Vale),41.7108329995473,-8.38510999997457,Desconhecida,342.0,2020-07-13T18:00,30.8,38,14.9,30.8,0.0,0.0,0.0,0.0,0,1016.5,978.3,0,0,0,0,0.35,2.75,11.2,19.4,339,345,32.0,33.8,26.5,20.9,15.8,0.093,0.177,0.266,0.367,1,3600.0,316.7,257.9,58.8,708.9,316.7,481.5,393.0,320.0,73.0,708.9,393.0,597.5,Magnoliopsida; Tracheophyta
2020,2020-07-13,Braga,Vila Verde,Atães,Rua de Albergaria (Albergaria),41.714113000234,-8.41666000048319,Desconhecida,199.0,2020-07-13T19:00,29.3,46,16.6,29.3,0.0,0.0,0.0,0.0,0,1016.8,994.2,0,0,0,0,0.25,2.2,15.9,27.2,347,352,42.5,32.8,27.2,21.6,16.5,0.099,0.169,0.259,0.361,1,3600.0,141.5,103.3,38.2,559.9,141.5,244.1,211.0,154.0,57.0,559.9,211.0,364.0,Tracheophyta; Magnoliopsida; Eucalyptus L'Hér.; Quercus L.; Pinus pinaster Aiton
2020,2020-07-13,Braga,Vila Verde,Cabanelas,Carvalhinhos (Eidos),41.5982669999864,-8.48695999993218,Desconhecida,37.0,2020-07-13T23:00,24.5,55,14.8,24.0,0.0,0.0,0.0,0.0,0,1017.5,1013.2,0,0,0,0,0.09,1.39,14.1,27.8,6,10,28.8,28.6,28.6,22.9,17.7,0.095,0.16,0.248,0.358,0,0.0,0.0,0.0,0.0,0.0,0.0,0.0,0.0,0.0,0.0,0.0,0.0,0.0,Magnoliopsida; Eucalyptus L'Hér.; Pinus pinaster Aiton
2020,2020-07-14,Braga,Vila Verde,Gomide,Rua progresso (Vale),41.712587000529,-8.38506000002225,Desconhecida,293.0,2020-07-14T00:00,21.2,61,13.3,20.8,0.0,0.0,0.0,0.0,0,1018.4,984.5,12,0,0,40,0.05,0.99,9.9,23.0,44,49,29.2,24.4,26.8,21.3,16.1,0.089,0.176,0.266,0.367,0,0.0,0.0,0.0,0.0,0.0,0.0,0.0,0.0,0.0,0.0,0.0,0.0,0.0,Magnoliopsida; Tracheophyta; Eucalyptus L'Hér.
2020,2020-07-14,Braga,Braga,Sequeira,R PENEDO CRUZ 15 AVELEDA SEQUEIRA BRG#BRAGA 4705-026: ESTE (Nogueira),41.5276280000475,-8.46484999974569,Desconhecida,209.0,2020-07-14T12:00,29.4,36,12.9,30.7,0.0,0.0,0.0,0.0,1,1016.4,992.7,23,0,0,78,0.69,2.61,11.5,14.0,340,342,29.9,30.7,25.6,22.0,16.7,0.099,0.167,0.259,0.36,1,3600.0,934.5,829.9,104.6,892.7,934.5,1230.5,911.0,809.0,102.0,892.7,911.0,1199.5,Tracheophyta; Magnoliopsida; Eucalyptus L'Hér.
2020,2020-07-14,Braga,Cabeceiras de Basto,Refojos de Basto,Cruz do Muro,41.5194444444444,-7.97833333333333,Desconhecida,356.0,2020-07-14T23:00,20.5,48,9.0,18.2,0.0,0.0,0.0,0.0,0,1015.1,974.1,0,0,0,0,0.09,1.27,14.2,29.3,66,65,34.2,24.2,26.4,21.8,16.3,0.108,0.175,0.264,0.364,0,0.0,0.0,0.0,0.0,0.0,0.0,0.0,0.0,0.0,0.0,0.0,0.0,0.0,Magnoliopsida; Tracheophyta; Pinus pinaster Aiton; Eucalyptus L'Hér.
2020,2020-07-15,Braga,Vila Verde,Turiz,Rua de S. Bento (São Bento),41.6322969998254,-8.45985500017802,Desconhecida,116.0,2020-07-15T00:00,19.6,54,10.0,17.8,0.0,0.0,0.0,0.0,0,1015.1,1001.5,0,0,0,0,0.07,1.05,12.4,24.2,8,25,31.0,23.6,26.9,22.7,17.2,0.096,0.157,0.247,0.355,0,0.0,0.0,0.0,0.0,0.0,0.0,0.0,0.0,0.0,0.0,0.0,0.0,0.0,Eucalyptus L'Hér.; Tracheophyta; Pinus pinaster Aiton; Magnoliopsida
2020,2020-07-15,Braga,Cabeceiras de Basto,Refojos de Basto,Vinha de Moiros,41.5130555555556,-7.99638888888889,Desconhecida,326.0,2020-07-15T05:00,19.6,46,7.8,15.1,0.0,0.0,0.0,0.0,0,1016.4,978.6,0,0,0,0,0.16,1.22,26.5,45.5,82,79,59.4,21.8,25.4,22.1,16.6,0.109,0.173,0.262,0.364,0,0.0,0.0,0.0,0.0,0.0,0.0,0.0,0.0,0.0,0.0,0.0,0.0,0.0,Tracheophyta; Vitis vinifera L.; Magnoliopsida; Eucalyptus L'Hér.; Pinus pinaster Aiton
2020,2020-07-15,Braga,Braga,Morreira,Avenida da Portela (Alto da Moreira),41.5032300000721,-8.39264499982198,Desconhecida,315.0,2020-07-15T07:00,20.9,42,7.4,17.1,0.0,0.0,0.0,0.0,0,1016.5,980.1,0,0,0,0,0.21,1.45,21.6,40.7,89,87,50.8,21.7,24.7,21.8,16.4,0.097,0.172,0.264,0.364,1,3600.0,220.8,151.0,69.8,494.3,220.8,404.4,155.0,106.0,49.0,494.3,155.0,283.9,Eucalyptus L'Hér.; Pinus pinaster Aiton; Tracheophyta; Magnoliopsida; Pinus pinea L.
2020,2020-07-15,Braga,Vila Nova de Famalicão,Vale (São Cosme),R. das Poças (Torre de Cima),41.4575579998228,-8.47353799978892,Reacendimento,305.0,2020-07-15T15:00,31.7,26,10.1,32.2,0.0,0.0,0.0,0.0,1,1015.7,981.7,22,0,0,74,0.67,3.45,9.2,11.7,69,72,24.8,33.8,25.5,22.0,16.6,0.096,0.169,0.262,0.363,1,3600.0,807.4,711.8,95.6,876.9,807.4,1074.4,853.0,752.0,101.0,876.9,853.0,1135.2,Eucalyptus L'Hér.; Tracheophyta
2020,2020-07-15,Braga,Vila Nova de Famalicão,Bairro,Ponte Pinguela (ED204-5 (ED204-5) Km 8),41.3683280000422,-8.42130200015174,Desconhecida,97.0,2020-07-15T17:00,33.8,25,11.2,33.1,0.0,0.0,0.0,0.0,1,1014.6,1003.7,20,0,0,68,0.48,3.93,7.9,12.4,330,338,18.4,33.9,26.4,22.2,17.4,0.128,0.16,0.247,0.364,1,3600.0,495.9,414.0,81.9,771.5,495.9,710.4,569.0,475.0,94.0,771.5,569.0,815.0,Tracheophyta
2020,2020-07-15,Porto,Felgueiras,Torrados,Bouça da Fita (Pardieiros),41.3594330003526,-8.24581299993727,Desconhecida,394.0,2020-07-15T18:00,31.0,28,10.3,29.8,0.0,0.0,0.0,0.0,1,1014.7,970.9,24,0,0,80,0.34,3.23,8.4,14.0,43,46,20.5,32.8,25.9,21.6,16.1,0.101,0.164,0.252,0.36,1,3600.0,309.1,240.8,68.2,670.0,309.1,475.9,385.0,300.0,85.0,670.0,385.0,592.8,Tracheophyta; Magnoliopsida; Eucalyptus L'Hér.; Vitis vinifera L.; Pinus pinaster Aiton
2020,2020-02-22,Braga,Vila Verde,Oriz (Santa Marinha),Estrumil,41.7201099999746,-8.36772099998262,Desconhecida,421.0,2020-02-22T18:00,17.2,59,9.0,16.4,0.0,0.0,0.0,0.0,0,1031.6,982.0,0,0,0,0,0.05,0.81,4.1,5.1,345,315,8.6,14.5,11.5,10.3,10.9,0.372,0.385,0.408,0.42,1,2773.3,21.5,13.9,7.6,159.6,18.3,41.5,88.0,57.0,31.0,399.5,88.0,170.2,Pinus pinaster Aiton; Tracheophyta; Magnoliopsida; Eucalyptus L'Hér.
2020,2020-07-16,Braga,Vila Verde,Duas Igrejas,Rua Portela de cima (Pousadouro),41.718998000092,-8.49762500021193,Desconhecida,531.0,2020-07-16T00:00,20.6,55,11.3,19.6,0.0,0.0,0.0,0.0,0,1016.6,956.1,0,0,0,0,0.06,1.09,10.1,20.8,55,67,29.2,23.5,24.7,20.2,14.8,0.096,0.17,0.261,0.364,0,0.0,0.0,0.0,0.0,0.0,0.0,0.0,0.0,0.0,0.0,0.0,0.0,0.0,Magnoliopsida; Tracheophyta; Eucalyptus L'Hér.; Pinus pinaster Aiton
2020,2020-07-16,Braga,Braga,Arentim,Cachada (Samôca),41.479916999605,-8.50112000001801,Desconhecida,236.0,2020-07-16T13:00,33.4,26,11.0,34.6,0.0,0.0,0.0,0.0,0,1016.3,990.0,9,0,0,30,0.76,3.82,9.7,12.6,94,95,28.8,33.3,25.6,22.1,16.7,0.098,0.162,0.254,0.358,1,3600.0,941.9,840.9,101.0,899.1,941.9,1238.3,942.0,841.0,101.0,899.1,942.0,1238.4,Eucalyptus L'Hér.; Magnoliopsida; Pinus pinaster Aiton; Tracheophyta; Vitis vinifera L.
2020,2020-07-16,Braga,Vila Verde,Prado (São Miguel),VIA EN101 VILA_VERDE PICO BRG#VILA_VERDE 4730 (Vilela de Baixo),41.7080720000797,-8.42386200004154,Desconhecida,269.0,2020-07-16T14:00,33.0,29,12.4,35.9,0.0,0.0,0.0,0.0,0,1015.9,985.9,17,0,0,57,0.69,3.6,2.5,2.9,352,353,13.7,35.4,25.3,21.7,16.4,0.097,0.162,0.253,0.358,1,3600.0,896.4,797.0,99.4,890.8,896.4,1184.5,920.0,818.0,102.0,890.8,920.0,1215.7,Eucalyptus L'Hér.; Pinus pinaster Aiton; Magnoliopsida; Tracheophyta; Quercus L.
2020,2020-07-16,Braga,Vila Verde,Duas Igrejas,Pedregais (Paredes),41.6905530002382,-8.47809000015259,Desconhecida,338.0,2020-07-16T15:00,33.2,30,13.3,35.0,0.0,0.0,0.0,0.0,0,1015.8,978.4,18,0,0,60,0.67,3.55,7.5,9.3,305,306,21.6,35.8,25.7,21.5,16.1,0.096,0.168,0.259,0.364,1,3600.0,802.7,704.3,98.5,869.7,802.7,1072.2,848.0,744.0,104.0,869.7,848.0,1132.6,Eucalyptus L'Hér.; Magnoliopsida; Pinus pinaster Aiton
2020,2020-07-16,Braga,Braga,Ruilhe,R. de Talegre (Monte),41.4962650002374,-8.50369199991226,Desconhecida,182.0,2020-07-16T17:00,33.8,35,16.2,34.3,0.0,0.0,0.0,0.0,0,1014.5,994.2,0,0,0,0,0.51,3.41,11.8,17.2,301,307,26.3,35.6,26.9,22.1,16.8,0.101,0.169,0.257,0.359,1,3600.0,496.8,423.6,73.2,790.8,496.8,709.2,570.0,486.0,84.0,790.8,570.0,813.7,Tracheophyta; Pinus pinaster Aiton; Eucalyptus L'Hér.; Magnoliopsida; Quercus L.
2020,2020-07-16,Braga,Amares,Figueiredo,Rua Senhora da Paz (São Sebastião),41.6297049999237,-8.33806199974484,Desconhecida,116.0,2020-07-16T17:00,34.4,31,15.1,34.8,0.0,0.0,0.0,0.0,0,1014.5,1001.5,3,0,0,9,0.5,3.73,9.7,12.6,358,360,21.6,37.3,27.7,22.9,17.4,0.096,0.153,0.242,0.353,1,3600.0,497.6,424.4,73.2,794.0,497.6,707.7,571.0,487.0,84.0,794.0,571.0,812.1,Vitis vinifera L.; Tracheophyta; Magnoliopsida
2020,2020-07-16,Braga,Vila Verde,Barros,Souto (São Martinho),41.7145420000288,-8.3948440000746,Desconhecida,195.0,2020-07-16T18:00,32.9,39,17.2,34.3,0.0,0.0,0.0,0.0,0,1014.8,993.0,0,0,0,0,0.33,3.03,7.5,13.4,325,333,23.0,35.5,27.6,22.5,17.0,0.096,0.167,0.258,0.363,1,3600.0,314.2,255.6,58.7,710.3,314.2,476.4,391.0,318.0,73.0,710.3,391.0,592.7,Tracheophyta; Magnoliopsida; Quercus L.; Eucalyptus L'Hér.
2020,2020-07-16,Braga,Póvoa de Lanhoso,Brunhais,Rua paraiso (Leira de Ela),41.5931979995304,-8.1843480000231,Desconhecida,482.0,2020-07-16T21:00,26.2,42,12.1,25.6,0.0,0.0,0.0,0.0,0,1015.6,961.5,19,0,0,62,0.07,1.99,8.4,20.9,40,46,20.9,29.0,26.6,21.5,15.9,0.099,0.171,0.263,0.364,0,0.0,0.0,0.0,0.0,0.0,0.0,0.0,0.0,0.0,0.0,0.0,0.0,0.0,Tracheophyta; Eucalyptus L'Hér.; Pinus pinaster Aiton; Quercus L.; Magnoliopsida
2020,2020-07-16,Braga,Vila Verde,Prado (São Miguel),Vilela de cima,41.7155370002323,-8.43001999961005,Desconhecida,366.0,2020-07-16T23:00,24.2,45,11.4,23.3,0.0,0.0,0.0,0.0,0,1015.1,973.5,0,0,0,0,0.07,1.67,9.2,20.9,59,61,25.6,26.9,26.8,21.5,16.0,0.096,0.167,0.258,0.363,0,0.0,0.0,0.0,0.0,0.0,0.0,0.0,0.0,0.0,0.0,0.0,0.0,0.0,Magnoliopsida; Eucalyptus L'Hér.; Quercus L.; Tracheophyta; Pinus pinaster Aiton
2020,2020-07-17,Braga,Guimarães,Souto (Santa Maria),Rua do Falcão (Piseiro),41.5115500005086,-8.28523400002056,Desconhecida,201.0,2020-07-17T02:00,26.7,35,10.2,23.5,0.0,0.0,0.0,0.0,0,1014.8,991.9,10,0,0,32,0.22,2.27,22.7,41.1,88,86,48.6,26.0,27.7,22.9,17.3,0.095,0.166,0.258,0.362,0,0.0,0.0,0.0,0.0,0.0,0.0,0.0,0.0,0.0,0.0,0.0,0.0,0.0,Eucalyptus L'Hér.; Magnoliopsida; Tracheophyta
2020,2020-07-17,Braga,Vila Nova de Famalicão,Vilarinho das Cambas,Eirado (PEDRAS NEGRAS),41.3990219995711,-8.57756200048659,Desconhecida,171.0,2020-07-17T08:00,26.8,28,6.9,22.3,0.0,0.0,0.0,0.0,0,1014.8,995.3,2,0,0,8,0.4,2.52,25.3,38.6,94,94,49.0,25.6,26.1,22.2,17.1,0.126,0.156,0.243,0.363,1,3600.0,406.4,321.7,84.7,675.0,406.4,631.0,331.0,262.0,69.0,675.0,331.0,513.9,Eucalyptus L'Hér.; Magnoliopsida; Tracheophyta; Pinus pinaster Aiton
2020,2020-07-17,Braga,Cabeceiras de Basto,Outeiro,Esturrado,41.5152777777778,-8.02916666666667,Desconhecida,625.0,2020-07-17T11:00,28.2,27,7.4,26.9,0.0,0.0,0.0,0.0,0,1016.8,947.7,0,0,0,0,0.66,2.8,14.8,20.2,84,85,43.2,27.5,23.7,20.9,15.1,0.108,0.174,0.258,0.365,1,3600.0,888.6,792.7,95.9,906.5,888.6,1157.8,843.0,752.0,91.0,906.5,843.0,1098.3,Magnoliopsida; Pinus pinaster Aiton; Tracheophyta
