year,date,district,municipality,parish,local,latitude,longitude,cause,elevation,hourly.time,hourly.temperature_2m,hourly.relative_humidity_2m,hourly.dew_point_2m,hourly.apparent_temperature,hourly.precipitation,hourly.rain,hourly.snowfall,hourly.snow_depth,hourly.weather_code,hourly.pressure_msl,hourly.surface_pressure,hourly.cloud_cover,hourly.cloud_cover_low,hourly.cloud_cover_mid,hourly.cloud_cover_high,hourly.et0_fao_evapotranspiration,hourly.vapour_pressure_deficit,hourly.wind_speed_10m,hourly.wind_speed_100m,hourly.wind_direction_10m,hourly.wind_direction_100m,hourly.wind_gusts_10m,hourly.soil_temperature_0_to_7cm,hourly.soil_temperature_7_to_28cm,hourly.soil_temperature_28_to_100cm,hourly.soil_temperature_100_to_255cm,hourly.soil_moisture_0_to_7cm,hourly.soil_moisture_7_to_28cm,hourly.soil_moisture_28_to_100cm,hourly.soil_moisture_100_to_255cm,hourly.is_day,hourly.sunshine_duration,hourly.shortwave_radiation_instant,hourly.direct_radiation_instant,hourly.diffuse_radiation_instant,hourly.direct_normal_irradiance_instant,hourly.global_tilted_irradiance_instant,hourly.terrestrial_radiation_instant,hourly.shortwave_radiation,hourly.direct_radiation,hourly.diffuse_radiation,hourly.direct_normal_irradiance,hourly.global_tilted_irradiance,hourly.terrestrial_radiation,scientificNames
2001,2001-07-19,Porto,Valongo,Sobrado,R.S.Gon+alo,41.2115102,-8.4652622,NC,127.0,2001-07-19T18:00,18.8,67,12.6,16.7,0.0,0.0,0.0,0.0,0,1021.9,1006.8,3,3,0,0,0.21,0.7,19.5,26.7,326,328,38.9,21.5,19.4,19.0,17.0,0.247,0.217,0.262,0.363,1,3600.0,269.8,184.9,84.9,519.0,269.8,471.9,337.0,231.0,106.0,519.0,337.0,589.4,Tracheophyta; Eucalyptus L'Hér.; Magnoliopsida; Pinus pinaster Aiton
2001,2001-07-29,Porto,Felgueiras,Penacova,Senhora dos Perdidos,41.3711444,-8.2502985,NC,316.0,2001-07-29T18:00,30.0,36,13.5,30.1,0.0,0.0,0.0,0.0,1,1014.8,979.4,25,0,34,15,0.27,2.69,6.6,10.5,315,322,17.3,29.2,23.3,19.1,16.2,0.128,0.21,0.263,0.359,1,3600.0,255.2,181.9,73.2,546.5,255.2,441.7,324.0,231.0,93.0,546.5,324.0,560.8,Magnoliopsida; Vitis vinifera L.; Tracheophyta; Eucalyptus L'Hér.; Pinus pinaster Aiton
2001,2001-02-20,Viana do Castelo,Viana do Castelo,Barroselas,Neves,41.6466429,-8.7209795,NC,61.0,2001-02-20T14:00,15.7,44,3.6,14.1,0.0,0.0,0.0,0.0,0,1028.1,1020.7,0,0,0,0,0.34,1.0,4.5,5.6,29,45,15.8,14.6,9.9,11.2,12.4,0.344,0.361,0.386,0.42,1,3600.0,614.2,529.3,84.8,921.1,614.2,804.1,637.0,549.0,88.0,921.1,637.0,834.0,Eucalyptus L'Hér.; Pinus pinaster Aiton; Tracheophyta; Quercus L.; Magnoliopsida
2001,2001-05-29,Porto,Maia,Gemunde,Coura,41.262487,-8.641313860826699,NC,105.0,2001-05-29T13:00,29.9,58,20.7,35.0,0.0,0.0,0.0,0.0,0,1017.7,1005.7,4,0,6,0,0.64,1.79,7.4,8.6,299,303,16.2,29.4,22.0,16.8,13.3,0.259,0.308,0.366,0.393,1,3600.0,868.0,698.6,169.4,745.5,868.0,1247.9,871.0,701.0,170.0,745.5,871.0,1252.1,Eucalyptus L'Hér.; Tracheophyta
2001,2001-05-22,Porto,Vila Nova de Gaia,Olival,En 222,41.0672014,-8.51628885774278,NC,167.0,2001-05-22T01:00,11.4,88,9.5,10.6,0.0,0.0,0.0,0.0,3,1016.5,996.4,100,94,0,91,0.0,0.16,4.6,6.4,252,254,12.2,14.1,16.4,14.7,12.7,0.345,0.36,0.387,0.395,0,0.0,0.0,0.0,0.0,0.0,0.0,0.0,0.0,0.0,0.0,0.0,0.0,0.0,Eucalyptus L'Hér.; Pinus pinaster Aiton; Magnoliopsida; Tracheophyta
2001,2001-04-18,Viana do Castelo,Viana do Castelo,Areosa,Povoen+a,41.7191326,-8.8554855,NC,16.0,2001-04-18T16:00,17.2,55,8.0,13.4,0.0,0.0,0.0,0.0,0,1013.0,1011.1,0,0,0,0,0.36,0.89,26.3,34.9,338,341,42.5,19.3,15.5,14.3,12.8,0.283,0.324,0.372,0.415,1,3600.0,596.4,513.2,83.2,877.5,596.4,793.8,667.0,574.0,93.0,877.5,667.0,887.8,Tracheophyta; Magnoliopsida; Acacia Mill.; Eucalyptus L'Hér.
2001,2001-07-28,Braga,Vila Nova de Famalicão,Oliveira (santa Maria),Mosteiro,41.40652995,-8.410710210265893,NC,169.0,2001-07-28T23:00,20.0,73,15.0,20.4,0.0,0.0,0.0,0.0,0,1015.6,995.8,3,0,5,0,0.02,0.63,8.4,15.7,47,53,19.1,20.8,22.4,19.5,16.8,0.148,0.218,0.267,0.361,0,0.0,0.0,0.0,0.0,0.0,0.0,0.0,0.0,0.0,0.0,0.0,0.0,0.0,Tracheophyta; Vitis vinifera L.; Eucalyptus L'Hér.
2001,2001-07-23,Porto,Amarante,Real,Igreja Velha,41.2472875,-8.172050257445942,NC,179.0,2001-07-23T16:00,28.0,54,17.8,29.8,0.0,0.0,0.0,0.0,0,1012.5,992.2,15,0,0,49,0.51,1.75,12.9,16.6,306,309,29.2,29.5,22.5,18.8,16.7,0.187,0.237,0.269,0.361,1,3600.0,632.0,477.9,154.1,704.8,632.0,898.5,693.0,524.0,169.0,704.8,693.0,985.3,Tracheophyta; Acacia Mill.; Magnoliopsida; Pinales; Eucalyptus L'Hér.; Vitis vinifera L.
2001,2001-07-13,Porto,Santo Tirso,Couto (Santa Cristina),Monte Na Sra Assun+o,41.325741,-8.4793533,NC,83.0,2001-07-13T16:00,22.1,70,16.5,21.9,0.0,0.0,0.0,0.0,3,1018.7,1009.0,93,99,7,0,0.34,0.79,17.0,22.0,275,275,32.4,26.1,22.3,19.8,16.8,0.189,0.2,0.26,0.367,1,3600.0,493.1,305.5,187.5,441.1,493.1,916.8,539.0,334.0,205.0,441.1,539.0,1002.2,Magnoliopsida; Eucalyptus L'Hér.; Vitis vinifera L.; Tracheophyta; Pinus pinaster Aiton
2001,2001-02-21,Viana do Castelo,Ponte da Barca,Cuide de Vila Verde,Danaia,41.7780312,-8.4172177,NC,71.0,2001-02-21T16:00,17.7,39,3.7,15.0,0.0,0.0,0.0,0.0,0,1025.4,1016.9,0,0,0,0,0.27,1.23,7.9,11.7,60,72,17.3,15.0,9.7,10.3,11.8,0.337,0.356,0.382,0.419,1,3600.0,381.7,316.3,65.5,853.0,381.7,518.6,449.0,372.0,77.0,853.0,449.0,610.0,Vitis vinifera L.; Tracheophyta; Magnoliopsida; Pinus pinaster Aiton
2001,2001-07-29,Braga,Guimarães,Figueiredo,Monte Cruzes,41.4702113,-8.3826254,NC,228.0,2001-07-29T02:00,17.2,83,14.2,17.6,0.0,0.0,0.0,0.0,0,1015.6,988.8,0,0,0,0,0.0,0.34,7.1,16.7,49,71,16.6,18.5,21.5,19.1,16.4,0.138,0.214,0.264,0.36,0,0.0,0.0,0.0,0.0,0.0,0.0,0.0,0.0,0.0,0.0,0.0,0.0,0.0,Eucalyptus L'Hér.; Magnoliopsida; Pinus pinaster Aiton; Tracheophyta
2001,2001-07-29,Braga,Fafe,Fornelos,LUZ,41.45946685,-8.187137085433093,NC,253.0,2001-07-29T02:00,17.2,83,14.3,17.5,0.0,0.0,0.0,0.0,0,1016.0,986.3,0,0,0,0,0.0,0.33,7.4,19.2,67,84,20.2,18.6,21.9,19.5,16.6,0.133,0.215,0.263,0.36,0,0.0,0.0,0.0,0.0,0.0,0.0,0.0,0.0,0.0,0.0,0.0,0.0,0.0,Pinales; Tracheophyta; Eucalyptus L'Hér.; Magnoliopsida
2001,2001-07-04,Porto,Paredes,Vilela,Noval,41.2462757,-8.3848342,NC,316.0,2001-07-04T14:00,18.2,55,9.0,15.7,0.1,0.1,0.0,0.0,51,1012.7,976.0,53,33,39,0,0.4,0.94,20.0,27.3,288,288,49.0,23.9,20.8,19.1,14.8,0.149,0.167,0.262,0.373,1,3600.0,668.1,454.8,213.3,502.6,668.1,1197.2,686.0,467.0,219.0,502.6,686.0,1229.3,Magnoliopsida; Pinus pinaster Aiton; Eucalyptus L'Hér.; Tracheophyta; Vitis vinifera L.
2001,2001-07-29,Porto,Paços de Ferreira,Penamaior,Tapadinha,41.2848449,-8.4186645,NC,401.0,2001-07-29T15:00,30.0,35,12.8,32.0,0.0,0.0,0.0,0.0,1,1015.0,970.3,29,0,48,2,0.57,2.77,3.3,4.3,49,66,21.6,31.0,22.0,18.6,15.7,0.122,0.208,0.265,0.359,1,3600.0,739.5,605.4,134.1,763.3,739.5,1052.3,783.0,641.0,142.0,763.3,783.0,1114.2,Magnoliopsida; Eucalyptus L'Hér.; Tracheophyta; Vitis vinifera L.; 
2001,2001-07-20,Porto,Penafiel,Luzim,Vale Devesa,41.1675345,-8.2633922,NC,548.0,2001-07-20T17:00,22.6,46,10.4,22.3,0.0,0.0,0.0,0.0,0,1018.8,956.7,0,0,0,0,0.36,1.49,4.2,5.0,329,339,15.8,23.3,17.3,16.2,14.4,0.23,0.246,0.273,0.364,1,3600.0,494.7,414.8,79.8,789.4,494.7,696.1,570.0,478.0,92.0,789.4,570.0,802.0,Magnoliopsida; Eucalyptus L'Hér.
2001,2001-04-19,Viana do Castelo,Monção,Riba de Mouro,Cruz Nova,42.0389854,-8.3294946,NC,245.0,2001-04-19T14:00,14.2,50,4.0,11.7,0.0,0.0,0.0,0.0,3,1011.1,982.1,81,89,0,2,0.41,0.8,17.6,23.7,11,13,44.3,16.8,12.5,12.4,11.0,0.284,0.323,0.371,0.415,1,3600.0,820.0,669.2,150.9,829.0,820.0,1095.0,848.0,692.0,156.0,829.0,848.0,1132.3,Pinus pinaster Aiton; Magnoliopsida; Quercus L.; Tracheophyta; Vitis vinifera L.; Eucalyptus L'Hér.; 
2001,2001-07-29,Porto,Póvoa de Varzim,Póvoa de Varzim,R.Veriato Barbosa,41.3778761,-8.758443632782878,NC,8.0,2001-07-29T16:00,30.8,45,17.3,31.5,0.0,0.0,0.0,0.0,0,1015.0,1014.1,7,0,11,0,0.55,2.46,16.9,22.3,336,342,25.9,33.0,24.2,20.4,17.8,0.109,0.189,0.264,0.358,1,3600.0,601.4,491.1,110.3,732.2,601.4,889.9,660.0,539.0,121.0,732.2,660.0,976.7,Tracheophyta; Magnoliopsida
2001,2001-07-18,Porto,Santo Tirso,Couto (São Miguel),Aldeia Nova,41.3281506,-8.4589843,NC,129.0,2001-07-18T18:00,16.2,71,10.9,13.3,0.2,0.2,0.0,0.0,51,1017.9,1002.5,36,9,47,0,0.17,0.54,21.8,30.0,308,308,42.5,19.6,19.1,19.0,16.8,0.274,0.226,0.259,0.365,1,3600.0,218.1,131.5,86.6,367.0,218.1,474.5,272.0,164.0,108.0,367.0,272.0,591.7,Eucalyptus L'Hér.; Tracheophyta; Vitis vinifera L.; Magnoliopsida; Pinus pinaster Aiton
2001,2001-05-29,Porto,Penafiel,Bustelo,Agrelo,41.2299987,-8.2677145,NC,259.0,2001-05-29T14:00,31.0,47,18.3,33.8,0.0,0.0,0.0,0.0,1,1017.7,988.6,21,0,35,0,0.53,2.4,6.6,8.2,283,285,18.4,28.7,21.7,16.1,12.1,0.26,0.307,0.365,0.395,1,3600.0,652.0,471.5,180.5,530.0,652.0,1184.7,672.0,486.0,186.0,530.0,672.0,1221.0,Magnoliopsida; Tracheophyta; Eucalyptus L'Hér.; Pinus pinaster Aiton; Vitis vinifera L.; Pinales; 
2001,2001-05-28,Porto,Paredes,Lordelo,Corregais,41.2346057,-8.4146751,NC,202.0,2001-05-28T17:00,29.4,56,19.9,31.4,0.0,0.0,0.0,0.0,0,1021.2,998.2,14,0,23,0,0.4,1.78,12.4,19.7,330,336,22.0,27.6,22.1,16.0,12.6,0.273,0.308,0.364,0.395,1,3600.0,441.3,358.4,82.9,699.8,441.3,682.2,511.0,415.0,96.0,699.8,511.0,789.9,Magnoliopsida; Pinus pinaster Aiton; Eucalyptus L'Hér.; Tracheophyta; Vitis vinifera L.
2001,2001-04-19,Viana do Castelo,Valença,Taião,trofa de cima,41.990382,-8.5846855,NC,320.0,2001-04-19T22:00,6.9,70,1.8,3.1,0.0,0.0,0.0,0.0,0,1014.0,975.3,7,0,0,24,0.03,0.3,13.6,27.1,32,36,42.5,9.8,12.7,12.3,10.8,0.28,0.32,0.369,0.414,0,0.0,0.0,0.0,0.0,0.0,0.0,0.0,0.0,0.0,0.0,0.0,0.0,0.0,Magnoliopsida; Eucalyptus L'Hér.; Tracheophyta; Vitis vinifera L.; Pinus pinaster Aiton; Acacia Mill.; 
2001,2001-04-20,Viana do Castelo,Viana do Castelo,Carvoeiro,Portela,41.6498636,-8.6501241,NC,173.0,2001-04-20T15:00,15.9,41,2.5,12.7,0.0,0.0,0.0,0.0,0,1014.0,993.5,0,0,0,0,0.44,1.08,19.5,24.0,5,9,39.6,18.0,13.4,13.3,11.9,0.265,0.312,0.364,0.412,1,3600.0,764.0,668.6,95.4,925.9,764.0,979.1,817.0,715.0,102.0,925.9,817.0,1046.9,Magnoliopsida; Eucalyptus L'Hér.; Tracheophyta; Pinus pinaster Aiton
2001,2001-07-28,Porto,Santo Tirso,Guimarei,Curtinha,41.2999527,-8.4792107,NC,202.0,2001-07-28T16:00,26.6,51,15.7,26.8,0.0,0.0,0.0,0.0,0,1014.4,991.4,1,0,1,2,0.49,1.71,16.1,23.7,326,330,33.5,28.6,22.0,19.3,16.8,0.153,0.19,0.247,0.359,1,3600.0,615.0,509.3,105.7,758.4,615.0,890.9,675.0,559.0,116.0,758.4,675.0,977.8,Pinus pinaster Aiton; Magnoliopsida; Eucalyptus L'Hér.; Vitis vinifera L.; Tracheophyta
2001,2001-07-04,Porto,Gondomar,São Pedro da Cova,R. Pedra Verde,41.1473685,-8.5074154,NC,78.0,2001-07-04T15:00,19.5,58,11.0,17.1,0.5,0.5,0.0,0.0,53,1012.9,1003.7,57,34,44,0,0.39,0.95,22.1,29.2,292,292,51.1,25.5,22.3,20.7,16.5,0.141,0.17,0.265,0.373,1,3600.0,631.7,418.6,213.1,509.9,631.7,1086.2,667.0,442.0,225.0,509.9,667.0,1146.9,Magnoliopsida; Eucalyptus L'Hér.; Tracheophyta; Vitis vinifera L.; Pinus pinaster Aiton
2001,2001-07-29,Porto,Baião,Santa Cruz do Douro,Largo Gon+alves,41.124492,-8.0130669,NC,449.0,2001-07-29T17:00,30.4,32,11.9,30.4,0.0,0.0,0.0,0.0,1,1015.0,965.2,20,0,26,15,0.34,2.94,3.8,5.2,49,56,22.3,30.9,23.6,19.5,16.4,0.136,0.168,0.234,0.357,1,3600.0,381.2,285.5,95.7,561.6,381.2,674.4,442.0,331.0,111.0,561.6,442.0,782.0,Magnoliopsida; Pinus pinaster Aiton; Vitis vinifera L.; Quercus L.; Tracheophyta; Eucalyptus L'Hér.; Olea europaea L.; 
2001,2001-07-29,Porto,Santo Tirso,Couto (Santa Cristina),Monte PadrÇo,41.325741,-8.4793533,NC,83.0,2001-07-29T17:00,30.5,43,16.6,30.9,0.0,0.0,0.0,0.0,1,1014.6,1005.2,22,0,35,4,0.41,2.48,12.6,17.6,329,334,20.9,31.2,24.3,20.3,17.6,0.145,0.185,0.245,0.359,1,3600.0,408.0,306.0,102.0,596.5,408.0,680.6,472.0,354.0,118.0,596.5,472.0,787.4,Magnoliopsida; Eucalyptus L'Hér.; Vitis vinifera L.; Tracheophyta; Pinus pinaster Aiton
2001,2001-07-04,Porto,Amarante,Oliveira,Arvores,41.2577063,-8.2015419,NC,228.0,2001-07-04T18:00,15.5,83,12.5,14.1,0.4,0.4,0.0,0.0,51,1011.6,984.7,45,25,34,8,0.14,0.31,14.6,20.6,280,282,46.1,21.2,21.5,19.8,15.4,0.157,0.178,0.272,0.372,1,3600.0,209.2,113.9,95.3,309.2,209.2,487.3,259.0,141.0,118.0,309.2,259.0,603.4,Magnoliopsida; Eucalyptus L'Hér.; Tracheophyta
2001,2001-07-29,Porto,Baião,Grilo,Sivares,41.1392744,-8.0770423,NC,481.0,2001-07-29T17:00,30.1,32,11.7,30.1,0.0,0.0,0.0,0.0,1,1015.0,961.7,20,0,26,15,0.34,2.9,3.8,5.2,49,56,22.3,30.7,23.4,19.2,16.1,0.136,0.168,0.234,0.357,1,3600.0,381.1,285.4,95.7,562.9,381.1,672.6,442.0,331.0,111.0,562.9,442.0,780.2,Tracheophyta; Magnoliopsida; Pinus pinaster Aiton; Castanea sativa Mill.; 
2001,2001-07-28,Porto,Santo Tirso,Burgães,Ramada,41.350423,-8.4516736,NC,99.0,2001-07-28T18:00,25.7,56,16.2,26.0,0.0,0.0,0.0,0.0,0,1014.7,1003.3,16,0,6,42,0.26,1.46,12.6,22.0,340,345,33.5,27.2,22.8,19.7,17.2,0.153,0.197,0.252,0.36,1,3600.0,251.5,177.1,74.3,523.3,251.5,449.0,318.0,224.0,94.0,523.3,318.0,567.9,Tracheophyta; Magnoliopsida; Pinus pinaster Aiton; Eucalyptus L'Hér.; Vitis vinifera L.
2001,2001-07-05,Porto,Valongo,Campo,Balselhas,41.1848723,-8.470509562731383,NC,124.0,2001-07-05T00:00,14.7,92,13.3,14.7,0.0,0.0,0.0,0.0,1,1011.6,996.8,49,47,11,1,0.0,0.14,6.9,10.2,298,302,17.3,17.5,21.2,20.4,16.2,0.142,0.178,0.272,0.37,0,0.0,0.0,0.0,0.0,0.0,0.0,0.0,0.0,0.0,0.0,0.0,0.0,0.0,Magnoliopsida; Pinus pinaster Aiton; Tracheophyta; Vitis vinifera L.
2001,2001-07-29,Porto,Paredes,Rebordosa,Santa Marta,41.2338986,-8.4018082,NC,250.0,2001-07-29T19:00,27.6,53,17.2,28.7,0.0,0.0,0.0,0.0,1,1015.3,986.9,34,0,31,51,0.16,1.74,10.2,16.6,350,355,26.3,27.7,23.6,19.4,16.6,0.151,0.184,0.241,0.359,1,3600.0,87.1,52.8,34.4,356.9,87.1,196.1,142.0,86.0,56.0,356.9,142.0,319.7,Magnoliopsida; Pinus pinaster Aiton; Eucalyptus L'Hér.; Tracheophyta; Vitis vinifera L.
2001,2001-04-21,Viana do Castelo,Viana do Castelo,Areosa,Povoen+a,41.7191326,-8.8554855,NC,16.0,2001-04-21T16:00,14.5,52,4.7,9.6,0.0,0.0,0.0,0.0,1,1019.2,1017.3,26,2,0,80,0.33,0.79,28.8,36.3,334,336,47.9,17.7,14.1,14.0,12.8,0.239,0.307,0.363,0.412,1,3600.0,606.3,516.8,89.6,871.0,606.3,803.9,677.0,577.0,100.0,871.0,677.0,897.6,Tracheophyta; Magnoliopsida; Acacia Mill.; Eucalyptus L'Hér.
2001,2001-07-21,Porto,Valongo,Sobrado,Ramalhido,41.2115102,-8.4652622,NC,127.0,2001-07-21T02:00,14.8,95,13.9,14.8,0.0,0.0,0.0,0.0,0,1017.9,1002.7,0,0,0,0,0.0,0.09,8.6,15.1,2,1,18.4,16.4,19.6,18.9,17.1,0.219,0.214,0.261,0.362,0,0.0,0.0,0.0,0.0,0.0,0.0,0.0,0.0,0.0,0.0,0.0,0.0,0.0,Tracheophyta; Eucalyptus L'Hér.; Magnoliopsida; Pinus pinaster Aiton
2001,2001-05-05,Viana do Castelo,Ponte da Barca,Lindoso,Cruzeiro,41.8666101,-8.1997242,NC,454.0,2001-05-05T22:00,7.2,72,2.4,3.9,0.0,0.0,0.0,0.0,0,1017.8,963.3,0,0,0,0,0.02,0.29,10.8,23.8,30,35,37.1,9.5,11.7,10.6,10.5,0.364,0.379,0.384,0.407,0,0.0,0.0,0.0,0.0,0.0,0.0,0.0,0.0,0.0,0.0,0.0,0.0,0.0,Magnoliopsida; Pinus pinaster Aiton; Vitis vinifera L.
2001,2001-05-06,Viana do Castelo,Caminha,Riba de Âncora,Medo,41.8112515,-8.8186725,NC,65.0,2001-05-06T14:00,16.7,53,7.1,14.8,0.0,0.0,0.0,0.0,3,1017.5,1009.7,95,53,79,0,0.41,0.9,15.8,20.0,348,353,32.4,18.7,14.0,13.2,13.0,0.317,0.355,0.363,0.403,1,3600.0,733.6,542.7,190.9,635.9,733.6,1147.3,757.0,560.0,197.0,635.9,757.0,1184.0,Pinus pinaster Aiton; Tracheophyta; Magnoliopsida; Eucalyptus L'Hér.
2001,2001-07-20,Porto,Vila Nova de Gaia,Madalena,R.Do Cerro,41.1063312,-8.6429519,NC,38.0,2001-07-20T13:00,23.9,45,11.2,23.8,0.0,0.0,0.0,0.0,0,1020.7,1016.3,0,0,0,0,0.62,1.63,17.3,21.1,339,346,31.3,25.5,19.4,19.3,17.5,0.238,0.215,0.268,0.367,1,3600.0,954.3,838.3,116.0,897.4,954.3,1237.3,954.0,838.0,116.0,897.4,954.0,1236.9,Tracheophyta; Magnoliopsida; Eucalyptus L'Hér.
2001,2001-07-06,Porto,Paredes,Cete,Vale Monte,41.1782871,-8.3649391,NC,151.0,2001-07-06T18:00,19.8,65,13.1,19.1,0.0,0.0,0.0,0.0,2,1016.1,998.4,79,84,6,0,0.23,0.81,11.2,14.4,268,269,26.3,22.3,20.0,19.7,16.1,0.309,0.235,0.261,0.371,1,3600.0,302.8,214.0,88.8,580.5,302.8,487.7,375.0,265.0,110.0,580.5,375.0,604.0,Magnoliopsida; Pinus pinaster Aiton; Eucalyptus L'Hér.; Tracheophyta; Vitis vinifera L.
2001,2001-07-29,Braga,Fafe,Arões (Santa Cristina),Souto Novo,41.443371,-8.2153415,NC,276.0,2001-07-29T10:00,25.6,54,15.5,26.1,0.0,0.0,0.0,0.0,0,1017.1,985.6,0,0,0,0,0.46,1.52,13.5,18.3,81,80,32.8,25.3,21.4,19.6,16.6,0.132,0.205,0.259,0.358,1,3600.0,724.5,610.7,113.8,805.9,724.5,1005.4,662.0,558.0,104.0,805.9,662.0,918.7,Eucalyptus L'Hér.; Tracheophyta; Pinales; Magnoliopsida
2001,2001-02-22,Viana do Castelo,Viana do Castelo,Montaria,Tras-Ancora,41.8021066,-8.7446167,NC,227.0,2001-02-22T13:00,17.5,40,3.7,16.3,0.0,0.0,0.0,0.0,0,1021.3,994.5,11,0,0,36,0.36,1.2,1.9,1.8,248,191,10.8,14.5,8.7,10.0,11.3,0.338,0.354,0.381,0.419,1,3600.0,645.7,553.2,92.5,896.8,645.7,862.4,642.0,550.0,92.0,896.8,642.0,857.5,Magnoliopsida; Pinus pinaster Aiton; Eucalyptus L'Hér.
2001,2001-05-23,Viana do Castelo,Valença,Cerdal,Pa+os,41.9789,-8.622752,NC,50.0,2001-05-23T20:00,15.4,83,12.6,14.5,0.0,0.0,0.0,0.0,0,1022.1,1016.1,17,0,0,57,0.03,0.29,11.4,18.9,336,339,24.5,17.5,17.7,15.2,12.9,0.315,0.347,0.388,0.4,0,1214.46,0.0,0.0,0.0,0.0,0.0,0.0,35.0,17.0,18.0,151.9,35.0,90.2,Magnoliopsida; Tracheophyta; Pinus pinaster Aiton; Eucalyptus L'Hér.; Vitis vinifera L.; 
2001,2001-07-28,Porto,Paredes,Aguiar de Sousa,Cruzes,41.1271547,-8.4477733,NC,144.0,2001-07-28T20:00,24.1,64,16.8,24.8,0.0,0.0,0.0,0.0,0,1014.5,997.9,14,0,4,38,0.08,1.09,11.4,19.9,347,356,21.2,24.9,23.3,19.9,17.3,0.142,0.192,0.253,0.359,0,833.18,0.0,0.0,0.0,0.0,0.0,0.0,30.0,14.0,16.0,125.0,30.0,89.9,Magnoliopsida; Pinus pinaster Aiton; Eucalyptus L'Hér.; Tracheophyta; Vitis vinifera L.; Quercus L.; Quercus suber L.
2001,2001-07-28,Porto,Felgueiras,Varziela,Forca,41.3492415,-8.2159638,NC,321.0,2001-07-28T21:00,23.4,58,14.6,24.1,0.0,0.0,0.0,0.0,1,1015.5,978.8,21,0,16,37,0.02,1.21,5.4,8.9,42,40,11.9,22.8,22.8,19.2,16.3,0.123,0.208,0.265,0.359,0,0.0,0.0,0.0,0.0,0.0,0.0,0.0,0.0,0.0,0.0,0.0,0.0,0.0,Tracheophyta; Magnoliopsida; Vitis vinifera L.
2001,2001-07-24,Porto,Baião,Viariz,Cimo de Vila,41.1705829,-7.9639747,NC,638.0,2001-07-24T15:00,25.0,57,15.9,26.0,0.1,0.1,0.0,0.0,51,1013.3,942.3,37,10,47,0,0.43,1.36,9.7,12.7,274,277,25.2,29.6,21.9,18.0,15.4,0.135,0.183,0.254,0.357,1,3600.0,577.0,422.2,154.9,528.3,577.0,1059.1,611.0,447.0,164.0,528.3,611.0,1121.5,Pinales; Magnoliopsida; Quercus L.; Tracheophyta; Pinus pinaster Aiton; Eucalyptus L'Hér.; 
2001,2001-07-29,Porto,Felgueiras,Pinheiro,#NAME?,41.3684352,-8.152882,NC,497.0,2001-07-29T01:00,17.1,80,13.7,16.8,0.0,0.0,0.0,0.0,0,1016.7,959.2,0,0,0,0,0.01,0.38,9.6,17.9,77,81,27.0,18.4,21.4,18.5,15.5,0.131,0.203,0.258,0.357,0,0.0,0.0,0.0,0.0,0.0,0.0,0.0,0.0,0.0,0.0,0.0,0.0,0.0,Pinus pinaster Aiton; Tracheophyta; Magnoliopsida; Vitis vinifera L.; Eucalyptus L'Hér.
2001,2001-07-20,Porto,Felgueiras,Margaride (santa Eulália),Av¦. Santa Quit¦ria,41.3667229,-8.203496330346734,NC,298.0,2001-07-20T15:00,24.9,41,10.8,26.6,0.0,0.0,0.0,0.0,0,1019.3,985.2,0,0,0,0,0.58,1.86,4.4,5.4,351,360,18.0,25.8,18.3,17.8,16.1,0.239,0.25,0.269,0.363,1,3600.0,814.2,709.3,105.0,880.2,814.2,1067.3,861.0,750.0,111.0,880.2,861.0,1128.6,Magnoliopsida; Tracheophyta; Eucalyptus L'Hér.
2001,2001-05-27,Porto,Paredes,Louredo,Venda,41.1052581,-8.0186892,NC,100.0,2001-05-27T18:00,30.1,59,21.2,33.8,0.0,0.0,0.0,0.0,1,1020.1,1008.7,26,0,17,51,0.25,1.74,5.1,8.9,315,320,18.7,27.5,22.4,16.5,13.2,0.264,0.32,0.374,0.395,1,3600.0,261.2,191.2,70.0,579.0,261.2,439.9,332.0,243.0,89.0,579.0,332.0,559.2,Tracheophyta; Magnoliopsida; Eucalyptus L'Hér.; Pinus pinaster Aiton; Vitis vinifera L.; 
2001,2001-07-21,Porto,Trofa,Bougado (santiago),LG.COSTA,41.3302367,-8.5724918,NC,31.0,2001-07-21T16:00,25.6,63,18.1,26.8,0.0,0.0,0.0,0.0,0,1015.9,1012.3,0,0,0,0,0.48,1.2,18.2,24.0,326,332,33.5,27.9,21.7,19.2,17.5,0.197,0.21,0.264,0.363,1,3600.0,666.0,567.3,98.7,828.6,666.0,907.0,729.0,621.0,108.0,828.6,729.0,992.8,Tracheophyta; Magnoliopsida; Pinales
2001,2001-07-29,Braga,Fafe,Regadas,Doroso,41.3952375,-8.1508905,NC,459.0,2001-07-29T11:00,26.2,51,15.2,27.4,0.0,0.0,0.0,0.0,0,1017.0,965.3,0,0,0,0,0.56,1.66,12.7,17.4,82,83,38.5,26.6,20.9,18.8,15.8,0.129,0.202,0.258,0.357,1,3600.0,846.5,728.2,118.4,849.5,846.5,1137.2,801.0,689.0,112.0,849.5,801.0,1076.1,Pinales; Tracheophyta; Magnoliopsida
2001,2001-07-29,Porto,Gondomar,Foz do Sousa,Rua do Tronco,41.1014157,-8.5043417,NC,106.0,2001-07-29T04:00,18.2,85,15.6,18.7,0.0,0.0,0.0,0.0,0,1015.2,1002.7,0,0,0,0,0.01,0.32,10.1,21.7,55,71,20.9,19.0,22.3,20.2,17.6,0.144,0.177,0.243,0.36,0,0.0,0.0,0.0,0.0,0.0,0.0,0.0,0.0,0.0,0.0,0.0,0.0,0.0,Eucalyptus L'Hér.; Tracheophyta; Magnoliopsida; Pinus pinaster Aiton
2001,2001-07-08,Porto,Vila Nova de Gaia,Avintes,R.Agraceira,41.0980132,-8.536709808946833,NC,74.0,2001-07-08T09:00,17.7,74,13.0,17.0,0.0,0.0,0.0,0.0,2,1019.6,1010.8,72,51,4,80,0.22,0.53,11.4,13.6,347,348,22.0,19.6,19.0,19.9,16.8,0.269,0.212,0.264,0.371,1,3600.0,432.0,220.6,211.5,337.8,432.0,863.9,380.0,194.0,186.0,337.8,380.0,759.9,Magnoliopsida; Eucalyptus L'Hér.; Tracheophyta
2001,2001-07-29,Braga,Guimarães,Briteiros (salvador),Cit¦nia,41.5163115,-8.3208911,NC,152.0,2001-07-29T13:00,30.2,44,16.7,34.1,0.0,0.0,0.0,0.0,0,1015.6,998.4,4,0,6,0,0.68,2.38,5.3,7.2,62,63,25.2,30.4,22.1,19.5,16.8,0.141,0.221,0.266,0.361,1,3600.0,926.1,807.1,119.0,878.4,926.1,1219.0,926.0,807.0,119.0,878.4,926.0,1218.9,Tracheophyta; Magnoliopsida
2001,2001-07-21,Porto,Vila Nova de Gaia,Pedroso,Agros,41.064143,-8.5572235,NC,131.0,2001-07-21T17:00,24.3,65,17.3,24.6,0.0,0.0,0.0,0.0,0,1015.6,1000.5,0,0,0,0,0.37,1.06,16.5,21.3,324,326,32.0,26.5,21.4,18.7,16.9,0.211,0.211,0.266,0.367,1,3600.0,497.1,415.4,81.7,784.5,497.1,701.5,572.0,478.0,94.0,784.5,572.0,807.2,Magnoliopsida; Eucalyptus L'Hér.; Tracheophyta
2001,2001-07-24,Porto,Vila Nova de Gaia,Canelas,R.Raba+al,41.0805427,-8.6006594,NC,126.0,2001-07-24T18:00,21.1,72,15.8,21.5,0.0,0.0,0.0,0.0,1,1015.0,1000.3,35,39,0,0,0.21,0.71,10.8,13.7,291,293,25.2,25.4,22.6,19.3,17.1,0.175,0.202,0.263,0.365,1,3600.0,277.6,202.8,74.8,583.2,277.6,461.0,349.0,255.0,94.0,583.2,349.0,579.6,Tracheophyta; Magnoliopsida; Eucalyptus L'Hér.
2001,2001-07-25,Braga,Vila Nova de Famalicão,Mouquim,L. Xisto,41.4532476,-8.5027028,NC,256.0,2001-07-25T16:00,22.8,62,15.3,23.6,0.0,0.0,0.0,0.0,2,1017.6,988.1,53,59,0,0,0.45,1.04,13.1,16.6,302,304,32.8,26.4,21.5,18.5,16.1,0.177,0.233,0.27,0.363,1,3600.0,664.8,556.3,108.5,823.3,664.8,895.8,729.0,610.0,119.0,823.3,729.0,982.3,Eucalyptus L'Hér.; Pinus pinaster Aiton; Magnoliopsida; Tracheophyta
2001,2001-05-25,Porto,Vila Nova de Gaia,Oliveira do Douro,Rua Fonte,41.122296,-8.5819411,NC,100.0,2001-05-25T16:00,21.3,66,14.8,21.6,0.0,0.0,0.0,0.0,0,1020.2,1008.4,0,0,0,0,0.42,0.85,15.3,19.6,313,316,28.1,23.1,18.4,15.4,13.3,0.317,0.341,0.379,0.395,1,3600.0,654.9,558.6,96.3,836.7,654.9,890.2,721.0,615.0,106.0,836.7,721.0,980.1,Magnoliopsida; Tracheophyta
2001,2001-07-09,Porto,Baião,Campelo,R.CapitÆo S. Maia,41.16536145,-8.037270901747142,NC,613.0,2001-07-09T15:00,21.7,58,13.2,21.5,0.0,0.0,0.0,0.0,3,1016.2,947.0,90,100,0,0,0.31,1.08,8.1,10.2,315,315,24.5,23.5,19.0,17.8,14.3,0.257,0.193,0.257,0.367,1,3247.58,416.3,137.2,279.1,168.3,416.3,1078.8,440.0,145.0,295.0,168.3,440.0,1140.3,Tracheophyta; Pinus pinaster Aiton; Magnoliopsida; Eucalyptus L'Hér.; Pinales; Quercus L.; Vitis vinifera L.; 
2001,2001-07-09,Porto,Santo Tirso,Negrelos (são Mamede),Torre,41.3488993,-8.403043,NC,145.0,2001-07-09T15:00,23.1,63,15.6,24.6,0.0,0.0,0.0,0.0,3,1016.6,999.8,90,100,0,0,0.45,1.06,8.7,10.2,300,302,23.8,25.2,19.9,18.9,16.0,0.255,0.212,0.27,0.371,1,3600.0,644.9,423.3,221.6,517.8,644.9,1081.7,681.0,447.0,234.0,517.8,681.0,1142.3,Magnoliopsida; Tracheophyta; Vitis vinifera L.; Quercus suber L.
2001,2001-07-29,Braga,Guimarães,Mesão Frio,Pa+- Vieira,41.452552,-8.26469,NC,324.0,2001-07-29T14:00,30.2,38,14.2,32.4,0.0,0.0,0.0,0.0,0,1015.5,979.2,11,1,17,0,0.61,2.68,5.7,7.2,108,108,23.0,30.8,22.0,19.0,16.2,0.127,0.211,0.262,0.359,1,3600.0,789.3,609.2,180.0,693.4,789.3,1165.7,811.0,626.0,185.0,693.4,811.0,1197.8,Pinus pinaster Aiton; Tracheophyta; Eucalyptus L'Hér.; Magnoliopsida
2001,2001-07-21,Porto,Marco de Canaveses,Penha Longa,Piares,41.0989587,-8.1477959,NC,347.0,2001-07-21T15:00,27.7,43,14.0,29.3,0.0,0.0,0.0,0.0,0,1015.7,976.6,0,0,0,0,0.62,2.12,10.5,13.2,292,292,28.4,28.4,20.1,17.8,16.0,0.198,0.225,0.268,0.361,1,3600.0,814.1,712.0,102.1,883.1,814.1,1068.1,861.0,753.0,108.0,883.1,861.0,1129.6,Pinus pinaster Aiton; Tracheophyta; Magnoliopsida
2001,2001-05-23,Viana do Castelo,Valença,Cerdal,Passos,41.9789,-8.622752,NC,50.0,2001-05-23T21:00,14.2,90,12.6,13.4,0.0,0.0,0.0,0.0,1,1022.4,1016.3,21,0,0,70,0.0,0.17,11.3,18.5,338,339,21.6,16.4,17.6,15.2,12.9,0.315,0.347,0.388,0.4,0,0.0,0.0,0.0,0.0,0.0,0.0,0.0,0.0,0.0,0.0,0.0,0.0,0.0,Magnoliopsida; Tracheophyta; Pinus pinaster Aiton; Eucalyptus L'Hér.; Vitis vinifera L.; 
2001,2001-07-29,Porto,Gondomar,Jovim,R. Feiteira,41.1069301,-8.5093383,NC,165.0,2001-07-29T20:00,26.6,62,18.7,28.6,0.0,0.0,0.0,0.0,1,1015.2,996.3,36,0,30,59,0.07,1.34,8.7,15.9,355,3,17.3,27.0,24.3,19.9,17.2,0.139,0.173,0.241,0.359,0,485.99,0.0,0.0,0.0,0.0,0.0,0.0,27.0,11.0,16.0,99.7,27.0,87.9,Eucalyptus L'Hér.; Vitis vinifera L.; Tracheophyta; Magnoliopsida
2001,2001-07-29,Porto,Felgueiras,Airães,Santa Luzia,41.3181033,-8.1960689,NC,232.0,2001-07-29T17:00,31.1,33,12.8,31.2,0.0,0.0,0.0,0.0,1,1014.7,988.7,34,0,52,10,0.36,3.05,5.5,7.0,328,339,16.2,31.3,23.9,19.9,16.9,0.115,0.203,0.263,0.358,1,3600.0,390.3,289.3,101.0,567.1,390.3,676.8,452.0,335.0,117.0,567.1,452.0,783.8,Tracheophyta; Magnoliopsida; Vitis vinifera L.; Eucalyptus L'Hér.
2001,2001-07-29,Braga,Guimarães,Ronfe,Po+a,41.4266513,-8.3880522,NC,116.0,2001-07-29T16:00,31.1,40,15.8,32.4,0.0,0.0,0.0,0.0,0,1014.8,1001.7,8,0,14,0,0.51,2.71,8.2,10.2,331,337,20.9,31.9,23.5,19.7,17.1,0.129,0.205,0.262,0.359,1,3600.0,579.1,459.9,119.3,688.2,579.1,886.6,636.0,505.0,131.0,688.2,636.0,973.6,Magnoliopsida; Eucalyptus L'Hér.; Tracheophyta; Vitis vinifera L.; Pinus pinaster Aiton
2001,2001-05-20,Porto,Paços de Ferreira,Ferreira,Casal de,41.2808784,-8.3798117,NC,300.0,2001-05-20T15:00,22.6,41,8.8,24.2,0.0,0.0,0.0,0.0,0,1015.0,980.5,0,0,0,0,0.56,1.61,1.5,1.5,315,315,15.8,22.6,16.1,13.1,11.5,0.348,0.376,0.402,0.398,1,3600.0,816.6,711.2,105.4,904.3,816.6,1050.7,868.0,756.0,112.0,904.3,868.0,1116.8,Eucalyptus L'Hér.; Tracheophyta; Magnoliopsida; Quercus L.; Pinus pinaster Aiton; 
2001,2001-07-25,Braga,Terras de Bouro,Chorense,L. Sa¡m,41.7064776,-8.3036825,NC,309.0,2001-07-25T20:00,18.0,83,15.0,18.8,0.0,0.0,0.0,0.0,0,1017.9,981.8,6,7,0,0,0.02,0.36,5.5,11.2,302,315,23.0,21.7,22.0,18.6,16.1,0.188,0.253,0.271,0.364,0,1731.61,0.0,0.0,0.0,0.0,0.0,0.0,41.0,22.0,19.0,189.2,41.0,95.5,Tracheophyta; Magnoliopsida; Quercus L.; Pinus pinaster Aiton
2001,2001-07-26,Braga,Guimarães,Nespereira,Pedra¡do,41.4064131,-8.3241317,NC,180.0,2001-07-26T11:00,22.2,63,14.9,23.6,0.0,0.0,0.0,0.0,2,1017.7,996.8,63,70,0,0,0.46,0.99,9.2,11.2,309,312,26.6,24.7,20.4,19.0,16.6,0.164,0.229,0.267,0.362,1,3600.0,770.4,562.2,208.2,653.6,770.4,1140.5,729.0,532.0,197.0,653.6,729.0,1079.2,Eucalyptus L'Hér.; Tracheophyta; Magnoliopsida; Pinus pinaster Aiton
2001,2001-05-29,Porto,Felgueiras,Refontoura,Cartas,41.3331243,-8.1933267,NC,281.0,2001-05-29T22:00,24.3,77,20.1,28.0,0.0,0.0,0.0,0.0,0,1017.5,985.3,4,0,7,0,0.0,0.69,1.6,5.4,63,20,6.5,21.4,22.3,16.3,12.0,0.238,0.306,0.37,0.397,0,0.0,0.0,0.0,0.0,0.0,0.0,0.0,0.0,0.0,0.0,0.0,0.0,0.0,Magnoliopsida; Tracheophyta; Vitis vinifera L.; Pinus pinaster Aiton; Eucalyptus L'Hér.
2001,2001-07-29,Porto,Paços de Ferreira,Carvalhosa,S.Roque,41.2965012,-8.3663819,NC,327.0,2001-07-29T18:00,28.7,43,14.8,29.4,0.0,0.0,0.0,0.0,1,1014.8,978.1,25,0,34,15,0.26,2.26,6.6,10.5,315,322,17.3,29.3,23.2,19.0,16.2,0.118,0.201,0.263,0.359,1,3600.0,255.3,182.0,73.3,544.8,255.3,443.4,324.0,231.0,93.0,544.8,324.0,562.6,Tracheophyta; Eucalyptus L'Hér.; Pinus pinaster Aiton; Magnoliopsida; Vitis vinifera L.; Quercus L.; 
2001,2001-07-22,Porto,Marco de Canaveses,Penha Longa,Piares,41.0989587,-8.1477959,NC,347.0,2001-07-22T14:00,25.5,58,16.5,28.1,0.0,0.0,0.0,0.0,0,1015.6,976.2,0,0,0,0,0.59,1.39,11.0,14.1,308,310,31.3,28.1,20.7,18.0,16.0,0.18,0.221,0.267,0.361,1,3600.0,864.5,708.7,155.8,795.7,864.5,1180.2,888.0,728.0,160.0,795.7,888.0,1212.3,Pinus pinaster Aiton; Tracheophyta; Magnoliopsida
2001,2001-02-25,Viana do Castelo,Arcos de Valdevez,São Cosme e São Damião,Seteira,41.9097721,-8.4308805,NC,141.0,2001-02-25T18:00,10.5,54,1.5,6.2,0.0,0.0,0.0,0.0,0,1016.2,999.1,0,0,0,0,0.09,0.59,17.0,25.1,32,35,30.2,11.0,9.8,9.9,11.5,0.322,0.342,0.373,0.416,1,3099.54,36.0,23.9,12.1,273.9,32.9,65.0,107.0,71.0,36.0,469.4,107.0,193.4,Pinus pinaster Aiton; Magnoliopsida; Eucalyptus L'Hér.
2001,2001-05-28,Viana do Castelo,Viana do Castelo,Castelo do Neiva,Santigo,41.6237388,-8.7950443,NC,56.0,2001-05-28T19:00,25.1,79,21.3,27.7,0.0,0.0,0.0,0.0,0,1021.3,1014.8,8,0,14,0,0.12,0.66,13.1,22.0,344,355,22.7,25.2,22.4,16.6,13.5,0.269,0.319,0.374,0.395,1,3600.0,101.5,65.1,36.4,406.6,101.5,213.3,159.0,102.0,57.0,406.6,159.0,334.1,Tracheophyta; Pinus pinaster Aiton; Eucalyptus L'Hér.; Magnoliopsida
2001,2001-02-19,Viana do Castelo,Valença,Gandra,varios,42.0055903,-8.6164853,NC,96.0,2001-02-19T21:00,7.9,74,3.6,4.7,0.0,0.0,0.0,0.0,0,1030.1,1018.2,0,0,0,0,0.02,0.27,11.2,14.3,40,45,20.9,8.3,9.9,10.6,11.8,0.348,0.364,0.388,0.421,0,0.0,0.0,0.0,0.0,0.0,0.0,0.0,0.0,0.0,0.0,0.0,0.0,0.0,Magnoliopsida; Eucalyptus L'Hér.; Tracheophyta; Vitis vinifera L.; Pinus pinaster Aiton; Acacia Mill.; 
2001,2001-07-26,Braga,Vila Nova de Famalicão,Calendário,Alto Vitoria,41.40025,-8.5260957,NC,111.0,2001-07-26T14:00,24.2,58,15.5,25.6,0.0,0.0,0.0,0.0,3,1016.9,1004.0,80,89,0,0,0.55,1.27,14.1,17.9,302,304,34.6,27.3,21.4,19.5,17.1,0.171,0.207,0.255,0.362,1,3600.0,829.8,636.0,193.8,718.7,829.8,1173.3,852.0,653.0,199.0,718.7,852.0,1204.7,Tracheophyta; Magnoliopsida
2001,2001-07-27,Braga,Barcelos,Cristelo,Passo Velho,41.4785773,-8.6965942,NC,47.0,2001-07-27T17:00,21.4,71,15.9,19.8,0.0,0.0,0.0,0.0,0,1016.9,1011.4,0,0,0,0,0.31,0.75,24.7,33.3,326,329,44.6,25.6,21.9,19.6,17.4,0.15,0.215,0.267,0.36,1,3600.0,461.1,358.8,102.3,691.2,461.1,688.5,532.0,414.0,118.0,691.2,532.0,794.3,Eucalyptus L'Hér.; Tracheophyta; Pinus pinaster Aiton
2001,2001-07-29,Braga,Vila Nova de Famalicão,Telhado,L.Melhe,41.4567428,-8.4515143,NC,185.0,2001-07-29T19:00,27.7,58,18.6,29.8,0.0,0.0,0.0,0.0,1,1015.2,994.1,21,0,22,25,0.14,1.57,7.4,13.2,317,334,18.4,27.9,23.7,19.3,16.6,0.128,0.205,0.261,0.359,1,3600.0,98.7,64.1,34.5,429.4,98.7,198.2,160.0,104.0,56.0,429.4,160.0,321.3,Eucalyptus L'Hér.; Tracheophyta
2001,2001-07-29,Porto,Gondomar,Foz do Sousa,E.N.108,41.0913485,-8.510447,NC,32.0,2001-07-29T17:00,30.1,48,17.9,29.5,0.0,0.0,0.0,0.0,0,1014.4,1010.8,16,0,22,9,0.47,2.21,23.3,31.2,333,339,39.2,33.6,25.1,20.8,18.2,0.106,0.145,0.212,0.329,1,3600.0,443.4,346.6,96.8,674.3,443.4,682.1,513.0,401.0,112.0,674.3,513.0,789.1,Tracheophyta; Magnoliopsida; Eucalyptus L'Hér.; Pinus pinaster Aiton
2001,2001-07-29,Porto,Felgueiras,Pombeiro de Ribavizela,Sobrado,41.3846665,-8.2182526,NC,233.0,2001-07-29T18:00,30.6,37,14.2,31.3,0.0,0.0,0.0,0.0,0,1014.9,988.7,13,0,19,6,0.26,2.78,5.2,8.4,295,301,14.8,29.9,23.9,19.7,16.8,0.123,0.209,0.262,0.359,1,3600.0,250.4,183.5,66.9,551.2,250.4,441.7,318.0,233.0,85.0,551.2,318.0,560.8,Magnoliopsida; Eucalyptus L'Hér.; Vitis vinifera L.; Tracheophyta
2001,2001-07-29,Porto,Gondomar,Medas,Campo Futebol,41.06303835,-8.426800129513053,NC,147.0,2001-07-29T18:00,30.1,43,16.1,30.2,0.0,0.0,0.0,0.0,1,1014.8,998.2,26,0,29,28,0.33,2.43,13.1,20.3,344,348,26.3,30.4,24.3,20.1,17.4,0.136,0.188,0.251,0.358,1,3600.0,269.5,198.6,70.9,593.1,269.5,444.2,342.0,252.0,90.0,593.1,342.0,563.8,Tracheophyta; Eucalyptus L'Hér.; Magnoliopsida; Pinus pinaster Aiton
2001,2001-07-25,Porto,Amarante,Louredo,Tabua+o,41.2671355,-8.1013692,NC,247.0,2001-07-25T00:00,17.3,92,16.1,18.5,0.0,0.0,0.0,0.0,3,1016.8,987.8,90,100,0,0,0.0,0.15,6.6,9.9,257,260,14.4,19.9,21.8,18.8,16.4,0.176,0.231,0.268,0.36,0,0.0,0.0,0.0,0.0,0.0,0.0,0.0,0.0,0.0,0.0,0.0,0.0,0.0,Tracheophyta; Magnoliopsida; Eucalyptus L'Hér.; Pinus pinaster Aiton; Vitis vinifera L.; 
2001,2001-07-29,Porto,Marco de Canaveses,Alpendurada e Matos,Tapados,41.0866803,-8.2483748,NC,142.0,2001-07-29T19:00,28.9,50,17.3,30.0,0.0,0.0,0.0,0.0,1,1015.0,998.9,26,0,25,37,0.17,2.0,10.3,17.0,331,343,20.5,28.9,24.6,20.2,17.4,0.13,0.201,0.262,0.358,1,3600.0,92.9,58.7,34.2,399.8,92.9,194.8,152.0,96.0,56.0,399.8,152.0,318.6,Tracheophyta; Vitis vinifera L.; Pinus pinaster Aiton; Magnoliopsida; Castanea sativa Mill.; Eucalyptus L'Hér.
2001,2001-07-22,Porto,Vila do Conde,Gião,L.Boca,41.3182447,-8.6655979,NC,93.0,2001-07-22T16:00,23.4,71,17.9,24.4,0.0,0.0,0.0,0.0,0,1015.4,1004.6,0,0,0,0,0.43,0.82,18.6,24.5,324,330,31.3,27.1,21.5,18.8,17.0,0.166,0.207,0.272,0.362,1,3600.0,659.4,541.6,117.8,792.7,659.4,905.2,722.0,593.0,129.0,792.7,722.0,991.1,Magnoliopsida; Eucalyptus L'Hér.; Tracheophyta
2001,2001-07-22,Porto,Santo Tirso,Monte Córdova,L.Valinhas,41.3048221,-8.4522899,NC,262.0,2001-07-22T18:00,22.8,72,17.6,24.2,0.0,0.0,0.0,0.0,0,1014.6,984.5,0,0,0,0,0.24,0.77,8.9,11.7,310,315,24.8,25.2,21.3,18.0,16.1,0.201,0.213,0.255,0.363,1,3600.0,307.7,243.1,64.6,695.2,307.7,463.4,386.0,305.0,81.0,695.2,386.0,581.3,Eucalyptus L'Hér.; Pinus pinaster Aiton; Tracheophyta; Magnoliopsida
2001,2001-07-29,Porto,Vila Nova de Gaia,Vilar de Andorinho,Jeguintes,41.097637950000006,-8.568625067986972,NC,100.0,2001-07-29T22:00,24.9,74,19.8,27.3,0.0,0.0,0.0,0.0,0,1016.5,1004.9,14,0,4,40,0.03,0.83,9.2,17.5,31,32,14.8,24.7,24.3,20.1,17.5,0.146,0.188,0.257,0.363,0,0.0,0.0,0.0,0.0,0.0,0.0,0.0,0.0,0.0,0.0,0.0,0.0,0.0,Eucalyptus L'Hér.; Magnoliopsida; Tracheophyta
2001,2001-07-25,Porto,Felgueiras,Borba de Godim,Balazar,41.3219949,-8.1424064,NC,386.0,2001-07-25T16:00,23.1,59,14.7,23.7,0.0,0.0,0.0,0.0,0,1017.6,973.5,14,15,0,0,0.46,1.15,12.9,16.4,306,308,36.0,27.8,21.9,18.4,15.8,0.143,0.213,0.266,0.36,1,3600.0,653.3,523.0,130.3,776.6,653.3,892.7,717.0,574.0,143.0,776.6,717.0,979.8,Vitis vinifera L.; Tracheophyta; Magnoliopsida
2001,2001-07-29,Porto,Vila Nova de Gaia,Vilar do Paraíso,Trv. CadavÆo,41.1131566,-8.598445,NC,201.0,2001-07-29T18:00,28.6,50,17.1,29.2,0.0,0.0,0.0,0.0,1,1014.8,992.0,26,0,29,28,0.3,1.96,13.1,20.3,344,348,26.3,29.8,23.9,19.7,17.0,0.127,0.183,0.25,0.357,1,3600.0,269.5,198.6,70.9,593.1,269.5,444.2,342.0,252.0,90.0,593.1,342.0,563.8,Magnoliopsida; Tracheophyta; Pinus pinaster Aiton; Pinus pinea L.
2001,2001-04-10,Viana do Castelo,Arcos de Valdevez,Cendufe,Bou+a,41.813005,-8.4869147,NC,222.0,2001-04-10T21:00,13.1,68,7.3,10.9,0.0,0.0,0.0,0.0,0,1026.5,999.7,2,0,0,7,0.03,0.49,10.5,26.7,27,35,37.1,13.4,14.3,12.2,11.1,0.362,0.381,0.402,0.422,0,0.0,0.0,0.0,0.0,0.0,0.0,0.0,0.0,0.0,0.0,0.0,0.0,0.0,Magnoliopsida; Castanea sativa Mill.; Vitis vinifera L.; Olea europaea L.; Eucalyptus L'Hér.; Quercus L.
2001,2001-05-28,Porto,Paredes,Rebordosa,Curtinhas,41.2202567,-8.4112601,NC,216.0,2001-05-28T15:00,31.0,46,17.9,33.5,0.0,0.0,0.0,0.0,0,1021.7,997.3,10,0,17,0,0.62,2.43,12.0,15.8,327,330,20.5,28.5,21.5,15.9,12.5,0.276,0.31,0.364,0.395,1,3600.0,753.0,643.6,109.3,806.1,753.0,1063.6,799.0,683.0,116.0,806.1,799.0,1128.6,Magnoliopsida; Pinus pinaster Aiton; Eucalyptus L'Hér.; Tracheophyta; Vitis vinifera L.
2001,2001-04-11,Viana do Castelo,Ponte de Lima,Freixo,Junto µ Escola C+s,41.6532383,-8.605341047025863,NC,145.0,2001-04-11T17:00,20.3,52,10.0,18.7,0.0,0.0,0.0,0.0,0,1023.4,1006.3,0,0,0,0,0.3,1.16,11.3,17.7,351,358,25.9,19.3,15.2,12.8,11.6,0.341,0.369,0.398,0.421,1,3600.0,385.0,318.2,66.8,801.6,385.0,540.8,467.0,386.0,81.0,801.6,467.0,656.1,Eucalyptus L'Hér.; Vitis vinifera L.; Tracheophyta; Pinus pinaster Aiton; Magnoliopsida
2001,2001-07-10,Porto,Paços de Ferreira,Meixomil,Tres Horas,41.2842631,-8.3921962,NC,286.0,2001-07-10T14:00,23.9,61,16.1,26.4,0.0,0.0,0.0,0.0,0,1019.2,986.3,4,4,0,0,0.59,1.14,11.5,14.5,302,305,28.4,26.4,20.1,18.5,15.5,0.233,0.238,0.279,0.369,1,3600.0,898.2,755.0,143.2,837.2,898.2,1193.2,922.0,775.0,147.0,837.2,922.0,1224.9,Eucalyptus L'Hér.; Quercus L.; Tracheophyta; Magnoliopsida; Pinus pinaster Aiton; 
2001,2001-07-10,Porto,Valongo,Ermesinde,R.N¦ S¦ Bom Despacho,41.2114656,-8.528286446167854,NC,155.0,2001-07-10T18:00,21.8,70,16.2,21.2,0.0,0.0,0.0,0.0,0,1018.9,1000.8,0,0,0,0,0.25,0.78,18.8,25.9,331,335,36.7,24.7,21.6,19.2,16.4,0.224,0.215,0.268,0.367,1,3600.0,323.6,255.8,67.8,695.5,323.6,486.7,401.0,317.0,84.0,695.5,401.0,603.1,Magnoliopsida; Pinus pinaster Aiton; Eucalyptus L'Hér.; Tracheophyta
2001,2001-02-18,Viana do Castelo,Arcos de Valdevez,Paçô,Vilar,41.8295743,-8.4118568,NC,50.0,2001-02-18T22:00,5.9,85,3.5,2.7,0.0,0.0,0.0,0.0,0,1027.6,1021.3,0,0,0,0,0.0,0.14,11.5,22.2,92,107,18.0,7.8,10.7,11.0,12.0,0.356,0.369,0.39,0.422,0,0.0,0.0,0.0,0.0,0.0,0.0,0.0,0.0,0.0,0.0,0.0,0.0,0.0,Tracheophyta; Pinus pinaster Aiton; Magnoliopsida; Eucalyptus L'Hér.
2001,2001-05-20,Porto,Lousada,Cristelos,Trava?os,41.2745805,-8.2903482,NC,267.0,2001-05-20T16:00,23.0,42,9.5,23.2,0.0,0.0,0.0,0.0,0,1014.8,984.1,0,0,0,0,0.48,1.63,5.6,6.6,297,299,13.7,22.7,16.6,13.3,11.6,0.347,0.377,0.405,0.4,1,3600.0,666.7,574.3,92.4,876.7,666.7,875.1,736.0,634.0,102.0,876.7,736.0,966.1,Vitis vinifera L.; Tracheophyta; Eucalyptus L'Hér.; Magnoliopsida; Pinus pinaster Aiton
2001,2001-05-28,Porto,Penafiel,Novelas,Zona Indu,41.2239974,-8.2921689,NC,167.0,2001-05-28T19:00,28.0,65,20.8,31.1,0.0,0.0,0.0,0.0,0,1021.3,1002.2,8,0,14,0,0.14,1.32,7.9,14.1,330,347,17.3,26.1,22.7,16.3,12.7,0.266,0.312,0.368,0.395,1,3600.0,96.2,58.7,37.5,386.4,96.2,202.4,154.0,94.0,60.0,386.4,154.0,324.0,Tracheophyta; Vitis vinifera L.; Magnoliopsida
2001,2001-02-22,Viana do Castelo,Viana do Castelo,Portela Susã,Reboredo,41.6724119,-8.6997584,NC,161.0,2001-02-22T01:00,2.9,91,1.6,0.0,0.0,0.0,0.0,0.0,0,1024.0,1003.8,0,0,0,0,0.0,0.07,6.8,10.1,87,96,15.8,5.5,9.2,10.4,11.7,0.34,0.355,0.382,0.419,0,0.0,0.0,0.0,0.0,0.0,0.0,0.0,0.0,0.0,0.0,0.0,0.0,0.0,Eucalyptus L'Hér.; Vitis vinifera L.; Pinus pinaster Aiton; Tracheophyta; Magnoliopsida
2001,2001-07-25,Porto,Vila Nova de Gaia,Pedroso,Bairro Edp,41.064143,-8.5572235,NC,131.0,2001-07-25T17:00,21.2,67,14.8,20.5,0.0,0.0,0.0,0.0,0,1017.8,1002.5,2,2,0,0,0.33,0.83,16.3,20.6,315,317,34.6,25.7,21.9,19.4,17.1,0.174,0.2,0.262,0.365,1,3600.0,489.0,405.7,83.2,776.6,489.0,692.6,564.0,468.0,96.0,776.6,564.0,798.9,Magnoliopsida; Eucalyptus L'Hér.; Tracheophyta
2001,2001-07-28,Braga,Barcelos,Paradela,Monte Facho,41.4627197,-8.6804574,NC,38.0,2001-07-28T10:00,22.5,67,16.0,23.4,0.0,0.0,0.0,0.0,0,1017.9,1013.4,0,0,0,0,0.4,0.91,12.6,15.9,358,5,27.4,23.5,20.4,19.7,17.5,0.149,0.214,0.267,0.36,1,3600.0,725.2,608.0,117.2,804.9,725.2,1002.0,662.0,555.0,107.0,804.9,662.0,914.7,Eucalyptus L'Hér.; Pinus pinaster Aiton; Tracheophyta; Vitis vinifera L.
2001,2001-02-24,Viana do Castelo,Ponte da Barca,Vade (São Tomé),Cardelhe,41.7822325,-8.4061827,NC,126.0,2001-02-24T18:00,11.4,59,3.7,6.9,0.0,0.0,0.0,0.0,0,1010.2,995.1,2,0,0,6,0.09,0.55,20.7,32.3,8,11,42.1,11.4,10.2,9.9,11.4,0.325,0.345,0.375,0.416,1,3030.52,31.8,19.7,12.1,226.4,28.7,60.0,100.0,62.0,38.0,414.7,100.0,188.6,Vitis vinifera L.; Magnoliopsida; Eucalyptus L'Hér.
2001,2001-07-28,Braga,Fafe,Gontim,Gontim,41.552837,-8.095487605473323,NC,564.0,2001-07-28T12:00,25.3,49,13.8,28.0,0.0,0.0,0.0,0.0,0,1017.1,953.9,5,4,3,0,0.61,1.64,4.7,6.5,86,84,25.2,27.3,20.0,18.4,15.5,0.149,0.222,0.265,0.361,1,3600.0,917.5,795.4,122.1,871.6,917.5,1210.5,894.0,775.0,119.0,871.6,894.0,1179.4,Pinus pinaster Aiton; Magnoliopsida; Tracheophyta; Eucalyptus L'Hér.
2001,2001-02-24,Viana do Castelo,Paredes de Coura,Cristelo,Pereiro,41.9039508,-8.5382744,NC,433.0,2001-02-24T17:00,10.5,58,2.5,6.3,0.0,0.0,0.0,0.0,0,1010.5,959.4,6,0,2,16,0.14,0.54,16.5,25.5,20,23,46.1,10.7,8.5,8.4,9.9,0.326,0.346,0.375,0.416,1,3600.0,187.5,120.1,67.4,537.9,187.5,312.0,256.0,164.0,92.0,537.9,256.0,425.9,Magnoliopsida; Tracheophyta; Quercus L.; Pinales; Eucalyptus L'Hér.; ; Pinus pinaster Aiton
2001,2001-04-13,Viana do Castelo,Vila Nova de Cerveira,Nogueira,Monte,41.958989,-8.6978067,NC,72.0,2001-04-13T16:00,20.0,51,9.6,17.5,0.0,0.0,0.0,0.0,0,1018.9,1010.4,0,0,0,0,0.37,1.14,18.2,25.1,18,25,36.0,19.8,15.1,13.0,11.9,0.327,0.357,0.39,0.419,1,3600.0,526.9,425.2,101.6,748.5,526.9,773.2,591.0,477.0,114.0,748.5,591.0,867.3,Magnoliopsida; Pinus pinaster Aiton; Eucalyptus L'Hér.; Tracheophyta
2001,2001-05-29,Porto,Paredes,Vilela,ChÆos Fra,41.2123637,-8.347580212435714,NC,191.0,2001-05-29T10:00,29.9,50,18.2,32.7,0.0,0.0,0.0,0.0,0,1018.9,997.2,0,0,0,0,0.54,2.12,8.0,10.1,95,94,19.1,26.0,20.7,16.4,12.6,0.269,0.31,0.367,0.395,1,3600.0,779.7,670.2,109.5,841.8,779.7,1060.1,719.0,618.0,101.0,841.8,719.0,977.6,Magnoliopsida; Pinus pinaster Aiton; Eucalyptus L'Hér.; Tracheophyta; Vitis vinifera L.; Quercus L.
2001,2001-04-14,Viana do Castelo,Viana do Castelo,Amonde,junto E.N.,41.7855237,-8.7554675,NC,123.0,2001-04-14T14:00,17.7,59,9.7,18.6,0.0,0.0,0.0,0.0,0,1021.4,1006.8,0,0,0,0,0.49,0.82,6.8,7.5,328,343,16.9,21.3,15.4,13.5,12.2,0.297,0.342,0.384,0.418,1,3600.0,847.5,745.9,101.6,936.9,847.5,1083.0,876.0,771.0,105.0,936.9,876.0,1119.5,Magnoliopsida; Tracheophyta; Eucalyptus L'Hér.
2001,2001-02-25,Viana do Castelo,Viana do Castelo,Vila Fria,Ponte Pedrinha,41.6625255,-8.7617649,NC,44.0,2001-02-25T15:00,13.6,46,2.2,10.9,0.0,0.0,0.0,0.0,2,1015.3,1010.0,66,34,59,0,0.29,0.84,7.6,8.7,19,24,20.9,14.8,10.8,11.1,12.3,0.31,0.34,0.373,0.416,1,3600.0,528.6,437.6,91.0,848.4,528.6,720.0,575.0,476.0,99.0,848.4,575.0,783.3,Eucalyptus L'Hér.; Tracheophyta; Magnoliopsida; Pinus pinaster Aiton
2001,2001-07-29,Porto,Vila Nova de Gaia,Vilar de Andorinho,Ip01,41.097637950000006,-8.568625067986972,NC,100.0,2001-07-29T20:00,26.3,68,19.8,28.9,0.0,0.0,0.0,0.0,1,1015.0,1003.5,25,0,19,44,0.06,1.1,8.3,15.9,342,355,13.3,26.8,24.3,20.1,17.5,0.146,0.188,0.257,0.363,0,712.35,0.0,0.0,0.0,0.0,0.0,0.0,27.0,13.0,14.0,116.9,27.0,88.9,Eucalyptus L'Hér.; Magnoliopsida; Tracheophyta
2001,2001-07-26,Porto,Trofa,Coronado (são Mamede),S. Mamede,41.27517125,-8.570614349325968,NC,126.0,2001-07-26T00:00,15.8,93,14.7,16.5,0.0,0.0,0.0,0.0,0,1018.8,1003.8,18,20,0,0,0.0,0.12,5.7,8.1,305,315,14.4,18.3,21.5,19.4,17.1,0.154,0.198,0.26,0.36,0,0.0,0.0,0.0,0.0,0.0,0.0,0.0,0.0,0.0,0.0,0.0,0.0,0.0,Pinus pinaster Aiton; Tracheophyta; Magnoliopsida; Pinales
2001,2001-07-11,Porto,Santo Tirso,Monte Córdova,Redondo,41.3164414,-8.4320306,NC,357.0,2001-07-11T17:00,24.7,58,15.8,25.0,0.0,0.0,0.0,0.0,0,1020.1,979.3,0,0,0,0,0.4,1.32,12.9,17.9,337,341,32.8,26.0,20.9,18.1,15.1,0.198,0.232,0.277,0.369,1,3600.0,505.0,421.3,83.7,781.1,505.0,713.7,579.0,483.0,96.0,781.1,579.0,818.3,Tracheophyta; Vitis vinifera L.; Eucalyptus L'Hér.; Pinus pinaster Aiton; Magnoliopsida
2001,2001-07-27,Porto,Paços de Ferreira,Figueiró,Fundo de Vila,41.31575935,-8.34522906267853,NC,372.0,2001-07-27T00:00,14.6,97,14.2,15.5,0.0,0.0,0.0,0.0,2,1017.8,974.0,73,81,0,0,0.0,0.05,3.6,6.3,276,301,10.4,17.6,20.8,18.4,15.8,0.145,0.221,0.268,0.361,0,0.0,0.0,0.0,0.0,0.0,0.0,0.0,0.0,0.0,0.0,0.0,0.0,0.0,Tracheophyta; Magnoliopsida; Eucalyptus L'Hér.; Vitis vinifera L.; Pinus pinaster Aiton; 
2001,2001-07-28,Porto,Felgueiras,Vila Verde,Outeiro,41.3060444,-8.1858276,NC,325.0,2001-07-28T15:00,27.7,44,14.5,28.9,0.0,0.0,0.0,0.0,0,1014.6,978.0,6,0,10,0,0.56,2.06,10.0,12.3,319,322,27.0,30.5,21.9,19.1,16.2,0.124,0.209,0.265,0.359,1,3600.0,714.9,594.9,119.9,749.4,714.9,1053.2,757.0,630.0,127.0,749.4,757.0,1115.2,Magnoliopsida; Eucalyptus L'Hér.; Vitis vinifera L.; Tracheophyta
2001,2001-02-13,Viana do Castelo,Caminha,Seixas,S. Pedro Varais,41.8964324,-8.8187697,NC,6.0,2001-02-13T12:00,17.0,71,11.7,16.3,0.0,0.0,0.0,0.0,1,1026.6,1025.9,30,0,0,99,0.21,0.56,7.8,10.7,158,160,16.2,15.3,12.4,12.3,13.1,0.388,0.396,0.41,0.427,1,3600.0,394.0,142.2,251.8,255.9,394.0,779.7,374.0,135.0,239.0,255.9,374.0,740.2,Tracheophyta; Magnoliopsida
2001,2001-02-25,Viana do Castelo,Viana do Castelo,Moreira de Geraz do Lima,R¦ Sobreiros,41.7148593,-8.6804043,NC,22.0,2001-02-25T15:00,13.8,46,2.4,11.3,0.0,0.0,0.0,0.0,3,1015.2,1012.5,81,42,72,0,0.29,0.85,6.2,6.8,10,18,17.6,15.0,10.9,11.2,12.5,0.31,0.34,0.373,0.416,1,3600.0,527.9,436.8,91.0,846.8,527.9,720.3,574.0,475.0,99.0,846.8,574.0,783.2,Eucalyptus L'Hér.; Vitis vinifera L.; Tracheophyta; Pinus pinaster Aiton; Magnoliopsida
2001,2001-07-28,Porto,Valongo,Campo,Ribeira,41.1958069,-8.4596581,NC,106.0,2001-07-28T16:00,27.1,52,16.4,27.6,0.0,0.0,0.0,0.0,0,1014.4,1002.3,1,0,1,2,0.5,1.72,16.1,23.7,326,330,33.5,29.8,22.8,20.1,17.5,0.135,0.188,0.252,0.358,1,3600.0,614.9,509.3,105.7,758.2,614.9,891.0,675.0,559.0,116.0,758.2,675.0,978.0,Pinus pinaster Aiton; Tracheophyta; Eucalyptus L'Hér.; Vitis vinifera L.
2001,2001-07-29,Porto,Vila Nova de Gaia,Vilar do Paraíso,Quinta Paradela,41.1131566,-8.598445,NC,201.0,2001-07-29T00:00,19.5,78,15.7,20.5,0.0,0.0,0.0,0.0,0,1015.5,992.0,9,0,8,13,0.01,0.49,6.4,12.7,52,55,18.0,20.3,22.3,19.5,16.9,0.134,0.187,0.252,0.358,0,0.0,0.0,0.0,0.0,0.0,0.0,0.0,0.0,0.0,0.0,0.0,0.0,0.0,Magnoliopsida; Tracheophyta; Pinus pinaster Aiton; Pinus pinea L.
2001,2001-02-25,Viana do Castelo,Ponte de Lima,Refóios do Lima,Caneiros,41.7933146,-8.542976,NC,68.0,2001-02-25T20:00,7.8,70,2.7,4.2,0.0,0.0,0.0,0.0,0,1015.4,1007.0,0,0,0,0,0.03,0.32,13.8,20.3,6,7,20.5,8.8,10.3,10.2,11.7,0.32,0.341,0.373,0.416,0,0.0,0.0,0.0,0.0,0.0,0.0,0.0,0.0,0.0,0.0,0.0,0.0,0.0,Magnoliopsida; Eucalyptus L'Hér.; Tracheophyta; Vitis vinifera L.
2001,2001-05-28,Viana do Castelo,Paredes de Coura,Coura,Lamas,41.91106,-8.55959,Desconhecida,374.0,2001-05-28T08:00,24.0,75,19.3,27.2,0.0,0.0,0.0,0.0,0,1023.0,980.1,0,0,0,0,0.23,0.74,2.3,2.6,108,146,11.9,20.8,18.3,15.0,11.6,0.286,0.326,0.379,0.403,1,3600.0,447.4,353.3,94.1,698.0,447.4,674.2,371.0,293.0,78.0,698.0,371.0,559.1,Pinus pinaster Aiton; Magnoliopsida; Tracheophyta; Quercus L.; Eucalyptus L'Hér.; 
2001,2001-07-11,Porto,Santo Tirso,Monte Córdova,St¦. Luzia,41.3181147,-8.4232439,NC,380.0,2001-07-11T18:00,24.4,59,16.0,24.6,0.0,0.0,0.0,0.0,0,1020.1,976.7,0,0,0,0,0.28,1.24,12.9,18.0,330,334,38.9,25.3,21.2,18.1,15.0,0.203,0.246,0.278,0.369,1,3600.0,316.5,251.3,65.2,690.0,316.5,481.9,393.0,312.0,81.0,690.0,393.0,598.4,Eucalyptus L'Hér.; Magnoliopsida; Tracheophyta; Pinus pinaster Aiton
2001,2001-07-29,Porto,Santo Tirso,Água Longa,R. St§ Antønio,41.2603698,-8.4972609,NC,120.0,2001-07-29T02:00,19.0,79,15.2,19.5,0.0,0.0,0.0,0.0,0,1015.3,1001.2,0,0,0,0,0.01,0.46,8.4,19.2,50,67,18.7,19.8,22.3,19.9,17.3,0.152,0.189,0.247,0.359,0,0.0,0.0,0.0,0.0,0.0,0.0,0.0,0.0,0.0,0.0,0.0,0.0,0.0,Tracheophyta; Eucalyptus L'Hér.; Pinales; Vitis vinifera L.; Pinus pinaster Aiton
2001,2001-07-23,Porto,Paredes,Baltar,Venda Nova,41.1928799,-8.3830177,NC,297.0,2001-07-23T22:00,18.9,87,16.7,20.5,0.0,0.0,0.0,0.0,1,1013.3,978.8,30,0,0,99,0.0,0.28,4.7,8.0,203,207,11.5,20.9,21.9,18.2,16.0,0.193,0.211,0.249,0.362,0,0.0,0.0,0.0,0.0,0.0,0.0,0.0,0.0,0.0,0.0,0.0,0.0,0.0,Magnoliopsida; Pinus pinaster Aiton; Eucalyptus L'Hér.; Tracheophyta; Vitis vinifera L.
2001,2001-07-11,Porto,Penafiel,Santa Marta,Code+al,41.2095739,-8.257567,NC,338.0,2001-07-11T23:00,19.4,81,16.0,21.4,0.0,0.0,0.0,0.0,0,1021.4,982.0,0,0,0,0,0.0,0.43,0.5,5.4,315,352,10.1,19.1,21.4,18.5,15.3,0.2,0.241,0.277,0.368,0,0.0,0.0,0.0,0.0,0.0,0.0,0.0,0.0,0.0,0.0,0.0,0.0,0.0,Eucalyptus L'Hér.; Magnoliopsida; Tracheophyta; Vitis vinifera L.
2001,2001-02-21,Viana do Castelo,Ponte de Lima,Labruja,Fanjäes,41.8413022,-8.5951337,NC,155.0,2001-02-21T11:00,13.1,52,3.3,9.4,0.0,0.0,0.0,0.0,0,1028.6,1009.8,0,0,0,0,0.26,0.73,14.4,19.8,87,87,30.2,10.6,8.0,10.4,11.7,0.346,0.359,0.383,0.419,1,3600.0,565.2,476.7,88.5,898.2,565.2,742.4,511.0,431.0,80.0,898.2,511.0,671.2,Magnoliopsida; Vitis vinifera L.; Eucalyptus L'Hér.; Pinus pinaster Aiton; Quercus L.; Tracheophyta
2001,2001-02-26,Viana do Castelo,Paredes de Coura,Romarigães,Vale,41.8683341,-8.6273273,Desconhecida,217.0,2001-02-26T12:00,10.3,56,1.8,7.4,0.0,0.0,0.0,0.0,1,1015.1,989.0,26,0,0,85,0.25,0.55,7.6,9.2,262,259,22.0,10.8,7.5,9.7,11.3,0.322,0.34,0.372,0.415,1,3600.0,569.6,366.5,203.1,590.2,569.6,866.5,544.0,350.0,194.0,590.2,544.0,827.6,Eucalyptus L'Hér.; Pinus pinaster Aiton; Magnoliopsida; Tracheophyta; Quercus L.; 
2001,2001-05-29,Porto,Maia,Gemunde,Bajouca,41.262487,-8.641313860826699,NC,105.0,2001-05-29T05:00,16.8,96,16.2,18.0,0.0,0.0,0.0,0.0,0,1018.9,1006.4,0,0,0,0,0.0,0.08,6.5,10.2,71,67,11.2,18.4,20.8,16.7,13.3,0.268,0.312,0.367,0.393,0,0.0,0.0,0.0,0.0,0.0,0.0,0.0,0.0,0.0,0.0,0.0,0.0,0.0,Eucalyptus L'Hér.; Tracheophyta
2001,2001-02-21,Viana do Castelo,Paredes de Coura,Insalde,Boalhosa,41.9485994,-8.5329017,NC,509.0,2001-02-21T11:00,11.9,47,0.9,9.0,0.0,0.0,0.0,0.0,0,1029.3,968.7,8,0,0,26,0.25,0.74,6.2,8.1,100,103,18.7,8.8,5.6,8.2,9.7,0.348,0.36,0.384,0.42,1,3600.0,554.4,468.3,86.1,880.1,554.4,744.3,502.0,424.0,78.0,880.1,502.0,673.9,Quercus L.; Magnoliopsida; Eucalyptus L'Hér.; Pinus pinaster Aiton; Tracheophyta; 
2001,2001-07-29,Porto,Felgueiras,Macieira da Lixa,Pensais,41.3496108,-8.1492033,NC,406.0,2001-07-29T03:00,16.4,82,13.3,16.3,0.0,0.0,0.0,0.0,0,1016.0,968.7,1,0,2,0,0.0,0.33,8.0,19.1,82,79,23.0,17.7,21.5,18.9,15.9,0.122,0.201,0.262,0.358,0,0.0,0.0,0.0,0.0,0.0,0.0,0.0,0.0,0.0,0.0,0.0,0.0,0.0,Eucalyptus L'Hér.; Tracheophyta; Pinus pinaster Aiton; Magnoliopsida; Vitis vinifera L.
2001,2001-07-12,Porto,Amarante,Travanca,Laraias,41.2723342,-8.1914233,NC,208.0,2001-07-12T11:00,25.1,61,17.0,28.1,0.0,0.0,0.0,0.0,0,1020.7,996.7,0,0,0,0,0.55,1.24,8.2,9.9,311,314,25.9,25.9,20.7,19.0,16.0,0.223,0.247,0.268,0.368,1,3600.0,879.0,765.2,113.8,869.7,879.0,1164.3,834.0,726.0,108.0,869.7,834.0,1104.7,Tracheophyta; Magnoliopsida; Eucalyptus L'Hér.; Vitis vinifera L.; Pinus pinaster Aiton; 
2001,2001-02-26,Viana do Castelo,Monção,Parada,Redemouro,42.0184581,-8.4683201,NC,199.0,2001-02-26T18:00,7.5,72,2.7,3.6,0.5,0.5,0.0,0.0,53,1011.3,987.2,100,66,80,27,0.05,0.3,15.9,22.7,273,273,34.2,9.1,8.3,9.4,11.1,0.322,0.34,0.371,0.415,1,0.0,18.0,2.8,15.2,32.5,16.8,70.3,51.0,8.0,43.0,52.2,51.0,198.6,Quercus L.; Magnoliopsida; Tracheophyta; Pinus pinaster Aiton; Eucalyptus L'Hér.; Vitis vinifera L.; 
2001,2001-05-28,Porto,Vila do Conde,Guilhabreu,R. Hipism,41.2928558,-8.6554183,NC,69.0,2001-05-28T19:00,25.3,77,21.0,27.8,0.0,0.0,0.0,0.0,0,1021.3,1013.3,8,0,14,0,0.13,0.74,13.1,22.0,344,355,22.7,25.4,22.5,16.5,13.4,0.251,0.313,0.37,0.392,1,3600.0,100.6,64.5,36.1,410.5,100.6,209.4,159.0,102.0,57.0,410.5,159.0,330.9,Tracheophyta; Eucalyptus L'Hér.
2001,2001-07-22,Porto,Felgueiras,Margaride (santa Eulália),S Quiteria,41.3667229,-8.203496330346734,NC,298.0,2001-07-22T20:00,22.5,75,17.9,24.5,0.0,0.0,0.0,0.0,0,1014.5,980.3,0,0,0,0,0.03,0.68,6.5,7.7,270,298,13.7,23.3,21.9,18.1,16.2,0.187,0.237,0.266,0.362,0,1785.12,0.0,0.0,0.0,0.0,0.0,0.0,43.0,24.0,19.0,204.0,43.0,97.2,Magnoliopsida; Tracheophyta; Eucalyptus L'Hér.
2001,2001-02-22,Viana do Castelo,Paredes de Coura,Mozelos,Angustias,41.9280328,-8.552439,NC,394.0,2001-02-22T20:00,10.1,85,7.7,9.0,0.0,0.0,0.0,0.0,1,1019.1,972.0,25,0,0,84,0.0,0.19,3.6,5.1,217,274,10.1,8.5,9.2,8.8,10.2,0.334,0.352,0.38,0.418,0,0.0,0.0,0.0,0.0,0.0,0.0,0.0,0.0,0.0,0.0,0.0,0.0,0.0,Tracheophyta; Magnoliopsida; Eucalyptus L'Hér.; Quercus L.; ; Pinus pinaster Aiton
2001,2001-07-23,Porto,Lousada,Nespereira,Senra,41.255599,-8.2953609,NC,214.0,2001-07-23T16:00,27.2,55,17.2,28.7,0.0,0.0,0.0,0.0,0,1012.3,988.0,12,0,1,39,0.51,1.64,13.4,17.4,294,294,32.4,29.3,22.3,18.7,16.6,0.171,0.236,0.271,0.363,1,3600.0,650.2,526.2,124.0,776.1,650.2,898.5,713.0,577.0,136.0,776.1,713.0,985.3,Tracheophyta; Olea europaea L.; Pinus pinaster Aiton; Vitis vinifera L.; Magnoliopsida; Eucalyptus L'Hér.
2001,2001-04-14,Viana do Castelo,Caminha,Riba de Âncora,Ponte,41.8112515,-8.8186725,NC,65.0,2001-04-14T17:00,17.8,66,11.3,16.7,0.0,0.0,0.0,0.0,0,1020.8,1013.0,0,0,0,0,0.26,0.7,10.7,13.6,315,323,19.8,20.4,16.6,14.0,12.6,0.291,0.341,0.383,0.418,1,3600.0,393.2,325.2,68.0,794.6,393.2,556.7,474.0,392.0,82.0,794.6,474.0,671.0,Pinus pinaster Aiton; Tracheophyta; Magnoliopsida; Eucalyptus L'Hér.
2001,2001-07-24,Porto,Amarante,Travanca,St§ Ildefonso,41.2723342,-8.1914233,NC,208.0,2001-07-24T01:00,17.2,94,16.2,18.7,0.0,0.0,0.0,0.0,0,1012.6,988.2,13,3,4,26,0.0,0.13,5.1,9.8,184,197,11.2,19.3,21.9,18.7,16.5,0.194,0.231,0.261,0.362,0,0.0,0.0,0.0,0.0,0.0,0.0,0.0,0.0,0.0,0.0,0.0,0.0,0.0,Tracheophyta; Magnoliopsida; Eucalyptus L'Hér.; Vitis vinifera L.; Pinus pinaster Aiton; 
2001,2001-07-29,Porto,Gondomar,Foz do Sousa,Gens,41.0916552,-8.5093029,NC,21.0,2001-07-29T10:00,27.3,52,16.7,28.7,0.0,0.0,0.0,0.0,0,1015.8,1013.4,0,0,0,0,0.46,1.72,9.8,12.7,28,43,21.6,27.8,22.8,20.8,18.3,0.107,0.147,0.213,0.329,1,3600.0,710.2,598.4,111.8,792.0,710.2,1002.5,648.0,546.0,102.0,792.0,648.0,914.6,Tracheophyta; Magnoliopsida; Eucalyptus L'Hér.; Pinus pinaster Aiton
2001,2001-07-29,Porto,Santo Tirso,Refojos de Riba de Ave,L.Sande,41.2920945,-8.4471657,NC,216.0,2001-07-29T15:00,30.9,37,14.4,32.6,0.0,0.0,0.0,0.0,0,1014.7,990.4,9,0,15,0,0.62,2.83,8.7,10.6,343,350,18.0,32.4,23.1,19.7,16.9,0.12,0.202,0.263,0.359,1,3600.0,754.8,633.9,120.9,798.3,754.8,1053.5,799.0,671.0,128.0,798.3,799.0,1115.2,Tracheophyta; Magnoliopsida; Pinus pinaster Aiton; Vitis vinifera L.; Eucalyptus L'Hér.
2001,2001-07-29,Porto,Penafiel,Guilhufe,Pieres,41.19863835,-8.306141403902867,NC,204.0,2001-07-29T16:00,31.5,34,14.0,32.7,0.0,0.0,0.0,0.0,0,1014.7,991.8,12,0,18,4,0.47,3.03,3.6,4.6,360,18,19.8,31.1,23.2,19.6,16.8,0.147,0.203,0.254,0.358,1,3600.0,563.3,424.1,139.2,635.6,563.3,885.3,619.0,466.0,153.0,635.6,619.0,972.8,Tracheophyta; Vitis vinifera L.; Eucalyptus L'Hér.; Magnoliopsida
2001,2001-02-26,Viana do Castelo,Viana do Castelo,Lanheses,Monte GaleÆo,41.7382855,-8.6743377,NC,36.0,2001-02-26T18:00,9.5,61,2.3,5.4,0.0,0.0,0.0,0.0,3,1011.4,1007.0,100,81,74,19,0.08,0.47,15.5,23.0,283,284,33.5,10.9,10.4,11.0,12.3,0.304,0.335,0.371,0.415,1,1158.6,24.1,6.0,18.1,69.3,22.9,78.0,64.0,16.0,48.0,102.4,64.0,206.6,Pinus pinaster Aiton; Magnoliopsida; Tracheophyta
2001,2001-07-23,Porto,Vila Nova de Gaia,Lever,R.Central,41.0667885,-8.4839536,NC,102.0,2001-07-23T18:00,24.5,61,16.6,25.2,0.0,0.0,0.0,0.0,0,1012.1,1000.3,11,0,0,38,0.26,1.19,10.6,14.1,298,302,22.7,27.7,23.4,19.5,17.4,0.174,0.191,0.249,0.363,1,3600.0,297.6,227.6,70.0,653.4,297.6,461.6,374.0,286.0,88.0,653.4,374.0,580.0,Tracheophyta; Magnoliopsida; Pinus pinaster Aiton; Eucalyptus L'Hér.
2001,2001-07-23,Porto,Felgueiras,Vila Fria,Rapozeira,41.3869662,-8.241882,NC,192.0,2001-07-23T20:00,23.4,73,18.3,25.5,0.0,0.0,0.0,0.0,1,1011.7,989.6,31,0,4,95,0.04,0.77,6.1,10.2,270,293,13.0,24.3,22.9,18.9,16.8,0.174,0.243,0.268,0.363,0,1131.98,0.0,0.0,0.0,0.0,0.0,0.0,40.0,16.0,24.0,135.5,40.0,97.8,Tracheophyta; Pinus pinaster Aiton; Magnoliopsida; Eucalyptus L'Hér.
2001,2001-05-29,Viana do Castelo,Viana do Castelo,Castelo do Neiva,Moldes,41.6137973,-8.7851667,NC,80.0,2001-05-29T16:00,24.0,78,19.9,26.4,0.0,0.0,0.0,0.0,0,1017.3,1008.0,3,1,4,0,0.41,0.66,14.8,19.3,326,333,25.9,27.4,22.0,16.8,13.3,0.236,0.312,0.373,0.4,1,3600.0,618.1,502.5,115.6,745.7,618.1,897.3,679.0,552.0,127.0,745.7,679.0,985.6,Pinus pinaster Aiton; Eucalyptus L'Hér.
2001,2001-04-11,Viana do Castelo,Viana do Castelo,Vilar de Murteda,Folgados,41.7705718,-8.7256841,NC,142.0,2001-04-11T15:00,20.3,50,9.4,18.5,0.0,0.0,0.0,0.0,0,1024.9,1008.1,0,0,0,0,0.47,1.2,19.2,26.3,6,13,38.2,19.8,14.7,13.0,11.9,0.345,0.37,0.397,0.421,1,3600.0,728.9,636.5,92.4,916.1,728.9,946.7,781.0,682.0,99.0,916.1,781.0,1014.3,Eucalyptus L'Hér.; Tracheophyta; Magnoliopsida
2001,2001-05-28,Porto,Marco de Canaveses,Vila Boa do Bispo,Castelinh,41.1332787,-8.2097194,NC,208.0,2001-05-28T13:00,32.9,39,17.0,37.2,0.0,0.0,0.0,0.0,0,1022.5,999.1,10,0,16,0,0.73,3.05,4.6,5.6,342,345,15.1,29.5,21.5,16.2,12.7,0.269,0.319,0.375,0.397,1,3600.0,948.1,832.5,115.5,889.5,948.1,1246.7,952.0,836.0,116.0,889.5,952.0,1251.9,Tracheophyta; Pinus pinaster Aiton; Vitis vinifera L.; Quercus L.; Eucalyptus L'Hér.; Magnoliopsida; Acacia Mill.; 
2001,2001-02-25,Viana do Castelo,Monção,Portela,Mangoido,41.991687,-8.480824,NC,140.0,2001-02-25T21:00,6.3,66,0.4,1.7,0.0,0.0,0.0,0.0,0,1016.6,999.4,0,0,0,0,0.04,0.33,17.6,26.2,49,53,31.0,7.6,9.5,9.9,11.3,0.32,0.341,0.373,0.416,0,0.0,0.0,0.0,0.0,0.0,0.0,0.0,0.0,0.0,0.0,0.0,0.0,0.0,Magnoliopsida; Eucalyptus L'Hér.; Quercus L.; Vitis vinifera L.; Pinus pinaster Aiton; 
2001,2001-07-12,Porto,Paços de Ferreira,Freamunde,Abrute,41.2820392,-8.3487147,NC,355.0,2001-07-12T12:00,25.1,58,16.2,27.9,0.0,0.0,0.0,0.0,0,1020.6,980.1,0,0,0,0,0.61,1.34,10.0,12.0,311,314,28.1,26.5,20.3,18.3,15.2,0.195,0.243,0.277,0.368,1,3600.0,944.5,830.7,113.8,890.2,944.5,1235.0,921.0,810.0,111.0,890.2,921.0,1204.2,Tracheophyta; Eucalyptus L'Hér.; Magnoliopsida; Pinus pinaster Aiton; 
2001,2001-02-24,Viana do Castelo,Caminha,Moledo,St§ Isidoro,41.8297486,-8.874280987998311,NC,5.0,2001-02-24T19:00,11.4,63,4.6,6.9,0.0,0.0,0.0,0.0,0,1010.3,1009.7,0,0,0,0,0.08,0.5,22.1,34.9,6,8,37.4,11.5,11.6,11.4,12.6,0.316,0.343,0.375,0.416,0,0.0,0.0,0.0,0.0,0.0,0.0,0.0,3.0,1.0,2.0,16.8,3.0,22.2,Tracheophyta; Pinus pinaster Aiton; Magnoliopsida; Eucalyptus L'Hér.
2001,2001-07-29,Porto,Penafiel,Lagares,Castelo,41.127025,-8.369727,NC,192.0,2001-07-29T17:00,30.7,39,15.0,31.5,0.0,0.0,0.0,0.0,1,1014.7,993.1,34,0,52,10,0.36,2.71,5.5,7.0,328,339,16.2,31.2,23.8,19.8,17.1,0.136,0.188,0.251,0.358,1,3600.0,390.4,289.3,101.0,565.8,390.4,678.4,452.0,335.0,117.0,565.8,452.0,785.6,Eucalyptus L'Hér.; Magnoliopsida; Tracheophyta
2001,2001-07-29,Porto,Santo Tirso,Negrelos (são Mamede),L.Torre,41.3488993,-8.403043,NC,145.0,2001-07-29T18:00,29.3,48,17.2,30.3,0.0,0.0,0.0,0.0,1,1014.6,998.1,23,0,35,8,0.29,2.11,10.6,16.7,336,341,22.0,29.5,23.8,19.6,17.0,0.145,0.192,0.251,0.36,1,3600.0,264.1,195.5,68.6,584.6,264.1,443.8,335.0,248.0,87.0,584.6,335.0,562.9,Magnoliopsida; Tracheophyta; Vitis vinifera L.; Quercus suber L.
2001,2001-07-23,Porto,Felgueiras,Regilde,Bou+a Velha,41.3648004,-8.266416,NC,265.0,2001-07-23T22:00,19.7,87,17.4,21.7,0.0,0.0,0.0,0.0,1,1013.3,982.5,30,0,0,99,0.0,0.31,4.7,8.0,203,207,11.5,21.3,22.2,18.4,16.3,0.178,0.241,0.27,0.363,0,0.0,0.0,0.0,0.0,0.0,0.0,0.0,0.0,0.0,0.0,0.0,0.0,0.0,Magnoliopsida; Pinus pinaster Aiton; Tracheophyta
2001,2001-04-11,Viana do Castelo,Viana do Castelo,Viana Do Castelo (monserrate),St¦. Luzia,41.68732935,-8.839732406681415,NC,0.0,2001-04-11T15:00,20.1,52,10.1,18.7,0.0,0.0,0.0,0.0,0,1024.5,1024.5,0,0,0,0,0.46,1.12,18.4,24.6,359,5,33.1,20.2,15.3,13.6,12.6,0.334,0.367,0.396,0.421,1,3600.0,730.1,636.7,93.4,914.5,730.1,948.6,782.0,682.0,100.0,914.5,782.0,1016.1,Tracheophyta; Magnoliopsida; Pinus pinaster Aiton
2001,2001-07-24,Porto,Gondomar,Medas,Rua Longras,41.0615476,-8.4344016,NC,98.0,2001-07-24T14:00,25.5,62,17.8,27.2,0.0,0.0,0.0,0.0,3,1014.5,1003.2,86,96,0,0,0.53,1.23,17.3,21.3,275,275,29.5,29.2,22.6,19.7,17.4,0.169,0.207,0.258,0.361,1,3600.0,788.9,613.6,175.3,690.0,788.9,1178.5,810.0,630.0,180.0,690.0,810.0,1210.1,Eucalyptus L'Hér.; Magnoliopsida; Tracheophyta; Pinus pinaster Aiton
2001,2001-07-12,Porto,Santo Tirso,Burgães,Lugar da Presa,41.3401777,-8.4491846,NC,242.0,2001-07-12T14:00,25.8,58,17.0,27.6,0.0,0.0,0.0,0.0,0,1020.1,992.3,0,0,0,0,0.61,1.38,17.9,22.5,326,328,37.4,28.2,21.4,18.9,15.9,0.183,0.229,0.277,0.368,1,3600.0,901.1,785.2,115.9,872.4,901.1,1191.2,925.0,806.0,119.0,872.4,925.0,1222.7,Eucalyptus L'Hér.; Magnoliopsida; Tracheophyta; Pinus pinaster Aiton; Vitis vinifera L.
2001,2001-07-12,Porto,Lousada,Covas,Granja,41.287878,-8.3163704,NC,250.0,2001-07-12T15:00,26.3,57,17.1,28.6,0.0,0.0,0.0,0.0,0,1019.4,990.8,0,0,0,0,0.58,1.47,12.6,16.4,301,303,31.3,28.7,22.0,19.0,15.9,0.187,0.241,0.277,0.368,1,3600.0,812.2,705.2,107.0,865.4,812.2,1078.4,858.0,745.0,113.0,865.4,858.0,1139.3,Eucalyptus L'Hér.; Tracheophyta; Magnoliopsida
2001,2001-07-24,Porto,Amarante,Mancelos,Granja,41.2757739,-8.1585546,NC,247.0,2001-07-24T22:00,18.6,90,16.8,20.2,0.0,0.0,0.0,0.0,3,1016.7,987.8,80,89,0,0,0.0,0.22,5.7,8.2,252,255,12.2,21.3,22.5,19.0,16.6,0.152,0.225,0.269,0.361,0,0.0,0.0,0.0,0.0,0.0,0.0,0.0,0.0,0.0,0.0,0.0,0.0,0.0,Tracheophyta; Magnoliopsida; Eucalyptus L'Hér.; Pinus pinaster Aiton; Vitis vinifera L.; 
2001,2001-02-26,Viana do Castelo,Valença,Arão,Conguedo,42.0247035,-8.6392948,NC,45.0,2001-02-26T00:00,3.4,83,0.8,-0.1,0.0,0.0,0.0,0.0,0,1016.4,1010.8,0,0,0,0,0.0,0.13,10.3,12.9,54,63,19.1,6.0,9.5,10.5,11.9,0.321,0.341,0.373,0.416,0,0.0,0.0,0.0,0.0,0.0,0.0,0.0,0.0,0.0,0.0,0.0,0.0,0.0,Tracheophyta; Magnoliopsida
2001,2001-05-28,Porto,Penafiel,Figueira,Seixoso,41.136357,-8.3314823,NC,340.0,2001-05-28T22:00,24.4,69,18.2,26.4,0.0,0.0,0.0,0.0,0,1021.8,982.8,2,0,4,0,0.02,0.96,6.6,10.3,61,29,11.9,21.6,22.3,16.0,12.3,0.259,0.315,0.375,0.398,0,0.0,0.0,0.0,0.0,0.0,0.0,0.0,0.0,0.0,0.0,0.0,0.0,0.0,Magnoliopsida; Eucalyptus L'Hér.; Vitis vinifera L.
2001,2001-02-25,Viana do Castelo,Monção,Anhões,Cevidade,41.9941148,-8.4374465,NC,435.0,2001-02-25T13:00,10.1,55,1.4,7.5,0.0,0.0,0.0,0.0,0,1015.7,964.0,3,3,0,0,0.29,0.56,9.4,12.2,43,47,29.9,11.1,6.7,8.3,9.9,0.326,0.344,0.374,0.416,1,3600.0,662.9,544.4,118.5,866.1,662.9,877.6,660.0,542.0,118.0,866.1,660.0,873.8,Magnoliopsida; Pinus pinaster Aiton; Quercus L.; Eucalyptus L'Hér.; 
2001,2001-04-15,Viana do Castelo,Viana do Castelo,Areosa,Junto µs Pedreiras,41.7191326,-8.8554855,NC,16.0,2001-04-15T18:00,16.9,71,11.7,15.7,0.0,0.0,0.0,0.0,0,1020.0,1018.1,0,0,0,0,0.15,0.55,11.8,17.5,320,323,23.0,19.4,17.0,14.2,12.7,0.286,0.335,0.38,0.417,1,3600.0,199.5,153.4,46.2,671.7,199.5,310.4,281.0,216.0,65.0,671.7,281.0,437.2,Tracheophyta; Magnoliopsida; Acacia Mill.; Eucalyptus L'Hér.
2001,2001-05-29,Viana do Castelo,Monção,Tangil,Leiras,41.9993372,-8.3573332,NC,396.0,2001-05-29T20:00,24.4,83,21.2,28.1,0.0,0.0,0.0,0.0,2,1017.6,972.6,51,55,2,0,0.03,0.53,5.5,6.9,337,354,12.6,23.8,22.2,15.9,11.6,0.245,0.31,0.373,0.402,1,1534.9,0.0,0.0,0.0,0.0,0.0,0.0,37.0,19.0,18.0,163.2,37.0,96.4,Magnoliopsida; Pinus pinaster Aiton; Vitis vinifera L.; Tracheophyta; Quercus L.; 
2001,2001-05-23,Porto,Penafiel,Penafiel,Zona Indu,41.2039194,-8.292240964931633,NC,246.0,2001-05-23T18:00,17.0,76,12.8,16.9,0.0,0.0,0.0,0.0,1,1020.9,991.8,26,1,2,79,0.14,0.46,6.7,8.4,306,313,28.8,19.2,16.9,14.1,11.9,0.326,0.35,0.387,0.397,1,3600.0,196.5,64.2,132.3,198.2,196.5,432.3,251.0,82.0,169.0,198.2,251.0,552.1,Vitis vinifera L.; Tracheophyta; Magnoliopsida
2001,2001-07-24,Porto,Vila Nova de Gaia,Canelas,R.Monte Mµr,41.0805427,-8.6006594,NC,126.0,2001-07-24T18:00,21.1,72,15.8,21.5,0.0,0.0,0.0,0.0,1,1015.0,1000.3,35,39,0,0,0.21,0.71,10.8,13.7,291,293,25.2,25.4,22.6,19.3,17.1,0.175,0.202,0.263,0.365,1,3600.0,277.6,202.8,74.8,583.2,277.6,461.0,349.0,255.0,94.0,583.2,349.0,579.6,Tracheophyta; Magnoliopsida; Eucalyptus L'Hér.
2001,2001-07-29,Braga,Vieira do Minho,Rossas,IGREJA,41.5726727,-8.033831597126696,NC,568.0,2001-07-29T01:00,17.5,81,14.2,17.7,0.0,0.0,0.0,0.0,0,1017.2,951.9,1,0,1,0,0.0,0.37,7.5,19.5,73,85,26.3,18.8,21.5,18.7,15.7,0.143,0.218,0.267,0.361,0,0.0,0.0,0.0,0.0,0.0,0.0,0.0,0.0,0.0,0.0,0.0,0.0,0.0,Eucalyptus L'Hér.; Magnoliopsida; Tracheophyta; Pinus pinaster Aiton
2001,2001-05-31,Viana do Castelo,Monção,Pias,Pias de Baixo,42.0223405,-8.5044461,NC,84.0,2001-05-31T03:00,16.3,89,14.6,15.8,0.0,0.0,0.0,0.0,0,1014.0,1004.0,1,0,1,1,0.0,0.2,14.0,22.4,18,33,23.4,18.6,21.6,17.6,13.1,0.234,0.297,0.362,0.397,0,0.0,0.0,0.0,0.0,0.0,0.0,0.0,0.0,0.0,0.0,0.0,0.0,0.0,Magnoliopsida; Eucalyptus L'Hér.; Pinus pinaster Aiton; Vitis vinifera L.; Tracheophyta; Quercus L.; 
2001,2001-06-03,Viana do Castelo,Viana do Castelo,Meadela,Cova,41.71660995,-8.8133517375,NC,49.0,2001-06-03T20:00,15.0,81,11.7,14.4,0.0,0.0,0.0,0.0,3,1022.1,1016.2,87,97,0,0,0.03,0.33,8.3,10.1,275,274,17.3,19.8,21.4,18.6,14.0,0.189,0.282,0.356,0.398,1,921.96,0.0,0.0,0.0,0.0,0.0,0.0,37.0,14.0,23.0,113.7,37.0,114.1,Tracheophyta; Eucalyptus L'Hér.; Magnoliopsida
2001,2001-05-25,Porto,Gondomar,Medas,Recta da,41.0615476,-8.4344016,NC,98.0,2001-05-25T15:00,23.5,62,15.8,25.0,0.0,0.0,0.0,0.0,0,1020.4,1009.0,0,0,0,0,0.53,1.09,14.3,18.1,311,314,26.6,24.8,18.7,15.5,13.2,0.306,0.337,0.381,0.396,1,3600.0,801.6,695.1,106.4,873.6,801.6,1060.9,851.0,738.0,113.0,873.6,851.0,1126.4,Eucalyptus L'Hér.; Magnoliopsida; Tracheophyta; Pinus pinaster Aiton
2001,2001-04-13,Viana do Castelo,Viana do Castelo,Meixedo,Vilela,41.7446249,-8.7108467,NC,30.0,2001-04-13T12:00,18.1,64,11.2,19.0,0.0,0.0,0.0,0.0,0,1021.4,1017.8,0,0,0,0,0.47,0.74,8.0,9.4,342,356,19.8,20.1,14.8,13.7,12.5,0.321,0.353,0.389,0.419,1,3600.0,874.4,766.4,108.0,919.1,874.4,1135.0,850.0,745.0,105.0,919.1,850.0,1103.3,Tracheophyta; Magnoliopsida; Eucalyptus L'Hér.; Pinales
2001,2001-04-14,Viana do Castelo,Valença,São Pedro da Torre,Crastos,41.9898411,-8.6595556,NC,19.0,2001-04-14T13:00,19.7,54,10.1,21.0,0.0,0.0,0.0,0.0,0,1021.9,1019.6,0,0,0,0,0.54,1.05,6.3,6.5,336,354,18.0,20.8,14.7,13.5,12.3,0.323,0.351,0.387,0.419,1,3600.0,900.9,795.2,105.8,947.1,900.9,1142.1,903.0,797.0,106.0,947.1,903.0,1144.7,Pinus pinaster Aiton; Tracheophyta; Eucalyptus L'Hér.; Magnoliopsida; 
2001,2001-04-17,Viana do Castelo,Viana do Castelo,Viana Do Castelo (monserrate),St¦ Luzia,41.68732935,-8.839732406681415,NC,0.0,2001-04-17T19:00,16.2,70,10.8,14.6,0.0,0.0,0.0,0.0,0,1011.2,1011.2,12,3,14,2,0.07,0.55,12.4,21.6,343,349,22.3,16.7,16.0,14.4,12.8,0.303,0.327,0.374,0.416,1,3049.15,26.2,15.0,11.2,171.7,23.7,58.9,84.0,48.0,36.0,312.0,84.0,189.0,Tracheophyta; Magnoliopsida; Pinus pinaster Aiton
2001,2001-05-25,Porto,Vila Nova de Gaia,Madalena,Rua Cerro,41.1063312,-8.6429519,NC,38.0,2001-05-25T15:00,22.3,65,15.3,22.5,0.0,0.0,0.0,0.0,0,1020.7,1016.2,2,0,0,5,0.49,0.95,20.8,25.8,326,330,36.4,23.9,18.5,15.8,13.7,0.318,0.342,0.379,0.395,1,3600.0,800.8,694.4,106.5,871.7,800.8,1062.2,850.0,737.0,113.0,871.7,850.0,1127.4,Tracheophyta; Magnoliopsida; Eucalyptus L'Hér.
2001,2001-02-25,Viana do Castelo,Caminha,Venade,Aldeia Nova,41.8603964,-8.8095563,NC,4.0,2001-02-25T16:00,13.9,46,2.5,11.3,0.0,0.0,0.0,0.0,2,1014.7,1014.2,72,37,64,0,0.23,0.85,6.2,6.8,353,3,16.9,14.9,11.6,11.7,12.9,0.305,0.338,0.373,0.416,1,3600.0,385.1,308.1,77.0,792.0,385.1,543.1,450.0,360.0,90.0,792.0,450.0,634.6,Eucalyptus L'Hér.; Pinus pinaster Aiton; Tracheophyta; Magnoliopsida
2001,2001-05-29,Porto,Paredes,Vilela,ChÆos,41.2123637,-8.347580212435714,NC,191.0,2001-05-29T07:00,21.9,80,18.2,23.5,0.0,0.0,0.0,0.0,0,1019.2,997.0,0,0,0,0,0.11,0.54,9.0,12.6,95,88,19.8,20.0,20.2,16.4,12.6,0.272,0.311,0.367,0.395,1,3600.0,248.4,172.5,75.9,520.2,248.4,441.5,180.0,125.0,55.0,520.2,180.0,320.0,Magnoliopsida; Pinus pinaster Aiton; Eucalyptus L'Hér.; Tracheophyta; Vitis vinifera L.; Quercus L.
2001,2001-04-18,Viana do Castelo,Ponte de Lima,Cabaços,Soutelo,41.6944005,-8.5756282,NC,270.0,2001-04-18T16:00,17.4,49,6.4,14.9,0.0,0.0,0.0,0.0,0,1012.8,981.2,0,0,0,0,0.38,1.02,15.3,20.6,352,355,37.8,18.8,14.4,12.7,11.1,0.309,0.329,0.372,0.415,1,3600.0,602.1,525.3,76.8,902.1,602.1,790.3,674.0,588.0,86.0,902.1,674.0,884.6,Eucalyptus L'Hér.; Pinus pinaster Aiton; Tracheophyta; Olea europaea L.
2001,2001-04-11,Viana do Castelo,Arcos de Valdevez,Padroso,Covela,41.9443077,-8.4889986,NC,586.0,2001-04-11T05:00,5.5,82,2.6,2.7,0.0,0.0,0.0,0.0,0,1027.5,956.7,14,1,0,44,0.0,0.17,7.6,21.4,71,61,35.6,7.4,10.7,10.3,9.2,0.369,0.381,0.402,0.422,0,0.0,0.0,0.0,0.0,0.0,0.0,0.0,0.0,0.0,0.0,0.0,0.0,0.0,Tracheophyta; Magnoliopsida; Pinus pinaster Aiton; Eucalyptus L'Hér.; Quercus L.
2001,2001-04-18,Viana do Castelo,Ponte de Lima,Anais,Junto campo futebol,41.6986811,-8.5253797,NC,265.0,2001-04-18T16:00,17.6,48,6.6,15.2,0.0,0.0,0.0,0.0,0,1012.8,981.8,0,0,0,0,0.38,1.04,15.3,20.6,352,355,37.8,18.9,14.3,12.5,10.9,0.318,0.331,0.373,0.415,1,3600.0,601.8,525.0,76.8,903.7,601.8,788.5,674.0,588.0,86.0,903.7,674.0,883.1,Eucalyptus L'Hér.; Pinus pinaster Aiton; Tracheophyta
2001,2001-05-28,Porto,Vila Nova de Gaia,Canelas,Tv. Burne,41.0805427,-8.6006594,NC,126.0,2001-05-28T15:00,30.0,58,20.7,33.8,0.0,0.0,0.0,0.0,0,1021.7,1007.3,10,0,17,0,0.59,1.79,12.0,15.8,327,330,20.5,28.6,21.9,16.4,13.3,0.288,0.322,0.37,0.394,1,3600.0,753.3,643.9,109.4,804.1,753.3,1066.6,799.0,683.0,116.0,804.1,799.0,1131.3,Tracheophyta; Magnoliopsida; Eucalyptus L'Hér.
2001,2001-04-19,Viana do Castelo,Viana do Castelo,Serreleis,Barco do Porto,41.7015056,-8.7463592,NC,3.0,2001-04-19T21:00,10.9,61,3.6,5.7,0.0,0.0,0.0,0.0,0,1012.0,1011.6,0,0,0,0,0.08,0.51,25.0,37.2,6,9,43.6,12.9,15.0,14.4,12.9,0.264,0.318,0.368,0.414,0,0.0,0.0,0.0,0.0,0.0,0.0,0.0,0.0,0.0,0.0,0.0,0.0,0.0,Magnoliopsida; Pinales; Tracheophyta
2001,2001-04-20,Viana do Castelo,Viana do Castelo,Areosa,Povoen+a,41.7191326,-8.8554855,NC,16.0,2001-04-20T10:00,11.8,58,3.9,8.6,0.0,0.0,0.0,0.0,0,1014.8,1012.9,0,0,0,0,0.3,0.58,16.7,19.4,19,22,33.8,13.9,12.7,14.2,12.8,0.265,0.316,0.367,0.413,1,3600.0,737.8,637.5,100.4,903.5,737.8,956.7,669.0,578.0,91.0,903.5,669.0,867.4,Tracheophyta; Magnoliopsida; Acacia Mill.; Eucalyptus L'Hér.
2001,2001-04-21,Viana do Castelo,Viana do Castelo,Areosa,Povoen+a,41.7191326,-8.8554855,NC,16.0,2001-04-21T17:00,13.9,55,5.1,8.4,0.0,0.0,0.0,0.0,1,1019.2,1017.3,29,0,0,95,0.26,0.71,29.6,38.2,333,334,49.7,16.9,14.2,14.0,12.8,0.238,0.307,0.363,0.412,1,3600.0,421.8,353.2,68.6,821.2,421.8,582.7,504.0,422.0,82.0,821.2,504.0,696.3,Tracheophyta; Magnoliopsida; Acacia Mill.; Eucalyptus L'Hér.
2001,2001-04-18,Viana do Castelo,Paredes de Coura,Agualonga,NC,41.881299,-8.6193203,NC,252.0,2001-04-18T15:00,17.4,49,6.6,16.0,0.0,0.0,0.0,0.0,0,1012.8,983.3,0,0,0,0,0.45,1.01,13.4,18.0,354,359,34.2,19.2,14.3,13.1,11.5,0.299,0.328,0.373,0.415,1,3600.0,757.0,666.4,90.7,932.6,757.0,969.7,810.0,713.0,97.0,932.6,810.0,1037.6,Pinus pinaster Aiton; Magnoliopsida; Eucalyptus L'Hér.; Tracheophyta; 
2001,2001-04-18,Viana do Castelo,Viana do Castelo,Areosa,Povoen+a,41.7191326,-8.8554855,NC,16.0,2001-04-18T19:00,14.3,62,7.0,9.6,0.0,0.0,0.0,0.0,0,1012.8,1010.9,0,0,0,0,0.12,0.63,26.7,40.4,346,349,46.1,16.1,15.8,14.3,12.8,0.28,0.323,0.371,0.415,1,3111.55,32.5,20.7,11.8,237.3,29.8,63.4,99.0,63.0,36.0,405.4,99.0,193.3,Tracheophyta; Magnoliopsida; Acacia Mill.; Eucalyptus L'Hér.
2001,2001-04-18,Viana do Castelo,Caminha,Riba de Âncora,Pena,41.8112515,-8.8186725,NC,65.0,2001-04-18T21:00,12.0,63,5.3,7.3,0.0,0.0,0.0,0.0,0,1014.7,1006.8,0,0,0,0,0.07,0.52,24.6,37.9,5,9,47.2,13.7,15.4,14.3,12.8,0.269,0.32,0.371,0.414,0,0.0,0.0,0.0,0.0,0.0,0.0,0.0,0.0,0.0,0.0,0.0,0.0,0.0,Pinus pinaster Aiton; Tracheophyta; Magnoliopsida; Eucalyptus L'Hér.
2001,2001-04-15,Viana do Castelo,Ponte de Lima,Moreira do Lima,Qt¦ Pa+al,41.7865624,-8.6247957,NC,39.0,2001-04-15T13:00,20.9,51,10.5,22.8,0.0,0.0,0.0,0.0,0,1021.0,1016.4,0,0,0,0,0.56,1.21,4.3,2.7,270,247,14.4,22.0,15.5,14.0,12.5,0.309,0.341,0.382,0.418,1,3600.0,902.7,799.0,103.7,945.8,902.7,1148.5,905.0,801.0,104.0,945.8,905.0,1151.3,Vitis vinifera L.; Eucalyptus L'Hér.; Tracheophyta; Magnoliopsida
2001,2001-04-20,Viana do Castelo,Ponte de Lima,Gandra,Letriz,41.7810462,-8.4978034,NC,79.0,2001-04-20T17:00,16.0,40,2.5,10.8,0.0,0.0,0.0,0.0,0,1013.7,1004.3,0,0,0,0,0.31,1.08,23.6,30.3,348,350,38.5,17.5,14.2,13.6,12.1,0.281,0.32,0.366,0.413,1,3600.0,417.4,346.4,71.0,816.7,417.4,575.0,500.0,415.0,85.0,816.7,500.0,688.9,Magnoliopsida; Eucalyptus L'Hér.; Tracheophyta; Vitis vinifera L.; Pinus pinaster Aiton; Acacia Mill.; 
2001,2001-04-18,Viana do Castelo,Ponte da Barca,Lavradas,CimÆes,41.8076477,-8.416428,NC,30.0,2001-04-18T18:00,17.2,54,7.9,12.7,0.0,0.0,0.0,0.0,0,1012.7,1009.1,0,0,0,0,0.22,0.9,27.2,39.2,340,343,45.0,18.3,16.1,14.0,12.4,0.315,0.331,0.372,0.415,1,3600.0,207.0,159.0,48.0,677.4,207.0,318.6,289.0,222.0,67.0,677.4,289.0,444.8,Magnoliopsida; Tracheophyta; Vitis vinifera L.; Pinus pinaster Aiton
2001,2001-07-29,Porto,Vila Nova de Gaia,Pedroso,R. Bom Samaritano,41.0774589,-8.5495553,NC,106.0,2001-07-29T19:00,28.0,58,18.9,29.8,0.0,0.0,0.0,0.0,1,1015.0,1002.9,26,0,25,37,0.16,1.59,10.3,17.0,331,343,20.5,29.0,24.7,20.3,17.6,0.139,0.173,0.241,0.359,1,3600.0,93.3,58.9,34.4,397.1,93.3,196.9,152.0,96.0,56.0,397.1,152.0,320.7,Eucalyptus L'Hér.; Magnoliopsida; Tracheophyta
2001,2001-05-07,Viana do Castelo,Viana do Castelo,Areosa,J. Pedreiras,41.7191326,-8.8554855,NC,16.0,2001-05-07T17:00,15.1,53,5.5,9.8,0.0,0.0,0.0,0.0,0,1017.5,1015.6,17,1,27,0,0.27,0.82,28.7,38.3,340,342,45.7,16.7,14.4,13.3,13.0,0.3,0.344,0.364,0.403,1,3600.0,380.7,293.0,87.7,619.4,380.7,635.6,447.0,344.0,103.0,619.4,447.0,746.2,Tracheophyta; Magnoliopsida; Acacia Mill.; Eucalyptus L'Hér.
2001,2001-07-29,Braga,Guimarães,Candoso (são Martinho),Teixeira,41.4194315,-8.3349954,NC,259.0,2001-07-29T12:00,28.8,45,15.7,31.3,0.0,0.0,0.0,0.0,0,1016.4,987.1,0,0,0,0,0.65,2.17,9.7,13.0,90,88,29.9,28.8,21.7,19.4,16.6,0.135,0.213,0.264,0.359,1,3600.0,911.9,792.8,119.1,869.8,911.9,1209.2,888.0,772.0,116.0,869.8,888.0,1177.6,Magnoliopsida; Tracheophyta; Eucalyptus L'Hér.; Vitis vinifera L.
2001,2001-04-11,Viana do Castelo,Viana do Castelo,Montaria,Sra do Minho,41.7981159,-8.6907542,NC,772.0,2001-04-11T22:00,8.3,68,2.7,5.1,0.0,0.0,0.0,0.0,0,1027.0,935.9,0,0,0,0,0.02,0.35,10.4,25.2,44,48,36.0,9.3,11.0,9.0,7.9,0.348,0.37,0.398,0.421,0,0.0,0.0,0.0,0.0,0.0,0.0,0.0,0.0,0.0,0.0,0.0,0.0,0.0,Magnoliopsida; Tracheophyta
2001,2001-07-29,Braga,Barcelos,Oliveira,L. Monte Facho,41.5819885,-8.5472427,NC,98.0,2001-07-29T14:00,30.7,43,16.9,34.5,0.0,0.0,0.0,0.0,0,1015.3,1004.2,5,0,9,0,0.63,2.5,3.5,4.9,24,36,22.7,31.5,22.7,19.7,17.1,0.137,0.219,0.266,0.36,1,3600.0,819.9,661.2,158.7,752.3,819.9,1166.1,842.0,679.0,163.0,752.3,842.0,1197.6,Tracheophyta; Pinus pinaster Aiton; Vitis vinifera L.
2001,2001-05-19,Viana do Castelo,Viana do Castelo,Meadela,Cova,41.71660995,-8.8133517375,NC,49.0,2001-05-19T14:00,20.2,62,12.6,22.0,0.0,0.0,0.0,0.0,0,1016.1,1010.3,3,0,0,9,0.56,0.91,9.9,11.4,303,305,22.7,23.2,17.5,14.4,13.0,0.364,0.389,0.41,0.403,1,3600.0,928.5,817.0,111.6,931.8,928.5,1171.8,957.0,842.0,115.0,931.8,957.0,1207.7,Tracheophyta; Eucalyptus L'Hér.; Magnoliopsida
2001,2001-02-18,Viana do Castelo,Melgaço,Roussas,Roussas,42.11290885,-8.258067279809108,NC,182.0,2001-02-18T19:00,9.1,62,2.3,6.1,0.0,0.0,0.0,0.0,0,1025.9,1003.6,0,0,0,0,0.05,0.44,9.1,14.0,34,42,22.0,9.7,9.8,10.1,11.2,0.355,0.37,0.391,0.423,0,0.0,0.0,0.0,0.0,0.0,0.0,0.0,0.0,0.0,0.0,0.0,0.0,1.7,Tracheophyta; Vitis vinifera L.; Magnoliopsida; Eucalyptus L'Hér.; Pinus pinaster Aiton
2001,2001-07-24,Porto,Santo Tirso,Couto (Santa Cristina),Monte Assun+Æo,41.3238281,-8.490527975714157,NC,101.0,2001-07-24T21:00,19.1,87,16.9,20.6,0.0,0.0,0.0,0.0,1,1015.7,1003.8,35,39,0,0,0.0,0.29,6.4,9.0,286,293,18.4,22.1,22.9,19.6,17.2,0.177,0.204,0.252,0.361,0,0.0,0.0,0.0,0.0,0.0,0.0,0.0,0.0,0.0,0.0,0.0,0.0,0.0,Eucalyptus L'Hér.; Vitis vinifera L.; Tracheophyta; Magnoliopsida; Pinus pinaster Aiton
2001,2001-05-28,Porto,Paços de Ferreira,Ferreira,Mosteiro,41.2663712,-8.3445627,NC,331.0,2001-05-28T19:00,26.8,65,19.6,29.4,0.0,0.0,0.0,0.0,0,1021.4,983.7,7,0,11,0,0.13,1.23,7.5,10.5,325,338,16.2,24.9,21.7,15.3,11.6,0.251,0.315,0.375,0.398,1,3600.0,94.2,55.9,38.3,362.8,94.2,205.3,150.0,89.0,61.0,362.8,150.0,326.7,Eucalyptus L'Hér.; Tracheophyta; Magnoliopsida; Quercus L.; Pinus pinaster Aiton; 
2001,2001-07-12,Porto,Lousada,Covas,B-ca,41.287878,-8.3163704,NC,250.0,2001-07-12T15:00,26.3,57,17.1,28.6,0.0,0.0,0.0,0.0,0,1019.4,990.8,0,0,0,0,0.58,1.47,12.6,16.4,301,303,31.3,28.7,22.0,19.0,15.9,0.187,0.241,0.277,0.368,1,3600.0,812.2,705.2,107.0,865.4,812.2,1078.4,858.0,745.0,113.0,865.4,858.0,1139.3,Eucalyptus L'Hér.; Tracheophyta; Magnoliopsida
2001,2001-04-18,Viana do Castelo,Ponte da Barca,Paço Vedro de Magalhães,S. SebastiÆo,41.7961954,-8.4069532,NC,81.0,2001-04-18T22:00,10.5,65,4.3,5.4,0.0,0.0,0.0,0.0,0,1014.0,1004.2,0,0,0,0,0.06,0.44,25.6,38.6,359,3,45.4,12.8,15.3,13.7,12.0,0.314,0.331,0.372,0.415,0,0.0,0.0,0.0,0.0,0.0,0.0,0.0,0.0,0.0,0.0,0.0,0.0,0.0,Tracheophyta; Eucalyptus L'Hér.; Pinus pinaster Aiton; Vitis vinifera L.; Magnoliopsida
2001,2001-07-25,Braga,Celorico de Basto,Rego,Perrio,41.4230912,-8.086542,NC,654.0,2001-07-25T01:00,15.6,95,14.8,16.2,0.0,0.0,0.0,0.0,3,1016.8,941.6,90,100,0,0,0.0,0.09,6.6,9.0,257,268,16.2,18.4,20.3,17.0,14.4,0.156,0.209,0.262,0.36,0,0.0,0.0,0.0,0.0,0.0,0.0,0.0,0.0,0.0,0.0,0.0,0.0,0.0,Magnoliopsida; Pinus pinaster Aiton; Tracheophyta; Pinales
2001,2001-05-08,Viana do Castelo,Monção,Cortes,Pinheiral,42.0740888,-8.5140087,NC,67.0,2001-05-08T13:00,19.2,57,10.5,20.2,0.0,0.0,0.0,0.0,3,1015.7,1007.8,96,57,74,0,0.51,0.96,7.6,9.2,357,11,25.9,18.9,13.0,12.4,12.2,0.34,0.356,0.377,0.404,1,3600.0,862.3,704.0,158.3,781.0,862.3,1210.7,866.0,707.0,159.0,781.0,866.0,1215.8,Tracheophyta; Vitis vinifera L.; Magnoliopsida; Pinus pinaster Aiton; Eucalyptus L'Hér.; 
2001,2001-04-13,Viana do Castelo,Viana do Castelo,Areosa,Povoen+a,41.7191326,-8.8554855,NC,16.0,2001-04-13T15:00,20.1,53,10.4,19.9,0.0,0.0,0.0,0.0,0,1019.3,1017.4,11,12,0,0,0.46,1.1,11.4,14.8,347,356,21.6,21.4,16.0,13.8,12.6,0.312,0.351,0.388,0.419,1,3600.0,725.7,629.5,96.2,896.2,725.7,956.0,777.0,674.0,103.0,896.2,777.0,1023.6,Tracheophyta; Magnoliopsida; Acacia Mill.; Eucalyptus L'Hér.
2001,2001-05-26,Viana do Castelo,Ponte de Lima,Fornelos,FundÆo,41.75018145,-8.573371063379913,NC,111.0,2001-05-26T01:00,14.4,98,14.0,13.9,0.0,0.0,0.0,0.0,0,1020.8,1007.4,6,6,0,1,0.0,0.04,12.0,18.8,353,356,19.8,15.9,17.9,15.3,13.0,0.309,0.342,0.389,0.404,0,0.0,0.0,0.0,0.0,0.0,0.0,0.0,0.0,0.0,0.0,0.0,0.0,0.0,Magnoliopsida; Tracheophyta; Pinus pinaster Aiton; Eucalyptus L'Hér.
2001,2001-07-12,Porto,Matosinhos,Leça Do Balio,Rua do Paiol,41.22119055,-8.656934188697067,NC,67.0,2001-07-12T16:00,23.9,68,17.7,23.9,0.0,0.0,0.0,0.0,0,1020.2,1012.4,0,0,0,0,0.44,0.95,24.3,32.0,322,324,44.3,27.6,22.5,19.7,17.0,0.2,0.207,0.273,0.371,1,3600.0,667.1,563.7,103.4,811.4,667.1,919.5,729.0,616.0,113.0,811.4,729.0,1004.7,Eucalyptus L'Hér.; Acacia Mill.; Tracheophyta; Magnoliopsida
2001,2001-04-19,Viana do Castelo,Viana do Castelo,Areosa,Junto Caf¦ Pardal,41.7191326,-8.8554855,NC,16.0,2001-04-19T15:00,15.8,47,4.5,11.4,0.0,0.0,0.0,0.0,0,1010.8,1008.9,5,0,6,6,0.4,0.95,28.2,36.0,349,351,50.8,18.4,14.8,14.3,12.8,0.268,0.319,0.369,0.414,1,3600.0,735.2,608.0,127.2,844.3,735.2,976.7,786.0,650.0,136.0,844.3,786.0,1044.2,Tracheophyta; Magnoliopsida; Acacia Mill.; Eucalyptus L'Hér.
2001,2001-07-25,Braga,Guimarães,Serzedo,Torralta,41.40454535,-8.232874276944639,NC,234.0,2001-07-25T10:00,20.1,78,16.2,21.5,0.0,0.0,0.0,0.0,3,1018.2,990.9,83,92,0,0,0.31,0.51,4.7,5.4,302,312,17.3,22.8,20.9,19.0,16.6,0.172,0.236,0.268,0.362,1,3600.0,557.6,320.3,237.2,419.3,557.6,1012.8,510.0,293.0,217.0,419.3,510.0,926.4,Magnoliopsida; Tracheophyta; Eucalyptus L'Hér.; Vitis vinifera L.
2001,2001-04-20,Viana do Castelo,Ponte da Barca,Sampriz,Livramento,41.77465835,-8.37914978253291,NC,615.0,2001-04-20T13:00,12.2,45,0.7,9.7,0.0,0.0,0.0,0.0,1,1014.7,943.2,22,24,0,0,0.41,0.78,14.5,19.6,35,36,46.1,15.2,10.5,11.3,9.9,0.325,0.363,0.396,0.456,1,3600.0,844.6,630.5,214.1,733.7,844.6,1165.0,848.0,633.0,215.0,733.7,848.0,1169.7,Magnoliopsida; Tracheophyta; Pinus pinaster Aiton; Quercus L.
2001,2001-05-12,Viana do Castelo,Monção,Bela,Desconhecido,42.0669616,-8.4281841,NC,50.0,2001-05-12T03:00,9.9,97,9.4,8.2,0.3,0.3,0.0,0.0,51,1012.5,1006.4,48,0,30,100,0.0,0.04,10.6,20.9,125,136,37.1,11.7,14.4,13.2,12.3,0.343,0.355,0.371,0.403,0,0.0,0.0,0.0,0.0,0.0,0.0,0.0,0.0,0.0,0.0,0.0,0.0,0.0,Magnoliopsida; Eucalyptus L'Hér.; Tracheophyta; Pinus pinaster Aiton; Vitis vinifera L.; 
