year,date,district,municipality,parish,local,latitude,longitude,cause,elevation,hourly.time,hourly.temperature_2m,hourly.relative_humidity_2m,hourly.dew_point_2m,hourly.apparent_temperature,hourly.precipitation,hourly.rain,hourly.snowfall,hourly.snow_depth,hourly.weather_code,hourly.pressure_msl,hourly.surface_pressure,hourly.cloud_cover,hourly.cloud_cover_low,hourly.cloud_cover_mid,hourly.cloud_cover_high,hourly.et0_fao_evapotranspiration,hourly.vapour_pressure_deficit,hourly.wind_speed_10m,hourly.wind_speed_100m,hourly.wind_direction_10m,hourly.wind_direction_100m,hourly.wind_gusts_10m,hourly.soil_temperature_0_to_7cm,hourly.soil_temperature_7_to_28cm,hourly.soil_temperature_28_to_100cm,hourly.soil_temperature_100_to_255cm,hourly.soil_moisture_0_to_7cm,hourly.soil_moisture_7_to_28cm,hourly.soil_moisture_28_to_100cm,hourly.soil_moisture_100_to_255cm,hourly.is_day,hourly.sunshine_duration,hourly.shortwave_radiation_instant,hourly.direct_radiation_instant,hourly.diffuse_radiation_instant,hourly.direct_normal_irradiance_instant,hourly.global_tilted_irradiance_instant,hourly.terrestrial_radiation_instant,hourly.shortwave_radiation,hourly.direct_radiation,hourly.diffuse_radiation,hourly.direct_normal_irradiance,hourly.global_tilted_irradiance,hourly.terrestrial_radiation,scientificNames
2001,2001-09-02,Aveiro,Arouca,Escariz,Abelheira,40.9403552,-8.4032105,NC,484.0,2001-09-02T06:00,15.5,54,6.1,12.5,0.0,0.0,0.0,0.0,0,1013.7,957.6,0,0,0,0,0.07,0.82,14.1,28.8,93,91,36.7,17.0,20.4,20.2,18.2,0.198,0.19,0.229,0.339,0,0.0,0.0,0.0,0.0,0.0,0.0,0.0,0.0,0.0,0.0,0.0,0.0,0.0,Eucalyptus L'Hér.; Pinus pinaster Aiton; Magnoliopsida
2001,2001-09-16,Aveiro,Arouca,Escariz,Laira,40.9403552,-8.4032105,NC,484.0,2001-09-16T07:00,16.7,43,4.2,13.6,0.0,0.0,0.0,0.0,0,1017.5,961.4,0,0,0,0,0.09,1.08,11.9,25.2,93,92,30.6,17.0,20.6,20.7,18.8,0.105,0.16,0.218,0.331,1,796.38,62.7,33.6,29.1,250.9,36.3,181.3,28.0,15.0,13.0,145.2,28.0,80.9,Eucalyptus L'Hér.; Pinus pinaster Aiton; Magnoliopsida
2001,2001-09-13,Aveiro,Espinho,Anta,Rua da Lagarta,41.0141179,-8.6156916,NC,59.0,2001-09-13T08:00,17.1,92,15.7,17.7,0.0,0.0,0.0,0.0,2,1019.8,1012.7,69,77,0,0,0.06,0.16,8.8,10.1,351,354,15.8,19.1,22.2,22.8,20.3,0.091,0.12,0.176,0.307,1,3600.0,166.4,81.1,85.3,245.9,166.4,445.6,119.0,58.0,61.0,245.9,119.0,318.8,Eucalyptus L'Hér.; Pinus pinaster Aiton; Tracheophyta; Magnoliopsida
2001,2001-09-14,Braga,Vizela,Tagilde,Boavista,41.3780466,-8.2845995,NC,259.0,2001-09-14T16:00,24.7,43,11.3,23.7,0.0,0.0,0.0,0.0,0,1013.0,983.4,13,0,0,42,0.39,1.77,9.8,12.6,332,336,25.6,29.0,22.1,21.0,19.0,0.1,0.158,0.222,0.333,1,3600.0,477.3,402.4,74.9,821.7,477.3,662.2,548.0,462.0,86.0,821.7,548.0,760.4,Tracheophyta; Magnoliopsida; Vitis vinifera L.; Pinus pinaster Aiton; Eucalyptus L'Hér.; Quercus L.
2001,2001-09-14,Braga,Celorico de Basto,Caçarilhe,Vizo,41.4202726,-8.0260463,NC,640.0,2001-09-14T21:00,17.0,59,8.9,15.5,0.0,0.0,0.0,0.0,0,1013.7,940.6,4,0,0,15,0.04,0.8,8.7,18.0,30,33,21.6,19.7,21.5,19.9,17.9,0.121,0.157,0.204,0.331,0,0.0,0.0,0.0,0.0,0.0,0.0,0.0,0.0,0.0,0.0,0.0,0.0,0.0,Magnoliopsida; Pinus pinaster Aiton; Tracheophyta
2001,2001-09-05,Aveiro,Arouca,Santa Eulália,Presa Grande,40.9274489,-8.2777004,NC,246.0,2001-09-05T18:00,25.4,54,15.4,25.5,0.0,0.0,0.0,0.0,1,1015.4,987.3,30,0,17,65,0.16,1.49,11.6,15.1,286,288,26.3,27.9,24.4,21.2,19.0,0.131,0.164,0.217,0.334,1,3600.0,87.7,47.1,40.6,260.7,87.7,243.2,134.0,72.0,62.0,260.7,134.0,371.7,Pinus pinaster Aiton; Tracheophyta; Magnoliopsida; Eucalyptus L'Hér.
2001,2001-09-16,Aveiro,Espinho,Anta,R.Do Carvalhal,41.007855,-8.6187792,NC,39.0,2001-09-16T02:00,20.6,42,7.1,18.1,0.0,0.0,0.0,0.0,0,1014.5,1009.9,0,0,0,0,0.1,1.41,12.3,25.2,69,81,20.2,20.5,23.8,22.7,20.5,0.09,0.119,0.174,0.306,0,0.0,0.0,0.0,0.0,0.0,0.0,0.0,0.0,0.0,0.0,0.0,0.0,0.0,Eucalyptus L'Hér.; Tracheophyta; Pinus pinaster Aiton; Magnoliopsida
2001,2001-09-09,Braga,Vizela,Tagilde,Boavista,41.3780466,-8.2845995,NC,259.0,2001-09-09T02:00,15.6,72,10.6,14.6,0.0,0.0,0.0,0.0,1,1015.9,985.3,22,0,0,74,0.02,0.5,8.4,11.0,65,79,18.7,17.5,22.2,20.9,18.7,0.11,0.167,0.227,0.336,0,0.0,0.0,0.0,0.0,0.0,0.0,0.0,0.0,0.0,0.0,0.0,0.0,0.0,Tracheophyta; Magnoliopsida; Vitis vinifera L.; Pinus pinaster Aiton; Eucalyptus L'Hér.; Quercus L.
2001,2001-09-11,Braga,Guimarães,Moreira de Cónegos,Silvares,41.3814913,-8.3361532,NC,171.0,2001-09-11T15:00,26.8,47,14.7,27.5,0.0,0.0,0.0,0.0,0,1015.6,996.0,0,0,0,0,0.5,1.86,11.2,13.4,264,265,27.4,31.4,23.3,21.4,19.0,0.103,0.16,0.223,0.334,1,3600.0,645.5,554.8,90.6,860.9,645.5,870.2,698.0,600.0,98.0,860.9,698.0,941.1,Eucalyptus L'Hér.; Magnoliopsida; Tracheophyta
2001,2001-09-17,Porto,Trofa,Alvarelhos,ALVARELHOS,41.3081818,-8.609488708007643,NC,72.0,2001-09-17T10:00,24.4,38,9.2,22.0,0.0,0.0,0.0,0.0,0,1014.7,1006.4,16,0,0,52,0.42,1.89,15.6,20.7,97,97,34.6,24.0,22.2,22.0,20.0,0.106,0.147,0.213,0.333,1,3600.0,620.8,524.6,96.2,843.1,620.8,842.8,555.0,469.0,86.0,843.1,555.0,753.4,Pinales; Magnoliopsida; Eucalyptus L'Hér.; Tracheophyta
2001,2001-06-21,Porto,Penafiel,Santa Marta,Anta,41.2068873,-8.2538497,NC,413.0,2001-06-21T08:00,23.9,55,14.3,24.8,0.0,0.0,0.0,0.0,0,1016.0,969.1,0,0,0,0,0.24,1.34,3.3,5.7,77,55,13.3,21.1,19.4,16.6,13.1,0.122,0.219,0.309,0.383,1,3600.0,454.4,360.6,93.8,701.0,454.4,681.2,378.0,300.0,78.0,701.0,378.0,566.7,Eucalyptus L'Hér.; Magnoliopsida; Tracheophyta
2001,2001-09-14,Braga,Vila Nova de Famalicão,Fradelos,Fonte Eguas,41.3682305,-8.5986094,NC,54.0,2001-09-14T12:00,23.4,52,13.1,23.5,0.0,0.0,0.0,0.0,1,1015.7,1009.4,20,16,0,20,0.47,1.37,11.8,14.5,337,341,25.2,26.6,21.7,22.0,19.8,0.103,0.15,0.217,0.331,1,3600.0,725.6,551.9,173.7,706.8,725.6,1055.9,706.0,537.0,169.0,706.8,706.0,1027.4,Magnoliopsida; Tracheophyta
2001,2001-09-10,Aveiro,Santa Maria da Feira,Escapães,Meia L¦gua,40.9235118,-8.5030957,NC,274.0,2001-09-10T22:00,18.7,82,15.5,19.9,0.0,0.0,0.0,0.0,0,1015.0,983.1,0,0,0,0,0.0,0.4,4.7,5.1,184,188,9.0,21.5,24.3,21.7,19.1,0.11,0.142,0.202,0.33,0,0.0,0.0,0.0,0.0,0.0,0.0,0.0,0.0,0.0,0.0,0.0,0.0,0.0,Pinus pinaster Aiton; Pinales; Eucalyptus L'Hér.; Tracheophyta
2001,2001-09-07,Aveiro,Arouca,Moldes,Covelo,40.9149645,-8.2262788,NC,367.0,2001-09-07T14:00,26.7,32,8.4,25.6,0.0,0.0,0.0,0.0,0,1018.8,977.2,0,0,0,0,0.61,2.39,14.2,18.5,81,82,39.2,28.9,22.0,20.8,18.6,0.123,0.175,0.223,0.334,1,3600.0,789.0,691.7,97.3,906.6,789.0,1028.0,819.0,718.0,101.0,906.6,819.0,1067.1,Eucalyptus L'Hér.; Tracheophyta; Magnoliopsida; Pinus pinaster Aiton; Vitis vinifera L.
2001,2001-09-14,Braga,Vila Nova de Famalicão,Vila Nova de Famalicão,L. Salgueirinhos,41.4384548,-8.5307518,NC,118.0,2001-09-14T22:00,18.2,58,9.8,16.7,0.0,0.0,0.0,0.0,0,1013.7,999.8,0,0,0,0,0.05,0.87,9.7,21.4,15,25,23.4,20.1,22.4,21.6,19.5,0.121,0.151,0.209,0.335,0,0.0,0.0,0.0,0.0,0.0,0.0,0.0,0.0,0.0,0.0,0.0,0.0,0.0,Tracheophyta; Vitis vinifera L.; Quercus L.; Magnoliopsida
2001,2001-09-03,Aveiro,Santa Maria da Feira,São João de Ver,Chousa de Cima,40.943422,-8.537466741838003,NC,188.0,2001-09-03T15:00,29.4,36,12.6,28.4,0.0,0.0,0.0,0.0,0,1012.3,991.1,1,0,1,0,0.49,2.64,13.2,16.3,317,319,19.8,31.3,24.3,21.4,19.3,0.14,0.148,0.209,0.334,1,3600.0,530.3,405.6,124.7,591.9,530.3,921.6,570.0,436.0,134.0,591.9,570.0,990.6,Tracheophyta; Eucalyptus L'Hér.; Magnoliopsida; Pinus pinaster Aiton
2001,2001-09-06,Aveiro,Arouca,Várzea,Caracuste,40.9208619,-8.3002889,NC,216.0,2001-09-06T23:00,20.1,75,15.5,21.1,0.0,0.0,0.0,0.0,0,1016.5,991.3,1,0,2,0,0.01,0.59,5.8,11.6,30,26,15.1,21.0,23.9,21.6,19.3,0.125,0.162,0.216,0.334,0,0.0,0.0,0.0,0.0,0.0,0.0,0.0,0.0,0.0,0.0,0.0,0.0,0.0,Eucalyptus L'Hér.; Vitis vinifera L.; Tracheophyta; Pinus pinaster Aiton; Magnoliopsida
2001,2001-09-05,Aveiro,Santa Maria da Feira,Gião,R. da For+as Armadas,40.9953677,-8.4719624,NC,174.0,2001-09-05T16:00,28.1,43,14.3,27.7,0.0,0.0,0.0,0.0,0,1015.0,995.2,20,0,21,23,0.41,2.17,12.4,15.2,292,292,24.8,32.6,25.0,21.6,19.3,0.126,0.128,0.17,0.309,1,3600.0,436.9,330.1,106.8,613.5,436.9,724.3,495.0,374.0,121.0,613.5,495.0,820.5,Tracheophyta; Pinus pinaster Aiton; Eucalyptus L'Hér.; Magnoliopsida
2001,2001-08-30,Aveiro,Santa Maria da Feira,Souto,Ponte ChÆ,40.888651,-8.5511666,NC,136.0,2001-08-30T10:00,21.1,72,15.8,21.8,0.0,0.0,0.0,0.0,2,1019.4,1003.5,76,85,0,0,0.26,0.71,9.0,11.1,344,347,23.4,22.6,21.1,21.3,19.1,0.166,0.112,0.155,0.296,1,3600.0,448.2,209.7,238.5,306.5,448.2,918.0,404.0,189.0,215.0,306.5,404.0,827.5,Pinales; Magnoliopsida; Eucalyptus L'Hér.; Pinus pinaster Aiton; Tracheophyta
2001,2001-09-06,Vila Real,Mondim de Basto,Bilhó,Travassos,41.4236074,-7.8458004,NC,654.0,2001-09-06T00:00,18.7,76,14.4,19.1,0.0,0.0,0.0,0.0,1,1016.8,942.4,24,4,21,25,0.01,0.52,6.6,12.5,22,33,15.5,19.2,21.7,19.8,17.6,0.167,0.179,0.204,0.336,0,0.0,0.0,0.0,0.0,0.0,0.0,0.0,0.0,0.0,0.0,0.0,0.0,0.0,Pinus pinaster Aiton; Tracheophyta; Magnoliopsida
2001,2001-09-07,Aveiro,Santa Maria da Feira,Souto,Ponte da Cha,40.888651,-8.5511666,NC,136.0,2001-09-07T16:00,29.3,26,7.8,27.4,0.0,0.0,0.0,0.0,0,1017.4,1001.9,0,0,0,0,0.48,3.02,10.4,13.6,46,53,26.6,33.1,24.6,22.0,19.4,0.106,0.109,0.148,0.291,1,3600.0,518.8,440.4,78.4,830.3,518.8,714.7,589.0,500.0,89.0,830.3,589.0,811.5,Pinales; Magnoliopsida; Eucalyptus L'Hér.; Pinus pinaster Aiton; Tracheophyta
2001,2001-09-14,Braga,Fafe,Quinchães,Cruzeiro,41.45286965,-8.146146800827943,NC,406.0,2001-09-14T16:00,24.2,42,10.6,22.9,0.0,0.0,0.0,0.0,0,1013.0,967.0,13,0,0,42,0.38,1.75,9.8,12.6,332,336,25.6,29.2,21.9,20.6,18.6,0.099,0.155,0.215,0.329,1,3600.0,477.0,402.1,74.9,824.1,477.0,660.0,548.0,462.0,86.0,824.1,548.0,758.2,Tracheophyta; Magnoliopsida; Pinales; Vitis vinifera L.
2001,2001-08-30,Aveiro,Santa Maria da Feira,Louredo,S.Vicente,40.9871338,-8.4667638,NC,161.0,2001-08-30T19:00,19.4,82,16.2,19.4,0.0,0.0,0.0,0.0,1,1018.4,999.5,33,10,0,79,0.06,0.41,15.1,24.3,327,331,34.9,22.8,22.4,21.4,19.2,0.207,0.134,0.175,0.312,1,2567.59,10.0,5.6,4.4,64.3,8.1,22.6,68.0,38.0,30.0,267.3,68.0,153.3,Tracheophyta; Eucalyptus L'Hér.; Magnoliopsida
2001,2001-09-11,Aveiro,Castelo de Paiva,Real,Vale Forcado,41.0255424,-8.2709561,NC,168.0,2001-09-11T00:00,19.1,83,16.2,20.5,0.0,0.0,0.0,0.0,0,1014.9,995.2,0,0,0,0,0.0,0.38,5.0,9.1,180,189,11.9,19.8,23.8,21.7,19.4,0.119,0.16,0.213,0.335,0,0.0,0.0,0.0,0.0,0.0,0.0,0.0,0.0,0.0,0.0,0.0,0.0,0.0,Eucalyptus L'Hér.; Pinus pinaster Aiton; Magnoliopsida; Vitis vinifera L.
2001,2001-09-09,Porto,Paredes,Aguiar de Sousa,Sernada,41.1271547,-8.4477733,NC,144.0,2001-09-09T16:00,30.5,30,10.8,29.9,0.0,0.0,0.0,0.0,0,1013.7,997.4,4,0,0,13,0.44,3.07,6.7,7.7,306,307,16.6,32.4,24.0,21.7,19.5,0.122,0.163,0.214,0.336,1,3600.0,497.9,406.6,91.3,784.5,497.9,699.1,567.0,463.0,104.0,784.5,567.0,796.1,Magnoliopsida; Pinus pinaster Aiton; Eucalyptus L'Hér.; Tracheophyta; Vitis vinifera L.; Quercus L.; Quercus suber L.
2001,2001-09-12,Braga,Barcelos,Milhazes,L. Ferven+as,41.4895833,-8.6454167,NC,285.0,2001-09-12T14:00,23.7,58,14.8,25.3,0.0,0.0,0.0,0.0,0,1019.0,986.2,8,0,0,28,0.49,1.24,8.7,10.1,275,276,24.8,28.2,21.4,20.6,18.3,0.123,0.153,0.21,0.336,1,3600.0,734.9,610.8,124.1,828.6,734.9,995.8,764.0,635.0,129.0,828.6,764.0,1035.2,Eucalyptus L'Hér.; Pinus pinaster Aiton; Magnoliopsida
2001,2001-09-01,Aveiro,Castelo de Paiva,Santa Maria de Sardoura,GuidÇes,41.05375725,-8.309483051416152,NC,193.0,2001-09-01T01:00,17.4,84,14.7,17.8,0.0,0.0,0.0,0.0,0,1015.1,992.4,0,0,0,0,0.0,0.32,7.9,15.2,16,14,18.0,17.5,21.4,20.9,18.9,0.234,0.206,0.235,0.34,0,0.0,0.0,0.0,0.0,0.0,0.0,0.0,0.0,0.0,0.0,0.0,0.0,0.0,Eucalyptus L'Hér.; Magnoliopsida; Pinus pinaster Aiton
2001,2001-09-04,Aveiro,Espinho,Anta,Rua Lagarta,41.007855,-8.6187792,NC,39.0,2001-09-04T17:00,29.9,42,15.7,29.5,0.0,0.0,0.0,0.0,0,1014.2,1009.8,11,0,0,36,0.38,2.43,16.1,19.2,318,326,27.4,33.6,25.6,22.2,20.0,0.107,0.123,0.182,0.311,1,3600.0,320.6,255.5,65.1,679.4,320.6,505.9,394.0,314.0,80.0,679.4,394.0,621.8,Eucalyptus L'Hér.; Tracheophyta; Pinus pinaster Aiton; Magnoliopsida
2001,2001-09-14,Braga,Vila Nova de Famalicão,Fradelos,Cima Pele,41.3682305,-8.5986094,NC,54.0,2001-09-14T17:00,23.4,47,11.4,21.1,0.0,0.0,0.0,0.0,0,1012.8,1006.5,13,0,0,43,0.3,1.53,19.0,25.8,331,333,34.2,26.9,22.8,22.0,19.8,0.103,0.15,0.216,0.331,1,3600.0,291.5,232.4,59.1,720.4,291.5,436.3,370.0,295.0,75.0,720.4,370.0,553.8,Magnoliopsida; Tracheophyta
2001,2001-09-15,Aveiro,Santa Maria da Feira,Sanguedo,Rua do Colegio,41.0092747,-8.515097239744568,NC,183.0,2001-09-15T16:00,29.7,27,8.9,28.2,0.0,0.0,0.0,0.0,0,1013.3,992.6,9,0,0,31,0.43,3.02,8.4,10.7,40,48,20.9,32.2,22.7,21.8,19.7,0.108,0.121,0.163,0.304,1,3600.0,476.0,402.1,74.0,822.7,476.0,661.3,547.0,462.0,85.0,822.7,547.0,759.9,Tracheophyta; Eucalyptus L'Hér.; Magnoliopsida
2001,2001-09-14,Braga,Vizela,Tagilde,Monte,41.37757885,-8.278176844836985,NC,201.0,2001-09-14T18:00,23.5,45,10.8,21.7,0.0,0.0,0.0,0.0,0,1012.9,989.8,7,0,0,23,0.19,1.61,14.0,23.7,337,343,32.0,26.5,22.8,21.4,19.4,0.1,0.158,0.222,0.333,1,3600.0,104.3,73.6,30.7,558.7,104.3,178.0,180.0,127.0,53.0,558.7,180.0,307.4,Tracheophyta; Magnoliopsida; Vitis vinifera L.; Eucalyptus L'Hér.; Pinus pinaster Aiton; Quercus L.
2001,2001-08-31,Aveiro,Santa Maria da Feira,Souto,Cabomonte,40.888651,-8.5511666,NC,136.0,2001-08-31T14:00,25.1,52,14.5,26.1,0.0,0.0,0.0,0.0,0,1016.6,1000.9,0,0,0,0,0.55,1.54,13.3,16.3,327,329,27.7,29.4,22.0,21.2,19.2,0.15,0.112,0.155,0.295,1,3600.0,786.7,664.9,121.8,838.5,786.7,1064.7,814.0,688.0,126.0,838.5,814.0,1101.7,Pinales; Magnoliopsida; Eucalyptus L'Hér.; Pinus pinaster Aiton; Tracheophyta
2001,2001-09-13,Braga,Barcelos,Manhente,L.Monte Gandra,41.5488425,-8.5741406,NC,52.0,2001-09-13T02:00,15.3,97,14.8,16.1,0.0,0.0,0.0,0.0,2,1019.6,1013.3,50,41,0,45,0.0,0.05,5.5,7.8,302,304,10.1,17.0,22.2,22.0,19.7,0.103,0.156,0.222,0.333,0,0.0,0.0,0.0,0.0,0.0,0.0,0.0,0.0,0.0,0.0,0.0,0.0,0.0,Tracheophyta; Pinus pinaster Aiton; Eucalyptus L'Hér.
2001,2001-09-01,Aveiro,Espinho,Paramos,R. da Estrada,40.9817016,-8.634018,NC,18.0,2001-09-01T20:00,24.7,61,16.6,24.4,0.0,0.0,0.0,0.0,0,1011.7,1009.6,0,0,0,0,0.1,1.22,17.6,30.9,359,7,29.9,25.6,24.3,22.1,20.1,0.134,0.126,0.185,0.313,0,0.0,0.0,0.0,0.0,0.0,0.0,0.0,0.0,0.0,0.0,0.0,0.0,0.0,Tracheophyta; Eucalyptus L'Hér.; Acacia Mill.
2001,2001-09-02,Aveiro,Espinho,Paramos,R.Adganha,40.9759416,-8.6385737,NC,4.0,2001-09-02T14:00,31.1,34,13.4,32.5,0.0,0.0,0.0,0.0,0,1011.4,1010.9,0,0,0,0,0.63,2.97,8.5,7.8,332,347,18.4,34.1,24.3,22.2,20.2,0.124,0.125,0.185,0.312,1,3600.0,788.1,688.6,99.5,877.6,788.1,1054.5,816.0,713.0,103.0,877.6,816.0,1091.9,Tracheophyta; Magnoliopsida
2001,2001-09-04,Aveiro,Espinho,Anta,R.Do RequeijÆo,41.007855,-8.6187792,NC,39.0,2001-09-04T22:00,25.2,70,19.3,28.4,0.0,0.0,0.0,0.0,0,1015.0,1010.5,0,0,0,0,0.0,0.97,2.2,5.1,351,45,11.5,24.3,25.7,22.3,20.1,0.106,0.123,0.182,0.311,0,0.0,0.0,0.0,0.0,0.0,0.0,0.0,0.0,0.0,0.0,0.0,0.0,0.0,Eucalyptus L'Hér.; Tracheophyta; Pinus pinaster Aiton; Magnoliopsida
2001,2001-09-11,Porto,Marco de Canaveses,Vila Boa de Quires,Torre Nevoes,41.200721,-8.203458,NC,308.0,2001-09-11T00:00,19.9,71,14.4,20.6,0.0,0.0,0.0,0.0,0,1015.0,979.3,0,0,0,0,0.01,0.68,4.6,5.4,141,176,9.0,18.5,22.2,20.4,18.4,0.12,0.184,0.229,0.335,0,0.0,0.0,0.0,0.0,0.0,0.0,0.0,0.0,0.0,0.0,0.0,0.0,0.0,Pinus pinaster Aiton; Tracheophyta; Eucalyptus L'Hér.; Magnoliopsida; Vitis vinifera L.; Quercus L.; Pinales; 
2001,2001-09-15,Aveiro,Santa Maria da Feira,Souto,Badoucos,40.888651,-8.5511666,NC,136.0,2001-09-15T22:00,22.8,43,9.6,21.2,0.0,0.0,0.0,0.0,0,1015.5,999.7,0,0,0,0,0.08,1.57,10.3,18.5,61,57,20.5,23.0,23.6,22.0,19.8,0.1,0.108,0.144,0.288,0,0.0,0.0,0.0,0.0,0.0,0.0,0.0,0.0,0.0,0.0,0.0,0.0,0.0,Pinales; Magnoliopsida; Eucalyptus L'Hér.; Pinus pinaster Aiton; Tracheophyta
2001,2001-09-06,Aveiro,Oliveira de Azeméis,Carregosa,Secada,40.8832957,-8.4150805,NC,340.0,2001-09-06T00:00,18.3,83,15.4,19.4,0.0,0.0,0.0,0.0,0,1016.0,976.4,18,0,15,30,0.0,0.35,4.6,4.6,198,225,9.0,20.4,23.6,21.1,18.8,0.124,0.161,0.22,0.333,0,0.0,0.0,0.0,0.0,0.0,0.0,0.0,0.0,0.0,0.0,0.0,0.0,0.0,Eucalyptus L'Hér.; Tracheophyta; Magnoliopsida; Pinus pinaster Aiton
2001,2001-09-09,Aveiro,Espinho,Silvalde,Bicha de 7 Cabe+as,40.9903511,-8.6407154,NC,8.0,2001-09-09T11:00,29.7,31,10.8,30.6,0.0,0.0,0.0,0.0,0,1015.7,1014.8,0,0,0,0,0.5,2.87,2.4,2.3,243,162,14.4,30.5,24.3,23.0,20.5,0.093,0.121,0.179,0.309,1,3600.0,757.3,655.1,102.3,871.7,757.3,1013.5,711.0,615.0,96.0,871.7,711.0,951.5,Tracheophyta
2001,2001-09-09,Braga,Celorico de Basto,Basto (Santa Tecla),Lameirinha,41.3843205,-8.0486122,NC,317.0,2001-09-09T09:00,21.6,50,10.6,19.9,0.0,0.0,0.0,0.0,0,1016.9,980.3,0,0,0,0,0.28,1.3,13.3,18.7,90,90,30.6,20.7,20.3,20.7,18.7,0.111,0.177,0.228,0.336,1,3600.0,479.6,391.5,88.1,759.6,479.6,695.1,403.0,329.0,74.0,759.6,403.0,584.1,Pinus pinaster Aiton; Olea europaea L.; Magnoliopsida; Tracheophyta; Vitis vinifera L.
2001,2001-09-05,Aveiro,Espinho,Anta,Rua da Lagarta,41.0141179,-8.6156916,NC,59.0,2001-09-05T23:00,20.2,80,16.7,21.4,0.0,0.0,0.0,0.0,0,1016.2,1009.2,20,8,8,26,0.01,0.47,7.5,9.5,215,209,11.2,22.6,25.6,22.4,20.0,0.101,0.123,0.182,0.311,0,0.0,0.0,0.0,0.0,0.0,0.0,0.0,0.0,0.0,0.0,0.0,0.0,0.0,Eucalyptus L'Hér.; Pinus pinaster Aiton; Tracheophyta; Magnoliopsida
2001,2001-09-14,Aveiro,Arouca,Escariz,Albite,40.9403552,-8.4032105,NC,484.0,2001-09-14T11:00,21.2,56,12.2,21.5,0.0,0.0,0.0,0.0,0,1015.9,960.7,7,8,0,0,0.42,1.1,8.6,10.8,360,4,28.1,24.0,20.3,20.9,18.7,0.107,0.162,0.219,0.332,1,3600.0,727.6,614.6,112.9,835.3,727.6,995.0,683.0,577.0,106.0,835.3,683.0,934.0,Eucalyptus L'Hér.; Pinus pinaster Aiton; Magnoliopsida
2001,2001-09-10,Porto,Paços de Ferreira,Penamaior,Ermida,41.28425415,-8.41167479537962,NC,370.0,2001-09-10T14:00,28.4,31,9.9,29.4,0.0,0.0,0.0,0.0,0,1013.9,972.4,0,0,0,0,0.57,2.66,4.1,4.5,195,194,20.5,30.9,21.7,20.2,18.1,0.099,0.168,0.228,0.336,1,3600.0,770.6,674.4,96.2,903.3,770.6,1007.5,801.0,701.0,100.0,903.3,801.0,1047.2,Magnoliopsida; Eucalyptus L'Hér.; Tracheophyta; Vitis vinifera L.; 
2001,2001-09-16,Aveiro,Arouca,Escariz,Alvite de Baixo,40.9369182,-8.4084352,NC,459.0,2001-09-16T12:00,28.1,28,8.0,27.5,0.0,0.0,0.0,0.0,0,1017.6,966.2,0,0,0,0,0.59,2.73,10.1,13.0,88,88,33.5,28.8,21.2,20.5,18.5,0.1,0.149,0.211,0.327,1,3600.0,807.4,706.7,100.7,908.8,807.4,1052.7,786.0,688.0,98.0,908.8,786.0,1024.9,Magnoliopsida; Castanea sativa Mill.; Eucalyptus L'Hér.; Pinus pinaster Aiton
2001,2001-09-14,Braga,Póvoa de Lanhoso,Geraz do Minho,Cruzeiro,41.5973188,-8.2976453,NC,142.0,2001-09-14T22:00,17.1,61,9.4,15.4,0.0,0.0,0.0,0.0,0,1013.4,996.6,0,0,0,0,0.05,0.77,10.6,20.6,10,16,24.1,19.4,22.3,21.3,19.2,0.101,0.161,0.223,0.334,0,0.0,0.0,0.0,0.0,0.0,0.0,0.0,0.0,0.0,0.0,0.0,0.0,0.0,Tracheophyta; Vitis vinifera L.; Magnoliopsida
2001,2001-09-12,Porto,Santo Tirso,Negrelos (são Mamede),Lg.Torre,41.3488993,-8.403043,NC,145.0,2001-09-12T14:00,24.6,58,15.7,26.0,0.0,0.0,0.0,0.0,0,1018.9,1002.1,10,0,0,35,0.49,1.3,11.4,13.2,281,281,23.8,29.1,22.3,21.5,19.2,0.123,0.153,0.21,0.336,1,3600.0,712.5,569.3,143.3,771.6,712.5,996.7,741.0,592.0,149.0,771.6,741.0,1036.5,Magnoliopsida; Tracheophyta; Vitis vinifera L.; Quercus suber L.
2001,2001-09-12,Porto,Vila do Conde,Vila Chã,Rua Igreja,41.2971888,-8.7247765,NC,21.0,2001-09-12T21:00,17.4,88,15.4,18.1,0.0,0.0,0.0,0.0,1,1020.5,1018.0,28,2,0,87,0.0,0.24,7.9,12.1,330,333,17.6,20.9,23.4,22.4,20.0,0.092,0.153,0.227,0.334,0,0.0,0.0,0.0,0.0,0.0,0.0,0.0,0.0,0.0,0.0,0.0,0.0,0.0,Eucalyptus L'Hér.; Magnoliopsida; Vitis vinifera L.; Pinus pinaster Aiton; Tracheophyta; 
2001,2001-09-10,Porto,Gondomar,São Pedro da Cova,Rua Salgueirinhos,41.1473685,-8.5074154,NC,78.0,2001-09-10T13:00,29.4,36,12.7,31.8,0.0,0.0,0.0,0.0,0,1013.8,1004.9,0,0,0,0,0.59,2.63,2.1,2.6,211,196,14.8,32.2,23.8,22.4,20.0,0.125,0.146,0.202,0.338,1,3600.0,824.0,722.5,101.5,904.0,824.0,1078.5,828.0,726.0,102.0,904.0,828.0,1083.7,Magnoliopsida; Eucalyptus L'Hér.; Tracheophyta; Vitis vinifera L.; Pinus pinaster Aiton
2001,2001-06-20,Porto,Maia,Águas Santas,L.Alto da,41.206992,-8.5670816,NC,138.0,2001-06-20T20:00,23.0,62,15.4,23.5,0.0,0.0,0.0,0.0,0,1015.2,999.2,0,0,0,0,0.07,1.07,8.7,16.0,322,337,16.6,24.8,23.3,18.1,15.0,0.167,0.224,0.306,0.382,1,2366.19,8.5,4.9,3.6,55.8,6.5,18.5,61.0,35.0,26.0,268.1,61.0,133.2,Tracheophyta; Pinus pinaster Aiton; Magnoliopsida; Eucalyptus L'Hér.; 
2001,2001-08-30,Aveiro,Arouca,Mansores,Borralheiro,40.9225623,-8.3644626,NC,332.0,2001-08-30T00:00,17.0,95,16.2,18.9,0.0,0.0,0.0,0.0,2,1018.9,980.0,61,66,3,0,0.0,0.1,1.9,2.7,338,337,7.6,18.3,21.0,20.9,18.6,0.252,0.168,0.225,0.337,0,0.0,0.0,0.0,0.0,0.0,0.0,0.0,0.0,0.0,0.0,0.0,0.0,0.0,Tracheophyta; Eucalyptus L'Hér.; Pinus pinaster Aiton; Magnoliopsida; Vitis vinifera L.
2001,2001-09-13,Braga,Guimarães,Nespereira,Pedra¡do,41.4064131,-8.3241317,NC,180.0,2001-09-13T16:00,25.3,47,13.1,24.1,0.0,0.0,0.0,0.0,0,1017.3,996.6,0,0,0,0,0.41,1.71,15.3,20.1,311,316,36.0,29.2,22.4,21.2,19.0,0.102,0.158,0.222,0.333,1,3600.0,485.3,407.6,77.7,822.1,485.3,670.2,556.0,467.0,89.0,822.1,556.0,767.8,Eucalyptus L'Hér.; Tracheophyta; Magnoliopsida; Pinus pinaster Aiton
2001,2001-09-13,Braga,Fafe,Silvares (são Martinho),L. Escola Nova,41.4080084,-8.154829,NC,465.0,2001-09-13T19:00,20.5,61,12.8,20.1,0.0,0.0,0.0,0.0,0,1017.2,963.9,4,0,0,13,0.06,0.93,8.3,12.0,268,277,21.6,23.9,22.4,20.3,18.1,0.1,0.156,0.216,0.33,0,709.9,0.0,0.0,0.0,0.0,0.0,0.0,26.0,14.0,12.0,135.6,26.0,80.6,Tracheophyta; Pinales; Magnoliopsida; Eucalyptus L'Hér.; Pinus pinaster Aiton
2001,2001-09-14,Porto,Baião,Gestaçô,AnquiÆo,41.1677523,-7.9285981,NC,618.0,2001-09-14T14:00,22.9,46,10.6,23.4,0.0,0.0,0.0,0.0,0,1013.8,944.5,17,1,0,53,0.51,1.51,7.3,8.8,349,348,24.8,27.1,20.1,19.4,17.6,0.129,0.171,0.212,0.333,1,3600.0,743.8,648.8,95.0,890.4,743.8,985.3,775.0,676.0,99.0,890.4,775.0,1026.6,Pinus pinaster Aiton; Magnoliopsida; Eucalyptus L'Hér.; Tracheophyta; Vitis vinifera L.; Quercus L.; 
2001,2001-09-14,Aveiro,Oliveira de Azeméis,Carregosa,Cardeal,40.8832957,-8.4150805,NC,340.0,2001-09-14T16:00,22.7,52,12.3,21.7,0.0,0.0,0.0,0.0,0,1013.0,974.1,14,0,0,47,0.36,1.33,11.2,14.3,318,321,27.4,27.7,22.0,21.4,19.2,0.101,0.15,0.213,0.328,1,3600.0,476.7,400.0,76.7,808.9,476.7,668.8,547.0,459.0,88.0,808.9,547.0,767.4,Eucalyptus L'Hér.; Tracheophyta; Magnoliopsida; Pinus pinaster Aiton
2001,2001-09-09,Braga,Celorico de Basto,Caçarilhe,Vizo,41.4202726,-8.0260463,NC,640.0,2001-09-09T12:00,24.9,36,8.9,25.1,0.0,0.0,0.0,0.0,0,1016.9,945.4,3,0,0,10,0.56,2.0,7.2,9.3,108,106,25.9,26.4,19.8,19.7,17.7,0.139,0.168,0.208,0.333,1,3600.0,831.4,729.8,101.6,911.8,831.4,1079.5,810.0,711.0,99.0,911.8,810.0,1051.7,Magnoliopsida; Pinus pinaster Aiton; Tracheophyta
2001,2001-04-12,Porto,Vila Nova de Gaia,Canidelo,R.Xieiras,41.1241881,-8.6485236,NC,52.0,2001-04-12T15:00,20.4,44,7.8,19.0,0.0,0.0,0.0,0.0,1,1022.7,1016.5,30,0,0,100,0.47,1.34,14.1,17.5,6,14,24.5,20.5,15.9,13.9,12.7,0.334,0.355,0.382,0.417,1,3600.0,720.3,580.3,140.0,826.6,720.3,956.1,772.0,622.0,150.0,826.6,772.0,1024.7,Magnoliopsida; Tracheophyta
2001,2001-09-13,Braga,Braga,Gualtar,L.Pinheiro,41.5660491,-8.3881311,NC,215.0,2001-09-13T21:00,17.1,76,12.9,16.8,0.0,0.0,0.0,0.0,1,1017.6,992.2,29,0,0,98,0.01,0.46,8.2,16.5,322,337,20.2,20.2,22.3,20.9,18.7,0.102,0.163,0.224,0.334,0,0.0,0.0,0.0,0.0,0.0,0.0,0.0,0.0,0.0,0.0,0.0,0.0,0.0,Tracheophyta; Magnoliopsida; Vitis vinifera L.; Pinales
2001,2001-09-05,Aveiro,Oliveira de Azeméis,Cesar,PizÇo,40.9123659,-8.4330609,NC,343.0,2001-09-05T07:00,18.8,70,13.3,17.7,0.0,0.0,0.0,0.0,0,1016.6,976.7,12,1,17,3,0.06,0.64,14.5,27.5,96,96,33.8,19.1,22.3,21.0,18.8,0.132,0.162,0.221,0.334,1,1729.96,89.8,50.4,39.4,301.9,57.1,224.6,41.0,23.0,18.0,191.9,41.0,102.5,Tracheophyta; Pinus pinaster Aiton; Magnoliopsida
2001,2001-09-09,Braga,Guimarães,Azurém,S.Pedro,41.456796350000005,-8.294124540657862,NC,252.0,2001-09-09T13:00,29.7,28,9.4,30.3,0.0,0.0,0.0,0.0,0,1015.6,987.2,5,0,0,16,0.62,3.0,6.6,7.7,135,131,22.7,30.9,22.3,21.0,18.9,0.104,0.164,0.224,0.335,1,3600.0,833.7,733.3,100.5,916.6,833.7,1078.9,838.0,737.0,101.0,916.6,838.0,1084.4,Magnoliopsida; Vitis vinifera L.; Tracheophyta; Eucalyptus L'Hér.; Pinales
2001,2001-06-20,Porto,Paços de Ferreira,Lamoso,Cavaleiro,41.3216738,-8.3533209,NC,374.0,2001-06-20T21:00,23.1,56,13.9,23.7,0.0,0.0,0.0,0.0,0,1015.9,973.2,0,0,0,0,0.02,1.23,4.1,6.0,285,327,12.2,22.4,22.0,16.7,13.4,0.124,0.22,0.31,0.384,0,0.0,0.0,0.0,0.0,0.0,0.0,0.0,0.0,0.0,0.0,0.0,0.0,0.0,Magnoliopsida; Eucalyptus L'Hér.; Pinus pinaster Aiton; Tracheophyta; Quercus suber L.; 
2001,2001-09-09,Aveiro,Santa Maria da Feira,Argoncilhe,S. Domingos,41.0166662,-8.5510492,NC,213.0,2001-09-09T18:00,27.0,39,11.7,26.1,0.0,0.0,0.0,0.0,0,1013.8,989.6,0,0,0,0,0.2,2.19,9.4,15.0,310,316,23.8,29.8,25.1,21.9,19.4,0.111,0.143,0.203,0.33,1,3600.0,128.8,94.4,34.4,590.9,128.8,215.6,206.0,151.0,55.0,590.9,206.0,344.7,Eucalyptus L'Hér.; Magnoliopsida; Tracheophyta; Quercus L.
2001,2001-09-02,Aveiro,Arouca,Cabreiros,Choveiros,40.8574379,-8.1883994,NC,736.0,2001-09-02T15:00,26.3,40,11.6,27.5,0.0,0.0,0.0,0.0,0,1012.8,931.9,0,0,0,0,0.5,2.06,3.4,4.4,72,81,20.2,27.1,20.2,19.1,17.1,0.184,0.197,0.225,0.335,1,3600.0,680.7,587.7,93.0,855.4,680.7,923.5,732.0,632.0,100.0,855.4,732.0,993.0,Pinus pinaster Aiton; Tracheophyta; Quercus L.; Magnoliopsida; Castanea sativa Mill.; Eucalyptus L'Hér.
2001,2001-09-12,Porto,Marco de Canaveses,Vila Boa de Quires,Roubom,41.200721,-8.203458,NC,308.0,2001-09-12T14:00,25.2,56,15.9,27.0,0.0,0.0,0.0,0.0,0,1018.6,983.4,14,0,0,45,0.51,1.4,9.3,10.8,283,285,24.8,29.1,21.6,20.5,18.5,0.116,0.18,0.228,0.334,1,3600.0,732.5,611.3,121.1,827.9,732.5,997.5,762.0,636.0,126.0,827.9,762.0,1037.7,Pinus pinaster Aiton; Tracheophyta; Eucalyptus L'Hér.; Magnoliopsida; Vitis vinifera L.; Quercus L.; Pinales; 
2001,2001-09-13,Porto,Amarante,Telões,Todeia,41.3096543,-8.1007731,NC,242.0,2001-09-13T08:00,16.0,92,14.7,17.1,0.0,0.0,0.0,0.0,3,1019.8,991.1,81,90,0,0,0.07,0.15,3.4,4.4,122,125,12.6,18.1,20.5,20.9,18.9,0.116,0.179,0.228,0.334,1,3600.0,191.7,82.0,109.8,246.3,191.7,449.8,138.0,59.0,79.0,246.3,138.0,323.7,Magnoliopsida; Pinus pinaster Aiton; Tracheophyta; Vitis vinifera L.; Eucalyptus L'Hér.; 
2001,2001-09-10,Porto,Baião,Ancede,Vale,41.1046709,-8.0614156,NC,328.0,2001-09-10T17:00,28.0,36,11.5,27.1,0.0,0.0,0.0,0.0,0,1013.0,976.1,0,0,0,0,0.31,2.42,8.8,11.3,305,307,18.4,29.9,22.9,20.7,18.8,0.109,0.18,0.226,0.334,1,3600.0,299.5,225.4,74.1,661.1,299.5,460.2,376.0,283.0,93.0,661.1,376.0,577.7,Magnoliopsida; Pinus pinaster Aiton; Tracheophyta; Vitis vinifera L.; Quercus suber L.; Acacia Mill.; Eucalyptus L'Hér.; Quercus L.; 
2001,2001-09-13,Aveiro,Santa Maria da Feira,Argoncilhe,S. Domingos,41.0166662,-8.5510492,NC,213.0,2001-09-13T19:00,18.6,74,13.9,18.0,0.0,0.0,0.0,0.0,0,1017.7,992.7,1,0,0,3,0.05,0.55,12.6,20.7,323,329,31.0,23.5,23.3,22.0,19.5,0.109,0.141,0.2,0.328,0,822.65,0.0,0.0,0.0,0.0,0.0,0.0,28.0,15.0,13.0,142.3,28.0,83.6,Eucalyptus L'Hér.; Magnoliopsida; Tracheophyta; Quercus L.
2001,2001-09-05,Aveiro,Oliveira de Azeméis,Cesar,AlhÇes,40.9123659,-8.4330609,NC,343.0,2001-09-05T14:00,28.8,41,14.1,30.4,0.0,0.0,0.0,0.0,0,1015.8,977.3,7,0,12,0,0.54,2.34,5.4,6.9,94,99,25.2,31.7,23.4,21.0,18.8,0.127,0.161,0.22,0.334,1,3600.0,706.9,582.5,124.4,754.1,706.9,1039.7,733.0,604.0,129.0,754.1,733.0,1078.2,Tracheophyta; Pinus pinaster Aiton; Magnoliopsida
2001,2001-09-14,Porto,Santo Tirso,Burgães,Abelha,41.3376189,-8.4511198,NC,208.0,2001-09-14T22:00,17.7,61,10.1,16.2,0.0,0.0,0.0,0.0,0,1013.4,989.0,0,0,0,0,0.04,0.78,10.6,20.6,10,16,24.1,19.7,22.0,21.2,19.1,0.124,0.147,0.204,0.335,0,0.0,0.0,0.0,0.0,0.0,0.0,0.0,0.0,0.0,0.0,0.0,0.0,0.0,Eucalyptus L'Hér.; Magnoliopsida; Tracheophyta; Pinus pinaster Aiton; Vitis vinifera L.
2001,2001-09-09,Braga,Celorico de Basto,Veade,Ribeira,41.4145252,-7.978189,NC,163.0,2001-09-09T13:00,29.1,33,11.4,30.6,0.0,0.0,0.0,0.0,0,1015.4,996.9,9,0,0,31,0.61,2.69,5.7,6.8,108,108,23.4,30.8,22.3,21.7,19.7,0.109,0.176,0.227,0.335,1,3600.0,833.5,730.1,103.4,912.9,833.5,1078.6,838.0,734.0,104.0,912.9,838.0,1084.4,Magnoliopsida; Pinus pinaster Aiton; Tracheophyta; Vitis vinifera L.; Olea europaea L.
2001,2001-09-11,Aveiro,Oliveira de Azeméis,Fajões,S. Marcos,40.9173379,-8.4234658,NC,350.0,2001-09-11T06:00,15.1,91,13.7,16.1,0.0,0.0,0.0,0.0,0,1015.0,973.9,12,13,0,0,0.0,0.15,1.5,1.3,14,34,10.4,16.7,22.2,21.4,19.0,0.103,0.153,0.215,0.33,0,0.0,0.0,0.0,0.0,0.0,0.0,0.0,0.0,0.0,0.0,0.0,0.0,0.0,Tracheophyta; Pinus pinaster Aiton; Magnoliopsida
2001,2001-09-11,Aveiro,Oliveira de Azeméis,Cesar,Alhåes,40.9123659,-8.4330609,NC,343.0,2001-09-11T14:00,25.8,49,14.3,27.5,0.0,0.0,0.0,0.0,0,1015.5,976.6,0,0,0,0,0.54,1.69,8.0,9.1,278,277,21.6,31.2,23.0,21.5,19.0,0.103,0.153,0.214,0.33,1,3600.0,761.0,663.8,97.2,888.4,761.0,1008.8,791.0,690.0,101.0,888.4,791.0,1048.6,Tracheophyta; Pinus pinaster Aiton; Magnoliopsida
2001,2001-09-12,Porto,Valongo,Sobrado,Est. AlemÇes,41.2115102,-8.4652622,NC,127.0,2001-09-12T20:00,18.0,85,15.5,18.7,0.0,0.0,0.0,0.0,1,1020.3,1005.2,21,3,0,60,0.0,0.3,7.9,11.2,317,315,21.2,22.2,23.5,22.0,19.7,0.109,0.15,0.211,0.334,0,0.0,0.0,0.0,0.0,0.0,0.0,0.0,0.0,0.0,0.0,0.0,0.0,0.0,Tracheophyta; Eucalyptus L'Hér.; Magnoliopsida; Pinus pinaster Aiton
2001,2001-09-12,Aveiro,Oliveira de Azeméis,Cesar,PisÇo,40.9123659,-8.4330609,NC,343.0,2001-09-12T17:00,21.7,69,15.8,21.8,0.0,0.0,0.0,0.0,1,1019.1,979.5,28,3,0,86,0.22,0.81,12.5,16.1,288,290,30.6,27.7,23.2,21.5,19.1,0.102,0.152,0.214,0.329,1,3600.0,274.2,189.4,84.8,567.2,274.2,451.2,346.0,239.0,107.0,567.2,346.0,569.3,Tracheophyta; Pinus pinaster Aiton; Magnoliopsida
2001,2001-09-14,Porto,Santo Tirso,Monte Córdova,Redondo,41.3164414,-8.4320306,NC,357.0,2001-09-14T16:00,22.9,46,10.8,21.7,0.0,0.0,0.0,0.0,0,1013.0,972.3,13,0,0,42,0.37,1.5,9.8,12.6,332,336,25.6,27.6,21.3,20.4,18.3,0.096,0.158,0.224,0.334,1,3600.0,477.5,402.6,74.9,819.4,477.5,664.5,548.0,462.0,86.0,819.4,548.0,762.5,Tracheophyta; Vitis vinifera L.; Eucalyptus L'Hér.; Pinus pinaster Aiton; Magnoliopsida
2001,2001-09-10,Aveiro,Santa Maria da Feira,Canedo,Mota,40.9987389,-8.4547093,NC,149.0,2001-09-10T11:00,27.0,40,12.2,27.9,0.0,0.0,0.0,0.0,0,1014.8,997.8,0,0,0,0,0.49,2.13,5.0,6.6,120,119,22.3,29.0,23.3,22.2,19.7,0.112,0.123,0.166,0.307,1,3600.0,751.9,649.6,102.2,867.7,751.9,1010.3,706.0,610.0,96.0,867.7,706.0,948.7,Eucalyptus L'Hér.; Tracheophyta; Pinus pinaster Aiton; Magnoliopsida
2001,2001-09-13,Porto,Amarante,Freixo de Baixo,Sobreiros,41.2978828,-8.1112885,NC,271.0,2001-09-13T17:00,23.6,53,13.6,23.1,0.0,0.0,0.0,0.0,0,1017.1,986.0,0,0,0,0,0.27,1.36,11.9,15.7,299,302,30.2,27.3,22.4,20.7,18.7,0.114,0.178,0.227,0.334,1,3600.0,296.1,237.1,59.1,733.1,296.1,437.1,376.0,301.0,75.0,733.1,376.0,555.0,Pinus pinaster Aiton; Tracheophyta; Eucalyptus L'Hér.; Magnoliopsida; Vitis vinifera L.
2001,2001-09-14,Braga,Cabeceiras de Basto,Gondiães,Torneiro,41.5631969,-7.8285425,NC,476.0,2001-09-14T14:00,23.9,44,11.0,24.7,0.0,0.0,0.0,0.0,0,1013.9,960.2,16,2,0,48,0.52,1.65,6.1,7.4,315,321,22.3,29.1,21.3,20.5,18.6,0.106,0.165,0.221,0.331,1,3600.0,750.4,660.2,90.2,911.7,750.4,979.3,782.0,688.0,94.0,911.7,782.0,1020.5,Tracheophyta; Magnoliopsida; Quercus L.; Pinus pinaster Aiton; Eucalyptus L'Hér.
2001,2001-09-14,Braga,Guimarães,Figueiredo,Monte Oliveiras,41.4702113,-8.3826254,NC,228.0,2001-09-14T16:00,24.2,43,10.8,22.1,0.0,0.0,0.0,0.0,0,1013.3,987.2,13,0,0,43,0.41,1.73,16.4,21.8,334,338,34.9,28.3,21.8,20.9,18.8,0.101,0.157,0.221,0.333,1,3600.0,477.6,399.2,78.4,813.5,477.6,663.6,548.0,458.0,90.0,813.5,548.0,761.4,Eucalyptus L'Hér.; Magnoliopsida; Pinus pinaster Aiton; Tracheophyta
2001,2001-06-20,Porto,Paços de Ferreira,Freamunde,Bou?a,41.2885918,-8.3401591,NC,357.0,2001-06-20T21:00,23.2,56,14.0,23.9,0.0,0.0,0.0,0.0,0,1015.9,975.1,0,0,0,0,0.02,1.24,4.1,6.0,285,327,12.2,22.5,22.1,16.8,13.5,0.124,0.22,0.31,0.384,0,0.0,0.0,0.0,0.0,0.0,0.0,0.0,0.0,0.0,0.0,0.0,0.0,0.0,Tracheophyta; Eucalyptus L'Hér.; Magnoliopsida; Pinus pinaster Aiton; 
2001,2001-09-16,Aveiro,Santa Maria da Feira,Canedo,Mota,40.9987389,-8.4547093,NC,149.0,2001-09-16T17:00,30.2,27,9.0,28.2,0.0,0.0,0.0,0.0,0,1015.6,998.7,0,0,0,0,0.36,3.16,12.4,16.7,338,341,22.3,32.7,24.6,22.0,20.0,0.107,0.12,0.162,0.303,1,3600.0,285.8,230.4,55.4,737.7,285.8,422.8,366.0,295.0,71.0,737.7,366.0,541.4,Eucalyptus L'Hér.; Tracheophyta; Pinus pinaster Aiton; Magnoliopsida
2001,2001-09-13,Aveiro,Espinho,Anta,R.Lagarta,41.007855,-8.6187792,NC,39.0,2001-09-13T15:00,24.1,56,14.9,23.3,0.0,0.0,0.0,0.0,0,1018.2,1013.6,2,2,0,0,0.46,1.32,21.8,26.4,326,328,38.9,31.5,23.7,22.9,20.4,0.09,0.12,0.176,0.307,1,3600.0,641.1,549.6,91.5,859.6,641.1,864.3,694.0,595.0,99.0,859.6,694.0,935.6,Eucalyptus L'Hér.; Tracheophyta; Pinus pinaster Aiton; Magnoliopsida
2001,2001-09-15,Porto,Vila do Conde,Vairão,R. Agra de Cima,41.32628365,-8.67446281139501,NC,89.0,2001-09-15T00:00,16.7,69,11.1,14.6,0.0,0.0,0.0,0.0,0,1013.8,1003.2,0,0,0,0,0.05,0.59,16.9,28.0,1,12,28.8,18.5,22.0,21.7,19.6,0.092,0.152,0.226,0.334,0,0.0,0.0,0.0,0.0,0.0,0.0,0.0,0.0,0.0,0.0,0.0,0.0,0.0,Eucalyptus L'Hér.; Tracheophyta; Magnoliopsida
2001,2001-09-10,Porto,Baião,Ancede,Esmoriz,41.1119029,-8.0623486,NC,299.0,2001-09-10T18:00,26.2,47,14.0,26.6,0.0,0.0,0.0,0.0,0,1013.2,979.3,0,0,0,0,0.16,1.81,6.5,12.6,304,307,18.4,28.3,23.4,20.9,18.9,0.112,0.178,0.225,0.335,1,3600.0,120.0,86.3,33.7,570.5,120.0,204.2,196.0,141.0,55.0,570.5,196.0,333.5,Magnoliopsida; Pinus pinaster Aiton; Tracheophyta; Vitis vinifera L.; Quercus suber L.; Acacia Mill.; Eucalyptus L'Hér.; Quercus L.; 
2001,2001-09-15,Porto,Santo Tirso,Santo Tirso,R. Barreiro,41.2621587,-8.4751906,NC,120.0,2001-09-15T11:00,24.6,36,8.7,22.2,0.0,0.0,0.0,0.0,0,1014.9,1001.0,0,0,0,0,0.51,1.97,18.8,25.0,83,84,40.3,24.8,21.1,21.7,19.7,0.124,0.147,0.204,0.334,1,3600.0,740.8,640.6,100.2,879.4,740.8,985.5,695.0,601.0,94.0,879.4,695.0,924.6,Eucalyptus L'Hér.; Tracheophyta; Quercus L.; Vitis vinifera L.
2001,2001-09-10,Aveiro,Oliveira de Azeméis,Ossela,VermoÖm,40.8282815,-8.4339702,NC,239.0,2001-09-10T19:00,23.2,61,15.1,23.9,0.0,0.0,0.0,0.0,0,1013.6,986.1,0,0,0,0,0.05,1.12,7.0,10.5,291,301,20.9,27.3,25.3,22.4,19.8,0.097,0.138,0.197,0.319,0,1442.77,0.0,0.0,0.0,0.0,0.0,0.0,36.0,20.0,16.0,176.4,36.0,94.1,Eucalyptus L'Hér.; Tracheophyta; Pinus pinaster Aiton; Magnoliopsida; Vitis vinifera L.
2001,2001-09-15,Aveiro,Santa Maria da Feira,Escapães,Meia Legua,40.9405364,-8.5082392,NC,295.0,2001-09-15T15:00,29.1,29,9.1,28.5,0.0,0.0,0.0,0.0,0,1013.4,980.3,4,0,0,13,0.52,2.88,8.0,10.2,63,72,23.0,31.4,21.8,21.2,19.1,0.108,0.14,0.199,0.327,1,3600.0,635.2,549.4,85.7,873.4,635.2,851.2,689.0,596.0,93.0,873.4,689.0,923.4,Eucalyptus L'Hér.; Tracheophyta; Pinus pinaster Aiton; Pinales; Magnoliopsida
2001,2001-08-31,Aveiro,Santa Maria da Feira,Sanfins,Regadas,40.9264836,-8.5254016,NC,169.0,2001-08-31T14:00,25.4,53,15.0,26.6,0.0,0.0,0.0,0.0,0,1016.6,997.2,0,0,0,0,0.55,1.53,13.3,16.3,327,329,27.7,28.3,21.9,21.3,19.3,0.192,0.151,0.213,0.336,1,3600.0,786.5,664.7,121.7,839.5,786.5,1063.2,814.0,688.0,126.0,839.5,814.0,1100.4,Tracheophyta; Magnoliopsida; Pinales; Pinus pinaster Aiton; Eucalyptus L'Hér.
2001,2001-06-21,Porto,Penafiel,Portela,Portela M,41.1077057,-8.2950347,NC,181.0,2001-06-21T15:00,33.2,31,13.7,33.6,0.0,0.0,0.0,0.0,0,1014.1,993.9,2,0,0,7,0.75,3.51,16.9,21.8,326,329,31.0,32.9,23.2,18.2,14.7,0.131,0.219,0.307,0.382,1,3600.0,828.7,713.3,115.4,870.4,828.7,1085.2,876.0,754.0,122.0,870.4,876.0,1147.2,Tracheophyta; Vitis vinifera L.; Magnoliopsida; Eucalyptus L'Hér.
2001,2001-09-07,Aveiro,Santa Maria da Feira,Mozelos,Rua da Ponte,40.9913456,-8.5806307,NC,129.0,2001-09-07T16:00,28.9,28,8.3,27.2,0.0,0.0,0.0,0.0,0,1017.4,1002.7,0,0,0,0,0.47,2.88,10.4,13.6,46,53,26.6,33.0,24.6,22.0,19.6,0.096,0.122,0.18,0.31,1,3600.0,518.9,440.5,78.4,831.3,518.9,714.0,589.0,500.0,89.0,831.3,589.0,810.5,Tracheophyta; Eucalyptus L'Hér.; Pinus pinaster Aiton
2001,2001-09-03,Aveiro,Vale de Cambra,São Pedro de Castelões,Barbeito,40.831214,-8.407265,NC,215.0,2001-09-03T10:00,27.4,45,14.5,28.2,0.0,0.0,0.0,0.0,0,1013.0,988.6,0,0,0,0,0.41,2.0,5.6,6.6,315,319,16.6,27.1,22.6,21.2,19.1,0.147,0.149,0.21,0.334,1,3600.0,634.2,525.4,108.9,779.5,634.2,906.2,571.0,473.0,98.0,779.5,571.0,815.8,Magnoliopsida; Tracheophyta; Eucalyptus L'Hér.
2001,2001-08-29,Aveiro,Arouca,São Miguel do Mato,Covelas,40.9682337,-8.4102865,NC,284.0,2001-08-29T22:00,17.1,94,16.2,18.8,0.0,0.0,0.0,0.0,2,1018.7,985.3,61,58,14,0,0.0,0.11,3.2,5.2,297,304,11.2,19.1,21.3,20.8,18.5,0.265,0.172,0.223,0.338,0,0.0,0.0,0.0,0.0,0.0,0.0,0.0,0.0,0.0,0.0,0.0,0.0,0.0,Eucalyptus L'Hér.; Pinus pinaster Aiton; Vitis vinifera L.; Magnoliopsida
2001,2001-09-02,Aveiro,Santa Maria da Feira,Nogueira da Regedoura,Pousadela,41.00339965,-8.577401228806508,NC,138.0,2001-09-02T05:00,19.2,45,6.9,15.7,0.0,0.0,0.0,0.0,0,1012.3,996.1,0,0,0,0,0.13,1.23,18.7,33.8,89,91,36.4,19.2,22.5,21.3,19.3,0.133,0.126,0.186,0.313,0,0.0,0.0,0.0,0.0,0.0,0.0,0.0,0.0,0.0,0.0,0.0,0.0,0.0,Tracheophyta; Eucalyptus L'Hér.; Magnoliopsida
2001,2001-09-10,Aveiro,Arouca,Urrô,Merujal,40.916294,-8.2904033,NC,275.0,2001-09-10T21:00,20.4,77,16.3,22.1,0.0,0.0,0.0,0.0,0,1014.1,982.3,0,0,0,0,0.0,0.55,3.2,2.6,207,254,9.7,22.9,24.2,21.4,19.0,0.108,0.155,0.212,0.331,0,0.0,0.0,0.0,0.0,0.0,0.0,0.0,0.0,0.0,0.0,0.0,0.0,0.0,Eucalyptus L'Hér.; Magnoliopsida; Vitis vinifera L.; Pinus pinaster Aiton
2001,2001-09-16,Aveiro,Espinho,Anta,R.Do Carvalhal,41.007855,-8.6187792,NC,39.0,2001-09-16T07:00,20.6,38,5.8,17.1,0.0,0.0,0.0,0.0,0,1015.7,1011.1,0,0,0,0,0.15,1.5,16.9,30.2,88,90,25.9,19.6,23.1,22.7,20.6,0.09,0.119,0.174,0.306,1,599.53,53.9,29.2,24.7,224.2,30.8,176.4,24.0,13.0,11.0,128.0,24.0,78.5,Eucalyptus L'Hér.; Tracheophyta; Pinus pinaster Aiton; Magnoliopsida
2001,2001-09-14,Braga,Esposende,Forjães,Ponte,41.6153545,-8.7515925,NC,19.0,2001-09-14T16:00,23.4,48,11.8,20.0,0.0,0.0,0.0,0.0,0,1013.8,1011.6,13,0,0,43,0.41,1.5,27.3,36.1,337,341,45.7,27.1,22.4,21.9,19.8,0.105,0.158,0.225,0.334,1,3600.0,476.5,396.2,80.3,804.1,476.5,666.4,546.0,454.0,92.0,804.1,546.0,763.6,Vitis vinifera L.; Eucalyptus L'Hér.; Pinus pinaster Aiton; Tracheophyta; Magnoliopsida
2001,2001-09-04,Aveiro,Santa Maria da Feira,São Paio de Oleiros,Rio Maior,40.9908653,-8.5940565,NC,104.0,2001-09-04T16:00,30.5,37,14.3,30.8,0.0,0.0,0.0,0.0,0,1014.2,1002.4,16,0,0,54,0.47,2.73,9.2,11.0,301,302,15.1,34.6,25.0,21.8,19.6,0.107,0.124,0.182,0.311,1,3600.0,525.3,441.3,84.0,811.0,525.3,732.1,594.0,499.0,95.0,811.0,594.0,827.8,Tracheophyta; Pinus pinaster Aiton; Eucalyptus L'Hér.; Magnoliopsida; Acacia Mill.
2001,2001-09-09,Braga,Guimarães,Azurém,S.Pedro,41.456796350000005,-8.294124540657862,NC,252.0,2001-09-09T14:00,30.3,27,9.0,31.0,0.0,0.0,0.0,0.0,0,1015.2,986.9,7,0,0,23,0.59,3.16,4.5,5.2,151,146,19.8,32.1,22.6,21.0,18.9,0.103,0.164,0.224,0.335,1,3600.0,774.8,675.7,99.1,901.3,774.8,1011.1,805.0,702.0,103.0,901.3,805.0,1050.5,Magnoliopsida; Vitis vinifera L.; Tracheophyta; Eucalyptus L'Hér.; Pinales
2001,2001-09-09,Aveiro,Castelo de Paiva,Real,Ponte Bateira,41.0338464,-8.2910799,NC,173.0,2001-09-09T14:00,30.7,29,10.5,32.6,0.0,0.0,0.0,0.0,0,1014.7,995.2,12,0,0,41,0.56,3.16,0.4,0.8,180,153,13.0,32.5,23.1,21.5,19.3,0.123,0.163,0.215,0.336,1,3600.0,771.1,665.2,105.9,882.3,771.1,1016.9,801.0,691.0,110.0,882.3,801.0,1056.3,Eucalyptus L'Hér.; Vitis vinifera L.; Pinus pinaster Aiton; Tracheophyta; Magnoliopsida
2001,2001-09-15,Porto,Baião,Teixeiró,Casal,41.186115,-7.8987273,NC,517.0,2001-09-15T22:00,18.3,45,6.1,15.9,0.0,0.0,0.0,0.0,0,1016.7,957.2,0,0,0,0,0.06,1.16,9.5,13.5,79,81,24.5,18.5,21.1,20.1,18.3,0.127,0.168,0.211,0.332,0,0.0,0.0,0.0,0.0,0.0,0.0,0.0,0.0,0.0,0.0,0.0,0.0,0.0,Magnoliopsida; Tracheophyta; Eucalyptus L'Hér.; Pinus pinaster Aiton; Vitis vinifera L.; Pinales; Quercus L.; 
2001,2001-09-16,Porto,Póvoa de Varzim,Balazar,Vela,41.4033425,-8.6246641,NC,55.0,2001-09-16T06:00,18.5,43,5.6,15.4,0.0,0.0,0.0,0.0,0,1016.0,1009.5,0,0,0,0,0.1,1.22,14.1,27.8,87,94,24.1,18.4,22.1,21.8,19.8,0.102,0.149,0.215,0.33,0,0.0,0.0,0.0,0.0,0.0,0.0,0.0,0.0,0.0,0.0,0.0,0.0,0.0,Pinus pinaster Aiton; Eucalyptus L'Hér.; Vitis vinifera L.
2001,2001-09-16,Porto,Vila do Conde,Outeiro Maior,R.Aldeia Nova,41.3789323,-8.6591193,NC,144.0,2001-09-16T13:00,29.0,27,8.2,29.3,0.0,0.0,0.0,0.0,0,1017.0,1000.6,0,0,0,0,0.59,2.92,5.9,5.9,11,43,20.5,30.7,22.2,21.2,19.2,0.095,0.147,0.216,0.328,1,3600.0,805.3,706.9,98.4,915.7,805.3,1045.0,810.0,711.0,99.0,915.7,810.0,1051.1,Eucalyptus L'Hér.; Tracheophyta
2001,2001-09-16,Porto,Vila do Conde,Vila Chã,Junto ¦Igreja,41.2948806,-8.729805776895741,NC,9.0,2001-09-16T18:00,27.3,39,12.1,26.2,0.0,0.0,0.0,0.0,0,1016.0,1015.0,0,0,0,0,0.2,2.21,11.6,20.9,330,333,23.4,29.7,24.7,22.2,20.2,0.091,0.15,0.224,0.333,1,3600.0,99.2,70.4,28.7,569.4,99.2,167.5,176.0,125.0,51.0,569.4,176.0,297.2,Eucalyptus L'Hér.; Magnoliopsida; Vitis vinifera L.; Pinus pinaster Aiton; Tracheophyta; 
2001,2001-09-14,Braga,Celorico de Basto,Rego,Arbon+a,41.4230912,-8.086542,NC,654.0,2001-09-14T17:00,22.0,44,9.2,20.5,0.0,0.0,0.0,0.0,0,1012.9,939.6,8,0,0,27,0.25,1.48,8.8,11.6,348,353,24.5,25.8,20.4,19.0,17.1,0.11,0.17,0.221,0.332,1,3600.0,286.5,228.6,57.9,726.5,286.5,425.5,366.0,292.0,74.0,726.5,366.0,543.6,Magnoliopsida; Pinus pinaster Aiton; Tracheophyta; Pinales
2001,2001-09-14,Braga,Barcelos,Cossourado,Monte,41.6967541,-8.2473483,NC,733.0,2001-09-14T17:00,20.8,46,8.7,18.2,0.0,0.0,0.0,0.0,0,1015.0,932.7,10,0,0,35,0.27,1.33,15.1,21.2,18,21,37.1,24.4,20.2,19.1,17.2,0.128,0.19,0.238,0.34,1,3600.0,289.4,233.7,55.7,740.3,289.4,427.0,369.0,298.0,71.0,740.3,369.0,544.4,Tracheophyta; Magnoliopsida; Pinales
2001,2001-09-12,Vila Real,Mondim de Basto,Vilar de Ferreiros,Vilar de Ferreiros,41.4084371,-7.903030292754042,NC,464.0,2001-09-12T15:00,26.3,45,13.5,27.0,0.0,0.0,0.0,0.0,1,1018.1,965.9,36,30,0,31,0.49,1.88,8.8,10.9,279,279,26.3,30.9,22.1,20.3,18.3,0.103,0.162,0.219,0.331,1,3600.0,631.3,534.4,96.9,840.0,631.3,859.4,684.0,579.0,105.0,840.0,684.0,931.2,Vitis vinifera L.; Pinales; Magnoliopsida; Eucalyptus L'Hér.; Pinus pinaster Aiton
2001,2001-09-15,Viseu,Cinfães,Souselo,Lg. Souto Roda,41.0697904,-8.231169,NC,187.0,2001-09-15T23:00,18.0,53,8.2,16.0,0.0,0.0,0.0,0.0,0,1015.4,993.4,0,0,0,0,0.06,0.98,10.2,19.7,72,69,20.5,19.3,22.3,21.3,19.5,0.105,0.166,0.223,0.332,0,0.0,0.0,0.0,0.0,0.0,0.0,0.0,0.0,0.0,0.0,0.0,0.0,0.0,Tracheophyta; Vitis vinifera L.; Magnoliopsida; Eucalyptus L'Hér.; Pinus pinaster Aiton
2001,2001-09-14,Braga,Barcelos,Paradela,L. Monte,41.4627197,-8.6804574,NC,38.0,2001-09-14T20:00,19.7,55,10.4,16.5,0.0,0.0,0.0,0.0,0,1013.6,1009.1,6,0,0,20,0.12,1.04,23.2,37.1,354,359,39.6,21.8,22.5,21.8,19.7,0.105,0.158,0.225,0.334,0,0.0,0.0,0.0,0.0,0.0,0.0,0.0,0.0,0.0,0.0,0.0,0.0,0.0,Eucalyptus L'Hér.; Pinus pinaster Aiton; Tracheophyta; Vitis vinifera L.
2001,2001-09-01,Aveiro,Santa Maria da Feira,Romariz,GoÖm,40.9427185,-8.4605098,NC,322.0,2001-09-01T13:00,27.5,42,13.3,28.6,0.0,0.0,0.0,0.0,0,1014.0,977.7,3,0,0,10,0.61,2.14,11.2,14.3,75,78,27.0,28.1,21.3,21.0,19.0,0.176,0.154,0.216,0.332,1,3600.0,844.3,736.7,107.7,881.7,844.3,1122.4,847.0,739.0,108.0,881.7,847.0,1126.0,Eucalyptus L'Hér.; Tracheophyta; Olea europaea L.; Pinales; Magnoliopsida
2001,2001-09-09,Braga,Guimarães,Moreira de Cónegos,seis pinheiros,41.3814913,-8.3361532,NC,171.0,2001-09-09T17:00,29.6,30,10.3,28.4,0.0,0.0,0.0,0.0,0,1013.6,994.3,0,0,0,0,0.33,2.89,8.2,10.5,308,311,21.2,31.0,23.9,21.2,19.0,0.107,0.164,0.225,0.335,1,3600.0,319.5,255.4,64.1,735.4,319.5,468.5,399.0,319.0,80.0,735.4,399.0,585.1,Eucalyptus L'Hér.; Magnoliopsida; Tracheophyta
2001,2001-09-16,Aveiro,Santa Maria da Feira,Romariz,Dus Igrejas,40.9427185,-8.4605098,NC,322.0,2001-09-16T16:00,30.9,25,8.3,28.9,0.0,0.0,0.0,0.0,0,1015.8,979.8,0,0,0,0,0.46,3.37,10.2,12.7,350,353,18.7,33.5,24.0,21.7,19.6,0.098,0.141,0.202,0.322,1,3600.0,473.5,400.5,73.0,827.8,473.5,655.0,545.0,461.0,84.0,827.8,545.0,753.9,Eucalyptus L'Hér.; Tracheophyta; Olea europaea L.; Pinales; Magnoliopsida
2001,2001-09-02,Aveiro,Santa Maria da Feira,São João de Ver,Lavandeira,40.943422,-8.537466741838003,NC,188.0,2001-09-02T15:00,30.6,34,12.9,32.0,0.0,0.0,0.0,0.0,0,1011.7,990.6,0,0,0,0,0.54,2.91,4.7,5.4,360,8,15.8,32.2,23.6,21.3,19.3,0.152,0.149,0.21,0.335,1,3600.0,681.5,588.4,93.1,853.2,681.5,926.9,732.0,632.0,100.0,853.2,732.0,995.6,Tracheophyta; Eucalyptus L'Hér.; Magnoliopsida; Pinus pinaster Aiton
2001,2001-09-15,Aveiro,Santa Maria da Feira,Espargo,Vila Areiinho,40.9242118,-8.5615281,NC,135.0,2001-09-15T16:00,30.3,27,9.2,28.8,0.0,0.0,0.0,0.0,0,1013.3,998.0,9,0,0,31,0.44,3.15,8.4,10.7,40,48,20.9,33.3,23.0,22.0,19.8,0.1,0.108,0.144,0.288,1,3600.0,476.3,402.3,74.0,820.3,476.3,663.5,547.0,462.0,85.0,820.3,547.0,762.1,Tracheophyta; Eucalyptus L'Hér.; Magnoliopsida
2001,2001-09-09,Braga,Cabeceiras de Basto,Rio Douro,Juguelhe,41.5565621,-7.984128259352389,NC,747.0,2001-09-09T18:00,25.2,38,9.8,24.9,0.0,0.0,0.0,0.0,0,1014.9,932.3,0,0,0,0,0.11,1.99,1.6,4.0,333,333,10.8,25.9,20.9,18.7,16.8,0.122,0.181,0.232,0.338,1,3600.0,120.2,87.7,32.5,581.3,120.2,203.4,196.0,143.0,53.0,581.3,196.0,331.8,Magnoliopsida; Pinus pinaster Aiton; Tracheophyta; Eucalyptus L'Hér.
2001,2001-09-16,Aveiro,Espinho,Anta,R.Do Carvalhal,41.007855,-8.6187792,NC,39.0,2001-09-16T13:00,31.7,24,8.9,31.5,0.0,0.0,0.0,0.0,0,1016.3,1011.9,0,0,0,0,0.64,3.53,9.5,9.1,335,353,18.0,34.5,24.0,22.7,20.6,0.09,0.119,0.174,0.306,1,3600.0,804.2,705.8,98.4,910.0,804.2,1050.0,809.0,710.0,99.0,910.0,809.0,1056.3,Eucalyptus L'Hér.; Tracheophyta; Pinus pinaster Aiton; Magnoliopsida
2001,2001-09-16,Aveiro,Castelo de Paiva,Pedorido,Povoa,41.0391345,-8.390774868553063,NC,146.0,2001-09-16T13:00,30.7,27,9.8,31.4,0.0,0.0,0.0,0.0,0,1016.8,1000.3,0,0,0,0,0.61,3.2,6.0,7.6,57,65,22.7,31.9,23.0,22.1,20.1,0.104,0.149,0.208,0.328,1,3600.0,806.0,707.6,98.4,912.5,806.0,1049.7,811.0,712.0,99.0,912.5,811.0,1056.3,Eucalyptus L'Hér.; Tracheophyta; Magnoliopsida
2001,2001-09-07,Aveiro,Espinho,Guetim,R. da Espinheira,41.0084406,-8.6215403,NC,37.0,2001-09-07T15:00,29.4,27,8.7,28.1,0.0,0.0,0.0,0.0,0,1017.6,1013.4,0,0,0,0,0.59,2.98,13.7,17.4,3,13,28.4,33.9,24.9,22.6,20.2,0.096,0.122,0.18,0.31,1,3600.0,677.4,588.3,89.1,881.7,677.4,899.0,730.0,634.0,96.0,881.7,730.0,968.9,Eucalyptus L'Hér.; Tracheophyta; Pinus pinaster Aiton; Magnoliopsida
2001,2001-09-11,Aveiro,Castelo de Paiva,Raiva,S.Domingos,41.0360466,-8.3443706,NC,132.0,2001-09-11T20:00,19.2,82,16.1,20.4,0.0,0.0,0.0,0.0,0,1017.6,1002.0,0,0,0,0,0.0,0.39,5.6,8.6,285,285,17.6,23.4,24.3,22.0,19.7,0.117,0.159,0.213,0.335,0,0.0,0.0,0.0,0.0,0.0,0.0,0.0,0.0,0.0,0.0,0.0,0.0,0.0,Eucalyptus L'Hér.; Magnoliopsida
2001,2001-09-14,Braga,Póvoa de Lanhoso,Covelas,Igreja,41.5928689,-8.3285824,NC,258.0,2001-09-14T20:00,19.1,53,9.4,17.4,0.0,0.0,0.0,0.0,0,1013.3,983.3,6,0,0,21,0.06,1.04,10.9,17.8,8,18,19.4,21.7,22.4,21.0,19.0,0.102,0.164,0.222,0.333,0,0.0,0.0,0.0,0.0,0.0,0.0,0.0,0.0,0.0,0.0,0.0,0.0,0.0,Pinus pinaster Aiton; Tracheophyta; Magnoliopsida; Eucalyptus L'Hér.
2001,2001-06-21,Porto,Gondomar,Jovim,R.Tronco,41.1069301,-8.5093383,NC,165.0,2001-06-21T05:00,19.0,74,14.2,19.4,0.0,0.0,0.0,0.0,0,1015.3,995.9,0,0,0,0,0.01,0.57,6.6,13.6,45,17,14.0,16.6,21.3,18.2,14.9,0.153,0.207,0.297,0.382,0,0.0,0.0,0.0,0.0,0.0,0.0,0.0,0.0,0.0,0.0,0.0,0.0,0.0,Eucalyptus L'Hér.; Vitis vinifera L.; Tracheophyta; Magnoliopsida
2001,2001-09-10,Porto,Santo Tirso,Areias,L.Freixieiro,41.361530900000005,-8.479439671087833,NC,103.0,2001-09-10T13:00,29.4,32,11.0,31.3,0.0,0.0,0.0,0.0,0,1013.8,1002.1,0,0,0,0,0.58,2.79,2.1,2.6,211,196,14.8,30.8,23.1,21.8,19.4,0.126,0.155,0.212,0.337,1,3600.0,824.1,722.5,101.5,906.5,824.1,1075.6,828.0,726.0,102.0,906.5,828.0,1080.8,Tracheophyta; Pinus pinaster Aiton
2001,2001-09-07,Aveiro,Vale de Cambra,São Pedro de Castelões,Sr¦ Saude,40.8321421,-8.392403,NC,202.0,2001-09-07T17:00,28.5,28,8.3,26.8,0.0,0.0,0.0,0.0,0,1017.1,994.1,0,0,0,0,0.34,2.79,8.6,11.3,22,31,24.8,30.5,24.3,21.8,19.4,0.117,0.145,0.205,0.332,1,3600.0,332.6,271.4,61.2,754.7,332.6,484.6,413.0,337.0,76.0,754.7,413.0,601.7,Tracheophyta; Magnoliopsida
2001,2001-09-16,Porto,Vila Nova de Gaia,Perosinho,R.Barrosa,41.060478,-8.5855985,NC,118.0,2001-09-16T03:00,19.6,48,8.1,17.2,0.0,0.0,0.0,0.0,0,1015.3,1001.4,0,0,0,0,0.09,1.2,13.1,26.3,82,89,25.9,19.7,22.6,21.7,19.7,0.118,0.147,0.215,0.34,0,0.0,0.0,0.0,0.0,0.0,0.0,0.0,0.0,0.0,0.0,0.0,0.0,0.0,Eucalyptus L'Hér.; Tracheophyta; Magnoliopsida
2001,2001-09-15,Porto,Gondomar,Baguim Do Monte (rio Tinto),Campidouro,41.18562705,-8.5415098,NC,122.0,2001-09-15T10:00,22.7,42,9.0,19.4,0.0,0.0,0.0,0.0,0,1014.9,1000.7,0,0,0,0,0.41,1.61,21.1,28.6,82,84,42.5,22.7,20.9,21.8,19.8,0.107,0.149,0.21,0.333,1,3600.0,618.8,522.7,96.1,827.3,618.8,854.8,554.0,468.0,86.0,827.3,554.0,765.3,Magnoliopsida; Tracheophyta
2001,2001-09-16,Porto,Vila Nova de Gaia,Pedroso,R.Cavadinhas,41.070392,-8.5535649,NC,135.0,2001-09-16T08:00,21.5,42,8.0,18.5,0.0,0.0,0.0,0.0,0,1017.1,1001.3,0,0,0,0,0.2,1.49,16.9,28.5,91,93,33.1,20.5,21.9,21.6,19.6,0.118,0.147,0.215,0.34,1,3600.0,254.7,183.9,70.7,575.3,254.7,432.7,180.0,130.0,50.0,575.3,180.0,305.9,Eucalyptus L'Hér.; Magnoliopsida; Tracheophyta
2001,2001-09-09,Braga,Vieira do Minho,Louredo,Cerqueira,41.6828008,-8.1228636,NC,368.0,2001-09-09T21:00,23.9,48,12.3,24.2,0.0,0.0,0.0,0.0,0,1014.2,972.3,0,0,0,0,0.01,1.54,2.8,4.3,40,355,7.9,22.4,23.3,20.8,18.7,0.116,0.176,0.227,0.336,0,0.0,0.0,0.0,0.0,0.0,0.0,0.0,0.0,0.0,0.0,0.0,0.0,0.0,Magnoliopsida; Quercus L.; Tracheophyta; Pinus pinaster Aiton
2001,2001-09-12,Aveiro,Santa Maria da Feira,Argoncilhe,R.Prof¦ Clotilde,41.0221818,-8.5514859,NC,237.0,2001-09-12T12:00,23.4,60,15.2,25.2,0.0,0.0,0.0,0.0,2,1019.7,992.3,57,48,0,47,0.43,1.15,4.3,4.5,294,299,18.0,27.9,22.2,21.9,19.3,0.109,0.142,0.201,0.329,1,3600.0,671.1,467.6,203.5,590.0,671.1,1070.5,653.0,455.0,198.0,590.0,653.0,1041.7,Eucalyptus L'Hér.; Tracheophyta; Magnoliopsida; Quercus L.
2001,2001-09-16,Aveiro,Santa Maria da Feira,Argoncilhe,SÇo Domingos,41.0183885,-8.5477254,NC,225.0,2001-09-16T14:00,30.9,24,7.8,30.9,0.0,0.0,0.0,0.0,0,1016.3,991.0,0,0,0,0,0.58,3.41,5.8,6.9,22,28,19.1,34.0,23.2,21.5,19.5,0.107,0.12,0.162,0.304,1,3600.0,747.8,654.7,93.1,905.3,747.8,979.1,779.0,682.0,97.0,905.3,779.0,1019.9,Eucalyptus L'Hér.; Magnoliopsida; Tracheophyta; Quercus L.
2001,2001-09-09,Aveiro,Arouca,Cabreiros,Cabreiros,40.85851875,-8.188550632734096,NC,723.0,2001-09-09T12:00,25.7,36,9.5,26.0,0.0,0.0,0.0,0.0,0,1016.7,936.6,7,0,0,23,0.56,2.11,7.2,9.4,87,90,27.4,26.8,19.9,19.5,17.5,0.117,0.176,0.22,0.331,1,3600.0,832.0,728.3,103.7,903.9,832.0,1086.6,810.0,709.0,101.0,903.9,810.0,1057.8,Pinus pinaster Aiton; Tracheophyta; Quercus L.; Magnoliopsida; Castanea sativa Mill.; Eucalyptus L'Hér.
2001,2001-09-09,Vila Real,Mondim de Basto,Vilar de Ferreiros,Vilar de Ferreiros,41.4084371,-7.903030292754042,NC,464.0,2001-09-09T03:00,13.9,83,11.0,12.9,0.0,0.0,0.0,0.0,1,1016.2,961.9,28,0,0,94,0.0,0.28,9.0,12.8,90,79,21.2,15.6,20.8,20.2,18.2,0.119,0.169,0.222,0.333,0,0.0,0.0,0.0,0.0,0.0,0.0,0.0,0.0,0.0,0.0,0.0,0.0,0.0,Vitis vinifera L.; Pinales; Magnoliopsida; Eucalyptus L'Hér.; Pinus pinaster Aiton
2001,2001-06-21,Porto,Paços de Ferreira,Ferreira,Ferreira,41.2663712,-8.3445627,NC,331.0,2001-06-21T00:00,20.3,65,13.6,20.9,0.0,0.0,0.0,0.0,0,1016.0,977.7,1,0,0,3,0.0,0.82,3.4,2.3,108,39,8.3,18.3,21.7,17.0,13.6,0.125,0.221,0.31,0.384,0,0.0,0.0,0.0,0.0,0.0,0.0,0.0,0.0,0.0,0.0,0.0,0.0,0.0,Eucalyptus L'Hér.; Tracheophyta; Magnoliopsida; Quercus L.; Pinus pinaster Aiton; 
2001,2001-09-02,Aveiro,Arouca,Escariz,Alvite Cima,40.9403552,-8.4032105,NC,484.0,2001-09-02T13:00,27.3,40,12.5,28.6,0.0,0.0,0.0,0.0,0,1013.0,959.0,0,0,0,0,0.61,2.18,8.8,11.1,102,103,28.8,27.5,21.0,20.2,18.2,0.188,0.188,0.229,0.339,1,3600.0,842.9,737.3,105.6,886.5,842.9,1117.8,846.0,740.0,106.0,886.5,846.0,1121.9,Eucalyptus L'Hér.; Pinus pinaster Aiton; Magnoliopsida
2001,2001-09-10,Porto,Amarante,Chapa,Serra Agua E Leite,41.3187275,-8.0533446,NC,170.0,2001-09-10T18:00,27.0,45,13.9,27.4,0.0,0.0,0.0,0.0,0,1013.2,993.8,0,0,0,0,0.16,1.98,6.5,12.6,304,307,18.4,28.3,23.6,21.2,19.3,0.12,0.184,0.229,0.335,1,3600.0,119.7,86.1,33.6,574.2,119.7,202.4,196.0,141.0,55.0,574.2,196.0,331.4,Tracheophyta; Eucalyptus L'Hér.; Pinus pinaster Aiton; Magnoliopsida; Vitis vinifera L.; 
2001,2001-09-05,Aveiro,Arouca,Escariz,Vizo,40.9369182,-8.4084352,NC,459.0,2001-09-05T12:00,26.8,42,13.0,27.5,0.0,0.0,0.0,0.0,0,1016.8,965.3,7,0,11,0,0.55,2.03,9.9,12.8,100,101,32.8,28.4,22.0,20.2,18.0,0.129,0.162,0.221,0.334,1,3600.0,784.1,664.9,119.2,811.8,784.1,1102.4,763.0,647.0,116.0,811.8,763.0,1072.8,Magnoliopsida; Castanea sativa Mill.; Eucalyptus L'Hér.; Pinus pinaster Aiton
2001,2001-09-09,Viana do Castelo,Arcos de Valdevez,Extremo,Ponte Vidoeira,41.9620744,-8.4683747,NC,393.0,2001-09-09T10:00,25.1,47,13.0,25.5,0.0,0.0,0.0,0.0,0,1016.7,972.1,0,0,0,0,0.38,1.68,4.5,6.1,76,87,18.0,23.2,19.9,19.8,18.1,0.15,0.226,0.241,0.34,1,3600.0,631.3,533.3,98.0,825.7,631.3,871.1,567.0,479.0,88.0,825.7,567.0,782.3,Magnoliopsida; Tracheophyta; Quercus L.
2001,2001-09-15,Aveiro,Arouca,Escariz,Laeira,40.9403552,-8.4032105,NC,484.0,2001-09-15T14:00,27.4,31,9.0,26.6,0.0,0.0,0.0,0.0,0,1014.3,960.3,0,0,0,0,0.59,2.51,12.6,16.3,93,95,37.1,29.1,20.8,20.7,18.7,0.106,0.16,0.218,0.332,1,3600.0,751.8,657.7,94.1,903.6,751.8,984.8,783.0,685.0,98.0,903.6,783.0,1025.8,Eucalyptus L'Hér.; Pinus pinaster Aiton; Magnoliopsida
2001,2001-09-15,Aveiro,Arouca,Escariz,Alvite,40.9369182,-8.4084352,NC,459.0,2001-09-15T18:00,26.6,31,8.1,25.0,0.0,0.0,0.0,0.0,0,1014.1,962.7,3,0,0,9,0.16,2.41,7.6,14.1,45,50,21.6,27.4,21.9,20.5,18.5,0.1,0.149,0.212,0.328,1,3600.0,98.4,70.1,28.3,559.0,98.4,169.8,174.0,124.0,50.0,559.0,174.0,300.2,Magnoliopsida; Castanea sativa Mill.; Eucalyptus L'Hér.; Pinus pinaster Aiton
2001,2001-09-15,Aveiro,Arouca,Urrô,Merujal,40.916294,-8.2904033,NC,275.0,2001-09-15T03:00,13.2,87,11.0,12.2,0.0,0.0,0.0,0.0,0,1013.5,980.9,0,0,0,0,0.0,0.2,8.7,21.5,83,81,23.4,15.4,21.0,21.3,19.2,0.106,0.151,0.21,0.329,0,0.0,0.0,0.0,0.0,0.0,0.0,0.0,0.0,0.0,0.0,0.0,0.0,0.0,Eucalyptus L'Hér.; Magnoliopsida; Vitis vinifera L.; Pinus pinaster Aiton
2001,2001-09-13,Viana do Castelo,Ponte de Lima,Ribeira,St¦. Catarina,41.7633736,-8.555046,NC,85.0,2001-09-13T00:00,16.0,96,15.3,17.3,0.0,0.0,0.0,0.0,1,1020.4,1010.2,31,3,0,93,0.0,0.08,3.8,3.7,311,331,8.6,18.1,22.3,21.7,19.4,0.103,0.168,0.235,0.339,0,0.0,0.0,0.0,0.0,0.0,0.0,0.0,0.0,0.0,0.0,0.0,0.0,0.0,Tracheophyta; Magnoliopsida; Eucalyptus L'Hér.; Pinus pinaster Aiton
2001,2001-09-09,Aveiro,Santa Maria da Feira,Travanca,Outeiro,40.9099827,-8.5712176,NC,96.0,2001-09-09T10:00,27.8,31,9.4,25.7,0.0,0.0,0.0,0.0,0,1016.0,1005.0,0,0,0,0,0.47,2.57,14.1,18.5,96,97,28.4,27.4,23.7,22.4,19.8,0.104,0.109,0.147,0.291,1,3600.0,640.6,544.8,95.8,833.6,640.6,881.5,575.0,489.0,86.0,833.6,575.0,791.2,Magnoliopsida; Tracheophyta; Eucalyptus L'Hér.; Pinus pinaster Aiton; Quercus L.
2001,2001-09-11,Aveiro,Castelo de Paiva,Raiva,Folgoso,41.0360466,-8.3443706,NC,132.0,2001-09-11T13:00,26.3,51,15.3,28.4,0.0,0.0,0.0,0.0,0,1015.9,1000.7,0,0,0,0,0.56,1.68,8.7,9.8,253,253,19.1,30.9,23.1,22.0,19.7,0.118,0.159,0.213,0.335,1,3600.0,811.8,708.4,103.5,889.3,811.8,1075.5,816.0,712.0,104.0,889.3,816.0,1081.0,Eucalyptus L'Hér.; Magnoliopsida
2001,2001-09-13,Viana do Castelo,Arcos de Valdevez,Couto,Pinheiro,41.874892,-8.4084898,NC,118.0,2001-09-13T16:00,24.9,47,12.7,22.5,0.0,0.0,0.0,0.0,0,1017.8,1004.1,0,0,0,0,0.42,1.68,21.9,29.2,327,331,43.2,28.2,22.3,21.3,19.4,0.119,0.193,0.235,0.337,1,3600.0,484.7,407.0,77.7,823.8,484.7,667.7,555.0,466.0,89.0,823.8,555.0,764.6,Pinus pinaster Aiton; Eucalyptus L'Hér.; Magnoliopsida; Tracheophyta; Vitis vinifera L.
2001,2001-09-10,Porto,Paredes,Recarei,Urengas,41.1536564,-8.4122951,NC,87.0,2001-09-10T18:00,24.9,56,15.6,25.3,0.0,0.0,0.0,0.0,0,1013.1,1003.1,0,0,0,0,0.16,1.38,10.1,15.1,305,310,21.6,29.1,25.1,22.4,19.9,0.124,0.146,0.202,0.338,1,3600.0,122.4,88.4,34.0,571.1,122.4,208.9,198.0,143.0,55.0,571.1,198.0,337.9,Magnoliopsida; Pinus pinaster Aiton; Eucalyptus L'Hér.; Tracheophyta; Vitis vinifera L.
2001,2001-09-15,Porto,Vila do Conde,Fornelo,Picouto,41.3329007,-8.6441131,NC,127.0,2001-09-15T16:00,29.0,28,8.4,27.4,0.0,0.0,0.0,0.0,0,1013.5,999.1,4,0,0,12,0.42,2.89,7.9,10.7,51,57,19.4,30.7,22.6,21.6,19.6,0.107,0.148,0.214,0.334,1,3600.0,477.3,403.3,74.0,825.1,477.3,661.4,548.0,463.0,85.0,825.1,548.0,759.3,Eucalyptus L'Hér.; Tracheophyta
2001,2001-09-11,Porto,Paredes,Besteiros,Cavadas,41.2165233,-8.3522272,NC,244.0,2001-09-11T17:00,23.4,62,15.6,23.5,0.0,0.0,0.0,0.0,0,1015.7,987.6,0,0,0,0,0.26,1.11,12.4,16.6,280,283,29.5,28.3,23.4,21.1,18.9,0.132,0.153,0.201,0.337,1,3600.0,293.4,225.8,67.6,669.7,293.4,455.3,369.0,284.0,85.0,669.7,369.0,572.6,Magnoliopsida; Pinus pinaster Aiton; Eucalyptus L'Hér.; Tracheophyta; Vitis vinifera L.; Quercus L.
2001,2001-09-12,Porto,Lousada,Boim,Espindo,41.261773,-8.2817803,NC,239.0,2001-09-12T13:00,25.1,58,16.3,27.8,0.0,0.0,0.0,0.0,0,1019.0,991.6,16,1,0,50,0.53,1.34,6.7,7.5,286,287,21.6,30.0,22.1,21.2,19.1,0.097,0.165,0.227,0.335,1,3600.0,789.4,666.1,123.3,843.3,789.4,1067.0,794.0,670.0,124.0,843.3,794.0,1073.2,Tracheophyta; Eucalyptus L'Hér.; Pinus pinaster Aiton; Magnoliopsida; Vitis vinifera L.; ; Olea europaea L.
2001,2001-09-13,Porto,Baião,Ancede,Lordelo,41.1046709,-8.0614156,NC,328.0,2001-09-13T20:00,18.6,76,14.3,19.1,0.0,0.0,0.0,0.0,0,1017.4,979.2,17,0,0,58,0.01,0.51,6.5,8.1,264,291,13.0,22.1,22.9,20.9,18.9,0.104,0.173,0.224,0.332,0,0.0,0.0,0.0,0.0,0.0,0.0,0.0,0.0,0.0,0.0,0.0,0.0,0.0,Magnoliopsida; Pinus pinaster Aiton; Tracheophyta; Vitis vinifera L.; Quercus suber L.; Acacia Mill.; Eucalyptus L'Hér.; Quercus L.; 
2001,2001-09-13,Porto,Valongo,Sobrado,Est. AlemÇes,41.2115102,-8.4652622,NC,127.0,2001-09-13T15:00,24.7,54,14.9,24.8,0.0,0.0,0.0,0.0,0,1017.8,1003.1,0,0,0,0,0.47,1.41,15.1,18.6,310,313,31.3,30.0,22.9,22.0,19.7,0.108,0.15,0.211,0.333,1,3600.0,641.9,552.3,89.6,867.1,641.9,860.9,695.0,598.0,97.0,867.1,695.0,932.2,Tracheophyta; Eucalyptus L'Hér.; Magnoliopsida; Pinus pinaster Aiton
2001,2001-09-10,Aveiro,Arouca,Urrô,S.Pedro Velho,40.916294,-8.2904033,NC,275.0,2001-09-10T06:00,14.3,85,11.9,13.7,0.0,0.0,0.0,0.0,0,1014.0,981.5,0,0,0,0,0.0,0.24,7.9,19.8,93,92,20.2,16.5,22.2,21.4,19.0,0.111,0.156,0.213,0.332,0,0.0,0.0,0.0,0.0,0.0,0.0,0.0,0.0,0.0,0.0,0.0,0.0,0.0,Eucalyptus L'Hér.; Magnoliopsida; Vitis vinifera L.; Pinus pinaster Aiton
2001,2001-06-20,Porto,Gondomar,São Pedro da Cova,L.Alto da,41.1684104,-8.5330631,NC,99.0,2001-06-20T21:00,22.5,66,15.8,23.5,0.0,0.0,0.0,0.0,0,1015.7,1004.2,1,0,0,3,0.03,0.93,7.4,15.0,337,349,16.6,23.9,23.7,18.5,15.2,0.138,0.212,0.301,0.38,0,0.0,0.0,0.0,0.0,0.0,0.0,0.0,0.0,0.0,0.0,0.0,0.0,0.0,Tracheophyta; Magnoliopsida
2001,2001-09-09,Braga,Guimarães,Ponte,Corvite,41.4712798,-8.3384362,NC,129.0,2001-09-09T23:00,19.9,69,14.0,20.4,0.0,0.0,0.0,0.0,0,1013.9,998.8,0,0,0,0,0.01,0.73,5.6,6.3,130,121,10.8,20.8,23.9,21.4,19.1,0.108,0.17,0.227,0.336,0,0.0,0.0,0.0,0.0,0.0,0.0,0.0,0.0,0.0,0.0,0.0,0.0,0.0,Tracheophyta; Magnoliopsida; Quercus L.
2001,2001-09-13,Porto,Trofa,Bougado (santiago),Valinhas,41.3302367,-8.5724918,NC,31.0,2001-09-13T17:00,23.2,58,14.3,21.2,0.0,0.0,0.0,0.0,0,1017.6,1014.0,0,0,0,0,0.29,1.21,23.5,32.0,324,329,42.8,27.7,23.4,22.4,20.1,0.108,0.15,0.216,0.335,1,3600.0,300.8,239.8,60.9,727.6,300.8,445.5,380.0,303.0,77.0,727.6,380.0,562.9,Tracheophyta; Magnoliopsida; Pinales
2001,2001-09-16,Porto,Vila do Conde,Fajozes,Quinta Barreiro,41.3239621,-8.6983408,NC,39.0,2001-09-16T17:00,29.3,31,10.4,27.4,0.0,0.0,0.0,0.0,0,1015.8,1011.3,0,0,0,0,0.36,2.81,13.8,18.8,327,331,24.1,31.7,24.3,22.0,20.0,0.091,0.15,0.224,0.333,1,3600.0,289.5,232.4,57.1,741.6,289.5,424.2,370.0,297.0,73.0,741.6,370.0,542.2,Tracheophyta
2001,2001-09-07,Aveiro,Santa Maria da Feira,Caldas de São Jorge,Carvoeiro,40.9663636,-8.5044593,NC,186.0,2001-09-07T15:00,28.6,28,8.1,27.4,0.0,0.0,0.0,0.0,0,1018.1,996.9,0,0,0,0,0.56,2.82,11.4,14.5,55,60,29.2,32.3,23.9,21.8,19.3,0.118,0.126,0.168,0.308,1,3600.0,675.2,586.2,89.0,879.3,675.2,898.2,728.0,632.0,96.0,879.3,728.0,968.5,Tracheophyta; Eucalyptus L'Hér.; Pinales; Magnoliopsida
2001,2001-09-16,Porto,Gondomar,Valbom,R.Caminho Rio,41.1362281,-8.5613183,NC,79.0,2001-09-16T09:00,24.2,38,8.8,21.3,0.0,0.0,0.0,0.0,0,1017.5,1008.3,0,0,0,0,0.33,1.88,17.3,24.5,86,88,31.3,22.8,22.3,22.0,20.0,0.118,0.147,0.215,0.34,1,3600.0,452.2,365.6,86.6,745.8,452.2,663.6,376.0,304.0,72.0,745.8,376.0,551.8,Tracheophyta; Magnoliopsida; Pinus pinaster Aiton; Eucalyptus L'Hér.
2001,2001-09-12,Aveiro,Castelo de Paiva,Real,Pinheiro,41.0338464,-8.2910799,NC,173.0,2001-09-12T11:00,22.1,68,16.0,24.3,0.0,0.0,0.0,0.0,2,1020.0,999.8,71,71,0,24,0.39,0.85,2.3,2.3,309,321,12.2,25.9,21.8,21.7,19.4,0.117,0.158,0.213,0.335,1,3600.0,656.0,470.7,185.3,634.1,656.0,1002.7,616.0,442.0,174.0,634.1,616.0,941.6,Eucalyptus L'Hér.; Vitis vinifera L.; Pinus pinaster Aiton; Tracheophyta; Magnoliopsida
2001,2001-09-13,Porto,Baião,Gestaçô,Urugares,41.1677523,-7.9285981,NC,618.0,2001-09-13T17:00,23.1,51,12.4,22.1,0.0,0.0,0.0,0.0,0,1016.5,947.0,0,0,0,0,0.27,1.38,12.1,16.6,297,297,33.8,26.6,21.6,19.4,17.6,0.13,0.172,0.212,0.333,1,3600.0,286.2,227.2,59.0,705.7,286.2,435.3,364.0,289.0,75.0,705.7,364.0,553.6,Pinus pinaster Aiton; Magnoliopsida; Eucalyptus L'Hér.; Tracheophyta; Vitis vinifera L.; Quercus L.; 
2001,2001-09-16,Porto,Amarante,Vila Caiz,Fonte Mor,41.229918,-8.1252874,NC,157.0,2001-09-16T22:00,22.4,44,9.6,21.0,0.0,0.0,0.0,0.0,0,1016.2,998.0,0,0,0,0,0.07,1.52,9.2,10.1,45,35,14.0,20.2,22.9,21.3,19.6,0.109,0.171,0.224,0.332,0,0.0,0.0,0.0,0.0,0.0,0.0,0.0,0.0,0.0,0.0,0.0,0.0,0.0,Magnoliopsida; Pinus pinaster Aiton; Tracheophyta; Vitis vinifera L.; Eucalyptus L'Hér.; 
2001,2001-09-06,Vila Real,Mondim de Basto,Ermelo,Fisgas Ermelo/Ermelo,41.376379,-7.8703401,NC,582.0,2001-09-06T11:00,21.6,38,6.8,20.2,0.0,0.0,0.0,0.0,0,1017.6,951.6,17,1,15,23,0.46,1.59,9.5,12.7,99,97,28.4,22.9,20.6,20.1,17.9,0.164,0.176,0.21,0.335,1,3600.0,737.5,622.7,114.8,817.2,737.5,1026.1,694.0,586.0,108.0,817.2,694.0,965.6,Pinus pinaster Aiton; Magnoliopsida; Tracheophyta; Pinales
2001,2001-09-15,Aveiro,Castelo de Paiva,Sobrado,Pinheirâ,41.0399396,-8.2542468,NC,358.0,2001-09-15T10:00,21.7,42,8.4,18.7,0.0,0.0,0.0,0.0,0,1015.2,974.1,0,0,0,0,0.39,1.5,18.0,25.2,89,89,46.4,21.7,19.9,21.0,19.0,0.103,0.16,0.217,0.33,1,3600.0,625.9,528.9,97.1,832.6,625.9,859.4,561.0,474.0,87.0,832.6,561.0,770.2,Pinus pinaster Aiton; Eucalyptus L'Hér.; Tracheophyta; Vitis vinifera L.; Magnoliopsida
2001,2001-09-11,Aveiro,Santa Maria da Feira,Canedo,Vila Cova,41.017568,-8.4518566,NC,188.0,2001-09-11T10:00,21.5,64,14.5,22.3,0.0,0.0,0.0,0.0,1,1016.8,994.9,40,45,0,0,0.32,0.92,5.0,5.5,210,203,15.8,24.6,22.6,22.0,19.4,0.111,0.123,0.165,0.306,1,3600.0,568.5,422.5,146.0,653.2,568.5,873.2,510.0,379.0,131.0,653.2,510.0,783.3,Pinus pinaster Aiton; Tracheophyta; Eucalyptus L'Hér.; Magnoliopsida
2001,2001-09-16,Aveiro,Santa Maria da Feira,Mozelos,Fonte Levezinha,40.99774985,-8.560747557187135,NC,141.0,2001-09-16T19:00,25.1,43,11.5,23.9,0.0,0.0,0.0,0.0,0,1015.8,999.5,0,0,0,0,0.11,1.83,11.0,19.3,341,346,23.4,28.1,25.0,22.0,19.9,0.089,0.119,0.173,0.306,0,403.24,0.0,0.0,0.0,0.0,0.0,0.0,22.0,11.0,11.0,112.4,22.0,73.6,Tracheophyta; Eucalyptus L'Hér.; Magnoliopsida; Pinus pinaster Aiton
2001,2001-09-14,Porto,Santo Tirso,Roriz,Samo+a,41.3515405,-8.3829071,NC,220.0,2001-09-14T13:00,23.9,47,11.9,23.6,0.0,0.0,0.0,0.0,0,1014.9,989.6,15,0,0,49,0.52,1.57,14.1,17.9,322,326,27.7,27.4,20.8,20.9,18.8,0.109,0.163,0.227,0.335,1,3600.0,763.5,612.4,151.1,784.9,763.5,1055.0,768.0,616.0,152.0,784.9,768.0,1061.3,Magnoliopsida; Tracheophyta; Vitis vinifera L.; Quercus suber L.
2001,2001-09-15,Porto,Santo Tirso,Aves,Ponte,41.3667041,-8.4186064,NC,93.0,2001-09-15T13:00,27.8,31,8.9,26.9,0.0,0.0,0.0,0.0,0,1014.2,1003.6,0,0,0,0,0.62,2.59,13.8,18.1,83,84,31.0,29.1,21.6,21.6,19.5,0.101,0.154,0.22,0.332,1,3600.0,808.2,708.8,99.4,913.3,808.2,1050.1,813.0,713.0,100.0,913.3,813.0,1056.2,Magnoliopsida; Tracheophyta; Pinus pinaster Aiton; Eucalyptus L'Hér.; Vitis vinifera L.; Pinales; Acacia Mill.; 
2001,2001-09-15,Aveiro,Castelo de Paiva,Real,Pinheiro,41.0338464,-8.2910799,NC,173.0,2001-09-15T17:00,28.9,29,9.0,27.6,0.0,0.0,0.0,0.0,0,1013.4,993.8,0,0,0,0,0.3,2.83,7.2,10.9,18,27,17.6,29.5,22.5,21.5,19.5,0.114,0.154,0.21,0.333,1,3600.0,289.7,233.3,56.4,738.0,289.7,427.8,370.0,298.0,72.0,738.0,370.0,546.4,Eucalyptus L'Hér.; Vitis vinifera L.; Pinus pinaster Aiton; Tracheophyta; Magnoliopsida
2001,2001-09-01,Aveiro,Santa Maria da Feira,Louredo,Vila S+ca,40.9871338,-8.4667638,NC,161.0,2001-09-01T15:00,28.9,39,13.5,29.9,0.0,0.0,0.0,0.0,0,1013.0,994.8,6,0,0,20,0.55,2.43,8.2,10.6,49,55,20.9,30.9,22.5,21.3,19.2,0.171,0.134,0.174,0.311,1,3600.0,685.4,591.4,94.1,854.0,685.4,930.3,736.0,635.0,101.0,854.0,736.0,998.9,Tracheophyta; Eucalyptus L'Hér.; Magnoliopsida
2001,2001-09-14,Viana do Castelo,Arcos de Valdevez,Arcos De Valdevez (são Paio),Muralhäes,41.8462827,-8.4181315,NC,47.0,2001-09-14T15:00,24.8,44,11.9,22.2,0.0,0.0,0.0,0.0,0,1014.4,1009.0,13,0,0,43,0.51,1.74,26.4,34.7,334,337,45.0,29.5,22.7,22.0,19.8,0.101,0.163,0.226,0.334,1,3600.0,632.1,538.9,93.2,860.1,632.1,847.4,685.0,584.0,101.0,860.1,685.0,918.2,Tracheophyta; Eucalyptus L'Hér.
2001,2001-09-14,Viana do Castelo,Valença,Sanfins,V§rios,42.018387,-8.5788326,NC,342.0,2001-09-14T21:00,15.8,60,8.0,13.5,0.0,0.0,0.0,0.0,0,1014.9,974.8,0,0,0,0,0.05,0.72,12.1,25.0,30,36,36.7,18.3,20.5,19.8,17.9,0.113,0.184,0.237,0.338,0,0.0,0.0,0.0,0.0,0.0,0.0,0.0,0.0,0.0,0.0,0.0,0.0,0.0,Magnoliopsida; Pinus pinaster Aiton; Eucalyptus L'Hér.
2001,2001-09-14,Viana do Castelo,Monção,Bela,Mato,42.0669616,-8.4281841,NC,50.0,2001-09-14T23:00,14.9,73,10.2,12.4,0.0,0.0,0.0,0.0,0,1014.4,1008.4,0,0,0,0,0.04,0.45,17.2,28.9,10,19,33.5,17.6,21.4,21.1,19.3,0.117,0.191,0.235,0.336,0,0.0,0.0,0.0,0.0,0.0,0.0,0.0,0.0,0.0,0.0,0.0,0.0,0.0,Magnoliopsida; Eucalyptus L'Hér.; Tracheophyta; Pinus pinaster Aiton; Vitis vinifera L.; 
2001,2001-06-21,Porto,Paços de Ferreira,Seroa,Seroa,41.26703965,-8.427449583868274,NC,315.0,2001-06-21T05:00,15.3,81,12.1,15.1,0.0,0.0,0.0,0.0,0,1015.6,978.5,0,0,0,0,0.0,0.33,5.2,7.6,56,25,11.2,15.3,20.2,17.2,13.8,0.129,0.222,0.31,0.383,0,0.0,0.0,0.0,0.0,0.0,0.0,0.0,0.0,0.0,0.0,0.0,0.0,0.0,Tracheophyta; Magnoliopsida; Eucalyptus L'Hér.; 
2001,2001-09-05,Aveiro,Oliveira de Azeméis,Cesar,S§ da Ribeira,40.9123659,-8.4330609,NC,343.0,2001-09-05T15:00,28.5,41,14.0,30.3,0.0,0.0,0.0,0.0,0,1015.4,976.9,13,0,21,0,0.47,2.3,1.8,2.3,37,51,19.1,31.8,23.7,21.0,18.8,0.126,0.161,0.22,0.334,1,3600.0,623.2,506.2,117.0,748.7,623.2,909.9,671.0,545.0,126.0,748.7,671.0,979.8,Tracheophyta; Pinus pinaster Aiton; Magnoliopsida
2001,2001-04-12,Porto,Paços de Ferreira,Ferreira,Ferreirø,41.2663712,-8.3445627,NC,331.0,2001-04-12T14:00,18.5,43,5.8,17.4,0.0,0.0,0.0,0.0,1,1024.0,985.2,30,0,0,100,0.48,1.21,10.7,14.4,76,77,29.5,18.4,13.2,11.7,10.5,0.333,0.361,0.392,0.42,1,3600.0,797.4,566.4,231.0,714.8,797.4,1079.2,825.0,586.0,239.0,714.8,825.0,1116.5,Eucalyptus L'Hér.; Tracheophyta; Magnoliopsida; Quercus L.; Pinus pinaster Aiton; 
2001,2001-09-09,Aveiro,Castelo de Paiva,Real,Vale Forcado,41.0255424,-8.2709561,NC,168.0,2001-09-09T16:00,30.4,30,10.7,29.7,0.0,0.0,0.0,0.0,0,1013.7,994.7,4,0,0,13,0.44,3.05,6.7,7.7,306,307,16.6,32.3,23.9,21.6,19.3,0.122,0.163,0.214,0.336,1,3600.0,497.6,406.3,91.3,785.0,497.6,698.1,567.0,463.0,104.0,785.0,567.0,795.5,Eucalyptus L'Hér.; Pinus pinaster Aiton; Magnoliopsida; Vitis vinifera L.
2001,2001-09-15,Viana do Castelo,Arcos de Valdevez,Sabadim,Regueira,41.907053,-8.4581156,NC,129.0,2001-09-15T16:00,28.3,36,11.8,27.6,0.0,0.0,0.0,0.0,0,1014.1,999.4,0,0,0,0,0.41,2.45,8.6,10.1,345,2,17.6,29.5,21.9,21.1,19.3,0.111,0.181,0.236,0.337,1,3600.0,473.9,398.1,75.8,821.6,473.9,655.7,544.0,457.0,87.0,821.6,544.0,752.7,Pinus pinaster Aiton; Magnoliopsida; Eucalyptus L'Hér.; Tracheophyta
2001,2001-09-03,Aveiro,Santa Maria da Feira,Escapães,Vale Grande,40.9235118,-8.5030957,NC,274.0,2001-09-03T02:00,18.9,79,15.1,19.6,0.0,0.0,0.0,0.0,0,1011.9,980.1,1,0,2,0,0.01,0.46,6.8,8.1,65,45,10.4,19.6,23.1,20.8,18.7,0.148,0.149,0.21,0.335,0,0.0,0.0,0.0,0.0,0.0,0.0,0.0,0.0,0.0,0.0,0.0,0.0,0.0,Pinus pinaster Aiton; Pinales; Eucalyptus L'Hér.; Tracheophyta
2001,2001-09-16,Porto,Vila do Conde,Mosteiró,Rua Vila Verde,41.2800819,-8.6608312,NC,59.0,2001-09-16T15:00,30.6,25,8.3,29.6,0.0,0.0,0.0,0.0,0,1016.2,1009.5,0,0,0,0,0.55,3.3,9.9,10.9,341,351,18.7,33.4,23.6,21.8,19.9,0.091,0.15,0.224,0.333,1,3600.0,635.0,549.3,85.7,882.2,635.0,843.0,689.0,596.0,93.0,882.2,689.0,914.6,Eucalyptus L'Hér.
2001,2001-09-15,Porto,Santo Tirso,Santo Tirso,S.Bento Batalha,41.3516351,-8.5005138,NC,55.0,2001-09-15T16:00,29.7,26,8.3,28.1,0.0,0.0,0.0,0.0,0,1013.5,1007.2,4,0,0,12,0.43,3.07,7.9,10.7,51,57,19.4,30.6,22.9,21.9,19.9,0.12,0.15,0.208,0.335,1,3600.0,477.1,403.1,74.0,827.5,477.1,659.1,548.0,463.0,85.0,827.5,548.0,757.1,Tracheophyta; Magnoliopsida; Vitis vinifera L.; Pinus pinaster Aiton; Eucalyptus L'Hér.
2001,2001-09-01,Aveiro,Arouca,Escariz,Escariz,40.9369182,-8.4084352,NC,459.0,2001-09-01T00:00,15.4,89,13.7,15.7,0.0,0.0,0.0,0.0,0,1015.3,961.9,0,0,0,1,0.0,0.19,5.8,8.0,86,54,12.6,17.2,20.6,19.9,17.9,0.205,0.169,0.225,0.337,0,0.0,0.0,0.0,0.0,0.0,0.0,0.0,0.0,0.0,0.0,0.0,0.0,0.0,Magnoliopsida; Castanea sativa Mill.; Eucalyptus L'Hér.; Pinus pinaster Aiton
2001,2001-09-07,Aveiro,Oliveira de Azeméis,Cesar,PizÆo,40.9123659,-8.4330609,NC,343.0,2001-09-07T14:00,27.3,29,7.8,26.2,0.0,0.0,0.0,0.0,0,1018.9,980.1,0,0,0,0,0.62,2.57,13.8,18.1,84,84,35.6,29.9,22.6,21.2,18.9,0.115,0.158,0.218,0.332,1,3600.0,787.3,689.9,97.3,902.9,787.3,1029.6,817.0,716.0,101.0,902.9,817.0,1068.5,Tracheophyta; Pinus pinaster Aiton; Magnoliopsida
2001,2001-09-09,Aveiro,Oliveira de Azeméis,Fajões,S.Marcos,40.9338915,-8.4272224,NC,461.0,2001-09-09T01:00,16.6,63,9.6,15.6,0.0,0.0,0.0,0.0,1,1016.4,962.9,29,0,0,95,0.02,0.7,6.6,7.5,103,73,13.3,18.3,22.5,20.9,18.6,0.119,0.172,0.223,0.335,0,0.0,0.0,0.0,0.0,0.0,0.0,0.0,0.0,0.0,0.0,0.0,0.0,0.0,Pinus pinaster Aiton; Eucalyptus L'Hér.; Pinales
2001,2001-09-09,Aveiro,Oliveira de Azeméis,Fajões,S. Marcos,40.9173379,-8.4234658,NC,350.0,2001-09-09T19:00,25.3,41,11.3,24.5,0.0,0.0,0.0,0.0,0,1014.0,974.3,0,0,0,0,0.09,1.89,8.2,9.5,285,295,18.7,27.0,24.3,21.3,18.9,0.105,0.154,0.216,0.331,0,1561.33,0.0,0.0,0.0,0.0,0.0,0.0,38.0,22.0,16.0,190.8,38.0,96.7,Tracheophyta; Pinus pinaster Aiton; Magnoliopsida
2001,2001-09-09,Aveiro,Castelo de Paiva,Santa Maria de Sardoura,Valbeirâ,41.05375725,-8.309483051416152,NC,193.0,2001-09-09T11:00,27.5,39,12.4,28.0,0.0,0.0,0.0,0.0,0,1016.1,994.1,1,0,0,2,0.52,2.22,8.1,10.7,111,110,24.1,26.6,21.5,21.3,19.2,0.119,0.18,0.228,0.335,1,3600.0,762.1,661.0,101.1,878.1,762.1,1015.3,716.0,621.0,95.0,878.1,716.0,953.8,Eucalyptus L'Hér.; Magnoliopsida; Pinus pinaster Aiton
2001,2001-06-20,Porto,Gondomar,Rio Tinto,Av.For?as,41.1807166,-8.5575691,NC,71.0,2001-06-20T21:00,21.9,69,15.9,22.8,0.0,0.0,0.0,0.0,0,1015.7,1007.4,1,0,0,3,0.02,0.82,7.4,15.0,337,349,16.6,23.6,23.6,18.5,15.4,0.167,0.224,0.306,0.382,0,0.0,0.0,0.0,0.0,0.0,0.0,0.0,0.0,0.0,0.0,0.0,0.0,0.0,Tracheophyta; Magnoliopsida
2001,2001-09-16,Porto,Felgueiras,Friande,Tapada,41.3700363,-8.1792832,NC,364.0,2001-09-16T15:00,29.0,25,7.1,28.3,0.0,0.0,0.0,0.0,0,1016.3,975.5,0,0,0,0,0.5,2.99,5.3,6.8,62,65,20.2,31.1,21.6,20.5,18.6,0.099,0.153,0.215,0.329,1,3600.0,635.0,550.3,84.7,890.4,635.0,836.7,690.0,598.0,92.0,890.4,690.0,909.2,Vitis vinifera L.; Tracheophyta; Pinus pinaster Aiton; Eucalyptus L'Hér.; Magnoliopsida
2001,2001-09-01,Aveiro,Arouca,Alvarenga,Vila Nova,40.9642481,-8.1388592,NC,519.0,2001-09-01T07:00,14.9,76,10.7,13.0,0.0,0.0,0.0,0.0,0,1015.7,955.4,2,0,0,7,0.05,0.41,14.8,26.6,61,63,33.5,15.5,19.1,19.9,17.9,0.229,0.202,0.228,0.337,1,2019.48,114.1,66.8,47.4,366.4,75.7,244.8,53.0,31.0,22.0,243.1,53.0,113.7,Eucalyptus L'Hér.; Magnoliopsida
2001,2001-09-09,Aveiro,Castelo de Paiva,Santa Maria de Sardoura,Laceiras,41.0409961,-8.3142664,NC,207.0,2001-09-09T23:00,21.0,62,13.4,21.2,0.0,0.0,0.0,0.0,0,1014.2,990.2,0,0,0,0,0.02,0.94,6.0,6.4,147,142,9.7,20.3,23.4,21.3,19.1,0.115,0.178,0.228,0.335,0,0.0,0.0,0.0,0.0,0.0,0.0,0.0,0.0,0.0,0.0,0.0,0.0,0.0,Eucalyptus L'Hér.; Tracheophyta; Magnoliopsida
2001,2001-06-21,Porto,Santo Tirso,Couto (Santa Cristina),L.Lemende,41.325741,-8.4793533,NC,83.0,2001-06-21T06:00,16.5,88,14.4,17.0,0.0,0.0,0.0,0.0,0,1015.5,1005.6,0,0,0,0,0.02,0.23,6.6,12.1,45,23,13.7,17.1,21.2,18.5,15.3,0.165,0.214,0.3,0.382,1,1629.53,87.4,44.8,42.6,288.6,53.2,205.6,39.0,20.0,19.0,175.8,39.0,91.8,Magnoliopsida; Eucalyptus L'Hér.; Vitis vinifera L.; Tracheophyta; Pinus pinaster Aiton
2001,2001-09-11,Aveiro,Oliveira de Azeméis,Cesar,PizÆo,40.9123659,-8.4330609,NC,343.0,2001-09-11T16:00,24.8,54,14.9,24.6,0.0,0.0,0.0,0.0,0,1015.6,976.6,0,0,0,0,0.39,1.43,12.1,15.2,282,284,28.8,30.4,23.5,21.5,19.0,0.102,0.152,0.214,0.33,1,3600.0,485.0,405.3,79.7,795.2,485.0,688.2,554.0,463.0,91.0,795.2,554.0,786.1,Tracheophyta; Pinus pinaster Aiton; Magnoliopsida
2001,2001-09-05,Aveiro,Espinho,Anta,Rua de Requeijo,41.007855,-8.6187792,NC,39.0,2001-09-05T12:00,28.8,42,14.5,30.5,0.0,0.0,0.0,0.0,0,1016.0,1011.5,0,0,0,0,0.58,2.3,8.3,9.2,236,219,19.1,32.4,24.5,22.4,20.1,0.104,0.123,0.182,0.311,1,3600.0,811.3,701.2,110.0,857.4,811.3,1100.8,789.0,682.0,107.0,857.4,789.0,1070.6,Eucalyptus L'Hér.; Tracheophyta; Pinus pinaster Aiton; Magnoliopsida
2001,2001-04-12,Porto,Santo Tirso,Couto (Santa Cristina),Tarrio,41.3184682,-8.485512,NC,123.0,2001-04-12T13:00,18.7,47,7.0,18.1,0.0,0.0,0.0,0.0,1,1024.4,1009.8,29,0,0,95,0.5,1.16,11.1,14.2,61,63,25.6,19.1,14.6,13.2,12.0,0.34,0.358,0.385,0.418,1,3600.0,851.8,633.4,218.4,754.8,851.8,1142.7,854.0,635.0,219.0,754.8,854.0,1145.7,Eucalyptus L'Hér.; Magnoliopsida; Vitis vinifera L.; Tracheophyta; Pinus pinaster Aiton
2001,2001-09-07,Aveiro,Espinho,Anta,R.Lagarta,41.007855,-8.6187792,NC,39.0,2001-09-07T19:00,25.6,45,12.8,23.7,0.0,0.0,0.0,0.0,0,1017.1,1012.6,0,0,0,0,0.17,1.8,18.7,31.0,344,351,28.1,28.3,25.6,22.6,20.2,0.095,0.122,0.18,0.31,0,1822.16,0.0,0.0,0.0,0.0,0.0,0.0,48.0,29.0,19.0,237.1,48.0,106.0,Eucalyptus L'Hér.; Tracheophyta; Pinus pinaster Aiton; Magnoliopsida
2001,2001-09-10,Vila Real,Mondim de Basto,Mondim de Basto,Montao,41.3830551,-7.9546361,NC,426.0,2001-09-10T15:00,28.0,31,9.5,28.7,0.0,0.0,0.0,0.0,0,1013.7,966.1,0,0,0,0,0.48,2.6,1.5,1.5,315,315,19.1,31.1,22.1,20.5,18.5,0.109,0.165,0.218,0.331,1,3600.0,657.2,572.2,85.0,885.6,657.2,871.9,711.0,619.0,92.0,885.6,711.0,943.3,Tracheophyta; Pinus pinaster Aiton; Magnoliopsida; Eucalyptus L'Hér.
2001,2001-09-13,Porto,Gondomar,Gondomar (são Cosme),Quinta Azenha,41.13527305,-8.534103623752394,NC,121.0,2001-09-13T20:00,18.0,79,14.3,17.8,0.0,0.0,0.0,0.0,0,1017.5,1003.2,14,0,0,46,0.02,0.43,11.2,18.2,318,330,24.1,22.1,23.4,22.1,19.8,0.121,0.144,0.2,0.336,0,0.0,0.0,0.0,0.0,0.0,0.0,0.0,0.0,0.0,0.0,0.0,0.0,0.0,Magnoliopsida; Tracheophyta; Eucalyptus L'Hér.
2001,2001-09-10,Braga,Póvoa de Lanhoso,Garfe,Pena,41.5286029,-8.2503588,NC,217.0,2001-09-10T10:00,24.6,42,10.9,23.7,0.0,0.0,0.0,0.0,0,1014.7,989.8,0,0,0,0,0.4,1.78,9.0,12.1,106,102,28.1,24.4,21.9,21.3,19.1,0.102,0.163,0.224,0.334,1,3600.0,634.6,536.6,98.0,828.7,634.6,873.8,570.0,482.0,88.0,828.7,570.0,784.8,Eucalyptus L'Hér.; Tracheophyta; Pinales; Magnoliopsida; Quercus L.
2001,2001-09-16,Porto,Santo Tirso,Monte Córdova,Lg.Redondo,41.3164414,-8.4320306,NC,357.0,2001-09-16T20:00,22.7,47,10.7,22.4,0.0,0.0,0.0,0.0,0,1016.4,975.5,0,0,0,0,0.02,1.48,3.6,5.1,360,321,11.2,23.5,22.5,20.3,18.4,0.095,0.155,0.222,0.332,0,0.0,0.0,0.0,0.0,0.0,0.0,0.0,0.0,0.0,0.0,0.0,0.0,0.0,Tracheophyta; Vitis vinifera L.; Eucalyptus L'Hér.; Pinus pinaster Aiton; Magnoliopsida
2001,2001-09-14,Aveiro,Espinho,Anta,R. Lagarta,41.0112425,-8.6147338,NC,62.0,2001-09-14T13:00,23.8,51,13.2,21.9,0.0,0.0,0.0,0.0,0,1015.3,1008.1,6,0,0,20,0.51,1.43,26.6,33.5,330,333,45.4,29.1,22.5,22.6,20.3,0.09,0.12,0.175,0.307,1,3600.0,755.8,600.7,155.1,765.9,755.8,1060.6,760.0,604.0,156.0,765.9,760.0,1066.4,Eucalyptus L'Hér.; Tracheophyta; Pinus pinaster Aiton; Magnoliopsida
2001,2001-09-14,Aveiro,Oliveira de Azeméis,Fajões,S.Marcos,40.9338915,-8.4272224,NC,461.0,2001-09-14T17:00,22.0,53,12.1,20.8,0.0,0.0,0.0,0.0,0,1012.9,960.5,15,0,0,51,0.26,1.24,13.0,17.5,321,323,33.5,26.4,21.9,21.0,18.9,0.107,0.161,0.219,0.332,1,3600.0,288.4,228.7,59.7,711.0,288.4,435.0,367.0,291.0,76.0,711.0,367.0,553.5,Pinus pinaster Aiton; Eucalyptus L'Hér.; Pinales
2001,2001-09-04,Aveiro,Arouca,Escariz,Urreira,40.9403552,-8.4032105,NC,484.0,2001-09-04T21:00,23.5,62,15.8,25.1,0.0,0.0,0.0,0.0,0,1015.4,960.6,1,0,0,4,0.0,1.1,2.6,4.4,56,9,8.3,23.1,23.5,20.4,18.3,0.147,0.182,0.227,0.338,0,0.0,0.0,0.0,0.0,0.0,0.0,0.0,0.0,0.0,0.0,0.0,0.0,0.0,Eucalyptus L'Hér.; Pinus pinaster Aiton; Magnoliopsida
2001,2001-09-13,Aveiro,Arouca,Escariz,Alvite,40.9369182,-8.4084352,NC,459.0,2001-09-13T15:00,23.6,54,13.8,23.9,0.0,0.0,0.0,0.0,0,1017.7,965.6,0,0,0,0,0.46,1.33,11.6,14.7,300,301,32.8,29.1,21.8,20.7,18.4,0.101,0.151,0.213,0.329,1,3600.0,642.4,553.8,88.6,868.2,642.4,862.1,696.0,600.0,96.0,868.2,696.0,934.0,Magnoliopsida; Castanea sativa Mill.; Eucalyptus L'Hér.; Pinus pinaster Aiton
2001,2001-09-03,Aveiro,Santa Maria da Feira,Lourosa,Ferradal,40.9832135,-8.5365083,NC,221.0,2001-09-03T14:00,29.1,36,12.7,29.4,0.0,0.0,0.0,0.0,0,1012.4,987.5,2,0,3,0,0.59,2.57,12.0,14.5,314,316,25.6,32.1,23.7,21.0,18.9,0.143,0.131,0.172,0.31,1,3600.0,729.6,612.9,116.8,785.7,729.6,1048.9,756.0,635.0,121.0,785.7,756.0,1086.7,Tracheophyta; Pinus pinaster Aiton; Olea europaea L.; Magnoliopsida
2001,2001-09-09,Vila Real,Mondim de Basto,Vilar de Ferreiros,Vilar de Ferreiros,41.4084371,-7.903030292754042,NC,464.0,2001-09-09T06:00,13.0,82,10.0,11.7,0.0,0.0,0.0,0.0,0,1016.7,962.2,1,0,0,2,0.01,0.27,9.4,18.8,86,86,24.8,14.6,20.0,20.2,18.2,0.119,0.169,0.222,0.333,0,0.0,0.0,0.0,0.0,0.0,0.0,0.0,0.0,0.0,0.0,0.0,0.0,0.0,Vitis vinifera L.; Pinales; Magnoliopsida; Eucalyptus L'Hér.; Pinus pinaster Aiton
2001,2001-09-04,Aveiro,Santa Maria da Feira,São João de Ver,Chousa de Cima,40.954172,-8.5534047,NC,161.0,2001-09-04T02:00,20.2,81,16.9,22.1,0.0,0.0,0.0,0.0,1,1013.6,994.8,36,38,0,5,0.0,0.44,4.1,3.5,75,66,8.6,18.2,23.7,21.4,19.2,0.112,0.124,0.184,0.312,0,0.0,0.0,0.0,0.0,0.0,0.0,0.0,0.0,0.0,0.0,0.0,0.0,0.0,Tracheophyta; Pinus pinaster Aiton; Eucalyptus L'Hér.; Quercus suber L.; Magnoliopsida
