year,date,district,municipality,parish,local,latitude,longitude,cause,elevation,hourly.time,hourly.temperature_2m,hourly.relative_humidity_2m,hourly.dew_point_2m,hourly.apparent_temperature,hourly.precipitation,hourly.rain,hourly.snowfall,hourly.snow_depth,hourly.weather_code,hourly.pressure_msl,hourly.surface_pressure,hourly.cloud_cover,hourly.cloud_cover_low,hourly.cloud_cover_mid,hourly.cloud_cover_high,hourly.et0_fao_evapotranspiration,hourly.vapour_pressure_deficit,hourly.wind_speed_10m,hourly.wind_speed_100m,hourly.wind_direction_10m,hourly.wind_direction_100m,hourly.wind_gusts_10m,hourly.soil_temperature_0_to_7cm,hourly.soil_temperature_7_to_28cm,hourly.soil_temperature_28_to_100cm,hourly.soil_temperature_100_to_255cm,hourly.soil_moisture_0_to_7cm,hourly.soil_moisture_7_to_28cm,hourly.soil_moisture_28_to_100cm,hourly.soil_moisture_100_to_255cm,hourly.is_day,hourly.sunshine_duration,hourly.shortwave_radiation_instant,hourly.direct_radiation_instant,hourly.diffuse_radiation_instant,hourly.direct_normal_irradiance_instant,hourly.global_tilted_irradiance_instant,hourly.terrestrial_radiation_instant,hourly.shortwave_radiation,hourly.direct_radiation,hourly.diffuse_radiation,hourly.direct_normal_irradiance,hourly.global_tilted_irradiance,hourly.terrestrial_radiation,scientificNames
2001,2001-09-16,Aveiro,Ovar,Cortegaça,CORTEGAÇA,40.940648,-8.6302462,NC,11.0,2001-09-16T17:00,31.1,26,9.3,28.1,0.0,0.0,0.0,0.0,0,1015.3,1014.0,0,0,0,0,0.43,3.35,19.4,25.6,329,336,31.7,34.1,25.8,22.8,20.6,0.1,0.108,0.143,0.287,1,3600.0,288.5,232.2,56.3,739.6,288.5,425.0,369.0,297.0,72.0,739.6,369.0,543.7,Eucalyptus L'Hér.; Tracheophyta; Magnoliopsida; Pinus pinaster Aiton
2001,2001-12-09,Aveiro,Sever do Vouga,Cedrim,CEDRIM,40.71422325,-8.338948657468944,NC,167.0,2001-12-09T07:00,4.3,87,2.3,0.7,0.0,0.0,0.0,0.0,0,1022.6,1001.8,8,9,0,0,0.0,0.11,13.0,25.5,90,98,24.1,5.6,8.5,11.3,16.2,0.237,0.261,0.299,0.304,0,0.0,0.0,0.0,0.0,0.0,0.0,0.0,0.0,0.0,0.0,0.0,0.0,0.0,Tracheophyta; Eucalyptus L'Hér.; Acacia Mill.; Pinus pinaster Aiton; Magnoliopsida; Quercus L.
2001,2001-09-16,Viseu,Viseu,São João de Lourosa,SÃO JOÃO DE LOUROSA,40.6190443,-7.9039998,NC,465.0,2001-09-16T23:00,19.5,42,6.2,17.8,0.0,0.0,0.0,0.0,0,1016.3,962.9,0,0,0,0,0.04,1.33,5.5,7.6,58,45,10.1,20.4,23.8,21.7,19.4,0.092,0.151,0.22,0.33,0,0.0,0.0,0.0,0.0,0.0,0.0,0.0,0.0,0.0,0.0,0.0,0.0,0.0,Tracheophyta; Pinus pinaster Aiton; Magnoliopsida; Vitis vinifera L.
2001,2001-12-09,Aveiro,Anadia,Moita,Ferreiros,40.44282575,-8.402470535992038,NC,87.0,2001-12-09T15:00,16.1,57,7.6,13.6,0.0,0.0,0.0,0.0,0,1021.8,1011.4,0,0,0,0,0.19,0.79,12.7,19.5,105,106,30.6,14.1,9.8,11.6,16.6,0.199,0.225,0.248,0.27,1,3600.0,281.4,225.8,55.6,758.3,281.4,419.9,329.0,264.0,65.0,758.3,329.0,491.0,Tracheophyta; Eucalyptus L'Hér.; Vitis vinifera L.
2001,2001-06-09,Viseu,Santa Comba Dão,Treixedo,Granjal,40.4323509,-8.0958905,NC,271.0,2001-06-09T06:00,14.4,96,13.7,14.4,0.0,0.0,0.0,0.0,3,1013.1,981.1,100,96,62,35,0.02,0.07,8.0,12.8,216,220,15.8,16.7,19.3,18.1,13.3,0.126,0.214,0.303,0.378,1,0.0,22.4,0.0,22.4,0.0,13.7,207.5,10.0,0.0,10.0,0.0,10.0,92.8,Tracheophyta; Eucalyptus L'Hér.; Magnoliopsida; Pinus pinaster Aiton
2001,2001-09-16,Viseu,Oliveira de Frades,Arcozelo das Maias,ARCOZELO DAS MAIAS,40.735324,-8.27226669989817,NC,341.0,2001-09-16T17:00,30.5,25,8.4,29.1,0.0,0.0,0.0,0.0,0,1015.6,977.5,0,0,0,0,0.29,3.26,6.5,8.7,341,343,17.6,32.8,24.6,22.2,20.0,0.096,0.138,0.195,0.318,1,3600.0,284.0,228.6,55.4,731.1,284.0,423.4,364.0,293.0,71.0,731.1,364.0,542.6,Eucalyptus L'Hér.; Pinus pinaster Aiton; Magnoliopsida; Tracheophyta; Quercus L.; Olea europaea L.
2001,2001-09-15,Aveiro,Sever do Vouga,Cedrim,Fontelas,40.7111516,-8.3392655,NC,180.0,2001-09-15T11:00,26.0,35,9.2,24.1,0.0,0.0,0.0,0.0,0,1014.7,994.1,0,0,0,0,0.53,2.2,16.7,22.4,84,85,39.2,25.8,21.2,22.3,20.1,0.099,0.136,0.193,0.315,1,3600.0,740.7,639.4,101.2,871.5,740.7,992.7,695.0,600.0,95.0,871.5,695.0,931.5,Tracheophyta; Eucalyptus L'Hér.; Acacia Mill.; Pinus pinaster Aiton; Magnoliopsida; Quercus L.
2001,2001-07-09,Viseu,Santa Comba Dão,Couto do Mosteiro,Gestosa \ POV,40.4102502,-8.141927339600691,NC,218.0,2001-07-09T15:00,23.9,58,15.1,24.5,0.0,0.0,0.0,0.0,3,1016.1,991.0,92,100,3,0,0.31,1.25,7.0,8.8,305,305,26.3,25.8,20.5,19.7,16.2,0.172,0.161,0.249,0.355,1,3362.62,403.0,140.9,262.0,172.1,403.0,1083.7,426.0,149.0,277.0,172.1,426.0,1145.7,Tracheophyta; Magnoliopsida; Pinus pinaster Aiton; Acacia Mill.; Quercus L.
2001,2001-09-16,Viseu,Castro Daire,Ribolhos,RIBOLHOS \ SF,40.8822532,-7.9296429,NC,598.0,2001-09-16T21:00,20.3,46,8.2,19.1,0.0,0.0,0.0,0.0,0,1017.0,949.0,0,0,0,0,0.03,1.29,4.6,6.9,51,39,14.4,22.3,23.1,21.1,19.1,0.1,0.151,0.206,0.321,0,0.0,0.0,0.0,0.0,0.0,0.0,0.0,0.0,0.0,0.0,0.0,0.0,0.0,Magnoliopsida; Pinus pinaster Aiton; Tracheophyta
2001,2001-02-24,Aveiro,Ovar,Cortegaça,CORTEGAÇA,40.940648,-8.6302462,NC,11.0,2001-02-24T18:00,13.6,62,6.4,9.8,0.0,0.0,0.0,0.0,0,1008.8,1007.5,4,0,2,8,0.1,0.6,20.0,31.8,342,344,34.9,13.7,12.4,11.9,12.8,0.279,0.291,0.312,0.38,1,3135.66,30.0,18.0,11.9,207.1,27.6,67.2,88.0,53.0,35.0,345.7,88.0,197.4,Eucalyptus L'Hér.; Tracheophyta; Magnoliopsida; Pinus pinaster Aiton
2001,2001-04-21,Aveiro,Águeda,Belazaima do Chão,Alvarim,40.5407874,-8.3870688,NC,86.0,2001-04-21T10:00,14.1,45,2.3,11.7,0.0,0.0,0.0,0.0,0,1019.9,1009.5,5,0,0,18,0.35,0.88,9.2,11.4,11,13,24.1,15.4,13.1,14.1,12.9,0.243,0.294,0.353,0.408,1,3600.0,743.5,637.7,105.7,885.6,743.5,975.8,675.0,579.0,96.0,885.6,675.0,886.0,Acacia Mill.; Eucalyptus L'Hér.; Magnoliopsida
2001,2001-09-06,Aveiro,Oliveira do Bairro,Bustos,Póvoa de Bustos,40.49667185,-8.60187940808925,NC,52.0,2001-09-06T10:00,22.1,66,15.5,23.5,0.0,0.0,0.0,0.0,1,1016.4,1010.3,31,13,15,33,0.29,0.9,2.7,4.5,113,104,17.3,26.2,23.7,22.1,19.9,0.05,0.059,0.083,0.199,1,3600.0,505.3,329.5,175.9,495.3,505.3,895.7,454.0,296.0,158.0,495.3,454.0,804.7,Magnoliopsida; Tracheophyta
2001,2001-09-16,Viseu,Oliveira de Frades,Arca,Areal,40.6054449,-8.2174316,NC,659.0,2001-09-16T11:00,24.5,30,5.9,22.5,0.0,0.0,0.0,0.0,0,1018.5,944.8,0,0,0,0,0.51,2.15,12.8,16.7,68,71,34.6,25.8,21.0,20.6,18.3,0.096,0.136,0.188,0.312,1,3600.0,748.8,649.7,99.1,886.6,748.8,991.9,703.0,610.0,93.0,886.6,703.0,931.3,Magnoliopsida; Pinus pinaster Aiton; Tracheophyta; Pinales; Castanea sativa Mill.; Olea europaea L.; Quercus L.; Vitis vinifera L.; Eucalyptus L'Hér.
2001,2001-09-11,Viseu,Vouzela,São Miguel do Mato,Arrabalde,40.7138886,-8.0185345,NC,444.0,2001-09-11T23:00,16.9,89,15.1,18.2,0.0,0.0,0.0,0.0,1,1019.1,967.4,24,27,0,0,0.0,0.21,3.1,4.5,249,256,8.3,20.2,23.9,21.7,19.3,0.1,0.143,0.197,0.318,0,0.0,0.0,0.0,0.0,0.0,0.0,0.0,0.0,0.0,0.0,0.0,0.0,0.0,Pinus pinaster Aiton; Tracheophyta; Magnoliopsida; Eucalyptus L'Hér.; Olea europaea L.; Quercus L.; 
2001,2001-09-16,Viseu,Viseu,Bodiosa,Silgueiros \ POVI,40.7174518,-7.9909968,NC,454.0,2001-09-16T18:00,28.2,28,8.0,26.9,0.0,0.0,0.0,0.0,0,1016.2,965.5,0,0,0,0,0.15,2.75,5.8,9.2,4,11,13.7,29.8,24.1,21.7,19.4,0.098,0.141,0.194,0.315,1,3600.0,91.1,64.9,26.2,558.5,91.1,157.4,167.0,119.0,48.0,558.5,167.0,288.5,Pinus pinaster Aiton; Magnoliopsida; Tracheophyta
2001,2001-09-07,Viseu,Oliveira de Frades,Arcozelo das Maias,ARCOZELO DAS MAIAS,40.735324,-8.27226669989817,NC,341.0,2001-09-07T18:00,27.5,28,7.2,26.0,0.0,0.0,0.0,0.0,0,1017.5,979.0,0,0,0,0,0.17,2.66,5.5,11.9,58,61,26.3,29.0,24.3,22.1,19.6,0.105,0.143,0.203,0.323,1,3600.0,137.3,101.6,35.8,598.3,137.3,228.8,215.0,159.0,56.0,598.3,215.0,358.1,Eucalyptus L'Hér.; Pinus pinaster Aiton; Magnoliopsida; Tracheophyta; Quercus L.; Olea europaea L.
2001,2001-09-06,Viseu,Castro Daire,Cujó,CUJÓ \ SF,40.9384781,-7.8438379,NC,828.0,2001-09-06T11:00,20.4,39,6.0,18.0,0.0,0.0,0.0,0.0,0,1017.2,924.6,17,0,15,26,0.43,1.47,13.0,16.2,56,58,32.4,22.3,20.1,19.5,17.3,0.154,0.183,0.215,0.332,1,3600.0,683.2,489.8,193.4,639.3,683.2,1031.8,643.0,461.0,182.0,639.3,643.0,971.0,Magnoliopsida; Tracheophyta
2001,2001-09-08,Viseu,Oliveira de Frades,Ribeiradio,RIBEIRADIO \ SF,40.732458,-8.3015913,NC,247.0,2001-09-08T13:00,30.2,27,9.0,31.4,0.0,0.0,0.0,0.0,0,1017.7,989.9,19,0,0,62,0.6,3.14,2.7,4.1,67,75,20.2,32.7,23.5,22.1,19.6,0.1,0.139,0.199,0.321,1,3600.0,834.1,717.7,116.5,884.7,834.1,1093.6,838.0,721.0,117.0,884.7,838.0,1098.6,Eucalyptus L'Hér.; Pinus pinaster Aiton; Magnoliopsida; Tracheophyta; Quercus L.; Olea europaea L.
2001,2001-04-16,Aveiro,Ovar,Esmoriz,ESMORIZ,40.9627709,-8.6354758,NC,8.0,2001-04-16T15:00,18.2,62,10.8,17.5,0.0,0.0,0.0,0.0,0,1016.5,1015.5,17,1,0,55,0.42,0.8,15.0,17.2,280,280,28.4,21.8,16.3,14.7,13.2,0.249,0.286,0.32,0.385,1,3600.0,727.4,613.5,113.9,858.4,727.4,971.0,779.0,657.0,122.0,858.4,779.0,1039.9,Tracheophyta; Magnoliopsida
2001,2001-06-09,Viseu,Santa Comba Dão,Treixedo,Granjal \ POV,40.4323509,-8.0958905,NC,271.0,2001-06-09T11:00,18.7,73,13.8,17.7,0.2,0.2,0.0,0.0,51,1013.1,981.6,100,57,76,24,0.32,0.57,15.8,20.9,246,246,40.0,21.2,19.2,18.1,13.3,0.133,0.214,0.303,0.378,1,3600.0,591.2,298.2,293.0,332.0,591.2,1192.4,563.0,284.0,279.0,332.0,563.0,1135.5,Tracheophyta; Eucalyptus L'Hér.; Magnoliopsida; Pinus pinaster Aiton
2001,2001-09-16,Aveiro,Albergaria-a-Velha,Branca,Cristelo,40.7540788,-8.4862112,NC,162.0,2001-09-16T15:00,32.2,23,8.4,31.5,0.0,0.0,0.0,0.0,0,1015.6,997.4,0,0,0,0,0.54,3.7,7.6,9.3,341,347,20.9,35.3,24.2,22.1,20.0,0.091,0.13,0.188,0.307,1,3600.0,633.6,548.0,85.6,875.9,633.6,847.0,688.0,595.0,93.0,875.9,688.0,919.7,Eucalyptus L'Hér.; Magnoliopsida; Tracheophyta
2001,2001-09-16,Aveiro,Estarreja,Fermelã,FERMELÃ,40.70269995,-8.549387289313014,NC,45.0,2001-09-16T19:00,27.5,37,11.5,25.5,0.0,0.0,0.0,0.0,0,1015.3,1010.1,0,0,0,0,0.19,2.32,16.9,29.7,344,350,27.7,29.6,25.7,22.6,20.6,0.066,0.088,0.121,0.237,0,477.04,0.0,0.0,0.0,0.0,0.0,0.0,23.0,12.0,11.0,122.9,23.0,73.3,Eucalyptus L'Hér.; Tracheophyta; Magnoliopsida
2001,2001-08-09,Viseu,Tondela,Silvares,SILVARES \ SF,40.6236353,-8.131352,NC,817.0,2001-08-09T15:00,24.1,36,7.9,23.5,0.0,0.0,0.0,0.0,0,1017.2,926.8,0,0,0,0,0.56,1.93,10.7,13.6,320,323,29.9,30.0,21.3,18.8,15.3,0.104,0.143,0.216,0.334,1,3600.0,769.6,668.0,101.6,866.1,769.6,1026.6,818.0,710.0,108.0,866.1,818.0,1091.1,Tracheophyta; Magnoliopsida; Eucalyptus L'Hér.; Pinus pinaster Aiton
2001,2001-09-08,Viseu,Vouzela,Alcofra,ALCOFRA \ SF,40.6252803,-8.1818787,NC,584.0,2001-09-08T20:00,23.3,39,8.5,22.0,0.0,0.0,0.0,0.0,1,1017.4,951.6,29,0,0,98,0.05,1.75,5.8,8.4,30,31,15.5,25.0,23.7,21.1,18.5,0.099,0.137,0.193,0.316,0,0.0,0.0,0.0,0.0,0.0,0.0,0.0,0.0,0.0,0.0,0.0,0.0,0.0,Magnoliopsida; Pinus pinaster Aiton; Tracheophyta; Eucalyptus L'Hér.; Vitis vinifera L.; Quercus L.; 
2001,2001-09-07,Aveiro,Anadia,Avelãs de Caminho,AVELÃS DE CIMA,40.4896558,-8.4006553,NC,78.0,2001-09-07T19:00,26.9,31,8.4,24.7,0.0,0.0,0.0,0.0,0,1016.8,1007.8,0,0,0,0,0.15,2.45,12.4,21.3,350,354,20.5,28.3,25.4,23.0,20.4,0.101,0.138,0.196,0.318,0,1786.11,0.0,0.0,0.0,0.0,0.0,0.0,46.0,28.0,18.0,230.0,46.0,105.3,Tracheophyta; Eucalyptus L'Hér.
2001,2001-04-22,Viseu,Viseu,Viseu (são José),Santiago,40.6594121,-7.914578,NC,453.0,2001-04-22T12:00,11.8,76,7.7,8.7,0.0,0.0,0.0,0.0,3,1016.0,962.6,100,100,51,92,0.17,0.33,17.0,23.6,257,258,37.1,13.7,11.3,12.1,10.9,0.234,0.294,0.353,0.408,1,1155.38,358.6,86.1,272.5,98.5,358.6,1183.2,350.0,84.0,266.0,98.5,350.0,1154.8,Magnoliopsida; Tracheophyta; Pinus pinaster Aiton
2001,2001-09-06,Viseu,Mangualde,Cunha Baixa,CUNHA BAIXA \ SF,40.5682474,-7.7583668,NC,438.0,2001-09-06T12:00,24.6,36,8.6,24.8,0.0,0.0,0.0,0.0,0,1015.7,966.2,20,5,11,28,0.48,1.98,3.2,3.9,27,34,23.8,27.2,23.1,22.0,19.5,0.1,0.155,0.227,0.335,1,3600.0,724.6,550.1,174.5,670.9,724.6,1104.2,706.0,536.0,170.0,670.9,706.0,1075.8,Magnoliopsida; Olea europaea L.; Pinus pinaster Aiton; Vitis vinifera L.
2001,2001-09-08,Aveiro,Ovar,Cortegaça,CORTEGAÇA,40.940648,-8.6302462,NC,11.0,2001-09-08T13:00,31.1,26,9.5,31.5,0.0,0.0,0.0,0.0,0,1017.4,1016.1,16,0,0,52,0.65,3.34,8.1,7.9,339,360,18.7,35.1,25.0,22.9,20.3,0.105,0.109,0.148,0.291,1,3600.0,834.4,726.9,107.5,898.1,834.4,1091.1,838.0,730.0,108.0,898.1,838.0,1095.7,Eucalyptus L'Hér.; Tracheophyta; Magnoliopsida; Pinus pinaster Aiton
2001,2001-09-11,Aveiro,Albergaria-a-Velha,Alquerubim,Paus,40.6374205,-8.4885711,NC,75.0,2001-09-11T14:00,25.8,50,14.6,26.7,0.0,0.0,0.0,0.0,0,1016.2,1007.5,0,0,0,0,0.54,1.65,13.7,15.6,252,251,26.3,33.1,23.8,22.4,20.0,0.061,0.077,0.109,0.226,1,3600.0,763.1,660.1,103.0,880.6,763.1,1012.1,793.0,686.0,107.0,880.6,793.0,1051.8,Magnoliopsida; Eucalyptus L'Hér.; Tracheophyta; Pinus pinaster Aiton; 
2001,2001-09-06,Viseu,Vila Nova de Paiva,Touro,TOURO \ SF,40.8953121,-7.7478521,NC,790.0,2001-09-06T13:00,23.4,31,5.1,21.7,0.0,0.0,0.0,0.0,0,1016.0,928.4,11,0,10,16,0.56,2.0,12.7,16.1,55,56,33.1,25.7,21.1,20.0,17.6,0.161,0.169,0.199,0.331,1,3600.0,787.7,662.3,125.3,811.2,787.7,1099.6,792.0,666.0,126.0,811.2,792.0,1105.7,Magnoliopsida; Pinus pinaster Aiton; Tracheophyta; Eucalyptus L'Hér.; Quercus L.; 
2001,2001-09-08,Viseu,Viseu,Bodiosa,Pereiras \ POVI,40.7174518,-7.9909968,NC,454.0,2001-09-08T08:00,18.1,62,10.7,16.0,0.0,0.0,0.0,0.0,0,1020.5,967.8,4,0,0,13,0.15,0.79,15.8,23.9,66,67,37.1,18.9,21.5,21.5,19.1,0.109,0.146,0.201,0.32,1,3600.0,288.9,212.6,76.3,602.2,288.9,475.8,212.0,156.0,56.0,602.2,212.0,349.2,Pinus pinaster Aiton; Magnoliopsida; Tracheophyta
2001,2001-09-16,Viseu,Viseu,Couto de Baixo,Portela \ POV,40.6574327,-8.007147,NC,385.0,2001-09-16T03:00,18.7,33,2.2,15.2,0.0,0.0,0.0,0.0,0,1016.1,971.5,0,0,0,0,0.1,1.44,11.8,26.3,63,65,25.9,19.3,23.0,22.1,19.9,0.098,0.141,0.195,0.316,0,0.0,0.0,0.0,0.0,0.0,0.0,0.0,0.0,0.0,0.0,0.0,0.0,0.0,Pinus pinaster Aiton; Magnoliopsida; Tracheophyta; Eucalyptus L'Hér.
2001,2001-09-07,Viseu,Mangualde,Fornos de Maceira Dão,Pedreles \ POVI,40.6086698,-7.8185976,NC,418.0,2001-09-07T13:00,25.6,27,5.0,24.4,0.0,0.0,0.0,0.0,0,1018.3,971.0,0,0,0,0,0.62,2.41,11.8,15.0,67,69,33.8,29.2,22.7,22.2,19.7,0.094,0.155,0.227,0.334,1,3600.0,858.0,757.6,100.4,929.1,858.0,1098.6,863.0,762.0,101.0,929.1,863.0,1105.0,Pinus pinaster Aiton; Tracheophyta; Pinales; Magnoliopsida; Vitis vinifera L.
2001,2001-09-07,Viseu,Castro Daire,Pepim,PEPIM \ SF,40.892623,-7.9528172,NC,596.0,2001-09-07T18:00,24.6,36,8.4,23.2,0.0,0.0,0.0,0.0,0,1018.4,951.5,0,0,0,0,0.16,1.98,6.3,14.4,59,68,28.8,26.1,22.3,20.7,18.5,0.123,0.178,0.217,0.329,1,3600.0,133.5,98.3,35.3,601.5,133.5,220.2,212.0,156.0,56.0,601.5,212.0,349.5,Magnoliopsida; Pinus pinaster Aiton; Tracheophyta
2001,2001-09-08,Viseu,Viseu,Orgens,São Martinho,40.6694067,-7.944998,NC,385.0,2001-09-08T18:00,28.2,29,8.2,26.9,0.0,0.0,0.0,0.0,1,1015.9,972.7,28,0,0,92,0.16,2.73,5.2,10.6,335,342,14.0,31.0,24.8,22.4,20.2,0.09,0.156,0.221,0.331,1,3600.0,125.4,82.6,42.8,523.4,125.4,212.6,202.0,133.0,69.0,523.4,202.0,342.6,Magnoliopsida; Pinus pinaster Aiton; Tracheophyta
2001,2001-09-06,Viseu,Viseu,Calde,CALDE \ SF,40.7814005,-7.9135687,NC,558.0,2001-09-06T22:00,19.3,63,12.0,19.5,0.0,0.0,0.0,0.0,0,1016.9,953.1,2,0,4,0,0.0,0.83,2.6,4.3,344,336,11.2,20.0,22.6,20.7,18.4,0.13,0.168,0.212,0.327,0,0.0,0.0,0.0,0.0,0.0,0.0,0.0,0.0,0.0,0.0,0.0,0.0,0.0,Pinus pinaster Aiton; Magnoliopsida; Tracheophyta; Eucalyptus L'Hér.
2001,2001-04-21,Viseu,Viseu,São João de Lourosa,Vilela,40.611449,-7.9143212,NC,439.0,2001-04-21T13:00,14.9,40,1.5,14.3,0.0,0.0,0.0,0.0,0,1018.2,966.8,0,0,0,0,0.51,1.01,7.6,9.4,335,337,23.4,17.8,11.7,11.9,10.7,0.249,0.302,0.356,0.409,1,3600.0,950.5,844.0,106.5,968.2,950.5,1181.2,955.0,848.0,107.0,968.2,955.0,1186.8,Pinus pinaster Aiton; Tracheophyta; Vitis vinifera L.; Olea europaea L.
2001,2001-09-08,Aveiro,Ovar,São João,Sobral,40.8800228,-8.6049886,NC,44.0,2001-09-08T16:00,31.0,27,9.8,28.6,0.0,0.0,0.0,0.0,1,1016.1,1011.1,28,0,0,92,0.53,3.28,17.1,20.9,330,339,29.9,35.3,25.9,22.7,20.1,0.104,0.109,0.147,0.291,1,3600.0,497.0,399.3,97.6,759.7,497.0,708.6,565.0,454.0,111.0,759.7,565.0,805.6,Eucalyptus L'Hér.; Magnoliopsida; Tracheophyta; Pinus pinaster Aiton; Acacia Mill.; 
2001,2001-09-08,Viseu,Viseu,Repeses,Cabanões de Baixo \ POVI,40.6377131,-7.9254678,NC,470.0,2001-09-08T22:00,21.4,44,8.8,20.1,0.0,0.0,0.0,0.0,1,1017.4,963.7,29,0,0,95,0.05,1.42,6.9,11.2,51,50,13.7,22.3,23.9,21.5,19.1,0.097,0.155,0.225,0.334,0,0.0,0.0,0.0,0.0,0.0,0.0,0.0,0.0,0.0,0.0,0.0,0.0,0.0,Vitis vinifera L.; Magnoliopsida; Tracheophyta; Pinus pinaster Aiton
2001,2001-09-08,Aveiro,Oliveira do Bairro,Oiã,Malhapão,40.5457687,-8.54097,NC,58.0,2001-09-08T13:00,31.6,23,8.1,32.8,0.0,0.0,0.0,0.0,0,1017.2,1010.6,13,0,0,42,0.6,3.56,1.8,2.4,11,27,16.9,35.3,24.2,22.3,20.0,0.08,0.1,0.144,0.261,1,3600.0,840.3,734.7,105.5,903.2,840.3,1096.6,844.0,738.0,106.0,903.2,844.0,1101.5,Eucalyptus L'Hér.; Tracheophyta; Pinus pinaster Aiton
2001,2001-09-06,Viseu,Vouzela,Alcofra,Nogueira,40.6167864,-8.1774919,NC,610.0,2001-09-06T19:00,21.8,52,11.5,21.2,0.0,0.0,0.0,0.0,0,1014.7,945.9,1,0,2,0,0.07,1.25,7.2,12.0,307,316,20.2,25.3,23.5,20.8,18.2,0.105,0.138,0.195,0.317,0,1682.26,0.0,0.0,0.0,0.0,0.0,0.0,36.0,21.0,15.0,172.2,36.0,105.5,Magnoliopsida; Pinus pinaster Aiton; Tracheophyta; Eucalyptus L'Hér.; Vitis vinifera L.; Quercus L.; 
2001,2001-09-16,Viseu,Castro Daire,Ermida,Codeçais,40.93617,-7.9374245,NC,808.0,2001-09-16T14:00,26.0,30,7.0,25.4,0.0,0.0,0.0,0.0,0,1017.8,928.8,0,0,0,0,0.56,2.36,8.4,10.5,65,68,27.0,28.7,20.1,19.4,17.5,0.109,0.16,0.208,0.327,1,3600.0,750.7,658.7,92.0,913.3,750.7,976.3,783.0,687.0,96.0,913.3,783.0,1018.4,Quercus L.; Magnoliopsida; Tracheophyta; Pinus pinaster Aiton
2001,2001-09-16,Viseu,Viseu,Couto de Baixo,Portela \ POV,40.6574327,-8.007147,NC,385.0,2001-09-16T13:00,29.0,28,8.7,29.4,0.0,0.0,0.0,0.0,0,1016.9,973.8,0,0,0,0,0.6,2.89,6.4,7.9,47,51,27.0,31.4,23.0,22.1,19.9,0.098,0.141,0.195,0.316,1,3600.0,813.1,715.8,97.3,919.7,813.1,1053.7,819.0,721.0,98.0,919.7,819.0,1061.3,Pinus pinaster Aiton; Magnoliopsida; Tracheophyta; Eucalyptus L'Hér.
2001,2001-09-16,Viseu,Viseu,Lordosa,Galifonge \ POVI,40.7442752,-7.9057424,NC,544.0,2001-09-16T13:00,27.6,27,7.1,27.3,0.0,0.0,0.0,0.0,0,1017.5,956.9,0,0,0,0,0.6,2.69,8.3,10.1,72,73,30.2,31.3,22.3,21.6,19.4,0.084,0.151,0.217,0.327,1,3600.0,810.9,713.6,97.3,918.0,810.9,1052.4,817.0,719.0,98.0,918.0,817.0,1060.3,Pinus pinaster Aiton; Magnoliopsida; Tracheophyta
2001,2001-09-07,Viseu,Viseu,Lordosa,Galifonge,40.7457236,-7.9315441,NC,493.0,2001-09-07T15:00,26.5,26,5.4,24.5,0.0,0.0,0.0,0.0,0,1018.5,963.1,0,0,0,0,0.56,2.56,13.0,17.4,76,77,37.1,30.9,22.9,21.7,19.4,0.094,0.157,0.222,0.332,1,3600.0,679.7,591.7,88.0,891.2,679.7,894.6,734.0,639.0,95.0,891.2,734.0,966.1,Magnoliopsida; Pinus pinaster Aiton; Tracheophyta
2001,2001-09-16,Viseu,Mortágua,Mortágua,MORTÁGUA \ SC,40.3908854,-8.24109454072914,NC,93.0,2001-09-16T16:00,33.1,20,7.5,30.7,0.0,0.0,0.0,0.0,0,1015.1,1004.6,0,0,0,0,0.5,4.03,12.3,15.8,322,325,23.8,37.3,25.1,22.8,20.6,0.069,0.091,0.118,0.235,1,3600.0,474.3,400.6,73.7,828.3,474.3,654.8,547.0,462.0,85.0,828.3,547.0,755.1,Tracheophyta; Eucalyptus L'Hér.; Pinus pinaster Aiton
2001,2001-06-09,Viseu,Santa Comba Dão,Couto do Mosteiro,Gestosa,40.4102502,-8.141927339600691,NC,218.0,2001-06-09T07:00,15.2,88,13.3,15.1,0.0,0.0,0.0,0.0,3,1013.3,987.5,100,92,41,1,0.04,0.2,7.9,11.5,210,212,25.2,17.4,19.5,18.4,13.7,0.126,0.214,0.303,0.378,1,0.0,74.0,13.7,60.3,40.4,74.0,450.1,54.0,10.0,44.0,40.4,54.0,328.5,Tracheophyta; Magnoliopsida; Pinus pinaster Aiton; Acacia Mill.; Quercus L.
2001,2001-09-06,Viseu,Mangualde,Fornos de Maceira Dão,Tabosa \ POVI,40.6086698,-7.8185976,NC,418.0,2001-09-06T09:00,20.1,49,8.9,18.9,0.0,0.0,0.0,0.0,1,1016.1,968.0,20,1,13,39,0.2,1.21,6.1,8.2,40,41,18.0,21.8,23.0,22.2,19.6,0.097,0.156,0.227,0.335,1,3600.0,336.4,210.8,125.6,395.6,336.4,717.7,284.0,178.0,106.0,395.6,284.0,605.9,Pinus pinaster Aiton; Tracheophyta; Pinales; Magnoliopsida; Vitis vinifera L.
2001,2001-09-06,Viseu,Viseu,Lordosa,LORDOSA \ SF,40.7442752,-7.9057424,NC,544.0,2001-09-06T13:00,25.4,32,7.5,24.7,0.0,0.0,0.0,0.0,0,1015.6,954.7,14,0,15,18,0.53,2.21,8.3,10.9,56,56,28.4,28.9,22.6,21.3,19.0,0.101,0.159,0.223,0.332,1,3600.0,739.1,617.7,121.4,755.1,739.1,1101.7,743.0,621.0,122.0,755.1,743.0,1107.5,Pinus pinaster Aiton; Magnoliopsida; Tracheophyta
2001,2001-08-16,Viseu,Vila Nova de Paiva,Touro,TOURO \ SF,40.8953121,-7.7478521,NC,790.0,2001-08-16T13:00,20.7,37,5.6,19.9,0.0,0.0,0.0,0.0,1,1019.7,931.0,27,4,0,78,0.58,1.53,12.5,15.6,321,322,31.7,26.0,20.6,20.3,16.6,0.146,0.155,0.209,0.34,1,3600.0,924.0,806.3,117.7,911.5,924.0,1180.1,926.0,808.0,118.0,911.5,926.0,1182.7,Magnoliopsida; Pinus pinaster Aiton; Tracheophyta; Eucalyptus L'Hér.; Quercus L.; 
2001,2001-06-22,Viseu,Carregal do Sal,Oliveira do Conde,Fiais da Telha,40.4629528,-7.9500094,NC,286.0,2001-06-22T20:00,22.5,62,14.9,23.1,0.0,0.0,0.0,0.0,0,1014.7,981.8,0,0,0,0,0.06,1.03,7.1,11.8,285,293,22.7,27.0,25.7,19.1,14.5,0.098,0.176,0.272,0.367,1,2136.36,1.3,0.7,0.6,8.4,0.9,2.9,54.0,30.0,24.0,238.9,54.0,118.7,Olea europaea L.; Magnoliopsida; Pinus pinaster Aiton; Tracheophyta
2001,2001-09-24,Guarda,Aguiar da Beira,Pena Verde,Mosteiro,40.7266641,-7.5055773,NC,683.0,2001-09-24T17:00,15.5,55,6.4,12.4,0.0,0.0,0.0,0.0,1,1017.3,938.9,49,43,17,0,0.15,0.8,14.8,20.3,283,283,33.1,17.9,17.6,19.8,19.5,0.287,0.208,0.183,0.319,1,3600.0,128.9,61.5,67.4,240.4,128.9,347.9,174.0,83.0,91.0,240.4,174.0,469.6,Pinus pinaster Aiton; Tracheophyta; Magnoliopsida; Quercus L.; Olea europaea L.; Castanea sativa Mill.; 
2001,2001-09-11,Aveiro,Oliveira do Bairro,Palhaça,PALHAÇA,40.5349118,-8.60893857199255,NC,34.0,2001-09-11T15:00,25.4,51,14.6,26.0,0.0,0.0,0.0,0.0,0,1015.7,1011.8,0,0,0,0,0.48,1.58,11.9,14.5,265,264,27.7,33.7,24.1,22.5,20.2,0.049,0.059,0.081,0.196,1,3600.0,653.2,560.7,92.5,858.3,653.2,882.0,706.0,606.0,100.0,858.3,706.0,953.3,Tracheophyta; Eucalyptus L'Hér.
2001,2001-08-16,Viseu,Penalva do Castelo,Pindo,PINDO \ SF,40.6708282,-7.7627647,NC,500.0,2001-08-16T13:00,22.4,37,6.9,21.8,0.0,0.0,0.0,0.0,1,1019.9,962.9,32,8,0,81,0.6,1.71,12.5,16.1,319,320,32.0,30.4,23.1,22.4,18.6,0.097,0.161,0.233,0.34,1,3600.0,919.0,793.2,125.7,895.1,919.0,1182.3,921.0,795.0,126.0,895.1,921.0,1184.9,Tracheophyta; Magnoliopsida; Vitis vinifera L.; Olea europaea L.; Pinus pinaster Aiton
2001,2001-09-08,Guarda,Aguiar da Beira,Aguiar da Beira,AGUIAR DA BEIRA \ SC,40.81739785,-7.554092011056806,NC,784.0,2001-09-08T04:00,14.2,61,6.9,12.1,0.0,0.0,0.0,0.0,0,1020.4,930.3,0,0,0,0,0.03,0.62,9.0,20.7,37,49,19.4,15.9,20.3,20.1,17.8,0.127,0.152,0.2,0.327,0,0.0,0.0,0.0,0.0,0.0,0.0,0.0,0.0,0.0,0.0,0.0,0.0,0.0,Tracheophyta; Pinus pinaster Aiton; Magnoliopsida
2001,2001-03-09,Viseu,Viseu,Fragosela,Fragosela de Baixo,40.6318476,-7.8503428,NC,373.0,2001-03-09T06:00,10.5,99,10.4,8.4,0.0,0.0,0.0,0.0,3,1016.8,972.3,100,97,5,76,0.0,0.01,15.6,24.8,251,257,29.2,10.5,10.5,10.2,10.5,0.426,0.427,0.423,0.43,0,0.0,0.0,0.0,0.0,0.0,0.0,0.0,0.0,0.0,0.0,0.0,0.0,0.0,Magnoliopsida; Tracheophyta; Pinus pinaster Aiton; Acacia Mill.
2001,2001-09-07,Viseu,Castro Daire,Mões,Granja,40.8642533,-7.8849214,NC,649.0,2001-09-07T18:00,23.9,36,8.1,22.4,0.0,0.0,0.0,0.0,0,1018.6,945.8,0,0,0,0,0.17,1.89,7.3,15.0,57,63,29.5,25.4,21.9,20.4,18.3,0.134,0.179,0.213,0.331,1,3600.0,131.7,96.4,35.3,589.9,131.7,220.2,209.0,153.0,56.0,589.9,209.0,349.5,Pinus pinaster Aiton; Tracheophyta; Magnoliopsida; Castanea sativa Mill.
2001,2001-08-16,Viseu,Viseu,Santos Evos,Remonde \ POV,40.6621172,-7.8219064,NC,374.0,2001-08-16T21:00,16.5,67,10.5,15.7,0.0,0.0,0.0,0.0,0,1020.7,976.8,0,0,0,0,0.02,0.61,6.6,15.6,299,308,23.0,21.0,24.0,22.5,18.8,0.096,0.164,0.238,0.343,0,0.0,0.0,0.0,0.0,0.0,0.0,0.0,0.0,0.0,0.0,0.0,0.0,0.0,Eucalyptus L'Hér.; Tracheophyta; Magnoliopsida; Pinus pinaster Aiton; Olea europaea L.; Pinales
2001,2001-09-08,Viseu,Viseu,Couto de Baixo,Portela \ POV,40.6574327,-8.007147,NC,385.0,2001-09-08T12:00,27.1,36,10.6,27.7,0.0,0.0,0.0,0.0,0,1018.6,975.1,10,0,0,35,0.59,2.31,8.0,9.8,80,84,28.1,29.1,22.5,21.9,19.5,0.108,0.146,0.2,0.32,1,3600.0,841.0,731.1,109.9,900.8,841.0,1094.1,819.0,712.0,107.0,900.8,819.0,1065.5,Pinus pinaster Aiton; Magnoliopsida; Tracheophyta; Eucalyptus L'Hér.
2001,2001-04-21,Aveiro,Anadia,Amoreira da Gândara,AMOREIRA DA GÂNDARA,40.47521185,-8.5350371971997,NC,54.0,2001-04-21T17:00,15.6,51,5.6,10.8,0.0,0.0,0.0,0.0,1,1018.4,1011.9,26,0,0,87,0.28,0.87,25.2,34.0,329,330,45.7,19.0,15.6,14.3,13.0,0.166,0.223,0.263,0.35,1,3600.0,416.6,347.4,69.2,811.6,416.6,580.0,500.0,417.0,83.0,811.6,500.0,696.1,Magnoliopsida; Vitis vinifera L.; Tracheophyta; Pinus pinaster Aiton
2001,2001-09-01,Viseu,São Pedro do Sul,Candal,CANDAL \ SF,40.8528164,-8.1784313,NC,729.0,2001-09-01T18:00,24.3,44,11.4,23.5,0.0,0.0,0.0,0.0,0,1013.3,932.5,0,0,0,0,0.18,1.69,7.9,16.1,51,56,24.5,24.1,20.6,19.2,17.1,0.204,0.199,0.226,0.336,1,3600.0,156.6,114.8,41.9,579.9,156.6,265.9,232.0,170.0,62.0,579.9,232.0,393.8,Magnoliopsida; Eucalyptus L'Hér.; Pinus pinaster Aiton; Tracheophyta; Quercus L.; Acacia Mill.; Olea europaea L.; Quercus suber L.; 
2001,2001-08-14,Aveiro,Albergaria-a-Velha,Alquerubim,Paus,40.6374205,-8.4885711,NC,75.0,2001-08-14T22:00,17.6,81,14.3,18.4,0.0,0.0,0.0,0.0,0,1015.6,1006.7,0,0,0,0,0.0,0.38,4.3,8.2,294,308,11.2,20.6,24.6,22.1,18.9,0.061,0.079,0.12,0.239,0,0.0,0.0,0.0,0.0,0.0,0.0,0.0,0.0,0.0,0.0,0.0,0.0,0.0,Magnoliopsida; Eucalyptus L'Hér.; Tracheophyta; Pinus pinaster Aiton; 
2001,2001-09-08,Guarda,Aguiar da Beira,Eirado,EIRADO \ SF,40.7737274,-7.4896165,NC,741.0,2001-09-08T02:00,15.8,53,6.3,13.4,0.0,0.0,0.0,0.0,0,1020.8,935.9,0,0,0,0,0.05,0.84,9.8,23.9,62,69,25.2,17.0,21.3,20.7,18.3,0.133,0.146,0.19,0.326,0,0.0,0.0,0.0,0.0,0.0,0.0,0.0,0.0,0.0,0.0,0.0,0.0,0.0,Pinus pinaster Aiton; Tracheophyta; Magnoliopsida; Olea europaea L.; Castanea sativa Mill.; 
2001,2001-09-08,Viseu,Vouzela,Fornelo do Monte,FORNELO DO MONTE \ SF,40.6651997,-8.1013482,NC,860.0,2001-09-08T13:00,25.7,31,7.2,25.2,0.0,0.0,0.0,0.0,1,1019.5,924.9,29,0,0,95,0.59,2.28,9.7,12.5,75,78,29.2,27.7,19.7,18.8,16.5,0.113,0.156,0.211,0.328,1,3600.0,828.7,683.5,145.2,842.2,828.7,1093.9,833.0,687.0,146.0,842.2,833.0,1099.6,Magnoliopsida; Tracheophyta; Eucalyptus L'Hér.; Pinales; Pinus pinaster Aiton; Quercus L.; 
2001,2001-09-03,Viseu,Castro Daire,Cujó,CUJÓ,40.93749395,-7.847893192106751,NC,870.0,2001-09-03T16:00,25.4,34,8.4,23.5,0.2,0.2,0.0,0.0,51,1011.7,916.7,27,0,29,33,0.35,2.14,10.0,12.3,291,291,27.7,26.5,21.2,19.0,16.9,0.177,0.189,0.216,0.333,1,3600.0,362.7,210.9,151.8,389.8,362.7,727.7,411.0,239.0,172.0,389.8,411.0,824.5,Magnoliopsida; Tracheophyta
2001,2001-08-14,Aveiro,Murtosa,Torreira,TORREIRA,40.7614387,-8.7099234,NC,5.0,2001-08-14T13:00,23.6,53,13.4,25.1,0.0,0.0,0.0,0.0,0,1014.4,1013.8,0,0,0,0,0.57,1.38,10.4,11.5,270,272,23.0,35.7,24.9,23.1,20.1,0.042,0.066,0.115,0.226,1,3600.0,892.7,767.8,125.0,860.8,892.7,1189.0,893.0,768.0,125.0,860.8,893.0,1189.4,Tracheophyta; Magnoliopsida
2001,2001-08-14,Aveiro,Anadia,Avelãs de Cima,Candieira,40.4896558,-8.4006553,NC,78.0,2001-08-14T20:00,20.1,68,14.0,20.1,0.0,0.0,0.0,0.0,0,1014.3,1005.1,0,0,0,0,0.05,0.76,9.0,13.9,299,301,23.4,25.3,25.9,23.0,19.3,0.098,0.141,0.211,0.331,0,0.0,0.0,0.0,0.0,0.0,0.0,0.0,10.0,4.0,6.0,49.3,10.0,49.7,Tracheophyta; Eucalyptus L'Hér.
2001,2001-09-08,Viseu,Mangualde,Mangualde,MANGUALDE \ SC,40.5866363,-7.7602024,NC,457.0,2001-09-08T12:00,26.8,33,9.3,27.6,0.0,0.0,0.0,0.0,0,1018.3,966.9,6,0,0,21,0.57,2.35,5.1,6.5,86,90,23.4,29.3,22.3,21.9,19.5,0.091,0.154,0.226,0.334,1,3600.0,844.6,744.0,100.6,915.4,844.6,1095.7,823.0,725.0,98.0,915.4,823.0,1067.6,Magnoliopsida; Tracheophyta; Vitis vinifera L.; Pinus pinaster Aiton
2001,2001-08-21,Viseu,Castro Daire,Pepim,PEPIM,40.8881483,-7.953458,NC,550.0,2001-08-21T11:00,21.9,63,14.5,22.6,0.0,0.0,0.0,0.0,1,1017.9,955.5,28,31,0,0,0.33,0.98,5.9,7.0,259,258,23.0,24.6,20.9,20.3,17.6,0.131,0.158,0.221,0.335,1,3600.0,529.4,340.5,188.8,419.0,529.4,1086.2,499.0,321.0,178.0,419.0,499.0,1023.9,Magnoliopsida; Pinus pinaster Aiton; Tracheophyta
2001,2001-09-08,Viseu,Vila Nova de Paiva,Touro,Cerdeira,40.8953121,-7.7478521,NC,790.0,2001-09-08T13:00,24.5,36,8.6,24.7,0.0,0.0,0.0,0.0,1,1019.3,931.7,27,0,0,91,0.58,1.96,8.0,9.5,63,65,27.0,26.7,20.1,19.9,17.7,0.148,0.164,0.198,0.33,1,3600.0,834.1,696.9,137.2,861.6,834.1,1090.3,839.0,701.0,138.0,861.6,839.0,1096.7,Magnoliopsida; Pinus pinaster Aiton; Tracheophyta; Eucalyptus L'Hér.; Quercus L.; 
2001,2001-09-08,Viseu,Vila Nova de Paiva,Fráguas,FRÁGUAS \ SF,40.8384326,-7.7700275,NC,695.0,2001-09-08T09:00,18.0,60,10.1,16.2,0.0,0.0,0.0,0.0,0,1021.1,941.7,6,0,0,19,0.25,0.83,12.8,16.8,58,59,31.7,19.3,19.9,20.3,18.1,0.118,0.161,0.211,0.326,1,3600.0,498.5,407.1,91.4,774.9,498.5,708.2,420.0,343.0,77.0,774.9,420.0,596.7,Magnoliopsida; Pinus pinaster Aiton; Tracheophyta; Quercus L.
2001,2001-09-08,Viseu,Viseu,Calde,Póvoa,40.7618304,-7.9134135,NC,529.0,2001-09-08T16:00,27.9,28,7.9,26.9,0.0,0.0,0.0,0.0,1,1016.9,958.0,30,0,0,99,0.4,2.69,3.6,4.1,45,52,13.7,30.4,22.4,20.8,18.6,0.118,0.165,0.211,0.326,1,3600.0,499.0,399.0,100.0,768.1,499.0,700.4,569.0,455.0,114.0,768.1,569.0,798.6,Tracheophyta; Pinus pinaster Aiton; Magnoliopsida
2001,2001-09-08,Viseu,Viseu,Mundão,MUNDÃO \ SF,40.6946192,-7.8661269,NC,568.0,2001-09-08T11:00,23.7,42,10.2,22.8,0.0,0.0,0.0,0.0,0,1020.5,956.3,16,0,0,53,0.5,1.68,13.2,17.0,68,69,33.8,26.4,21.6,21.7,19.3,0.09,0.154,0.221,0.33,1,3600.0,774.8,664.3,110.5,871.4,774.8,1027.6,729.0,625.0,104.0,871.4,729.0,966.8,Magnoliopsida; Tracheophyta; Pinus pinaster Aiton
2001,2001-09-08,Viseu,Castro Daire,Castro Daire,Farejinhas \ POV,40.91465745,-7.920020147736607,NC,660.0,2001-09-08T17:00,26.4,31,7.9,25.0,0.0,0.0,0.0,0.0,1,1017.2,943.9,30,0,0,99,0.29,2.37,5.9,7.9,38,43,14.8,28.2,21.8,20.3,18.2,0.127,0.177,0.213,0.33,1,3600.0,313.8,238.6,75.2,682.0,313.8,471.5,392.0,298.0,94.0,682.0,392.0,589.0,Pinus pinaster Aiton; Magnoliopsida; Pinales; Eucalyptus L'Hér.; Tracheophyta
2001,2001-09-08,Viseu,São Pedro do Sul,Candal,CANDAL \ SF,40.8528164,-8.1784313,NC,729.0,2001-09-08T13:00,25.3,36,9.1,25.3,0.0,0.0,0.0,0.0,1,1019.2,938.2,28,0,0,92,0.58,2.06,9.4,12.2,86,88,29.2,27.3,19.9,19.5,17.4,0.121,0.179,0.221,0.332,1,3600.0,828.8,689.5,139.3,851.8,828.8,1091.2,833.0,693.0,140.0,851.8,833.0,1096.7,Magnoliopsida; Eucalyptus L'Hér.; Pinus pinaster Aiton; Tracheophyta; Quercus L.; Acacia Mill.; Olea europaea L.; Quercus suber L.; 
2001,2001-09-08,Viseu,Mangualde,Mangualde,MANGUALDE,40.5866363,-7.7602024,NC,457.0,2001-09-08T08:00,17.8,63,10.5,16.2,0.0,0.0,0.0,0.0,0,1019.2,966.2,0,0,0,1,0.14,0.76,12.1,20.4,73,76,26.6,18.7,21.8,21.9,19.5,0.092,0.155,0.226,0.334,1,3600.0,289.2,213.2,76.0,597.4,289.2,480.9,213.0,157.0,56.0,597.4,213.0,354.2,Magnoliopsida; Tracheophyta; Vitis vinifera L.; Pinus pinaster Aiton
2001,2001-08-23,Aveiro,Ovar,Ovar,OVAR,40.8456684,-8.64847761987809,NC,0.0,2001-08-23T15:00,26.9,60,18.5,27.8,0.0,0.0,0.0,0.0,0,1016.2,1016.2,8,9,0,0,0.53,1.4,22.6,27.9,323,324,37.1,31.4,23.2,21.8,19.8,0.128,0.135,0.206,0.319,1,3600.0,726.6,628.3,98.3,861.1,726.6,976.2,776.0,671.0,105.0,861.1,776.0,1042.6,Magnoliopsida; Eucalyptus L'Hér.
2001,2001-09-03,Viseu,Sátão,Mioma,Quinta do Monte,40.7498415,-7.7226843,NC,614.0,2001-09-03T20:00,23.7,50,12.8,23.5,0.0,0.0,0.0,0.0,0,1013.2,944.5,1,0,1,0,0.05,1.45,7.6,9.4,301,310,13.3,24.8,24.2,21.3,19.1,0.098,0.161,0.232,0.337,0,0.0,0.0,0.0,0.0,0.0,0.0,0.0,0.0,0.0,0.0,0.0,0.0,0.0,Pinus pinaster Aiton; Tracheophyta; Magnoliopsida; Pinales
2001,2001-08-23,Viseu,Tondela,Mosteiro de Fráguas,Portodinho,40.5819766,-8.058429557095069,NC,385.0,2001-08-23T14:00,29.5,45,16.2,32.4,0.0,0.0,0.0,0.0,0,1015.2,972.2,0,0,0,0,0.65,2.28,8.2,9.4,285,288,23.4,33.2,23.0,21.2,18.5,0.118,0.138,0.202,0.324,1,3600.0,845.8,743.2,102.6,905.2,845.8,1098.6,874.0,768.0,106.0,905.2,874.0,1135.2,Tracheophyta; Eucalyptus L'Hér.; Pinus pinaster Aiton; Vitis vinifera L.; Magnoliopsida
2001,2001-09-08,Viseu,Sátão,Ferreira de Aves,FERREIRA DE AVES \ SF,40.8100575,-7.6644267,NC,673.0,2001-09-08T14:00,26.5,31,7.9,27.0,0.0,0.0,0.0,0.0,1,1018.1,943.4,26,0,0,88,0.57,2.4,4.3,4.9,48,54,18.4,29.4,21.3,20.5,18.4,0.117,0.157,0.211,0.325,1,3600.0,782.6,666.3,116.3,880.5,782.6,1020.1,814.0,693.0,121.0,880.5,814.0,1061.0,Pinales; Pinus pinaster Aiton; Magnoliopsida
2001,2001-04-21,Viseu,Tondela,Santiago de Besteiros,Litrela,40.5829418,-8.1293219,NC,368.0,2001-04-21T12:00,14.4,41,1.3,13.4,0.0,0.0,0.0,0.0,0,1019.1,975.7,0,0,0,0,0.48,0.97,8.8,10.9,341,343,23.8,17.1,11.6,12.3,11.1,0.236,0.292,0.353,0.408,1,3600.0,942.5,834.8,107.7,958.8,942.5,1179.9,919.0,814.0,105.0,958.8,919.0,1150.4,Tracheophyta; Pinus pinaster Aiton; Vitis vinifera L.; Magnoliopsida; Eucalyptus L'Hér.
2001,2001-02-09,Viseu,Viseu,Fail,FAIL \ SF,40.60494105,-7.984804209755274,NC,328.0,2001-02-09T14:00,9.4,93,8.3,7.2,1.1,1.1,0.0,0.0,55,1026.9,987.1,100,100,99,48,0.04,0.09,11.7,18.4,171,176,30.2,8.8,8.2,9.8,11.5,0.43,0.421,0.421,0.429,1,0.0,48.0,0.0,48.0,0.0,48.0,749.6,50.0,0.0,50.0,0.0,50.0,781.2,Pinus pinaster Aiton; Magnoliopsida; Tracheophyta; Eucalyptus L'Hér.
2001,2001-08-25,Viseu,Mangualde,Espinho,Gandufe,40.5656484,-7.8053362,NC,414.0,2001-08-25T00:00,23.0,56,13.7,23.3,0.0,0.0,0.0,0.0,2,1010.8,963.9,55,0,41,100,0.03,1.24,6.5,9.4,124,130,19.8,23.4,25.8,22.0,19.0,0.088,0.159,0.233,0.34,0,0.0,0.0,0.0,0.0,0.0,0.0,0.0,0.0,0.0,0.0,0.0,0.0,0.0,Olea europaea L.; Pinus pinaster Aiton; Vitis vinifera L.; Magnoliopsida
2001,2001-09-08,Viseu,Mangualde,Fornos de Maceira Dão,Tabosa \ POVI,40.6086698,-7.8185976,NC,418.0,2001-09-08T17:00,29.0,23,5.9,26.9,0.0,0.0,0.0,0.0,1,1015.9,969.2,22,0,0,73,0.32,3.08,7.4,8.9,331,333,19.4,32.7,24.3,22.2,19.7,0.089,0.154,0.226,0.334,1,3600.0,317.6,249.8,67.8,719.7,317.6,467.9,398.0,313.0,85.0,719.7,398.0,586.3,Pinus pinaster Aiton; Tracheophyta; Pinales; Magnoliopsida; Vitis vinifera L.
2001,2001-06-23,Aveiro,Ovar,Maceda,MACEDA,40.9269211,-8.6166867,NC,31.0,2001-06-23T16:00,25.5,52,14.9,24.0,0.0,0.0,0.0,0.0,0,1014.9,1011.3,0,0,0,0,0.52,1.57,27.7,36.4,332,335,46.1,30.7,23.6,19.9,16.2,0.11,0.141,0.224,0.333,1,3600.0,687.9,582.7,105.2,834.9,687.9,924.1,752.0,637.0,115.0,834.9,752.0,1010.1,Tracheophyta; Magnoliopsida; Eucalyptus L'Hér.
2001,2001-02-09,Viseu,Oliveira de Frades,Arcozelo das Maias,ARCOZELO DAS MAIAS \ SF,40.7353971,-8.2776103,NC,366.0,2001-02-09T17:00,9.8,99,9.7,8.4,1.3,1.3,0.0,0.0,61,1026.3,982.1,100,100,93,1,0.02,0.01,9.4,15.2,157,173,34.2,9.5,8.9,10.2,11.7,0.429,0.429,0.425,0.429,1,0.0,19.5,1.3,18.2,8.0,19.5,235.9,29.0,2.0,27.0,8.0,29.0,350.3,Eucalyptus L'Hér.; Pinus pinaster Aiton; Magnoliopsida; Tracheophyta; Quercus L.; Olea europaea L.
2001,2001-08-25,Viseu,Vila Nova de Paiva,Vila Cova à Coelheira,VILA COVA A COELHEIRA,40.876181200000005,-7.798446661944673,NC,722.0,2001-08-25T04:00,21.8,45,9.3,20.4,0.0,0.0,0.0,0.0,2,1011.8,931.2,70,0,67,98,0.06,1.44,8.6,20.8,147,171,32.4,20.9,23.5,20.4,17.3,0.122,0.157,0.219,0.337,0,0.0,0.0,0.0,0.0,0.0,0.0,0.0,0.0,0.0,0.0,0.0,0.0,0.0,Magnoliopsida; Pinus pinaster Aiton; Tracheophyta
2001,2001-02-09,Viseu,Vila Nova de Paiva,Pendilhe,PENDILHE,40.9063698,-7.8366812,NC,746.0,2001-02-09T21:00,7.5,99,7.3,5.3,0.0,0.0,0.0,0.0,3,1029.0,940.4,100,100,85,85,0.0,0.01,10.1,18.1,197,203,24.5,7.0,6.7,8.0,9.6,0.421,0.423,0.425,0.427,0,0.0,0.0,0.0,0.0,0.0,0.0,0.0,0.0,0.0,0.0,0.0,0.0,0.0,Magnoliopsida; Tracheophyta; Pinus pinaster Aiton; 
2001,2001-09-09,Viseu,Castro Daire,Pinheiro,Cetos \ POV,40.9204667,-7.9780049,NC,314.0,2001-09-09T17:00,30.2,29,10.1,29.3,0.0,0.0,0.0,0.0,0,1013.7,978.6,0,0,0,0,0.31,3.06,6.2,8.2,306,308,16.6,31.9,24.5,22.1,19.9,0.11,0.16,0.209,0.325,1,3600.0,316.8,255.3,61.4,740.8,316.8,464.9,397.0,320.0,77.0,740.8,397.0,582.7,Eucalyptus L'Hér.; Tracheophyta; Quercus L.; Magnoliopsida; Pinus pinaster Aiton; Pinales
2001,2001-08-25,Viseu,Mangualde,Santiago de Cassurrães,SANTIAGO DE CASSURÃES \ SF,40.5788253,-7.7039594,NC,519.0,2001-08-25T04:00,23.0,42,9.6,21.6,0.0,0.0,0.0,0.0,1,1010.8,952.4,39,0,23,85,0.07,1.62,9.0,18.2,90,117,28.8,22.0,25.4,22.2,19.0,0.085,0.155,0.227,0.336,0,0.0,0.0,0.0,0.0,0.0,0.0,0.0,0.0,0.0,0.0,0.0,0.0,0.0,Magnoliopsida; Olea europaea L.; Eucalyptus L'Hér.; Tracheophyta; Pinus pinaster Aiton
2001,2001-09-09,Viseu,Vila Nova de Paiva,Fráguas,Trabolha \ REG,40.8384326,-7.7700275,NC,695.0,2001-09-09T00:00,17.3,55,8.2,15.6,0.0,0.0,0.0,0.0,1,1017.4,938.1,28,0,0,93,0.04,0.89,8.4,13.0,50,48,18.0,18.2,21.8,20.3,18.1,0.113,0.159,0.211,0.325,0,0.0,0.0,0.0,0.0,0.0,0.0,0.0,0.0,0.0,0.0,0.0,0.0,0.0,Magnoliopsida; Pinus pinaster Aiton; Tracheophyta; Quercus L.
2001,2001-08-25,Viseu,Viseu,Fail,FAIL,40.60494105,-7.984804209755274,NC,328.0,2001-08-25T06:00,22.1,57,13.1,21.9,0.0,0.0,0.0,0.0,1,1011.5,974.0,44,10,14,89,0.04,1.15,7.4,12.3,231,220,15.8,20.7,24.2,21.8,18.9,0.106,0.138,0.2,0.323,1,0.0,0.0,0.0,0.0,0.0,0.0,15.9,0.0,0.0,0.0,0.0,0.0,0.0,Pinus pinaster Aiton; Magnoliopsida; Tracheophyta; Eucalyptus L'Hér.
2001,2001-09-09,Viseu,Mangualde,Alcafache,Casal Sandinho,40.5958198,-7.8596783,NC,405.0,2001-09-09T21:00,23.8,45,11.1,23.7,0.0,0.0,0.0,0.0,0,1014.5,968.5,0,0,0,0,0.02,1.63,3.3,4.1,276,285,9.0,24.1,24.9,22.0,19.5,0.094,0.154,0.224,0.333,0,0.0,0.0,0.0,0.0,0.0,0.0,0.0,0.0,0.0,0.0,0.0,0.0,0.0,Pinus pinaster Aiton; Magnoliopsida; Tracheophyta; Vitis vinifera L.; Eucalyptus L'Hér.; Olea europaea L.
2001,2001-08-25,Viseu,Castro Daire,Ermida,Codeçais \ POVI,40.9212513,-7.968118,NC,397.0,2001-08-25T09:00,27.9,44,14.7,28.5,0.0,0.0,0.0,0.0,1,1011.7,967.3,23,0,13,52,0.29,2.08,6.3,8.4,121,121,20.9,26.8,23.9,21.5,18.7,0.114,0.151,0.217,0.333,1,3600.0,448.0,316.6,131.3,563.4,448.0,752.5,382.0,270.0,112.0,563.4,382.0,641.6,Pinus pinaster Aiton; Magnoliopsida; Eucalyptus L'Hér.; Tracheophyta; Pinales
2001,2001-09-10,Viseu,Tondela,Mouraz,Couço,40.4770455,-8.0691685,NC,283.0,2001-09-10T05:00,16.3,66,10.0,15.7,0.0,0.0,0.0,0.0,0,1013.6,980.4,0,0,0,0,0.01,0.63,4.8,5.4,63,70,7.9,17.4,23.6,22.4,19.8,0.098,0.138,0.19,0.314,0,0.0,0.0,0.0,0.0,0.0,0.0,0.0,0.0,0.0,0.0,0.0,0.0,0.0,Eucalyptus L'Hér.; Magnoliopsida; Tracheophyta; Pinus pinaster Aiton
2001,2001-08-25,Viseu,Viseu,Cota,Nogueira \ POVI,40.8043152,-7.8170878,Natural,679.0,2001-08-25T12:00,30.6,31,11.7,29.4,0.0,0.0,0.0,0.0,1,1013.2,939.2,37,0,13,98,0.61,3.01,16.7,22.7,155,155,47.2,31.8,23.9,20.6,17.5,0.105,0.152,0.217,0.331,1,3600.0,711.6,414.8,296.8,484.2,711.6,1147.3,693.0,404.0,289.0,484.2,693.0,1117.3,Pinus pinaster Aiton; Eucalyptus L'Hér.
2001,2001-09-10,Viseu,São Pedro do Sul,Santa Cruz da Trapa,Olheiro dos Lobos,40.76351405,-8.165419581504283,NC,321.0,2001-09-10T07:00,15.5,75,11.1,14.5,0.0,0.0,0.0,0.0,0,1014.2,976.5,0,0,0,0,0.04,0.44,9.3,17.6,74,79,22.0,17.3,23.1,22.4,19.9,0.099,0.141,0.201,0.322,1,1464.31,79.3,44.0,35.2,280.9,49.2,211.6,36.0,20.0,16.0,174.2,36.0,96.1,Magnoliopsida; Pinus pinaster Aiton; Quercus L.; Vitis vinifera L.; Eucalyptus L'Hér.; Acacia Mill.; Tracheophyta; Castanea sativa Mill.; Quercus suber L.; 
2001,2001-06-23,Aveiro,Ovar,Esmoriz,ESMORIZ,40.96277635,-8.63534580069145,NC,8.0,2001-06-23T14:00,26.1,50,15.0,25.8,0.0,0.0,0.0,0.0,0,1015.5,1014.6,0,0,0,0,0.64,1.68,26.4,34.3,331,335,45.0,31.3,23.1,20.0,16.3,0.107,0.172,0.254,0.348,1,3600.0,926.7,806.0,120.7,887.6,926.7,1202.3,952.0,828.0,124.0,887.6,952.0,1235.1,Tracheophyta; Magnoliopsida
2001,2001-09-10,Viseu,Penalva do Castelo,Vila Cova do Covelo,VILA COVA DO COVELO,40.6709991,-7.601658137232124,NC,568.0,2001-09-10T13:00,28.0,28,7.6,28.5,0.0,0.0,0.0,0.0,0,1014.6,951.7,0,0,0,0,0.6,2.73,4.9,5.5,54,58,27.0,32.6,22.9,22.0,19.7,0.081,0.154,0.225,0.332,1,3600.0,831.2,729.9,101.3,909.6,831.2,1082.9,837.0,735.0,102.0,909.6,837.0,1090.4,Pinus pinaster Aiton; Magnoliopsida; Tracheophyta; Vitis vinifera L.; Olea europaea L.
2001,2001-09-07,Viseu,Castro Daire,Pepim,PEPIM \ SF,40.892623,-7.9528172,NC,596.0,2001-09-07T11:00,21.2,40,7.0,19.0,0.0,0.0,0.0,0.0,0,1020.9,953.1,0,0,0,0,0.48,1.52,16.2,22.3,78,80,44.6,23.7,20.6,20.7,18.5,0.128,0.18,0.217,0.33,1,3600.0,778.2,676.1,102.1,886.2,778.2,1027.9,732.0,636.0,96.0,886.2,732.0,966.9,Magnoliopsida; Pinus pinaster Aiton; Tracheophyta
2001,2001-08-25,Viseu,Santa Comba Dão,Treixedo,TREIXEDO,40.43897785,-8.10220135326528,NC,279.0,2001-08-25T12:00,31.4,37,15.1,32.4,0.0,0.0,0.0,0.0,1,1011.9,980.8,35,0,19,78,0.62,2.87,12.7,16.6,188,185,29.2,32.5,24.2,21.4,18.6,0.107,0.138,0.202,0.324,1,3600.0,784.0,597.0,187.0,694.8,784.0,1150.5,763.0,581.0,182.0,694.8,763.0,1119.6,Tracheophyta; Eucalyptus L'Hér.; Pinus pinaster Aiton; Magnoliopsida
2001,2001-09-10,Viseu,Viseu,Ranhados,Póvoa de Sobrinhos \ POVI,40.6419955,-7.8992132,NC,450.0,2001-09-10T13:00,29.4,25,7.4,30.5,0.0,0.0,0.0,0.0,0,1014.1,964.1,0,0,0,0,0.58,3.08,1.3,2.1,146,149,23.0,32.2,23.1,21.7,19.3,0.094,0.154,0.224,0.333,1,3600.0,827.9,728.5,99.4,907.0,827.9,1083.8,833.0,733.0,100.0,907.0,833.0,1090.5,Tracheophyta; Magnoliopsida; Vitis vinifera L.; Pinus pinaster Aiton
2001,2001-09-08,Viseu,Vila Nova de Paiva,Touro,TOURO \ SF,40.8953121,-7.7478521,NC,790.0,2001-09-08T22:00,18.3,52,8.4,16.7,0.0,0.0,0.0,0.0,1,1017.9,928.6,29,0,0,98,0.04,1.0,8.1,12.3,21,40,14.8,19.6,21.5,19.9,17.7,0.145,0.163,0.197,0.33,0,0.0,0.0,0.0,0.0,0.0,0.0,0.0,0.0,0.0,0.0,0.0,0.0,0.0,Magnoliopsida; Pinus pinaster Aiton; Tracheophyta; Eucalyptus L'Hér.; Quercus L.; 
2001,2001-09-08,Viseu,Vouzela,São Miguel do Mato,Vilar,40.7138886,-8.0185345,NC,444.0,2001-09-08T18:00,27.8,29,8.3,26.8,0.0,0.0,0.0,0.0,1,1016.5,966.8,29,0,0,98,0.14,2.64,3.6,8.9,6,14,11.9,29.5,24.0,21.5,19.2,0.106,0.145,0.2,0.32,1,3600.0,123.5,78.6,44.9,492.6,123.5,215.1,198.0,126.0,72.0,492.6,198.0,344.8,Pinus pinaster Aiton; Tracheophyta; Magnoliopsida; Eucalyptus L'Hér.; Olea europaea L.; Quercus L.; 
2001,2001-09-08,Viseu,Sátão,Rio de Moinhos,RIO DE MOINHOS,40.7144192,-7.6975145,NC,525.0,2001-09-08T05:00,15.5,63,8.6,13.3,0.0,0.0,0.0,0.0,0,1020.2,959.1,0,0,0,0,0.05,0.64,12.8,26.5,52,56,27.0,16.6,22.3,22.2,19.8,0.085,0.158,0.23,0.335,0,0.0,0.0,0.0,0.0,0.0,0.0,0.0,0.0,0.0,0.0,0.0,0.0,0.0,Tracheophyta; Pinus pinaster Aiton; Castanea sativa Mill.; Vitis vinifera L.; Magnoliopsida
2001,2001-09-08,Viseu,Oliveira de Frades,Ribeiradio,RIBEIRADIO,40.74277135,-8.320270210855663,NC,72.0,2001-09-08T00:00,20.6,53,10.8,19.6,0.0,0.0,0.0,0.0,0,1018.1,1009.6,0,0,0,0,0.05,1.14,8.4,19.2,65,64,14.8,21.8,25.0,23.0,20.5,0.103,0.138,0.198,0.32,0,0.0,0.0,0.0,0.0,0.0,0.0,0.0,0.0,0.0,0.0,0.0,0.0,0.0,Eucalyptus L'Hér.; Pinus pinaster Aiton; Magnoliopsida; Tracheophyta; Quercus L.; Olea europaea L.
2001,2001-09-07,Viseu,Penalva do Castelo,Pindo,PINDO,40.6708282,-7.7627647,NC,500.0,2001-09-07T17:00,26.3,26,5.4,23.4,0.0,0.0,0.0,0.0,0,1018.0,961.9,0,0,0,0,0.35,2.53,12.1,15.8,63,66,30.6,30.2,23.7,22.1,19.8,0.091,0.154,0.221,0.331,1,3600.0,327.5,267.4,60.0,759.7,327.5,474.3,409.0,334.0,75.0,759.7,409.0,592.4,Tracheophyta; Magnoliopsida; Vitis vinifera L.; Olea europaea L.; Pinus pinaster Aiton
2001,2001-09-26,Aveiro,Anadia,Avelãs de Caminho,AVELÃS DE CAMINHO,40.4752773,-8.4513124,NC,23.0,2001-09-26T14:00,21.6,47,9.6,20.7,0.0,0.0,0.0,0.0,1,1018.9,1016.2,23,0,2,73,0.41,1.38,8.7,10.3,246,241,22.3,24.6,19.0,21.2,20.8,0.164,0.111,0.139,0.254,1,3600.0,606.6,371.6,235.0,546.1,606.6,926.3,635.0,389.0,246.0,546.1,635.0,969.7,Magnoliopsida; Tracheophyta; Vitis vinifera L.; Eucalyptus L'Hér.
2001,2001-09-27,Aveiro,Sever do Vouga,Couto de Esteves,Parada,40.7790424,-8.2898565,NC,341.0,2001-09-27T05:00,8.6,95,7.9,7.5,0.0,0.0,0.0,0.0,1,1016.8,975.8,29,0,0,95,0.0,0.05,3.7,5.6,79,117,11.2,11.6,16.7,19.9,19.8,0.204,0.159,0.2,0.318,0,0.0,0.0,0.0,0.0,0.0,0.0,0.0,0.0,0.0,0.0,0.0,0.0,0.0,Tracheophyta; Pinus pinaster Aiton; Eucalyptus L'Hér.; Magnoliopsida
2001,2001-04-20,Viseu,Carregal do Sal,Sobral De Papízios,SOBRAL DE PAPÍZIOS,40.4583712,-8.0264833,NC,252.0,2001-04-20T01:00,6.7,77,2.9,4.0,0.0,0.0,0.0,0.0,0,1009.9,979.4,0,0,0,0,0.01,0.23,7.9,13.6,30,22,13.7,8.9,13.0,12.9,11.5,0.252,0.3,0.357,0.41,0,0.0,0.0,0.0,0.0,0.0,0.0,0.0,0.0,0.0,0.0,0.0,0.0,0.0,Tracheophyta; Eucalyptus L'Hér.; Quercus L.; Acacia Mill.; Pinus pinaster Aiton
2001,2001-06-23,Viseu,Tondela,Vilar de Besteiros,Casal de Cima,40.567502700000006,-8.092580556079202,NC,298.0,2001-06-23T19:00,25.5,52,14.9,25.6,0.0,0.0,0.0,0.0,0,1013.1,979.3,0,0,0,0,0.18,1.57,10.3,14.5,295,300,26.3,29.0,24.9,19.3,14.5,0.097,0.174,0.27,0.366,1,3600.0,139.8,99.0,40.8,538.7,139.8,243.2,209.0,148.0,61.0,538.7,209.0,363.7,Magnoliopsida; Pinus pinaster Aiton; Tracheophyta; Eucalyptus L'Hér.; Vitis vinifera L.; Acacia Mill.
2001,2001-04-20,Viseu,São Pedro do Sul,Manhouce,Abundancia,40.8232938,-8.2129772,NC,621.0,2001-04-20T07:00,5.1,71,0.3,1.4,0.0,0.0,0.0,0.0,0,1013.4,939.5,8,0,0,28,0.04,0.25,11.0,18.6,79,80,30.6,6.9,10.3,11.6,10.2,0.304,0.325,0.363,0.411,1,2788.28,159.2,97.3,61.9,436.8,135.7,302.0,90.0,55.0,35.0,372.3,90.0,170.7,Magnoliopsida; Pinus pinaster Aiton; Quercus L.; Eucalyptus L'Hér.; Tracheophyta; Quercus suber L.; 
2001,2001-08-25,Viseu,Castro Daire,Mezio,MÉZIO,40.9796891,-7.8866874,NC,898.0,2001-08-25T13:00,29.5,32,11.1,28.8,0.0,0.0,0.0,0.0,1,1012.0,915.3,45,0,29,91,0.65,2.8,15.9,22.0,162,162,42.8,31.5,23.1,19.5,16.4,0.122,0.152,0.216,0.338,1,3600.0,798.6,584.2,214.3,680.6,798.6,1149.5,801.0,586.0,215.0,680.6,801.0,1153.0,Magnoliopsida; Tracheophyta
2001,2001-04-16,Viseu,Santa Comba Dão,Couto do Mosteiro,Gestosa,40.4102502,-8.141927339600691,NC,218.0,2001-04-16T21:00,10.8,89,9.1,9.4,0.0,0.0,0.0,0.0,0,1015.7,989.5,1,1,0,0,0.0,0.14,7.9,10.5,254,264,12.2,13.3,14.9,12.9,11.5,0.269,0.315,0.366,0.412,0,0.0,0.0,0.0,0.0,0.0,0.0,0.0,0.0,0.0,0.0,0.0,0.0,0.0,Tracheophyta; Magnoliopsida; Pinus pinaster Aiton; Acacia Mill.; Quercus L.
2001,2001-09-07,Viseu,Nelas,Santar,Casal Sancho \ POVI,40.5732265,-7.8855925,NC,382.0,2001-09-07T18:00,26.3,28,6.3,24.4,0.0,0.0,0.0,0.0,0,1017.3,974.1,0,0,0,0,0.18,2.48,6.9,14.0,43,48,23.4,28.1,23.8,22.0,19.6,0.1,0.155,0.225,0.334,1,3600.0,135.0,99.9,35.2,613.3,135.0,219.4,215.0,159.0,56.0,613.3,215.0,349.3,Tracheophyta; Olea europaea L.; Pinus pinaster Aiton; Vitis vinifera L.; Magnoliopsida
2001,2001-09-08,Viseu,São Pedro do Sul,Manhouce,MANHOUCE,40.826526,-8.1964879,NC,723.0,2001-09-08T18:00,25.4,35,8.7,24.3,0.0,0.0,0.0,0.0,1,1017.0,936.9,29,0,0,96,0.15,2.12,5.2,9.6,25,34,14.4,26.8,21.9,19.8,17.6,0.12,0.168,0.21,0.331,1,3600.0,122.8,78.3,44.5,485.6,122.8,217.5,196.0,125.0,71.0,485.6,196.0,347.0,Magnoliopsida; Pinus pinaster Aiton; Quercus L.; Eucalyptus L'Hér.; Tracheophyta; Quercus suber L.; 
2001,2001-09-10,Viseu,Oliveira de Frades,Ribeiradio,RIBEIRADIO,40.74277135,-8.320270210855663,NC,72.0,2001-09-10T14:00,30.6,34,13.0,31.4,0.0,0.0,0.0,0.0,0,1013.4,1005.2,0,0,0,0,0.62,2.89,10.5,12.3,276,277,27.4,34.9,25.1,23.2,20.6,0.099,0.137,0.195,0.318,1,3600.0,767.0,668.9,98.2,888.6,767.0,1015.7,797.0,695.0,102.0,888.6,797.0,1055.4,Eucalyptus L'Hér.; Pinus pinaster Aiton; Magnoliopsida; Tracheophyta; Quercus L.; Olea europaea L.
2001,2001-09-08,Viseu,São Pedro do Sul,Várzea,Quintela,40.74920385,-8.081602319173324,NC,165.0,2001-09-08T18:00,29.6,30,10.1,28.6,0.0,0.0,0.0,0.0,1,1015.7,997.0,26,0,0,88,0.19,2.91,7.4,14.1,317,322,18.7,31.3,25.8,23.3,21.0,0.106,0.145,0.2,0.32,1,3600.0,126.6,84.8,41.8,531.7,126.6,215.1,203.0,136.0,67.0,531.7,203.0,344.8,Magnoliopsida; Eucalyptus L'Hér.; Tracheophyta; Castanea sativa Mill.; Pinus pinaster Aiton; Acacia Mill.; Pinales; Olea europaea L.; Vitis vinifera L.; ; Quercus L.
2001,2001-04-21,Viseu,Santa Comba Dão,Ovoa,ÓVOA,40.37824205,-8.126134351310736,NC,228.0,2001-04-21T14:00,16.8,39,2.9,15.7,0.0,0.0,0.0,0.0,0,1017.6,990.7,0,0,0,0,0.51,1.16,10.3,13.0,324,326,25.6,19.2,12.9,12.7,11.6,0.238,0.294,0.354,0.408,1,3600.0,885.0,783.6,101.5,950.4,885.0,1117.1,916.0,811.0,105.0,950.4,916.0,1156.2,Tracheophyta; Olea europaea L.; Pinus pinaster Aiton; Eucalyptus L'Hér.; Acacia Mill.; Magnoliopsida; Quercus suber L.
2001,2001-04-21,Viseu,Vila Nova de Paiva,Touro,Fraga Gorda,40.8953121,-7.7478521,NC,790.0,2001-04-21T15:00,13.9,41,1.0,12.2,0.0,0.0,0.0,0.0,0,1016.4,926.0,0,0,0,0,0.43,0.93,9.2,11.5,329,328,26.6,16.5,10.9,10.5,9.3,0.276,0.302,0.35,0.408,1,3600.0,771.5,679.2,92.4,939.7,771.5,979.3,827.0,728.0,99.0,939.7,827.0,1049.7,Magnoliopsida; Pinus pinaster Aiton; Tracheophyta; Eucalyptus L'Hér.; Quercus L.; 
2001,2001-04-17,Viseu,Tondela,Campo de Besteiros,Ribeira,40.5574553,-8.1113649,NC,279.0,2001-04-17T14:00,16.4,56,7.6,15.4,0.0,0.0,0.0,0.0,2,1011.4,978.8,75,43,53,15,0.27,0.83,2.6,3.4,34,32,16.9,17.2,13.5,12.7,11.3,0.273,0.311,0.364,0.412,1,3600.0,428.8,208.6,220.2,256.9,428.8,1102.7,444.0,216.0,228.0,256.9,444.0,1141.7,Magnoliopsida; Pinus pinaster Aiton; Eucalyptus L'Hér.; Vitis vinifera L.; Tracheophyta
2001,2001-04-17,Viseu,Tondela,Vila Nova da Rainha,Gandara,40.462719,-8.096450231938235,NC,341.0,2001-04-17T14:00,16.2,57,7.6,14.9,0.0,0.0,0.0,0.0,2,1011.3,971.5,64,40,46,0,0.3,0.8,4.2,5.4,31,37,19.8,17.0,13.5,12.7,11.2,0.276,0.31,0.363,0.412,1,3600.0,476.3,279.2,197.1,343.4,476.3,1104.2,493.0,289.0,204.0,343.4,493.0,1143.0,Vitis vinifera L.; Eucalyptus L'Hér.; Magnoliopsida; Tracheophyta; Pinus pinaster Aiton
2001,2001-04-16,Viseu,Tondela,Canas de Santa Maria,Valverde,40.5354378,-8.0620037,NC,299.0,2001-04-16T14:00,19.0,51,8.6,18.6,0.0,0.0,0.0,0.0,1,1015.9,981.1,48,0,46,68,0.45,1.08,8.7,10.5,275,276,24.5,20.3,14.2,12.8,11.4,0.265,0.313,0.366,0.412,1,3600.0,719.5,375.7,343.8,464.3,719.5,1099.4,745.0,389.0,356.0,464.3,745.0,1138.3,Vitis vinifera L.; Tracheophyta; Eucalyptus L'Hér.; Pinus pinaster Aiton; Olea europaea L.; Acacia Mill.
2001,2001-04-15,Viseu,São Pedro do Sul,Manhouce,MANHOUCE,40.826526,-8.1964879,NC,723.0,2001-04-15T22:00,11.4,75,7.2,10.3,0.0,0.0,0.0,0.0,0,1020.3,936.1,16,0,0,55,0.0,0.33,2.6,4.7,254,293,16.2,10.9,13.1,10.9,9.4,0.291,0.327,0.372,0.415,0,0.0,0.0,0.0,0.0,0.0,0.0,0.0,0.0,0.0,0.0,0.0,0.0,0.0,Magnoliopsida; Pinus pinaster Aiton; Quercus L.; Eucalyptus L'Hér.; Tracheophyta; Quercus suber L.; 
2001,2001-04-12,Viseu,Tondela,Lajeosa do Dão,LAGEOSA,40.5042963,-7.9872116,NC,281.0,2001-04-12T16:00,19.1,39,4.8,16.5,0.0,0.0,0.0,0.0,1,1021.5,988.6,30,0,0,100,0.39,1.35,12.2,16.3,62,62,27.0,18.8,14.2,12.3,11.1,0.308,0.344,0.378,0.416,1,3600.0,562.7,448.2,114.5,794.0,562.7,768.7,634.0,505.0,129.0,794.0,634.0,866.1,Magnoliopsida; Tracheophyta; Pinus pinaster Aiton; Pinales; Eucalyptus L'Hér.
2001,2001-04-21,Viseu,São Pedro do Sul,Manhouce,Abundancia,40.8232938,-8.2129772,NC,621.0,2001-04-21T21:00,7.4,78,3.8,4.9,0.0,0.0,0.0,0.0,1,1019.0,945.3,28,0,0,92,0.0,0.23,6.8,12.7,288,305,22.0,10.4,12.4,11.5,10.3,0.273,0.313,0.358,0.41,0,0.0,0.0,0.0,0.0,0.0,0.0,0.0,0.0,0.0,0.0,0.0,0.0,0.0,Magnoliopsida; Pinus pinaster Aiton; Quercus L.; Eucalyptus L'Hér.; Tracheophyta; Quercus suber L.; 
2001,2001-04-19,Viseu,Castro Daire,Castro Daire,Lamelas de Cá,40.91465745,-7.920020147736607,NC,660.0,2001-04-19T21:00,8.9,63,2.2,5.8,0.0,0.0,0.0,0.0,0,1010.4,933.3,0,0,0,0,0.02,0.43,9.4,14.2,2,9,23.4,10.7,12.4,11.4,9.9,0.29,0.313,0.357,0.41,0,0.0,0.0,0.0,0.0,0.0,0.0,0.0,0.0,0.0,0.0,0.0,0.0,0.0,Pinus pinaster Aiton; Magnoliopsida; Pinales; Eucalyptus L'Hér.; Tracheophyta
2001,2001-08-25,Aveiro,Albergaria-a-Velha,Branca,Samuel,40.7540788,-8.4862112,NC,162.0,2001-08-25T01:00,22.3,88,20.2,25.8,0.0,0.0,0.0,0.0,1,1010.5,991.8,36,0,16,87,0.0,0.33,3.6,4.7,53,58,11.5,21.6,24.0,21.3,19.1,0.121,0.136,0.204,0.319,0,0.0,0.0,0.0,0.0,0.0,0.0,0.0,0.0,0.0,0.0,0.0,0.0,0.0,Eucalyptus L'Hér.; Magnoliopsida; Tracheophyta
2001,2001-04-11,Viseu,Viseu,Bodiosa,Póvoa da Queirela,40.7174518,-7.9909968,NC,454.0,2001-04-11T18:00,19.2,50,8.4,18.0,0.0,0.0,0.0,0.0,0,1023.3,970.7,0,0,0,0,0.15,1.12,5.1,12.0,39,41,23.8,18.0,14.8,11.8,10.6,0.32,0.352,0.38,0.417,1,3600.0,177.4,135.8,41.6,663.3,177.4,279.0,260.0,199.0,61.0,663.3,260.0,408.8,Pinus pinaster Aiton; Magnoliopsida; Tracheophyta
2001,2001-04-14,Viseu,Castro Daire,Castro Daire,Folgosa,40.8948802,-7.8980842,NC,591.0,2001-04-14T17:00,16.9,42,4.0,13.5,0.0,0.0,0.0,0.0,0,1020.6,952.4,0,0,0,0,0.29,1.11,13.5,19.3,74,76,38.9,16.9,12.9,11.4,10.0,0.286,0.327,0.37,0.414,1,3600.0,391.8,326.8,65.0,816.2,391.8,544.6,476.0,397.0,79.0,816.2,476.0,661.6,Magnoliopsida; Pinus pinaster Aiton; Tracheophyta
2001,2001-09-07,Viseu,Viseu,Couto de Baixo,Portela \ POV,40.6574327,-8.007147,NC,385.0,2001-09-07T22:00,20.9,44,8.1,18.9,0.0,0.0,0.0,0.0,0,1019.3,974.9,0,0,0,0,0.07,1.39,10.0,23.3,60,63,21.6,21.8,23.7,21.9,19.5,0.11,0.146,0.201,0.32,0,0.0,0.0,0.0,0.0,0.0,0.0,0.0,0.0,0.0,0.0,0.0,0.0,0.0,Pinus pinaster Aiton; Magnoliopsida; Tracheophyta; Eucalyptus L'Hér.
2001,2001-04-16,Viseu,Santa Comba Dão,São Joaninho,Vila Pouca,40.4345356,-8.1195402,NC,276.0,2001-04-16T21:00,10.4,89,8.7,8.9,0.0,0.0,0.0,0.0,0,1015.7,982.6,1,1,0,0,0.0,0.14,7.9,10.5,254,264,12.2,12.9,14.5,12.5,11.1,0.269,0.315,0.366,0.412,0,0.0,0.0,0.0,0.0,0.0,0.0,0.0,0.0,0.0,0.0,0.0,0.0,0.0,Tracheophyta; Eucalyptus L'Hér.; Magnoliopsida; Pinus pinaster Aiton
2001,2001-06-30,Guarda,Aguiar da Beira,Gradiz,GRADIZ,40.8626326,-7.5249592,NC,619.0,2001-06-30T12:00,29.4,36,12.7,31.6,0.0,0.0,0.0,0.0,0,1020.8,952.3,0,0,0,0,0.7,2.62,7.2,9.0,63,67,25.2,32.3,23.4,20.0,14.6,0.117,0.151,0.236,0.359,1,3600.0,964.8,844.1,120.7,893.5,964.8,1250.0,943.0,825.0,118.0,893.5,943.0,1221.8,Magnoliopsida; Pinus pinaster Aiton; Tracheophyta
2001,2001-04-18,Viseu,São Pedro do Sul,Carvalhais,Paço,40.7883335,-8.1127132,NC,379.0,2001-04-18T22:00,11.9,72,7.1,10.5,0.0,0.0,0.0,0.0,0,1012.3,967.5,0,0,0,0,0.0,0.39,4.3,6.5,265,273,9.0,11.7,14.2,12.8,11.3,0.275,0.308,0.36,0.41,0,0.0,0.0,0.0,0.0,0.0,0.0,0.0,0.0,0.0,0.0,0.0,0.0,0.0,Magnoliopsida; Eucalyptus L'Hér.; Pinus pinaster Aiton; Tracheophyta; Quercus L.; Acacia Mill.; Olea europaea L.; Quercus suber L.; 
2001,2001-04-13,Viseu,Vila Nova de Paiva,Touro,TOURO,40.9401466,-7.7762141,NC,825.0,2001-04-13T21:00,11.3,49,0.9,7.0,0.0,0.0,0.0,0.0,0,1019.6,924.3,0,0,0,0,0.07,0.69,15.9,31.4,65,66,35.6,11.2,11.9,10.2,8.7,0.309,0.337,0.372,0.415,0,0.0,0.0,0.0,0.0,0.0,0.0,0.0,0.0,0.0,0.0,0.0,0.0,0.0,Magnoliopsida; Pinus pinaster Aiton; Tracheophyta; Eucalyptus L'Hér.; Quercus L.; 
2001,2001-04-16,Viseu,Viseu,Mundão,Casal de Mundão,40.7102087,-7.8757823,NC,573.0,2001-04-16T19:00,14.0,72,9.1,12.9,0.0,0.0,0.0,0.0,1,1015.0,948.5,20,0,16,36,0.04,0.44,5.8,12.6,266,272,23.0,15.8,14.5,11.6,10.1,0.258,0.315,0.366,0.413,1,2673.8,14.0,6.2,7.8,71.6,11.6,30.8,74.0,33.0,41.0,227.5,74.0,163.0,Tracheophyta; Magnoliopsida; Pinus pinaster Aiton
2001,2001-09-10,Viseu,Mortágua,Mortágua,MORTÁGUA,40.3908854,-8.24109454072914,NC,93.0,2001-09-10T21:00,21.2,70,15.5,22.5,0.0,0.0,0.0,0.0,0,1014.4,1003.5,0,0,0,0,0.0,0.75,3.4,1.8,238,270,8.3,24.3,26.2,23.0,20.4,0.07,0.092,0.12,0.238,0,0.0,0.0,0.0,0.0,0.0,0.0,0.0,0.0,0.0,0.0,0.0,0.0,0.0,Tracheophyta; Eucalyptus L'Hér.; Pinus pinaster Aiton
2001,2001-04-09,Viseu,Viseu,Cavernães,Vendas da Moita,40.7087815,-7.8277373,NC,545.0,2001-04-09T12:00,18.5,50,7.9,19.0,0.0,0.0,0.0,0.0,0,1027.9,964.7,0,0,0,0,0.51,1.06,6.1,7.7,50,49,21.6,18.1,11.3,10.9,10.1,0.354,0.372,0.387,0.419,1,3600.0,885.9,782.1,103.8,941.6,885.9,1133.1,862.0,761.0,101.0,941.6,862.0,1102.6,Tracheophyta; Pinus pinaster Aiton; Magnoliopsida
2001,2001-09-10,Aveiro,Ovar,Cortegaça,CORTEGAÇA,40.940648,-8.6302462,NC,11.0,2001-09-10T13:00,29.7,38,14.0,30.7,0.0,0.0,0.0,0.0,0,1013.9,1012.6,0,0,0,0,0.63,2.57,11.9,11.5,267,266,24.8,35.0,25.0,23.1,20.4,0.102,0.109,0.146,0.29,1,3600.0,814.2,701.7,112.5,875.5,814.2,1081.6,818.0,705.0,113.0,875.5,818.0,1086.6,Eucalyptus L'Hér.; Tracheophyta; Magnoliopsida; Pinus pinaster Aiton
2001,2001-04-21,Viseu,Nelas,Nelas,NELAS,40.51924,-7.859607564669652,NC,422.0,2001-04-21T14:00,15.7,40,2.1,14.5,0.0,0.0,0.0,0.0,0,1017.3,968.0,0,0,0,0,0.5,1.07,10.7,13.4,320,324,28.4,18.8,12.2,12.0,10.8,0.247,0.302,0.356,0.409,1,3600.0,889.2,787.9,101.4,958.9,889.2,1113.3,921.0,816.0,105.0,958.9,921.0,1153.1,Pinus pinaster Aiton; Magnoliopsida; Vitis vinifera L.; Tracheophyta
2001,2001-09-07,Aveiro,Ovar,Esmoriz,ESMORIZ,40.96277635,-8.63534580069145,NC,8.0,2001-09-07T13:00,28.7,28,8.4,28.1,0.0,0.0,0.0,0.0,0,1018.3,1017.4,0,0,0,0,0.64,2.83,12.2,15.2,19,31,27.4,32.5,24.5,22.8,20.4,0.097,0.122,0.18,0.31,1,3600.0,839.6,738.0,101.6,907.4,839.6,1095.8,843.0,741.0,102.0,907.4,843.0,1100.2,Tracheophyta; Magnoliopsida
2001,2001-09-07,Aveiro,Ovar,Maceda,MACEDA,40.9269211,-8.6166867,NC,31.0,2001-09-07T19:00,26.0,41,11.9,23.9,0.0,0.0,0.0,0.0,0,1017.1,1013.5,0,0,0,0,0.18,1.97,18.7,31.0,344,351,28.1,28.5,25.8,22.7,20.1,0.105,0.109,0.148,0.291,0,1817.62,0.0,0.0,0.0,0.0,0.0,0.0,48.0,29.0,19.0,237.3,48.0,105.9,Tracheophyta; Magnoliopsida; Eucalyptus L'Hér.
2001,2001-04-08,Viseu,Vila Nova de Paiva,Vila Nova de Paiva,VILA NOVA DE PAIVA,40.8522085,-7.7289147,NC,794.0,2001-04-08T17:00,14.8,46,3.3,11.8,0.0,0.0,0.0,0.0,0,1027.8,936.2,2,0,0,6,0.25,0.91,9.9,13.1,10,9,26.6,15.2,11.3,9.7,8.9,0.36,0.371,0.387,0.418,1,3600.0,368.1,304.5,63.5,803.9,368.1,517.0,452.0,374.0,78.0,803.9,452.0,634.9,Tracheophyta; Magnoliopsida; Pinus pinaster Aiton; Quercus L.
2001,2001-09-10,Aveiro,Águeda,Trofa,TROFA,40.6114853,-8.470026999845588,NC,77.0,2001-09-10T22:00,19.8,81,16.5,21.6,0.0,0.0,0.0,0.0,0,1015.1,1006.0,0,0,0,0,0.0,0.43,3.8,4.0,197,180,6.8,21.2,25.1,22.4,20.0,0.061,0.077,0.109,0.226,0,0.0,0.0,0.0,0.0,0.0,0.0,0.0,0.0,0.0,0.0,0.0,0.0,0.0,Tracheophyta; Magnoliopsida; Eucalyptus L'Hér.
2001,2001-06-24,Viseu,Penalva do Castelo,Castelo de Penalva,Casal das Donas,40.6622301,-7.6488717,NC,464.0,2001-06-24T03:00,19.3,80,15.8,20.5,0.0,0.0,0.0,0.0,0,1014.2,961.0,4,0,7,0,0.0,0.44,5.0,7.3,360,11,8.3,20.1,25.5,20.4,14.6,0.082,0.192,0.282,0.37,0,0.0,0.0,0.0,0.0,0.0,0.0,0.0,0.0,0.0,0.0,0.0,0.0,0.0,Tracheophyta; Magnoliopsida; Pinus pinaster Aiton; Vitis vinifera L.
2001,2001-04-14,Viseu,Nelas,Canas de Senhorim,CANAS DE SENHORIM,40.4985075,-7.904444069997543,NC,354.0,2001-04-14T14:00,17.1,42,4.1,14.7,0.0,0.0,0.0,0.0,0,1020.2,978.7,0,0,0,0,0.49,1.14,18.6,24.8,72,73,42.8,18.0,12.8,12.3,11.0,0.291,0.335,0.375,0.415,1,3600.0,863.1,763.7,99.4,951.5,863.1,1091.8,894.0,791.0,103.0,951.5,894.0,1130.9,Tracheophyta; Castanea sativa Mill.; Magnoliopsida; Olea europaea L.; Vitis vinifera L.; Pinus pinaster Aiton
2001,2001-08-25,Aveiro,Oliveira do Bairro,Troviscal,TROVISCAL,40.50472645,-8.559422984896361,NC,55.0,2001-08-25T15:00,27.3,57,18.1,29.0,0.0,0.0,0.0,0.0,0,1012.1,1005.8,4,0,5,2,0.46,1.54,11.7,14.4,252,248,31.0,34.7,24.6,21.5,19.4,0.055,0.059,0.086,0.204,1,3600.0,585.4,453.5,131.9,626.3,585.4,969.8,626.0,485.0,141.0,626.3,626.0,1037.0,Tracheophyta; Eucalyptus L'Hér.; Vitis vinifera L.; Pinus pinaster Aiton
2001,2001-04-14,Viseu,Sátão,Sátão,SATÃO,40.74564085,-7.749994771738869,NC,613.0,2001-04-14T15:00,16.3,41,3.1,13.2,0.0,0.0,0.0,0.0,0,1020.7,949.9,0,0,0,0,0.44,1.09,19.1,25.8,70,71,44.6,17.6,11.9,11.0,9.7,0.282,0.332,0.374,0.414,1,3600.0,746.9,655.6,91.3,931.2,746.9,957.7,802.0,704.0,98.0,931.2,802.0,1028.3,Pinus pinaster Aiton; Magnoliopsida; Pinales; Tracheophyta
2001,2001-07-10,Aveiro,Anadia,Sangalhos,SANGALHOS,40.4923703,-8.4730124,NC,76.0,2001-07-10T13:00,25.2,57,16.1,27.2,0.0,0.0,0.0,0.0,0,1019.0,1010.2,0,0,0,0,0.6,1.37,13.9,17.2,329,331,31.3,28.0,20.9,19.8,17.1,0.138,0.12,0.183,0.293,1,3600.0,919.8,733.8,186.0,775.4,919.8,1252.2,920.0,734.0,186.0,775.4,920.0,1252.5,Eucalyptus L'Hér.; Tracheophyta; Magnoliopsida; Vitis vinifera L.
2001,2001-04-09,Viseu,Nelas,Nelas,Póvoa da Roçada,40.51924,-7.859607564669652,NC,422.0,2001-04-09T14:00,20.8,47,9.0,21.2,0.0,0.0,0.0,0.0,0,1026.7,977.8,0,0,0,0,0.53,1.31,8.5,10.6,348,350,22.0,20.0,12.6,11.2,10.5,0.357,0.376,0.388,0.419,1,3600.0,835.7,737.2,98.4,937.5,835.7,1072.8,866.0,764.0,102.0,937.5,866.0,1111.7,Pinus pinaster Aiton; Magnoliopsida; Vitis vinifera L.; Tracheophyta
2001,2001-04-13,Viseu,Castro Daire,Castro Daire,Baltar de Baixo,40.9080938,-7.9099983,NC,612.0,2001-04-13T11:00,12.9,44,1.0,9.6,0.0,0.0,0.0,0.0,0,1021.6,950.1,0,0,0,0,0.39,0.83,17.1,24.1,75,76,49.0,13.9,11.1,11.2,9.9,0.309,0.338,0.374,0.415,1,3600.0,838.7,736.7,101.9,931.5,838.7,1076.6,790.0,694.0,96.0,931.5,790.0,1014.1,Pinus pinaster Aiton; Olea europaea L.; Tracheophyta; Magnoliopsida
2001,2001-04-10,Viseu,Santa Comba Dão,Ovoa,VIMIEIRO,40.37824205,-8.126134351310736,NC,228.0,2001-04-10T21:00,13.9,76,9.7,12.4,0.0,0.0,0.0,0.0,0,1024.2,996.8,0,0,0,0,0.01,0.38,9.3,14.8,16,23,17.3,13.9,15.1,12.3,11.3,0.34,0.363,0.386,0.418,0,0.0,0.0,0.0,0.0,0.0,0.0,0.0,0.0,0.0,0.0,0.0,0.0,0.0,Tracheophyta; Olea europaea L.; Pinus pinaster Aiton; Eucalyptus L'Hér.; Acacia Mill.; Magnoliopsida; Quercus suber L.
2001,2001-04-18,Viseu,Tondela,Lajeosa do Dão,LAJEOSA,40.539709,-7.9851432,NC,358.0,2001-04-18T21:00,11.6,70,6.4,9.7,0.0,0.0,0.0,0.0,0,1012.3,969.9,0,0,0,0,0.01,0.4,6.5,7.8,276,292,10.1,12.1,13.9,12.2,10.8,0.258,0.304,0.36,0.411,0,0.0,0.0,0.0,0.0,0.0,0.0,0.0,0.0,0.0,0.0,0.0,0.0,0.0,Pinus pinaster Aiton; Tracheophyta; Vitis vinifera L.; Eucalyptus L'Hér.
2001,2001-05-10,Aveiro,Ovar,Maceda,MACEDA,40.9269211,-8.6166867,NC,31.0,2001-05-10T13:00,18.9,51,8.5,18.9,0.0,0.0,0.0,0.0,3,1016.5,1012.8,92,71,3,87,0.52,1.08,11.1,12.5,234,231,23.0,21.0,15.0,14.1,13.5,0.322,0.316,0.275,0.356,1,3600.0,896.3,672.2,224.1,736.1,896.3,1225.3,900.0,675.0,225.0,736.1,900.0,1230.4,Tracheophyta; Magnoliopsida; Eucalyptus L'Hér.
2001,2001-09-14,Viseu,Oliveira de Frades,Arcozelo das Maias,ARCOZELO DAS MAIAS,40.7328081,-8.277242575931012,NC,370.0,2001-09-14T13:00,24.6,46,12.1,25.2,0.0,0.0,0.0,0.0,0,1014.4,972.4,16,5,0,37,0.54,1.69,10.1,12.6,333,336,29.9,29.3,22.1,22.1,19.7,0.097,0.139,0.198,0.319,1,3600.0,786.1,660.9,125.2,840.1,786.1,1063.8,791.0,665.0,126.0,840.1,791.0,1070.4,Eucalyptus L'Hér.; Pinus pinaster Aiton; Magnoliopsida; Tracheophyta; Quercus L.; Olea europaea L.
2001,2001-04-17,Viseu,Sátão,Águas Boas,ÁGUAS BOAS,40.8545902,-7.630350977918264,NC,823.0,2001-04-17T16:00,14.5,53,5.1,12.0,0.0,0.0,0.0,0.0,1,1010.2,917.0,42,25,27,11,0.3,0.77,8.9,11.5,32,32,27.7,15.8,12.4,10.7,9.1,0.304,0.314,0.359,0.409,1,3600.0,492.6,378.8,113.8,660.0,492.6,779.4,554.0,426.0,128.0,660.0,554.0,876.5,Pinus pinaster Aiton; Magnoliopsida; Tracheophyta; Pinales
2001,2001-06-26,Viseu,Sátão,Rio de Moinhos,SILVÃ DE CIMA,40.7144192,-7.6975145,NC,525.0,2001-06-26T13:00,20.6,48,9.1,20.1,0.0,0.0,0.0,0.0,0,1019.8,959.7,11,12,0,0,0.53,1.28,13.4,17.0,275,275,34.6,29.6,23.2,20.6,14.6,0.082,0.192,0.284,0.371,1,3600.0,854.6,612.3,242.3,644.8,854.6,1256.9,857.0,614.0,243.0,644.8,857.0,1260.3,Tracheophyta; Pinus pinaster Aiton; Castanea sativa Mill.; Vitis vinifera L.; Magnoliopsida
2001,2001-04-15,Viseu,Santa Comba Dão,São Joaninho,SÃO JOANINHO,40.45075455,-8.130012150133478,NC,321.0,2001-04-15T22:00,13.1,68,7.3,12.1,0.0,0.0,0.0,0.0,0,1020.3,982.1,11,0,0,36,0.0,0.48,2.4,1.8,63,11,9.0,12.5,14.9,12.7,11.2,0.268,0.317,0.367,0.413,0,0.0,0.0,0.0,0.0,0.0,0.0,0.0,0.0,0.0,0.0,0.0,0.0,0.0,Vitis vinifera L.; Tracheophyta; Eucalyptus L'Hér.; Pinus pinaster Aiton; Magnoliopsida
2001,2001-09-14,Viseu,Viseu,Lordosa,LORDOSA \ SF,40.7442752,-7.9057424,NC,544.0,2001-09-14T16:00,24.9,41,10.8,23.7,0.0,0.0,0.0,0.0,0,1012.6,951.7,16,0,0,55,0.39,1.86,10.0,12.9,330,333,27.4,31.4,23.1,21.7,19.4,0.084,0.152,0.218,0.328,1,3600.0,472.0,395.5,76.5,807.5,472.0,662.3,543.0,455.0,88.0,807.5,543.0,762.0,Pinus pinaster Aiton; Magnoliopsida; Tracheophyta
2001,2001-04-18,Viseu,Viseu,Ranhados,RANHADOS,40.6404554,-7.9065153,NC,449.0,2001-04-18T21:00,12.9,59,5.1,10.8,0.0,0.0,0.0,0.0,0,1012.3,959.7,0,0,0,0,0.02,0.61,6.4,7.6,297,301,12.2,11.8,13.7,12.1,10.6,0.269,0.313,0.362,0.411,0,0.0,0.0,0.0,0.0,0.0,0.0,0.0,0.0,0.0,0.0,0.0,0.0,0.0,Tracheophyta; Pinus pinaster Aiton; Magnoliopsida; Vitis vinifera L.
2001,2001-04-15,Viseu,São Pedro do Sul,Bordonhos,Alto do Barro,40.7747318,-8.0887621,NC,384.0,2001-04-15T18:00,18.9,52,8.9,17.2,0.0,0.0,0.0,0.0,0,1019.4,974.8,0,0,0,0,0.18,1.05,9.8,17.5,276,278,21.6,18.9,15.1,12.7,11.3,0.281,0.326,0.372,0.414,1,3600.0,189.4,145.5,43.9,669.0,189.4,295.7,272.0,209.0,63.0,669.0,272.0,424.7,Tracheophyta; Pinus pinaster Aiton; Quercus L.; Magnoliopsida; Eucalyptus L'Hér.; Acacia Mill.; 
2001,2001-06-27,Viseu,Sátão,Rio de Moinhos,SILVÃ DE CIMA,40.7144192,-7.6975145,NC,525.0,2001-06-27T20:00,18.2,63,11.1,16.8,0.0,0.0,0.0,0.0,0,1021.7,961.0,0,0,0,0,0.07,0.76,11.8,20.3,290,293,31.3,23.0,23.1,20.6,14.7,0.085,0.191,0.282,0.37,1,2128.39,1.2,0.6,0.6,7.4,0.9,2.7,52.0,28.0,24.0,223.6,52.0,118.1,Tracheophyta; Pinus pinaster Aiton; Castanea sativa Mill.; Vitis vinifera L.; Magnoliopsida
2001,2001-08-25,Aveiro,Anadia,Arcos,ARCOS,40.449042,-8.4451441,NC,27.0,2001-08-25T16:00,27.8,57,18.5,29.2,0.0,0.0,0.0,0.0,0,1012.3,1009.2,3,0,2,6,0.45,1.61,13.7,16.9,268,268,31.0,33.3,25.3,21.9,19.7,0.09,0.101,0.15,0.267,1,3600.0,539.7,445.0,94.7,754.2,539.7,790.1,604.0,498.0,106.0,754.2,604.0,884.2,Tracheophyta; Magnoliopsida
2001,2001-12-04,Viseu,Sátão,Silvã de Cima,Casal,40.7321209,-7.6722341,NC,550.0,2001-12-04T13:00,10.3,68,4.8,8.5,0.0,0.0,0.0,0.0,0,1029.3,963.7,2,2,0,0,0.19,0.4,3.7,4.5,61,61,15.5,10.3,6.3,9.7,15.3,0.264,0.281,0.308,0.322,1,3600.0,419.8,318.5,101.3,717.9,419.8,624.7,427.0,324.0,103.0,717.9,427.0,635.5,Magnoliopsida; Olea europaea L.; Vitis vinifera L.; Pinus pinaster Aiton; Castanea sativa Mill.
2001,2001-04-08,Viseu,Mortágua,Vale de Remígio,GANDRA NORTE,40.4035245,-8.260753,NC,130.0,2001-04-08T17:00,17.9,54,8.5,15.1,0.0,0.0,0.0,0.0,0,1028.4,1012.8,10,0,0,32,0.27,0.94,16.3,22.3,335,337,31.7,18.3,14.4,13.0,12.3,0.362,0.381,0.39,0.419,1,3600.0,370.2,303.2,67.0,783.5,370.2,528.1,453.0,371.0,82.0,783.5,453.0,646.2,Tracheophyta; Eucalyptus L'Hér.
2001,2001-09-08,Viseu,São Pedro do Sul,Serrazes,SERRAZES \ SF,40.7447776,-8.1217801,NC,340.0,2001-09-08T15:00,29.6,27,8.4,30.0,0.0,0.0,0.0,0.0,1,1016.8,978.7,25,0,0,84,0.5,3.05,2.3,2.3,18,18,14.8,33.4,23.8,22.2,19.9,0.107,0.146,0.2,0.32,1,3600.0,664.6,558.2,106.5,845.2,664.6,890.3,718.0,603.0,115.0,845.2,718.0,961.8,Tracheophyta; Eucalyptus L'Hér.; Quercus L.; Pinus pinaster Aiton; Magnoliopsida; Castanea sativa Mill.; Quercus suber L.; 
2001,2001-04-21,Viseu,Nelas,Nelas,Nelas,40.51924,-7.859607564669652,NC,422.0,2001-04-21T13:00,15.0,40,1.6,14.0,0.0,0.0,0.0,0.0,0,1018.0,968.5,0,0,0,0,0.51,1.02,10.2,12.9,328,330,28.1,17.9,11.8,12.0,10.8,0.249,0.302,0.356,0.409,1,3600.0,951.2,845.7,105.5,969.8,951.2,1181.6,956.0,850.0,106.0,969.8,956.0,1187.6,Pinus pinaster Aiton; Magnoliopsida; Vitis vinifera L.; Tracheophyta
2001,2001-08-29,Viseu,Tondela,Vilar de Besteiros,VILAR DE BESTEIROS,40.5769494,-8.082458,NC,342.0,2001-08-29T22:00,16.1,95,15.3,17.1,0.0,0.0,0.0,0.0,1,1018.8,978.6,21,23,0,0,0.0,0.1,5.6,6.6,255,279,10.1,19.0,21.8,21.7,19.0,0.207,0.141,0.198,0.32,0,0.0,0.0,0.0,0.0,0.0,0.0,0.0,0.0,0.0,0.0,0.0,0.0,0.0,Tracheophyta; Pinus pinaster Aiton; Magnoliopsida; Vitis vinifera L.; Eucalyptus L'Hér.
2001,2001-04-14,Viseu,Vila Nova de Paiva,Fráguas,FRÁGUAS,40.83757735,-7.768243854878458,NC,683.0,2001-04-14T11:00,11.7,54,2.7,8.0,0.0,0.0,0.0,0.0,0,1022.4,942.6,0,0,0,0,0.35,0.63,21.9,29.5,60,62,54.7,13.1,10.6,10.8,9.4,0.297,0.331,0.371,0.414,1,3600.0,858.1,753.1,105.0,946.2,858.1,1082.7,809.0,710.0,99.0,946.2,809.0,1020.7,Magnoliopsida; Pinus pinaster Aiton; Tracheophyta; Quercus L.
2001,2001-05-05,Aveiro,Águeda,Águeda,Gravanço,40.5869404,-8.4300871,NC,74.0,2001-05-05T21:00,12.6,76,8.4,10.8,0.0,0.0,0.0,0.0,0,1015.3,1006.4,3,0,5,0,0.01,0.36,9.2,20.3,334,348,20.9,13.8,14.8,13.3,13.3,0.33,0.352,0.344,0.398,0,0.0,0.0,0.0,0.0,0.0,0.0,0.0,0.0,0.0,0.0,0.0,0.0,0.0,Tracheophyta; Eucalyptus L'Hér.; Pinus pinaster Aiton; Magnoliopsida
2001,2001-04-14,Viseu,Vouzela,Fornelo do Monte,FORNELO DO MONTE,40.6429187,-8.1023594,NC,780.0,2001-04-14T20:00,12.3,52,2.8,9.3,0.0,0.0,0.0,0.0,0,1021.7,931.4,0,0,0,0,0.07,0.69,9.7,17.1,63,68,22.7,12.1,12.1,10.2,8.8,0.278,0.325,0.371,0.414,0,0.0,0.0,0.0,0.0,0.0,0.0,0.0,0.0,0.0,0.0,0.0,0.0,4.2,Magnoliopsida; Tracheophyta; Eucalyptus L'Hér.; Pinales; Pinus pinaster Aiton; Quercus L.; 
2001,2001-04-12,Viseu,Castro Daire,São Joaninho,SÃO JOANINHO,40.91729505,-7.859615402566296,NC,751.0,2001-04-12T20:00,12.0,57,3.7,9.2,0.0,0.0,0.0,0.0,0,1022.4,935.1,1,0,0,3,0.03,0.61,9.2,20.7,51,59,19.1,12.4,12.6,10.4,9.0,0.316,0.344,0.376,0.416,0,0.0,0.0,0.0,0.0,0.0,0.0,0.0,0.0,0.0,0.0,0.0,0.0,0.0,Magnoliopsida; Pinus pinaster Aiton
2001,2001-04-29,Viseu,Tondela,Tondela,TONDELA,40.49229365,-8.059504649263527,NC,273.0,2001-04-29T21:00,7.1,77,3.4,3.9,0.0,0.0,0.0,0.0,1,1014.4,981.3,34,24,20,0,0.01,0.23,11.0,22.4,322,327,32.8,10.6,13.5,12.7,11.9,0.302,0.32,0.343,0.402,0,0.0,0.0,0.0,0.0,0.0,0.0,0.0,0.0,0.0,0.0,0.0,0.0,0.0,Pinus pinaster Aiton; Eucalyptus L'Hér.; Magnoliopsida; Tracheophyta
2001,2001-09-14,Viseu,Castro Daire,Parada de Ester,Sobrado,40.9325712,-8.0584593,NC,378.0,2001-09-14T23:00,16.6,80,13.1,16.9,0.0,0.0,0.0,0.0,0,1013.4,969.4,0,0,0,0,0.0,0.38,5.0,7.4,60,39,12.2,19.0,23.0,21.9,19.7,0.102,0.153,0.206,0.323,0,0.0,0.0,0.0,0.0,0.0,0.0,0.0,0.0,0.0,0.0,0.0,0.0,0.0,Magnoliopsida; Pinus pinaster Aiton; Tracheophyta; Pinales; Eucalyptus L'Hér.
2001,2001-05-22,Viseu,Carregal do Sal,Oliveira do Conde,Azenha,40.4339796,-7.9579158,NC,242.0,2001-05-22T14:00,17.7,58,9.3,18.0,0.0,0.0,0.0,0.0,0,1016.8,988.4,10,9,3,0,0.48,0.85,9.8,12.1,306,307,26.6,20.9,15.9,14.2,11.9,0.303,0.334,0.339,0.389,1,3600.0,845.7,689.7,156.0,780.4,845.7,1179.9,873.0,712.0,161.0,780.4,873.0,1218.0,Tracheophyta; Pinus pinaster Aiton; Olea europaea L.; Pinales; Magnoliopsida; Acacia Mill.
2001,2001-05-19,Aveiro,Ovar,Válega,Saibreira,40.82742785,-8.552567100000001,Desconhecida,84.0,2001-05-19T13:00,23.0,54,13.2,25.7,0.0,0.0,0.0,0.0,0,1015.5,1005.7,5,0,0,18,0.62,1.3,6.5,8.0,6,10,20.9,23.7,17.6,14.7,13.3,0.345,0.367,0.353,0.376,1,3600.0,970.1,853.5,116.5,919.8,970.1,1240.3,974.0,857.0,117.0,919.8,974.0,1245.3,Eucalyptus L'Hér.; Pinus pinaster Aiton; Magnoliopsida
2001,2001-04-08,Viseu,Carregal do Sal,Beijós,Pardieiros,40.5320936,-7.9501442,NC,356.0,2001-04-08T15:00,16.8,47,5.5,15.7,0.0,0.0,0.0,0.0,0,1028.4,986.3,0,0,0,0,0.43,1.01,8.7,10.9,5,8,23.0,17.7,12.1,11.2,10.6,0.367,0.385,0.391,0.419,1,3600.0,721.1,629.9,91.2,914.2,721.1,940.4,775.0,677.0,98.0,914.2,775.0,1010.7,Tracheophyta; Pinus pinaster Aiton; Olea europaea L.; Vitis vinifera L.
2001,2001-05-01,Viseu,Mangualde,Santiago de Cassurrães,Contenças,40.5788253,-7.7039594,NC,519.0,2001-05-01T18:00,11.6,46,0.4,7.7,0.0,0.0,0.0,0.0,3,1013.6,952.8,87,6,86,100,0.17,0.73,12.5,18.1,314,317,26.6,14.1,11.5,11.4,10.8,0.312,0.32,0.344,0.402,1,3600.0,210.8,145.4,65.4,561.2,210.8,349.3,287.0,198.0,89.0,561.2,287.0,475.5,Magnoliopsida; Olea europaea L.; Eucalyptus L'Hér.; Tracheophyta; Pinus pinaster Aiton
2001,2001-05-24,Aveiro,Estarreja,Pardilhó,PARDILHO,40.78992795,-8.625687206614565,NC,10.0,2001-05-24T20:00,16.2,85,13.8,15.3,0.0,0.0,0.0,0.0,1,1022.1,1020.9,29,0,0,96,0.03,0.27,15.2,22.3,338,342,28.4,18.5,18.6,16.0,14.0,0.27,0.314,0.343,0.374,0,924.78,0.0,0.0,0.0,0.0,0.0,0.0,31.0,15.0,16.0,138.5,31.0,85.5,Tracheophyta; Magnoliopsida
2001,2001-08-30,Viseu,Santa Comba Dão,Couto do Mosteiro,Gestosa,40.4102502,-8.141927339600691,NC,218.0,2001-08-30T17:00,22.9,63,15.5,22.4,0.0,0.0,0.0,0.0,0,1017.3,992.1,18,3,0,50,0.24,1.03,16.3,22.4,311,314,34.6,24.9,21.9,21.7,19.2,0.209,0.146,0.201,0.322,1,3600.0,263.4,146.1,117.3,368.7,263.4,531.6,321.0,178.0,143.0,368.7,321.0,647.9,Tracheophyta; Magnoliopsida; Pinus pinaster Aiton; Acacia Mill.; Quercus L.
2001,2001-09-14,Viseu,Viseu,Calde,Póvoa \ POVI,40.7814005,-7.9135687,NC,558.0,2001-09-14T23:00,15.5,80,12.0,15.3,0.0,0.0,0.0,0.0,0,1013.5,949.1,0,0,0,0,0.0,0.36,6.1,8.7,40,38,12.6,18.2,22.1,20.9,18.7,0.104,0.155,0.207,0.323,0,0.0,0.0,0.0,0.0,0.0,0.0,0.0,0.0,0.0,0.0,0.0,0.0,0.0,Pinus pinaster Aiton; Magnoliopsida; Tracheophyta; Eucalyptus L'Hér.
2001,2001-04-10,Viseu,Nelas,Senhorim,Póvoa de Cima,40.5398434,-7.8207072,NC,374.0,2001-04-10T16:00,20.4,44,7.8,18.7,0.0,0.0,0.0,0.0,0,1023.4,980.0,0,0,0,0,0.4,1.33,11.2,15.0,15,17,25.6,20.8,14.7,11.8,10.8,0.333,0.365,0.388,0.418,1,3600.0,565.9,486.2,79.7,874.7,565.9,757.8,639.0,549.0,90.0,874.7,639.0,855.7,Tracheophyta; Olea europaea L.; Magnoliopsida; Castanea sativa Mill.; Pinus pinaster Aiton; Vitis vinifera L.
2001,2001-05-04,Aveiro,Ovar,Maceda,MACEDA,40.9269211,-8.6166867,NC,31.0,2001-05-04T16:00,15.2,66,9.0,10.7,0.0,0.0,0.0,0.0,0,1013.6,1009.9,8,7,3,0,0.27,0.58,30.1,38.2,331,331,53.6,17.5,14.5,13.5,13.5,0.315,0.321,0.279,0.36,1,3600.0,516.6,385.2,131.4,615.0,516.6,842.9,574.0,428.0,146.0,615.0,574.0,936.6,Tracheophyta; Magnoliopsida; Eucalyptus L'Hér.
2001,2001-05-06,Aveiro,Águeda,Recardães,RECARDÃES,40.5694164,-8.451460576332545,NC,7.0,2001-05-06T16:00,19.1,51,8.6,15.3,0.0,0.0,0.0,0.0,0,1016.8,1016.0,2,0,3,0,0.38,1.09,25.6,34.3,332,335,42.8,20.5,15.8,13.7,13.5,0.198,0.232,0.198,0.308,1,3600.0,562.7,422.3,140.5,668.8,562.7,848.7,625.0,469.0,156.0,668.8,625.0,942.7,Tracheophyta; Magnoliopsida; Pinus pinaster Aiton
2001,2001-04-10,Viseu,São Pedro do Sul,Carvalhais,CARVALHAIS,40.7882497,-8.114618838567612,NC,389.0,2001-04-10T11:00,17.8,57,9.3,17.6,0.0,0.0,0.0,0.0,0,1026.1,980.5,0,0,0,0,0.44,0.87,9.4,12.2,40,43,27.0,17.6,12.9,12.1,11.2,0.359,0.374,0.39,0.419,1,3600.0,831.7,727.4,104.2,933.3,831.7,1062.7,782.0,684.0,98.0,933.3,782.0,999.2,Magnoliopsida; Eucalyptus L'Hér.; Pinus pinaster Aiton; Tracheophyta; Quercus L.; Acacia Mill.; Olea europaea L.; Quercus suber L.; 
2001,2001-08-27,Aveiro,Oliveira do Bairro,Troviscal,Feiteira,40.5033497,-8.5741191,NC,59.0,2001-08-27T13:00,24.8,69,18.6,26.4,2.5,2.5,0.0,0.0,63,1013.8,1007.0,44,21,27,30,0.36,0.98,10.7,12.9,282,283,26.6,30.9,23.0,21.6,19.5,0.066,0.059,0.086,0.204,1,3600.0,519.8,288.4,231.5,336.7,519.8,1148.0,521.0,289.0,232.0,336.7,521.0,1150.5,Tracheophyta; Eucalyptus L'Hér.; Pinus pinaster Aiton
2001,2001-05-20,Aveiro,Águeda,Agadão,Vale da Erva,40.5411962,-8.3156729,NC,157.0,2001-05-20T15:00,24.3,48,12.7,25.2,0.0,0.0,0.0,0.0,0,1014.9,996.8,18,6,21,0,0.54,1.57,9.4,11.7,288,288,24.5,24.4,18.0,14.7,12.9,0.338,0.366,0.368,0.391,1,3600.0,754.2,632.8,121.3,801.6,754.2,1054.8,802.0,673.0,129.0,801.6,802.0,1121.7,Magnoliopsida; Eucalyptus L'Hér.
2001,2001-06-27,Viseu,Nelas,Nelas,Póvoa da Roçada,40.51924,-7.859607564669652,Desconhecida,422.0,2001-06-27T12:00,21.5,48,10.1,20.5,0.0,0.0,0.0,0.0,1,1021.3,972.7,48,39,22,0,0.46,1.32,12.4,15.3,300,300,32.4,25.5,20.9,19.9,14.6,0.104,0.194,0.283,0.37,1,3600.0,701.8,489.0,212.8,516.1,701.8,1254.0,686.0,478.0,208.0,516.1,686.0,1225.8,Pinus pinaster Aiton; Magnoliopsida; Vitis vinifera L.; Tracheophyta
2001,2001-04-12,Viseu,Viseu,Couto de Cima,São Cosmado,40.6810139,-8.0046067,NC,416.0,2001-04-12T13:00,17.1,43,4.6,15.8,0.0,0.0,0.0,0.0,1,1024.1,975.4,28,0,0,93,0.49,1.11,12.1,16.1,73,74,35.6,17.8,13.2,12.2,10.9,0.317,0.347,0.378,0.416,1,3600.0,862.9,653.6,209.2,774.3,862.9,1149.7,866.0,656.0,210.0,774.3,866.0,1153.8,Pinus pinaster Aiton; Magnoliopsida; Tracheophyta
2001,2001-09-19,Aveiro,Ovar,Cortegaça,CORTEGAÇA,40.940648,-8.6302462,NC,11.0,2001-09-19T13:00,27.7,25,6.0,27.4,0.0,0.0,0.0,0.0,0,1010.4,1009.1,0,0,0,1,0.57,2.79,5.9,4.0,281,265,17.3,32.7,24.0,23.0,20.7,0.099,0.108,0.141,0.286,1,3600.0,796.6,698.3,98.3,915.2,796.6,1034.6,802.0,703.0,99.0,915.2,802.0,1041.6,Eucalyptus L'Hér.; Tracheophyta; Magnoliopsida; Pinus pinaster Aiton
2001,2001-06-27,Viseu,Mangualde,Alcafache,ALCAFACHE,40.6062679,-7.868699,NC,232.0,2001-06-27T20:00,19.0,66,12.6,18.4,0.0,0.0,0.0,0.0,0,1022.0,994.7,1,0,1,0,0.06,0.74,9.5,17.7,295,299,28.8,23.3,23.3,21.0,15.6,0.09,0.187,0.279,0.369,1,2130.68,1.2,0.6,0.6,6.9,0.8,2.6,52.0,27.0,25.0,215.3,52.0,118.3,Pinus pinaster Aiton; Magnoliopsida; Olea europaea L.; Vitis vinifera L.
2001,2001-05-07,Viseu,Viseu,Bodiosa,BODIOSA,40.7282998,-7.9945415,NC,441.0,2001-05-07T17:00,14.9,56,6.3,12.6,0.2,0.2,0.0,0.0,51,1016.1,964.6,67,19,71,23,0.17,0.74,9.4,13.2,313,315,18.0,16.4,13.4,11.3,11.2,0.315,0.337,0.342,0.397,1,3600.0,208.2,87.2,121.0,187.9,208.2,623.4,246.0,103.0,143.0,187.9,246.0,736.6,Pinus pinaster Aiton; Magnoliopsida
2001,2001-04-09,Viseu,São Pedro do Sul,Carvalhais,Paço,40.7883335,-8.1127132,NC,379.0,2001-04-09T19:00,16.6,73,11.8,16.0,0.0,0.0,0.0,0.0,0,1026.4,981.7,0,0,0,0,0.04,0.5,7.8,10.3,292,306,17.3,16.6,14.7,11.9,11.1,0.349,0.371,0.386,0.418,1,2317.71,1.9,1.2,0.7,13.9,1.4,4.0,66.0,42.0,24.0,309.4,66.0,137.6,Magnoliopsida; Eucalyptus L'Hér.; Pinus pinaster Aiton; Tracheophyta; Quercus L.; Acacia Mill.; Olea europaea L.; Quercus suber L.; 
2001,2001-04-10,Viseu,Nelas,Nelas,NELAS,40.51924,-7.859607564669652,NC,422.0,2001-04-10T17:00,20.4,44,7.9,18.1,0.0,0.0,0.0,0.0,0,1023.4,974.6,0,0,0,0,0.31,1.34,12.2,17.3,358,2,28.8,19.1,14.5,11.5,10.5,0.339,0.365,0.385,0.418,1,3600.0,373.3,308.8,64.5,798.1,373.3,527.4,457.0,378.0,79.0,798.1,457.0,645.6,Pinus pinaster Aiton; Magnoliopsida; Vitis vinifera L.; Tracheophyta
2001,2001-05-24,Viseu,Carregal do Sal,Currelos,CURRELOS,40.42591445,-8.002439440138968,NC,298.0,2001-05-24T13:00,23.8,53,13.7,25.9,0.0,0.0,0.0,0.0,0,1021.1,986.8,12,0,0,39,0.6,1.38,8.7,10.1,275,276,23.8,24.4,17.3,14.6,12.0,0.275,0.316,0.338,0.389,1,3600.0,924.5,779.2,145.3,833.1,924.5,1247.7,929.0,783.0,146.0,833.1,929.0,1253.8,Magnoliopsida; Tracheophyta; Olea europaea L.; Vitis vinifera L.
2001,2001-08-27,Viseu,São Pedro do Sul,Pinho,Sobral,40.7721135,-8.0144962,NC,420.0,2001-08-27T14:00,20.3,86,17.8,22.3,5.5,5.5,0.0,0.0,63,1014.7,966.5,100,79,14,69,0.2,0.34,5.6,7.4,255,256,32.4,25.7,23.1,21.6,18.6,0.319,0.15,0.216,0.332,1,932.94,296.8,73.5,223.3,91.1,296.8,1080.8,307.0,76.0,231.0,91.1,307.0,1118.1,Pinus pinaster Aiton; Magnoliopsida; Quercus L.; Eucalyptus L'Hér.; Tracheophyta; Olea europaea L.; 
2001,2001-09-08,Viseu,Mangualde,Abrunhosa-a-Velha,Vila Mendo de Tavares,40.5798626,-7.6086304,NC,415.0,2001-09-08T06:00,15.6,70,10.1,13.8,0.0,0.0,0.0,0.0,0,1020.4,971.7,0,0,0,0,0.03,0.54,12.6,26.0,53,56,27.4,16.6,23.1,23.5,20.9,0.081,0.153,0.225,0.332,0,0.0,0.0,0.0,0.0,0.0,0.0,0.0,0.0,0.0,0.0,0.0,0.0,0.0,Pinales; Magnoliopsida; Pinus pinaster Aiton; Olea europaea L.; Tracheophyta
2001,2001-05-07,Aveiro,Albergaria-a-Velha,Albergaria-a-Velha,Assilhó,40.6855037,-8.4856832,NC,115.0,2001-05-07T22:00,11.8,79,8.3,10.4,0.0,0.0,0.0,0.0,1,1016.9,1003.0,31,10,36,0,0.0,0.29,6.5,15.3,341,351,19.8,13.0,15.1,13.4,13.0,0.214,0.242,0.223,0.323,0,0.0,0.0,0.0,0.0,0.0,0.0,0.0,0.0,0.0,0.0,0.0,0.0,0.0,Tracheophyta; Eucalyptus L'Hér.; Magnoliopsida
2001,2001-04-27,Viseu,Santa Comba Dão,São Joaninho,SÃO JOANINHO,40.45075455,-8.130012150133478,NC,321.0,2001-04-27T15:00,17.5,52,7.5,16.1,0.0,0.0,0.0,0.0,2,1021.4,983.7,60,34,0,99,0.45,0.97,15.3,19.6,309,311,34.2,18.5,12.9,12.2,11.5,0.315,0.336,0.345,0.404,1,3600.0,766.5,658.1,108.4,886.1,766.5,1003.0,820.0,704.0,116.0,886.1,820.0,1073.0,Vitis vinifera L.; Tracheophyta; Eucalyptus L'Hér.; Pinus pinaster Aiton; Magnoliopsida
2001,2001-05-10,Aveiro,Estarreja,Avanca,AVANCA,40.8077237,-8.5848776,NC,19.0,2001-05-10T19:00,14.7,77,10.7,13.9,0.0,0.0,0.0,0.0,0,1017.5,1015.2,0,0,0,0,0.07,0.39,7.2,10.4,270,272,16.9,16.6,16.0,14.2,13.5,0.324,0.333,0.317,0.379,1,3600.0,72.0,43.7,28.3,406.7,72.0,144.3,135.0,82.0,53.0,406.7,135.0,270.5,Tracheophyta; Magnoliopsida
2001,2001-05-11,Aveiro,Ovar,Ovar,OVAR,40.8456684,-8.64847761987809,NC,0.0,2001-05-11T17:00,18.8,64,11.8,16.9,0.0,0.0,0.0,0.0,0,1016.4,1016.4,2,0,4,0,0.29,0.78,16.8,22.4,228,226,34.9,20.4,16.5,14.4,13.7,0.3,0.325,0.316,0.379,1,3600.0,436.3,347.7,88.6,725.1,436.3,643.0,512.0,408.0,104.0,725.1,512.0,754.6,Magnoliopsida; Eucalyptus L'Hér.
2001,2001-05-18,Viseu,Tondela,Tourigo,Tourigo,40.49449275,-8.187917103695336,NC,266.0,2001-05-18T16:00,23.4,52,12.9,23.8,0.0,0.0,0.0,0.0,1,1013.2,982.7,20,0,8,52,0.41,1.38,6.2,7.8,21,22,19.8,22.2,17.0,13.1,11.9,0.378,0.392,0.348,0.391,1,3600.0,558.4,412.9,145.5,634.9,558.4,869.6,618.0,457.0,161.0,634.9,618.0,962.4,Pinus pinaster Aiton; Tracheophyta; Magnoliopsida; Eucalyptus L'Hér.
