year,date,district,municipality,parish,local,latitude,longitude,cause,elevation,hourly.time,hourly.temperature_2m,hourly.relative_humidity_2m,hourly.dew_point_2m,hourly.apparent_temperature,hourly.precipitation,hourly.rain,hourly.snowfall,hourly.snow_depth,hourly.weather_code,hourly.pressure_msl,hourly.surface_pressure,hourly.cloud_cover,hourly.cloud_cover_low,hourly.cloud_cover_mid,hourly.cloud_cover_high,hourly.et0_fao_evapotranspiration,hourly.vapour_pressure_deficit,hourly.wind_speed_10m,hourly.wind_speed_100m,hourly.wind_direction_10m,hourly.wind_direction_100m,hourly.wind_gusts_10m,hourly.soil_temperature_0_to_7cm,hourly.soil_temperature_7_to_28cm,hourly.soil_temperature_28_to_100cm,hourly.soil_temperature_100_to_255cm,hourly.soil_moisture_0_to_7cm,hourly.soil_moisture_7_to_28cm,hourly.soil_moisture_28_to_100cm,hourly.soil_moisture_100_to_255cm,hourly.is_day,hourly.sunshine_duration,hourly.shortwave_radiation_instant,hourly.direct_radiation_instant,hourly.diffuse_radiation_instant,hourly.direct_normal_irradiance_instant,hourly.global_tilted_irradiance_instant,hourly.terrestrial_radiation_instant,hourly.shortwave_radiation,hourly.direct_radiation,hourly.diffuse_radiation,hourly.direct_normal_irradiance,hourly.global_tilted_irradiance,hourly.terrestrial_radiation,scientificNames
2002,2002-09-01,Guarda,Guarda,Codesseiro,Pai Viegas,40.6515322,-7.2046668,NC,814.0,2002-09-01T21:00,21.7,43,8.6,20.8,0.0,0.0,0.0,0.0,2,1015.7,925.1,66,0,63,94,0.02,1.47,3.5,9.6,66,56,13.7,22.2,22.5,20.1,18.0,0.18,0.18,0.164,0.272,0,0.0,0.0,0.0,0.0,0.0,0.0,0.0,0.0,0.0,0.0,0.0,0.0,0.0,Magnoliopsida; Tracheophyta; Quercus L.; Pinales
2002,2002-09-01,Guarda,Mêda,Marialva,MARIALVA,40.9117189,-7.234165035431616,NC,545.0,2002-09-01T22:00,21.2,54,11.7,20.7,0.0,0.0,0.0,0.0,1,1016.5,954.6,39,0,15,100,0.04,1.15,6.9,11.5,39,58,17.3,22.2,23.1,20.8,19.0,0.197,0.192,0.199,0.295,0,0.0,0.0,0.0,0.0,0.0,0.0,0.0,0.0,0.0,0.0,0.0,0.0,0.0,Olea europaea L.; Tracheophyta; Quercus L.; Vitis vinifera L.; Pinus pinaster Aiton
2002,2002-08-02,Guarda,Trancoso,Vila Garcia,VILA GARCIA \ SF,40.7932689,-7.2559973,NC,626.0,2002-08-02T11:00,22.7,28,3.4,21.7,0.0,0.0,0.0,0.0,0,1014.1,943.8,0,0,0,0,0.55,1.98,7.9,9.7,360,360,25.2,27.2,22.2,21.9,16.5,0.117,0.136,0.177,0.282,1,3600.0,880.6,768.7,111.9,895.3,880.6,1140.2,834.0,728.0,106.0,895.3,834.0,1079.9,Tracheophyta; Magnoliopsida; Olea europaea L.; Quercus L.; Vitis vinifera L.; Pinales; Pinus pinaster Aiton; Acacia Mill.; Castanea sativa Mill.; 
2002,2002-09-02,Guarda,Mêda,Aveloso,AVELOSO,40.933267,-7.316335,NC,637.0,2002-09-02T14:00,26.0,40,11.3,26.6,0.0,0.0,0.0,0.0,1,1015.1,944.4,22,0,32,10,0.47,2.03,3.6,4.3,225,222,15.5,29.0,22.3,20.6,18.5,0.16,0.166,0.181,0.287,1,3600.0,639.5,438.2,201.3,562.4,639.5,1047.2,664.0,455.0,209.0,562.4,664.0,1087.3,Tracheophyta; Olea europaea L.; Castanea sativa Mill.; Magnoliopsida; Vitis vinifera L.; Quercus L.; Pinus pinaster Aiton; 
2002,2002-09-04,Guarda,Mêda,Coriscada,CORISCADA,40.8696087,-7.1934503,NC,466.0,2002-09-04T13:00,22.7,45,10.1,22.2,0.0,0.0,0.0,0.0,2,1018.1,965.0,60,63,5,0,0.53,1.52,13.4,17.8,276,277,33.5,25.7,21.3,21.4,19.6,0.194,0.189,0.198,0.295,1,3600.0,804.9,653.8,151.0,793.5,804.9,1108.4,810.0,658.0,152.0,793.5,810.0,1115.5,Tracheophyta; Quercus L.; Eucalyptus L'Hér.; Pinus pinaster Aiton; Magnoliopsida; Pinales; Olea europaea L.; Vitis vinifera L.; Quercus rotundifolia Lam.; 
2002,2002-09-05,Guarda,Fornos de Algodres,Fornos de Algodres,IP5 NÓ DE FORNOS,40.6103297,-7.5270586,NC,362.0,2002-09-05T17:00,22.7,41,8.6,20.7,0.0,0.0,0.0,0.0,0,1019.6,978.0,2,0,0,5,0.3,1.64,11.5,14.8,314,315,26.6,30.0,23.6,22.9,21.0,0.086,0.153,0.205,0.304,1,3600.0,328.6,264.1,64.4,729.4,328.6,487.4,408.0,328.0,80.0,729.4,408.0,605.2,Tracheophyta; Magnoliopsida; Pinus pinaster Aiton
2002,2002-09-05,Guarda,Celorico da Beira,Baraçal,Corteagada,40.6816152,-7.3282345,NC,454.0,2002-09-05T11:00,19.2,52,9.0,18.6,0.0,0.0,0.0,0.0,1,1021.6,969.1,37,41,0,0,0.41,1.08,7.6,10.1,355,354,25.9,22.7,20.1,21.6,19.7,0.18,0.178,0.178,0.282,1,3600.0,728.1,579.5,148.6,747.8,728.1,1042.9,686.0,546.0,140.0,747.8,686.0,982.7,Magnoliopsida; Tracheophyta; Pinales; Pinus pinaster Aiton; Quercus L.; ; Olea europaea L.
2002,2002-09-05,Guarda,Seia,Lajes,LAJES,40.480955,-7.721475194569006,NC,428.0,2002-09-05T01:00,14.1,85,11.7,13.9,0.0,0.0,0.0,0.0,1,1021.5,971.0,38,38,0,14,0.0,0.23,5.3,10.4,298,314,17.3,17.0,21.8,22.0,19.9,0.098,0.154,0.209,0.309,0,0.0,0.0,0.0,0.0,0.0,0.0,0.0,0.0,0.0,0.0,0.0,0.0,0.0,Vitis vinifera L.; Pinus pinaster Aiton; Olea europaea L.; Tracheophyta; Magnoliopsida
2002,2002-09-06,Guarda,Sabugal,Alfaiates,ALFAIATES \ SF,40.3905568,-6.9128994,NC,832.0,2002-09-06T01:00,13.3,70,7.9,11.7,0.0,0.0,0.0,0.0,0,1021.4,925.8,0,0,0,0,0.01,0.46,7.4,18.6,346,351,15.8,15.8,21.0,21.2,19.4,0.09,0.153,0.202,0.307,0,0.0,0.0,0.0,0.0,0.0,0.0,0.0,0.0,0.0,0.0,0.0,0.0,0.0,Magnoliopsida; Tracheophyta; Quercus L.; Pinus pinaster Aiton; Quercus suber L.; 
2002,2002-08-05,Guarda,Seia,Várzea de Meruge,VÁRZEA DE MERUGE,40.3954899,-7.7843288,NC,423.0,2002-08-05T03:00,16.1,87,13.9,16.9,0.0,0.0,0.0,0.0,1,1014.7,965.5,24,24,3,3,0.0,0.24,2.9,5.1,300,315,6.8,18.0,23.8,22.1,17.5,0.096,0.137,0.198,0.298,0,0.0,0.0,0.0,0.0,0.0,0.0,0.0,0.0,0.0,0.0,0.0,0.0,0.0,Magnoliopsida; Pinus pinaster Aiton; Olea europaea L.; Tracheophyta; Quercus rotundifolia Lam.
2002,2002-07-01,Castelo Branco,Castelo Branco,São Vicente da Beira,Mourelo,40.0359911,-7.620052767732757,NC,539.0,2002-07-01T23:00,17.7,64,10.7,16.8,0.0,0.0,0.0,0.0,0,1015.7,953.7,0,0,0,0,0.02,0.74,7.4,15.0,313,318,18.4,21.4,25.5,21.6,15.6,0.088,0.173,0.252,0.34,0,0.0,0.0,0.0,0.0,0.0,0.0,0.0,0.0,0.0,0.0,0.0,0.0,0.0,Pinus pinaster Aiton; Olea europaea L.; Tracheophyta; Eucalyptus L'Hér.; Magnoliopsida
2002,2002-07-05,Castelo Branco,Castelo Branco,Salgueiro do Campo,SALGUEIRO DO CAMPO,39.8923592,-7.5796378,NC,326.0,2002-07-05T21:00,20.6,65,13.8,19.1,0.0,0.0,0.0,0.0,0,1017.6,979.9,0,0,0,0,0.07,0.85,18.3,32.3,315,322,42.8,25.0,26.5,22.2,16.7,0.108,0.162,0.229,0.315,0,0.0,0.0,0.0,0.0,0.0,0.0,0.0,0.0,0.0,0.0,0.0,0.0,0.0,Pinus pinaster Aiton; Eucalyptus L'Hér.; Olea europaea L.; Vitis vinifera L.; Magnoliopsida; Tracheophyta; Quercus suber L.; 
2002,2002-07-02,Castelo Branco,Penamacor,Penamacor,PENAMACOR,40.17110305,-7.149775712218803,NC,494.0,2002-07-02T19:00,25.7,33,8.2,22.8,0.0,0.0,0.0,0.0,0,1013.0,957.7,0,0,0,0,0.25,2.21,16.3,23.4,305,307,36.7,29.7,26.3,22.1,15.8,0.101,0.17,0.244,0.326,1,3600.0,131.5,93.3,38.2,552.2,131.5,223.5,203.0,144.0,59.0,552.2,203.0,345.1,Eucalyptus L'Hér.; Quercus suber L.; Pinus pinea L.; Pinus pinaster Aiton; Tracheophyta; Magnoliopsida
2002,2002-07-03,Castelo Branco,Castelo Branco,Escalos de Baixo,ESCALDOS DE BAIXO,39.8859417,-7.3971427,NC,322.0,2002-07-03T14:00,28.3,34,11.0,27.9,0.0,0.0,0.0,0.0,0,1016.9,980.6,0,0,0,0,0.7,2.54,18.1,23.4,316,316,44.6,30.7,23.3,21.1,15.8,0.156,0.18,0.247,0.326,1,3600.0,896.0,760.0,136.1,837.7,896.0,1200.3,922.0,782.0,140.0,837.7,922.0,1235.1,Olea europaea L.; Magnoliopsida; Tracheophyta; Quercus suber L.; Eucalyptus L'Hér.; Pinus pinaster Aiton; Quercus L.; Quercus rotundifolia Lam.; Vitis vinifera L.; Pinales; Pinus pinea L.; 
2002,2002-07-06,Castelo Branco,Fundão,Fundão,FUNDÃO,40.1413475,-7.496455741188095,NC,485.0,2002-07-06T13:00,28.2,29,8.6,30.1,0.0,0.0,0.0,0.0,0,1015.6,961.5,0,0,0,0,0.7,2.7,3.3,4.5,13,14,24.5,35.0,24.5,21.8,16.1,0.094,0.171,0.246,0.342,1,3600.0,979.7,861.0,118.7,906.9,979.7,1256.1,982.0,863.0,119.0,906.9,982.0,1259.0,Tracheophyta; Magnoliopsida; Pinales; Olea europaea L.; Acacia Mill.
2002,2002-07-06,Castelo Branco,Idanha-a-Nova,Segura,SEGURA,39.81733945,-6.981736555337266,NC,178.0,2002-07-06T15:00,32.9,23,8.9,33.9,0.0,0.0,0.0,0.0,0,1013.4,993.5,0,0,0,0,0.67,3.86,5.0,6.0,291,295,18.4,35.8,27.4,23.8,18.2,0.151,0.184,0.246,0.319,1,3600.0,823.9,717.2,106.6,879.8,823.9,1078.6,873.0,760.0,113.0,879.8,873.0,1142.9,Magnoliopsida; Quercus rotundifolia Lam.; Pinus pinea L.; Tracheophyta; Olea europaea L.; Quercus suber L.; Eucalyptus L'Hér.; 
2002,2002-07-02,Castelo Branco,Fundão,Pêro Viseu,PERO VISEU,40.2071956,-7.4443594,NC,509.0,2002-07-02T01:00,16.8,75,12.2,16.2,0.0,0.0,0.0,0.0,0,1015.9,957.1,17,19,0,0,0.02,0.49,8.7,15.6,315,320,20.5,19.5,24.2,20.9,14.8,0.097,0.178,0.254,0.35,0,0.0,0.0,0.0,0.0,0.0,0.0,0.0,0.0,0.0,0.0,0.0,0.0,0.0,Tracheophyta; Pinales; Pinus pinaster Aiton; Olea europaea L.; Magnoliopsida
2002,2002-07-08,Castelo Branco,Castelo Branco,Santo André das Tojeiras,Vale Chiqueiro,39.8068537,-7.6985628,NC,345.0,2002-07-08T04:00,15.7,83,12.7,15.4,0.0,0.0,0.0,0.0,1,1014.2,973.8,23,26,0,0,0.0,0.31,8.0,12.9,278,288,13.3,19.2,26.2,23.2,17.4,0.091,0.161,0.229,0.299,0,0.0,0.0,0.0,0.0,0.0,0.0,0.0,0.0,0.0,0.0,0.0,0.0,0.0,Magnoliopsida; Pinus pinaster Aiton; Olea europaea L.; Tracheophyta
2002,2002-07-09,Castelo Branco,Fundão,Escarigo,Cabeço de Escarigo,40.255357700000005,-7.2908573911856385,NC,545.0,2002-07-09T15:00,21.7,58,13.0,20.0,0.0,0.0,0.0,0.0,3,1014.7,953.0,92,99,5,0,0.33,1.1,17.9,24.1,248,248,43.2,25.9,22.6,20.8,15.2,0.108,0.173,0.246,0.35,1,2345.4,425.8,112.3,313.4,138.2,425.8,1075.7,451.0,119.0,332.0,138.2,451.0,1139.5,Magnoliopsida; Tracheophyta; Pinus pinaster Aiton; Olea europaea L.; Quercus L.
2002,2002-07-03,Castelo Branco,Idanha-a-Nova,Idanha-a-Nova,IDANHA A NOVA,39.8874234,-7.214369144662824,NC,196.0,2002-07-03T14:00,30.7,28,9.9,30.9,0.0,0.0,0.0,0.0,0,1015.7,993.6,0,0,0,0,0.76,3.2,13.9,18.1,301,301,36.4,32.8,24.7,22.3,16.7,0.148,0.181,0.247,0.319,1,3600.0,933.5,820.8,112.7,906.0,933.5,1198.8,961.0,845.0,116.0,906.0,961.0,1234.1,Pinus pinea L.; Tracheophyta; Eucalyptus L'Hér.
2002,2002-07-12,Castelo Branco,Castelo Branco,Santo André das Tojeiras,Vale Chiqueiro \ POV,39.8068537,-7.6985628,Desconhecida,345.0,2002-07-12T14:00,28.4,35,11.3,27.8,0.0,0.0,0.0,0.0,0,1020.2,981.2,0,0,0,0,0.71,2.53,19.1,24.8,319,319,41.8,35.9,24.8,22.7,17.9,0.092,0.16,0.225,0.298,1,3600.0,901.5,779.9,121.6,862.2,901.5,1197.0,927.0,802.0,125.0,862.2,927.0,1230.9,Magnoliopsida; Pinus pinaster Aiton; Olea europaea L.; Tracheophyta
2002,2002-07-13,Castelo Branco,Castelo Branco,Castelo Branco,Castelo Branco \ SF,39.8266322,-7.4919318,NC,410.0,2002-07-13T15:00,30.0,26,8.4,28.6,0.0,0.0,0.0,0.0,0,1018.7,972.9,0,0,0,0,0.7,3.15,17.3,23.4,356,357,39.2,34.9,24.4,21.6,16.9,0.108,0.159,0.22,0.313,1,3600.0,810.4,703.6,106.7,863.2,810.4,1078.8,858.0,745.0,113.0,863.2,858.0,1142.2,Tracheophyta; Olea europaea L.; Magnoliopsida
2002,2002-07-02,Castelo Branco,Fundão,Fatela,FATELA,40.1491801,-7.410521149999992,NC,536.0,2002-07-02T14:00,27.3,25,5.5,26.4,0.0,0.0,0.0,0.0,0,1014.1,954.5,0,0,0,0,0.72,2.73,14.4,18.4,307,309,37.8,33.0,23.7,20.8,15.0,0.116,0.181,0.253,0.343,1,3600.0,938.9,826.1,112.7,911.5,938.9,1199.2,966.0,850.0,116.0,911.5,966.0,1233.8,Magnoliopsida; Olea europaea L.; Tracheophyta; Pinales; Vitis vinifera L.; Eucalyptus L'Hér.; Pinus pinaster Aiton; Quercus suber L.; ; Acacia Mill.
2002,2002-07-03,Castelo Branco,Fundão,Barroca,São Martinho,40.1069046,-7.7010919,NC,468.0,2002-07-03T15:00,25.1,48,13.2,25.2,0.0,0.0,0.0,0.0,0,1017.8,964.9,2,2,0,0,0.6,1.67,17.6,22.9,314,315,46.4,31.1,23.2,20.8,15.5,0.104,0.159,0.24,0.326,1,3600.0,826.8,715.3,111.5,873.3,826.8,1083.7,875.0,757.0,118.0,873.3,875.0,1146.9,Magnoliopsida; Pinus pinaster Aiton; Tracheophyta; Olea europaea L.; Eucalyptus L'Hér.; 
2002,2002-07-16,Castelo Branco,Castelo Branco,Lardosa,Vale da Torre,39.9881774,-7.4432595,NC,406.0,2002-07-16T17:00,31.2,17,3.6,28.4,0.0,0.0,0.0,0.0,0,1012.7,967.8,0,0,0,0,0.5,3.76,10.3,13.8,78,75,28.4,32.7,25.4,21.5,16.9,0.133,0.171,0.237,0.335,1,3600.0,508.6,429.0,79.6,820.5,508.6,692.2,588.0,496.0,92.0,820.5,588.0,800.3,Magnoliopsida; Quercus suber L.; Tracheophyta; Eucalyptus L'Hér.; Olea europaea L.; Quercus L.; Quercus rotundifolia Lam.; Pinus pinaster Aiton; Pinales; Pinus pinea L.; Vitis vinifera L.; Acacia Mill.; 
2002,2002-07-01,Castelo Branco,Covilhã,Barco,BARCO,40.1730901,-7.6251348,NC,427.0,2002-07-01T14:00,28.1,23,5.2,26.9,0.0,0.0,0.0,0.0,0,1014.9,967.1,0,0,0,0,0.72,2.91,14.3,18.1,311,313,36.0,35.7,25.2,21.9,15.9,0.096,0.176,0.253,0.345,1,3600.0,913.6,799.9,113.7,882.3,913.6,1199.5,940.0,823.0,117.0,882.3,940.0,1234.2,Pinus pinaster Aiton; Magnoliopsida; Tracheophyta
2002,2002-07-05,Castelo Branco,Covilhã,Peraboa,PERABOA,40.2452809,-7.376938677851085,NC,530.0,2002-07-05T20:00,22.2,58,13.5,20.7,0.0,0.0,0.0,0.0,0,1018.0,957.8,0,0,0,0,0.11,1.12,17.8,29.6,315,318,48.2,26.2,25.4,20.9,15.2,0.096,0.173,0.249,0.348,1,1902.2,0.0,0.0,0.0,0.0,0.0,0.0,46.0,25.0,21.0,207.9,46.0,103.5,Quercus L.; Magnoliopsida; Tracheophyta
2002,2002-07-02,Castelo Branco,Penamacor,Bemposta,BEMPOSTA,40.067342,-7.211318,NC,405.0,2002-07-02T16:00,29.2,22,5.6,27.6,0.0,0.0,0.0,0.0,0,1011.9,966.8,0,0,0,0,0.6,3.14,11.6,15.0,296,297,29.5,32.8,25.3,22.0,16.1,0.13,0.18,0.249,0.326,1,3600.0,687.8,591.2,96.6,860.4,687.8,909.2,755.0,649.0,106.0,860.4,755.0,998.0,Magnoliopsida; Tracheophyta; Quercus suber L.; Olea europaea L.; Eucalyptus L'Hér.; Quercus rotundifolia Lam.; Pinus pinaster Aiton; Pinales; Quercus L.; 
2002,2002-07-03,Castelo Branco,Castelo Branco,Castelo Branco,Ribeiro da Seta,39.8238181,-7.5329991,NC,321.0,2002-07-03T15:00,28.8,33,11.0,28.4,0.0,0.0,0.0,0.0,0,1016.3,980.2,0,0,0,0,0.68,2.64,16.5,21.6,306,307,42.1,33.0,24.7,21.7,16.0,0.133,0.154,0.195,0.285,1,3600.0,831.1,725.3,105.8,885.9,831.1,1083.2,880.0,768.0,112.0,885.9,880.0,1147.0,Magnoliopsida; Tracheophyta; Pinus pinaster Aiton
2002,2002-07-18,Castelo Branco,Idanha-a-Nova,Segura,Granja,39.9161427,-7.099222862203549,Desconhecida,272.0,2002-07-18T09:00,28.5,26,7.3,26.9,0.0,0.0,0.0,0.0,0,1012.9,982.3,0,0,0,0,0.41,2.87,6.6,8.4,131,130,19.8,28.4,25.2,23.0,18.0,0.137,0.17,0.229,0.315,1,3600.0,628.9,526.3,102.5,804.6,628.9,866.1,552.0,462.0,90.0,804.6,552.0,760.3,Magnoliopsida; Quercus rotundifolia Lam.; Pinus pinea L.; Tracheophyta; Olea europaea L.; Quercus suber L.; Eucalyptus L'Hér.; 
2002,2002-07-01,Castelo Branco,Covilhã,Paul,PAÚL,40.2009261,-7.6380118,NC,477.0,2002-07-01T17:00,27.2,32,8.9,24.9,0.0,0.0,0.0,0.0,0,1013.0,959.8,0,0,0,0,0.47,2.47,14.6,19.4,310,312,35.6,33.6,25.8,21.6,15.6,0.095,0.175,0.252,0.345,1,3600.0,497.7,414.4,83.4,776.5,497.7,706.1,573.0,477.0,96.0,776.5,573.0,812.8,Pinus pinaster Aiton; Olea europaea L.; Tracheophyta; Magnoliopsida; Pinales
2002,2002-07-03,Castelo Branco,Idanha-a-Nova,Segura,SEGURA \ SF,39.8263481,-6.9796213,NC,270.0,2002-07-03T16:00,31.0,26,9.0,29.7,0.0,0.0,0.0,0.0,0,1015.0,984.8,0,0,0,0,0.63,3.35,14.5,19.8,293,295,37.8,32.8,25.6,22.5,16.9,0.164,0.184,0.246,0.318,1,3600.0,680.1,583.6,96.5,851.0,680.1,907.3,747.0,641.0,106.0,851.0,747.0,996.6,Magnoliopsida; Quercus rotundifolia Lam.; Pinus pinea L.; Tracheophyta; Olea europaea L.; Quercus suber L.; Eucalyptus L'Hér.; 
2002,2002-06-17,Castelo Branco,Fundão,Vale de Prazeres,Serra da Póvoa,40.1106704,-7.4310164,Desconhecida,534.0,2002-06-17T15:00,32.7,24,9.3,32.0,0.0,0.0,0.0,0.0,0,1014.1,955.7,0,0,0,0,0.74,3.76,14.7,19.1,239,238,40.0,34.8,25.0,18.5,13.3,0.125,0.202,0.275,0.349,1,3600.0,821.5,714.9,106.6,878.5,821.5,1078.4,871.0,758.0,113.0,878.5,871.0,1143.4,Eucalyptus L'Hér.; Tracheophyta; Olea europaea L.; Pinus pinaster Aiton; Magnoliopsida; Quercus suber L.; Quercus L.; Vitis vinifera L.; 
2002,2002-07-05,Castelo Branco,Castelo Branco,Almaceda,Martim Branco,39.9465665,-7.6255106,Desconhecida,276.0,2002-07-05T15:00,30.7,31,11.6,30.3,0.0,0.0,0.0,0.0,0,1015.3,984.4,0,0,0,0,0.71,3.06,17.8,23.4,317,317,40.3,36.4,26.2,22.5,16.9,0.108,0.163,0.229,0.315,1,3600.0,820.8,715.0,105.8,874.2,820.8,1082.3,869.0,757.0,112.0,874.2,869.0,1145.8,Magnoliopsida; Pinales; Pinus pinaster Aiton; Tracheophyta; Olea europaea L.; Eucalyptus L'Hér.; 
2002,2002-07-05,Castelo Branco,Idanha-a-Nova,Toulões,Carriçal \ POV,39.9580672,-6.9998374,Desconhecida,349.0,2002-07-05T16:00,32.3,23,8.5,30.5,0.0,0.0,0.0,0.0,0,1014.0,975.3,0,0,0,0,0.66,3.74,16.4,21.9,310,312,37.8,36.7,27.6,22.9,16.7,0.117,0.158,0.212,0.294,1,3600.0,671.1,574.6,96.5,838.3,671.1,906.8,737.0,631.0,106.0,838.3,737.0,995.9,Olea europaea L.; Pinus pinaster Aiton; Quercus rotundifolia Lam.; Tracheophyta; Eucalyptus L'Hér.; Magnoliopsida; Quercus suber L.
2002,2002-07-07,Castelo Branco,Covilhã,Peraboa,PERABOA,40.2452809,-7.376938677851085,NC,530.0,2002-07-07T03:00,17.7,75,13.2,17.9,0.0,0.0,0.0,0.0,0,1015.0,954.1,0,0,0,0,0.0,0.51,5.6,11.1,333,347,12.6,18.6,24.1,21.1,15.3,0.096,0.172,0.248,0.347,0,0.0,0.0,0.0,0.0,0.0,0.0,0.0,0.0,0.0,0.0,0.0,0.0,0.0,Quercus L.; Magnoliopsida; Tracheophyta
2002,2002-07-14,Castelo Branco,Idanha-a-Nova,Salvaterra do Extremo,SALVATERRA DO EXTREMO,39.882617,-6.914256,NC,374.0,2002-07-14T16:00,30.5,13,-0.7,26.6,0.0,0.0,0.0,0.0,0,1018.1,976.3,9,0,0,29,0.67,3.78,18.2,25.4,38,38,42.1,32.5,25.9,22.4,17.4,0.142,0.181,0.246,0.331,1,3600.0,684.7,590.1,94.6,869.1,684.7,898.7,753.0,649.0,104.0,869.1,753.0,988.4,Magnoliopsida; Olea europaea L.; Tracheophyta; Quercus suber L.
2002,2002-07-05,Castelo Branco,Sertã,Cernache do Bonjardim,Póvoa,39.8148218,-8.1976751,NC,365.0,2002-07-05T13:00,26.2,43,12.5,25.4,0.0,0.0,0.0,0.0,0,1018.3,976.9,0,0,0,0,0.68,1.95,23.9,31.4,329,330,51.8,31.4,22.2,20.4,15.9,0.099,0.162,0.228,0.302,1,3600.0,965.8,848.0,117.9,890.3,965.8,1260.2,967.0,849.0,118.0,890.3,967.0,1261.8,Magnoliopsida; Tracheophyta; Pinus pinaster Aiton; Eucalyptus L'Hér.
2002,2002-07-08,Castelo Branco,Fundão,Souto da Casa,SOUTO DA CASA \ SF,40.0841112,-7.5792867,NC,615.0,2002-07-08T18:00,21.5,57,12.8,20.1,0.0,0.0,0.0,0.0,1,1015.2,945.8,32,35,0,0,0.26,1.09,15.9,21.5,303,305,43.2,29.5,25.5,21.2,15.6,0.092,0.164,0.24,0.34,1,3600.0,287.3,201.9,85.4,569.9,287.3,468.7,360.0,253.0,107.0,569.9,360.0,587.4,Pinus pinaster Aiton; Magnoliopsida; Olea europaea L.; Tracheophyta; Eucalyptus L'Hér.; Quercus L.; Pinales; Quercus suber L.; 
2002,2002-07-07,Castelo Branco,Castelo Branco,Castelo Branco,Ribeiro da Seta \ CAS,39.8266322,-7.4919318,NC,410.0,2002-07-07T16:00,30.6,29,10.6,29.8,0.0,0.0,0.0,0.0,0,1013.0,967.5,0,0,0,0,0.61,3.12,13.8,18.2,237,236,36.0,36.0,26.5,21.9,16.3,0.107,0.161,0.226,0.314,1,3600.0,674.7,580.8,93.9,840.9,674.7,913.9,740.0,637.0,103.0,840.9,740.0,1002.3,Tracheophyta; Olea europaea L.; Magnoliopsida
2002,2002-07-10,Castelo Branco,Covilhã,Canhoso,Canhoso \ SF,40.2965971,-7.4761748,NC,474.0,2002-07-10T12:00,21.9,48,10.4,21.8,0.0,0.0,0.0,0.0,0,1016.1,962.1,12,13,0,0,0.51,1.37,10.7,13.3,250,251,29.9,27.4,22.1,21.5,16.1,0.112,0.17,0.244,0.346,1,3600.0,794.4,537.4,256.9,570.2,794.4,1247.2,776.0,525.0,251.0,570.2,776.0,1218.4,Magnoliopsida; Pinus pinaster Aiton; Castanea sativa Mill.; Tracheophyta; Olea europaea L.; Quercus L.
2002,2002-06-17,Castelo Branco,Castelo Branco,Malpica do Tejo,MALPICA DO TEJO,39.6508238,-7.4119198,NC,224.0,2002-06-17T14:00,35.0,22,10.3,35.2,0.0,0.0,0.0,0.0,0,1013.9,989.1,0,0,0,0,0.82,4.36,14.2,18.3,234,234,36.4,37.4,27.2,20.7,15.4,0.146,0.155,0.201,0.274,1,3600.0,922.9,808.4,114.5,891.8,922.9,1201.2,951.0,833.0,118.0,891.8,951.0,1237.8,Quercus rotundifolia Lam.; Eucalyptus L'Hér.; Magnoliopsida; Tracheophyta; Quercus suber L.; Pinus pinaster Aiton; Olea europaea L.; Pinus pinea L.; Quercus L.; 
2002,2002-07-12,Castelo Branco,Covilhã,Canhoso,Canhoso \ SF,40.2965971,-7.4761748,NC,474.0,2002-07-12T19:00,22.5,55,12.9,20.8,0.0,0.0,0.0,0.0,0,1020.1,966.0,0,0,0,0,0.19,1.23,17.8,25.8,318,320,43.2,27.3,24.5,21.2,16.3,0.098,0.169,0.242,0.344,1,3600.0,120.3,80.6,39.7,491.0,120.3,217.4,188.0,126.0,62.0,491.0,188.0,339.6,Magnoliopsida; Pinus pinaster Aiton; Castanea sativa Mill.; Tracheophyta; Olea europaea L.; Quercus L.
2002,2002-07-08,Castelo Branco,Fundão,Alcaide,ALCAIDE,40.1338233,-7.44879207936232,NC,489.0,2002-07-08T22:00,17.6,75,13.1,17.1,0.0,0.0,0.0,0.0,1,1016.0,959.6,22,19,0,15,0.02,0.51,10.5,16.3,297,301,34.2,21.8,25.2,21.7,16.0,0.113,0.174,0.245,0.34,0,0.0,0.0,0.0,0.0,0.0,0.0,0.0,0.0,0.0,0.0,0.0,0.0,0.0,Pinus pinaster Aiton; Magnoliopsida; Tracheophyta; Quercus L.; Eucalyptus L'Hér.; Pinales; Olea europaea L.; 
2002,2002-06-17,Castelo Branco,Proença-a-Nova,São Pedro do Esteval,Murteirinha,39.6362186,-7.8436213,NC,246.0,2002-06-17T17:00,31.7,28,11.0,29.6,0.0,0.0,0.0,0.0,0,1013.9,986.4,0,0,0,0,0.54,3.36,17.2,22.1,286,286,37.8,35.0,27.0,20.2,15.1,0.122,0.169,0.234,0.296,1,3600.0,497.5,415.2,82.3,782.9,497.5,702.7,574.0,479.0,95.0,782.9,574.0,810.7,Magnoliopsida; Eucalyptus L'Hér.; Tracheophyta; Olea europaea L.; Pinus pinaster Aiton; Quercus rotundifolia Lam.; Vitis vinifera L.; Pinales; 
2002,2002-07-01,Castelo Branco,Vila Velha de Ródão,Sarnadas de Ródão,Amarelos,39.7564386,-7.62389134176353,NC,370.0,2002-07-01T16:00,28.0,28,7.6,26.8,0.0,0.0,0.0,0.0,0,1012.6,971.1,0,0,0,0,0.57,2.73,11.2,14.8,320,321,31.7,34.5,25.7,21.7,15.9,0.112,0.165,0.235,0.317,1,3600.0,678.6,581.9,96.7,839.6,678.6,917.2,744.0,638.0,106.0,839.6,744.0,1005.5,Eucalyptus L'Hér.; Pinus pinaster Aiton; Tracheophyta; Vitis vinifera L.; Olea europaea L.
2002,2002-07-01,Castelo Branco,Covilhã,Teixoso,TEIXOSO,40.3185839,-7.4562317,NC,543.0,2002-07-01T18:00,25.4,38,10.2,22.7,0.0,0.0,0.0,0.0,0,1014.2,953.4,0,0,0,0,0.35,2.0,18.9,26.5,312,314,43.9,30.6,24.9,20.7,14.8,0.096,0.18,0.256,0.356,1,3600.0,308.5,244.6,63.9,689.0,308.5,469.7,386.0,306.0,80.0,689.0,386.0,587.7,Tracheophyta; Magnoliopsida; Pinus pinaster Aiton; Vitis vinifera L.; Olea europaea L.
2002,2002-06-18,Castelo Branco,Sertã,Sertã,Outeiro da Lagoa,39.82435875,-8.08282085861341,NC,344.0,2002-06-18T00:00,16.8,81,13.4,16.1,0.0,0.0,0.0,0.0,0,1017.9,977.6,19,1,0,60,0.02,0.37,11.7,22.1,317,323,20.5,20.6,25.0,19.5,14.8,0.104,0.175,0.252,0.308,0,0.0,0.0,0.0,0.0,0.0,0.0,0.0,0.0,0.0,0.0,0.0,0.0,0.0,Tracheophyta; Eucalyptus L'Hér.; Olea europaea L.; Pinus pinaster Aiton; Magnoliopsida
2002,2002-07-02,Castelo Branco,Covilhã,Covilhã (são Martinho),São Martinho,40.2775366,-7.4960627,NC,530.0,2002-07-02T13:00,25.9,29,6.3,25.9,0.0,0.0,0.0,0.0,0,1013.9,954.7,0,0,0,0,0.7,2.39,10.9,13.6,304,307,32.4,33.6,23.4,20.8,15.0,0.095,0.179,0.256,0.356,1,3600.0,990.4,875.7,114.7,921.3,990.4,1257.7,993.0,878.0,115.0,921.3,993.0,1261.0,Olea europaea L.; Tracheophyta; Magnoliopsida
2002,2002-07-03,Castelo Branco,Vila de Rei,Vila de Rei,Azenha cimeira,39.6751385,-8.143569043758214,NC,433.0,2002-07-03T14:00,25.0,47,13.0,24.5,0.0,0.0,0.0,0.0,1,1018.9,969.8,27,30,0,0,0.52,1.68,16.1,21.1,326,327,41.4,31.9,22.9,20.9,15.9,0.094,0.165,0.234,0.305,1,3600.0,696.5,430.0,266.6,472.1,696.5,1205.0,716.0,442.0,274.0,472.1,716.0,1238.7,Pinales; Olea europaea L.; Tracheophyta; Magnoliopsida; Pinus pinaster Aiton
2002,2002-06-18,Castelo Branco,Idanha-a-Nova,São Miguel de Acha,SÃO MIGUEL DE ACHA,40.0157136,-7.3222605,NC,364.0,2002-06-18T15:00,29.5,33,11.7,29.8,0.0,0.0,0.0,0.0,1,1016.4,975.6,30,0,0,100,0.65,2.76,12.5,16.1,252,254,31.0,31.9,24.9,19.9,14.3,0.168,0.213,0.277,0.344,1,3600.0,779.8,547.8,232.0,673.5,779.8,1077.8,827.0,581.0,246.0,673.5,827.0,1143.0,Quercus L.; Magnoliopsida; Tracheophyta; Eucalyptus L'Hér.; Olea europaea L.; Quercus suber L.; Quercus rotundifolia Lam.; Pinus pinaster Aiton; Vitis vinifera L.; 
2002,2002-07-05,Castelo Branco,Covilhã,Covilhã (são Martinho),Refúgio,40.3226061,-7.477256533663363,NC,898.0,2002-07-05T16:00,25.9,37,10.0,23.9,0.0,0.0,0.0,0.0,0,1016.3,918.1,0,0,0,0,0.56,2.11,19.9,26.0,315,315,44.3,32.6,23.0,19.0,13.4,0.1,0.211,0.292,0.379,1,3600.0,672.1,574.5,97.6,833.8,672.1,911.7,737.0,630.0,107.0,833.8,737.0,999.7,Tracheophyta; Pinus pinaster Aiton; Acacia Mill.; Magnoliopsida
2002,2002-07-07,Castelo Branco,Sertã,Cernache do Bonjardim,CERNACHE DO BONJARDIM,39.8127676,-8.186952558587361,NC,394.0,2002-07-07T10:00,23.4,57,14.5,24.9,0.0,0.0,0.0,0.0,0,1016.0,971.1,0,0,0,0,0.44,1.23,5.8,6.5,300,304,21.6,26.5,21.2,19.9,15.6,0.107,0.158,0.223,0.298,1,3600.0,738.2,601.0,137.2,756.7,738.2,1050.9,678.0,552.0,126.0,756.7,678.0,965.2,Olea europaea L.; Tracheophyta; Pinus pinaster Aiton
2002,2002-07-19,Castelo Branco,Vila Velha de Ródão,Vila Velha de Ródão,Sarnadinha \ POVI,39.68218585,-7.669402903957814,NC,220.0,2002-07-19T13:00,33.2,21,7.9,33.4,0.0,0.0,0.0,0.0,0,1011.6,987.1,0,0,0,0,0.79,4.03,11.1,13.8,209,208,30.6,37.6,27.9,23.6,18.3,0.127,0.152,0.186,0.283,1,3600.0,966.6,853.8,112.8,905.9,966.6,1248.2,968.0,855.0,113.0,905.9,968.0,1250.0,Magnoliopsida; Eucalyptus L'Hér.; Olea europaea L.; Tracheophyta; Pinus pinaster Aiton
2002,2002-07-07,Castelo Branco,Covilhã,Teixoso,TEIXOSO,40.3185839,-7.4562317,NC,543.0,2002-07-07T16:00,30.3,31,11.2,29.5,0.0,0.0,0.0,0.0,0,1013.9,954.1,0,0,0,0,0.55,3.0,12.0,15.3,249,251,33.8,35.5,25.9,21.1,15.5,0.093,0.173,0.249,0.353,1,3600.0,594.3,441.2,153.1,642.1,594.3,909.1,652.0,484.0,168.0,642.1,652.0,997.3,Tracheophyta; Magnoliopsida; Pinus pinaster Aiton; Vitis vinifera L.; Olea europaea L.
2002,2002-07-22,Castelo Branco,Fundão,Castelejo,Enxabarda,40.1073729,-7.6060364,NC,519.0,2002-07-22T11:00,20.6,48,9.4,19.2,0.0,0.0,0.0,0.0,2,1017.6,958.3,77,84,2,0,0.37,1.25,8.4,10.2,211,212,27.7,27.6,25.0,23.1,17.6,0.092,0.156,0.225,0.333,1,3600.0,578.1,320.7,257.4,365.4,578.1,1162.8,548.0,304.0,244.0,365.4,548.0,1102.3,Olea europaea L.; Eucalyptus L'Hér.; Pinus pinaster Aiton; Magnoliopsida; Tracheophyta; Quercus L.; Castanea sativa Mill.; 
2002,2002-07-06,Castelo Branco,Castelo Branco,Alcains,ALCAINS,39.91996525,-7.4362786,NC,364.0,2002-07-06T14:00,29.6,27,8.7,31.8,0.0,0.0,0.0,0.0,0,1014.2,973.5,0,0,0,0,0.68,3.02,1.5,1.8,346,360,22.0,32.3,23.9,21.0,15.8,0.148,0.177,0.243,0.325,1,3600.0,933.1,819.4,113.7,904.1,933.1,1199.1,960.0,843.0,117.0,904.1,960.0,1233.7,Vitis vinifera L.; Tracheophyta; Magnoliopsida
2002,2002-07-06,Castelo Branco,Fundão,Capinha,VALE DOURADO \ VG,40.2008959,-7.3756137,NC,482.0,2002-07-06T13:00,27.9,29,8.3,29.7,0.0,0.0,0.0,0.0,0,1015.6,961.8,0,0,0,0,0.69,2.66,3.3,4.5,13,14,24.5,33.6,23.9,21.2,15.6,0.096,0.173,0.248,0.347,1,3600.0,979.5,860.8,118.7,906.9,979.5,1255.8,982.0,863.0,119.0,906.9,982.0,1259.0,Quercus suber L.; Magnoliopsida; Eucalyptus L'Hér.; Pinus pinaster Aiton; Tracheophyta; Olea europaea L.; Quercus L.; Vitis vinifera L.; Pinales; 
2002,2002-07-11,Castelo Branco,Sertã,Sertã,Carnapete \ POV,39.82435875,-8.08282085861341,NC,344.0,2002-07-11T13:00,25.3,33,8.1,24.6,0.0,0.0,0.0,0.0,0,1017.9,978.7,0,0,0,0,0.69,2.15,16.5,20.9,340,341,40.3,30.0,21.2,20.9,16.9,0.118,0.158,0.219,0.299,1,3600.0,976.2,860.3,115.9,906.3,976.2,1256.1,977.0,861.0,116.0,906.3,977.0,1257.2,Tracheophyta; Eucalyptus L'Hér.; Olea europaea L.; Pinus pinaster Aiton; Magnoliopsida
2002,2002-07-07,Castelo Branco,Fundão,Fundão,FUNDÃO,40.1413493,-7.4963846,NC,485.0,2002-07-07T23:00,20.6,71,15.1,21.3,0.0,0.0,0.0,0.0,0,1014.6,959.2,3,0,0,11,0.02,0.7,7.1,12.7,300,305,14.4,23.5,26.8,22.0,16.2,0.094,0.17,0.244,0.342,0,0.0,0.0,0.0,0.0,0.0,0.0,0.0,0.0,0.0,0.0,0.0,0.0,0.0,Tracheophyta; Magnoliopsida; Pinales; Olea europaea L.; Acacia Mill.
2002,2002-07-12,Castelo Branco,Castelo Branco,Castelo Branco,Castelo Branco,39.8266322,-7.4919318,NC,410.0,2002-07-12T19:00,22.1,57,13.1,20.1,0.0,0.0,0.0,0.0,0,1019.4,972.4,2,0,0,6,0.19,1.15,19.9,29.6,311,312,45.0,27.3,24.8,21.6,16.8,0.109,0.159,0.221,0.313,1,3600.0,118.9,82.5,36.4,499.9,118.9,218.4,186.0,129.0,57.0,499.9,186.0,341.5,Tracheophyta; Olea europaea L.; Magnoliopsida
2002,2002-07-13,Castelo Branco,Castelo Branco,Almaceda,Rochas de Baixo,40.0071616,-7.6616735,NC,339.0,2002-07-13T13:00,29.1,29,9.2,28.3,0.0,0.0,0.0,0.0,0,1020.9,982.7,0,0,0,0,0.75,2.87,18.2,23.9,351,353,41.8,33.8,24.0,22.0,17.3,0.108,0.159,0.221,0.313,1,3600.0,952.3,835.5,116.8,883.3,952.3,1251.9,954.0,837.0,117.0,883.3,954.0,1254.1,Magnoliopsida; Pinales; Pinus pinaster Aiton; Tracheophyta; Olea europaea L.; Eucalyptus L'Hér.; 
2002,2002-07-15,Castelo Branco,Vila de Rei,Vila de Rei,VILA DE REI,39.6751385,-8.143569043758214,NC,433.0,2002-07-15T11:00,25.5,22,2.5,23.9,0.0,0.0,0.0,0.0,0,1017.4,968.5,0,0,0,0,0.62,2.53,11.3,14.2,83,83,32.0,30.2,23.7,21.0,16.9,0.094,0.159,0.222,0.301,1,3600.0,907.1,794.3,112.9,896.6,907.1,1172.6,860.0,753.0,107.0,896.6,860.0,1111.7,Pinales; Olea europaea L.; Tracheophyta; Magnoliopsida; Pinus pinaster Aiton
2002,2002-07-24,Castelo Branco,Covilhã,Boidobra,BOIDOBRA \ SF,40.254211,-7.4921904,NC,433.0,2002-07-24T17:00,33.4,23,9.1,32.6,0.0,0.0,0.0,0.0,0,1018.8,971.0,0,0,0,0,0.42,3.98,4.0,4.9,333,343,16.6,37.9,27.3,23.0,17.7,0.095,0.161,0.228,0.338,1,3600.0,482.4,403.1,79.2,790.0,482.4,676.4,560.0,468.0,92.0,790.0,560.0,785.2,Pinus pinaster Aiton; Tracheophyta; Magnoliopsida; Olea europaea L.; Quercus L.
2002,2002-07-15,Castelo Branco,Castelo Branco,Lardosa,Vale da Torre,39.9881774,-7.4432595,NC,406.0,2002-07-15T12:00,26.8,20,1.8,25.6,0.0,0.0,0.0,0.0,0,1017.2,971.4,0,0,0,0,0.71,2.82,11.5,14.8,70,67,33.8,29.2,23.5,21.4,16.8,0.135,0.173,0.238,0.336,1,3600.0,986.5,869.7,116.8,925.2,986.5,1244.3,963.0,849.0,114.0,925.2,963.0,1214.7,Magnoliopsida; Quercus suber L.; Tracheophyta; Eucalyptus L'Hér.; Olea europaea L.; Quercus L.; Quercus rotundifolia Lam.; Pinus pinaster Aiton; Pinales; Pinus pinea L.; Vitis vinifera L.; Acacia Mill.; 
2002,2002-07-26,Castelo Branco,Sertã,Carvalhal,Amieira,39.8749165,-8.1197753,NC,399.0,2002-07-26T13:00,33.8,29,13.3,36.7,0.0,0.0,0.0,0.0,0,1012.6,968.8,17,0,29,0,0.72,3.74,4.3,5.4,228,222,21.2,39.8,27.4,22.7,17.5,0.108,0.152,0.197,0.291,1,3600.0,936.6,822.7,114.0,881.1,936.6,1238.0,937.0,823.0,114.0,881.1,937.0,1238.5,Pinus pinaster Aiton; Eucalyptus L'Hér.; Olea europaea L.; Magnoliopsida; Tracheophyta
2002,2002-07-15,Castelo Branco,Covilhã,Canhoso,Canhoso,40.29348025,-7.468689595783609,Desconhecida,449.0,2002-07-15T18:00,29.5,17,1.7,26.0,0.0,0.0,0.0,0.0,0,1013.3,963.5,0,0,0,0,0.37,3.43,11.5,15.8,44,43,26.6,32.5,25.6,21.6,16.7,0.095,0.166,0.238,0.343,1,3600.0,315.7,253.9,61.9,734.7,315.7,457.4,398.0,320.0,78.0,734.7,398.0,576.5,Quercus L.; Magnoliopsida; Olea europaea L.; Tracheophyta
2002,2002-07-08,Castelo Branco,Castelo Branco,Lardosa,LARDOSA,39.9886276,-7.441019423678226,NC,403.0,2002-07-08T22:00,18.1,73,13.1,17.5,0.0,0.0,0.0,0.0,1,1016.0,969.3,22,19,0,15,0.03,0.57,10.5,16.3,297,301,34.2,21.9,24.8,21.6,16.2,0.135,0.177,0.244,0.338,0,0.0,0.0,0.0,0.0,0.0,0.0,0.0,0.0,0.0,0.0,0.0,0.0,0.0,Magnoliopsida; Quercus suber L.; Tracheophyta; Eucalyptus L'Hér.; Olea europaea L.; Quercus L.; Quercus rotundifolia Lam.; Pinus pinaster Aiton; Pinales; Pinus pinea L.; Vitis vinifera L.; Acacia Mill.; 
2002,2002-07-01,Castelo Branco,Covilhã,Canhoso,Canhoso,40.29348025,-7.468689595783609,NC,449.0,2002-07-01T03:00,17.6,47,6.2,15.1,0.0,0.0,0.0,0.0,0,1014.7,962.8,5,0,9,0,0.06,1.06,10.5,23.0,16,27,24.8,18.6,24.2,21.3,15.1,0.099,0.179,0.256,0.35,0,0.0,0.0,0.0,0.0,0.0,0.0,0.0,0.0,0.0,0.0,0.0,0.0,0.0,Quercus L.; Magnoliopsida; Olea europaea L.; Tracheophyta
2002,2002-07-08,Castelo Branco,Castelo Branco,Lardosa,LARDOSA,39.9886276,-7.441019423678226,NC,403.0,2002-07-08T17:00,26.1,41,12.0,23.8,0.0,0.0,0.0,0.0,0,1013.2,967.8,0,0,0,0,0.44,1.99,20.3,27.8,300,301,47.2,29.9,25.2,21.5,16.2,0.135,0.177,0.245,0.338,1,3600.0,463.9,372.0,91.9,702.3,463.9,700.8,535.0,429.0,106.0,702.3,535.0,808.2,Magnoliopsida; Quercus suber L.; Tracheophyta; Eucalyptus L'Hér.; Olea europaea L.; Quercus L.; Quercus rotundifolia Lam.; Pinus pinaster Aiton; Pinales; Pinus pinea L.; Vitis vinifera L.; Acacia Mill.; 
2002,2002-07-15,Castelo Branco,Idanha-a-Nova,Monsanto,MONSANTO,40.0400404,-7.1130885,NC,590.0,2002-07-15T14:00,28.4,16,0.1,26.2,0.0,0.0,0.0,0.0,0,1016.1,950.8,0,0,0,0,0.76,3.25,15.8,20.4,45,45,37.1,31.5,23.5,21.1,16.2,0.128,0.17,0.235,0.321,1,3600.0,946.6,837.8,108.9,931.1,946.6,1191.0,974.0,862.0,112.0,931.1,974.0,1225.4,Quercus L.; Eucalyptus L'Hér.; Quercus rotundifolia Lam.; Quercus suber L.; Olea europaea L.; Tracheophyta; Magnoliopsida; Pinus pinaster Aiton; Vitis vinifera L.; 
2002,2002-07-16,Castelo Branco,Vila de Rei,Vila de Rei,Azenha Fundeira,39.6751385,-8.143569043758214,NC,433.0,2002-07-16T15:00,30.9,18,3.6,29.9,0.0,0.0,0.0,0.0,0,1013.2,965.3,0,0,0,0,0.69,3.68,9.8,12.5,54,57,26.6,38.1,25.9,21.3,17.0,0.093,0.159,0.22,0.301,1,3600.0,835.3,733.3,102.1,898.8,835.3,1080.0,884.0,776.0,108.0,898.8,884.0,1142.9,Pinales; Olea europaea L.; Tracheophyta; Magnoliopsida; Pinus pinaster Aiton
2002,2002-07-21,Castelo Branco,Fundão,Soalheira,SOALHEIRA,40.0268704,-7.4553464,NC,408.0,2002-07-21T09:00,25.8,45,13.0,25.5,0.0,0.0,0.0,0.0,0,1014.7,968.7,0,0,0,0,0.37,1.82,8.0,9.8,153,152,22.7,27.3,24.7,22.6,17.5,0.128,0.164,0.226,0.335,1,3600.0,597.2,491.0,106.2,759.7,597.2,856.2,523.0,430.0,93.0,759.7,523.0,749.8,Magnoliopsida; Tracheophyta; Vitis vinifera L.; Quercus suber L.; Olea europaea L.
2002,2002-07-17,Castelo Branco,Castelo Branco,São Vicente da Beira,Pereiros,40.037489,-7.5602246,NC,560.0,2002-07-17T15:00,32.5,19,6.1,32.8,0.0,0.0,0.0,0.0,0,1013.3,952.2,0,0,0,0,0.67,3.94,5.1,6.1,94,90,22.0,40.9,26.9,22.1,17.1,0.086,0.163,0.233,0.333,1,3600.0,828.0,725.1,102.9,894.8,828.0,1072.9,877.0,768.0,109.0,894.8,877.0,1136.4,Tracheophyta; Olea europaea L.; Pinus pinaster Aiton; Quercus suber L.
2002,2002-07-11,Castelo Branco,Covilhã,Covilhã (conceição),Quinta do Prado,40.28695805,-7.5007239184333905,NC,621.0,2002-07-11T15:00,25.7,26,5.0,24.5,0.0,0.0,0.0,0.0,0,1018.0,948.7,0,0,0,0,0.64,2.43,12.6,16.1,340,340,37.8,30.3,21.4,20.0,15.0,0.11,0.176,0.251,0.355,1,3600.0,834.7,730.9,103.9,899.4,834.7,1075.3,884.0,774.0,110.0,899.4,884.0,1138.8,Tracheophyta; Pinus pinaster Aiton; Olea europaea L.; Magnoliopsida
2002,2002-07-26,Castelo Branco,Penamacor,Aranhas,ARANHAS,40.1112959,-7.120030340909622,NC,483.0,2002-07-26T21:00,29.2,40,14.2,29.4,0.0,0.0,0.0,0.0,0,1010.6,957.2,2,0,4,0,0.08,2.44,8.3,16.1,304,310,17.3,30.9,30.1,23.9,18.4,0.103,0.158,0.216,0.305,0,0.0,0.0,0.0,0.0,0.0,0.0,0.0,0.0,0.0,0.0,0.0,0.0,0.0,Quercus suber L.; Olea europaea L.; Tracheophyta; Eucalyptus L'Hér.; Pinus pinaster Aiton; Magnoliopsida; Quercus L.; ; Pinus pinea L.
2002,2002-07-02,Castelo Branco,Vila Velha de Ródão,Vila Velha de Ródão,VILA VELHA DE RODÃO,39.68218585,-7.669402903957814,NC,220.0,2002-07-02T13:00,28.1,29,8.4,28.8,0.0,0.0,0.0,0.0,0,1013.3,988.4,0,0,0,0,0.72,2.71,10.0,12.2,296,298,29.2,33.9,25.1,22.3,16.7,0.132,0.155,0.204,0.288,1,3600.0,983.7,865.0,118.7,907.1,983.7,1261.8,986.0,867.0,119.0,907.1,986.0,1264.7,Magnoliopsida; Eucalyptus L'Hér.; Olea europaea L.; Tracheophyta; Pinus pinaster Aiton
2002,2002-07-17,Castelo Branco,Proença-a-Nova,Proença-a-Nova,Sarzedinha \ POVI,39.7193518,-7.898760199542231,Desconhecida,366.0,2002-07-17T10:00,28.4,28,8.3,26.4,0.0,0.0,0.0,0.0,0,1015.3,974.2,0,0,0,0,0.58,2.77,16.2,21.3,86,87,39.2,29.7,25.2,22.1,17.6,0.107,0.162,0.225,0.306,1,3600.0,768.1,660.1,108.0,840.9,768.1,1039.4,704.0,605.0,99.0,840.9,704.0,952.6,Eucalyptus L'Hér.; Tracheophyta; Pinus pinaster Aiton; Magnoliopsida; Olea europaea L.
2002,2002-07-18,Castelo Branco,Fundão,Silvares,SILVARES,40.1403177,-7.6613124,NC,407.0,2002-07-18T21:00,27.1,37,11.1,26.4,0.0,0.0,0.0,0.0,0,1011.8,966.2,0,0,0,0,0.07,2.26,6.9,7.2,261,270,12.2,29.7,29.7,23.5,18.2,0.086,0.162,0.232,0.332,0,0.0,0.0,0.0,0.0,0.0,0.0,0.0,0.0,0.0,0.0,0.0,0.0,0.0,Olea europaea L.; Magnoliopsida; Eucalyptus L'Hér.; Pinus pinaster Aiton
2002,2002-07-27,Castelo Branco,Covilhã,Peraboa,PERABOA \ SF,40.2565271,-7.387151,NC,504.0,2002-07-27T08:00,25.5,58,16.6,27.0,0.0,0.0,0.0,0.0,0,1013.4,956.9,0,0,0,0,0.22,1.37,5.5,7.4,328,331,16.9,25.7,26.2,22.8,17.3,0.098,0.164,0.235,0.347,1,3600.0,396.9,305.4,91.5,645.6,396.9,627.3,321.0,247.0,74.0,645.6,321.0,507.4,Tracheophyta; Magnoliopsida; Olea europaea L.
2002,2002-07-17,Castelo Branco,Penamacor,Vale da Senhora da Póvoa,VALE DA SENHORA DA PÓVOA,40.27130065,-7.2191529603400735,NC,534.0,2002-07-17T14:00,31.9,20,6.5,32.7,0.0,0.0,0.0,0.0,0,1013.9,955.4,0,0,0,0,0.73,3.77,6.1,7.6,90,85,23.8,38.3,25.5,21.7,16.8,0.093,0.162,0.233,0.335,1,3600.0,929.0,818.2,110.8,912.7,929.0,1187.0,956.0,842.0,114.0,912.7,956.0,1221.5,Quercus L.; Quercus suber L.; Pinus pinaster Aiton; Tracheophyta; Olea europaea L.; Magnoliopsida; Eucalyptus L'Hér.; Pinales; 
2002,2002-07-18,Castelo Branco,Idanha-a-Nova,Idanha-a-Nova,IDANHA A NOVA,39.8874234,-7.214369144662824,NC,196.0,2002-07-18T09:00,29.1,26,7.9,27.9,0.0,0.0,0.0,0.0,0,1012.5,990.4,0,0,0,0,0.38,2.96,3.8,5.0,107,111,14.8,28.7,25.5,23.2,18.2,0.135,0.17,0.232,0.315,1,3600.0,622.0,518.3,103.7,792.4,622.0,866.1,546.0,455.0,91.0,792.4,546.0,760.3,Pinus pinea L.; Tracheophyta; Eucalyptus L'Hér.
2002,2002-07-10,Castelo Branco,Covilhã,Teixoso,Gibaltar \ POV,40.3134342,-7.4580288,NC,564.0,2002-07-10T19:00,19.1,56,10.1,17.5,0.0,0.0,0.0,0.0,0,1017.5,953.0,0,0,0,0,0.14,0.97,11.2,15.8,312,315,29.5,24.6,23.1,21.0,15.8,0.108,0.172,0.246,0.352,1,3600.0,117.8,73.4,44.4,440.7,117.8,220.3,183.0,114.0,69.0,440.7,183.0,342.3,Tracheophyta; Olea europaea L.; Vitis vinifera L.; Pinus pinaster Aiton; Magnoliopsida
2002,2002-07-07,Castelo Branco,Castelo Branco,Almaceda,Martim Branco,39.9465665,-7.6255106,NC,276.0,2002-07-07T16:00,31.5,29,11.4,30.9,0.0,0.0,0.0,0.0,0,1012.8,982.0,0,0,0,0,0.6,3.27,12.9,16.3,240,239,33.8,36.9,27.4,22.7,17.2,0.107,0.161,0.226,0.314,1,3600.0,645.5,528.8,116.7,766.9,645.5,912.3,708.0,580.0,128.0,766.9,708.0,1000.7,Magnoliopsida; Pinales; Pinus pinaster Aiton; Tracheophyta; Olea europaea L.; Eucalyptus L'Hér.; 
2002,2002-07-18,Castelo Branco,Penamacor,Vale da Senhora da Póvoa,VALE DA SENHORA DA PÓVOA,40.27130065,-7.2191529603400735,NC,534.0,2002-07-18T10:00,30.8,20,5.4,29.6,0.0,0.0,0.0,0.0,0,1012.9,954.2,0,0,0,0,0.56,3.55,7.6,9.7,180,182,23.8,32.2,24.9,21.9,16.9,0.093,0.162,0.233,0.335,1,3600.0,781.9,673.0,108.9,854.7,781.9,1042.6,718.0,618.0,100.0,854.7,718.0,957.4,Quercus L.; Quercus suber L.; Pinus pinaster Aiton; Tracheophyta; Olea europaea L.; Magnoliopsida; Eucalyptus L'Hér.; Pinales; 
2002,2002-07-08,Castelo Branco,Idanha-a-Nova,Oledo,OLÊDO,39.9718181,-7.3002672,NC,328.0,2002-07-08T23:00,18.3,72,13.2,17.8,0.0,0.0,0.0,0.0,1,1015.3,977.1,24,7,0,60,0.03,0.58,10.1,15.9,297,303,22.3,21.9,25.4,22.4,16.9,0.144,0.186,0.252,0.337,0,0.0,0.0,0.0,0.0,0.0,0.0,0.0,0.0,0.0,0.0,0.0,0.0,0.0,Tracheophyta; Magnoliopsida; Quercus suber L.; Olea europaea L.; Quercus L.; Quercus rotundifolia Lam.; 
2002,2002-07-03,Castelo Branco,Idanha-a-Nova,Medelim,MEDELIM \ SF,40.0485565,-7.1827626,Desconhecida,418.0,2002-07-03T16:00,29.3,28,8.8,28.0,0.0,0.0,0.0,0.0,0,1015.6,969.0,0,0,0,0,0.61,2.95,14.4,19.0,302,303,37.8,32.1,24.8,21.6,15.8,0.141,0.182,0.249,0.323,1,3600.0,686.9,592.1,94.7,861.9,686.9,909.0,754.0,650.0,104.0,861.9,754.0,997.8,Tracheophyta; Quercus suber L.; Quercus L.; Magnoliopsida; Eucalyptus L'Hér.; Olea europaea L.; Pinus pinaster Aiton; Pinales; Vitis vinifera L.; Quercus rotundifolia Lam.; 
2002,2002-07-17,Castelo Branco,Castelo Branco,Almaceda,ALMACEDA,40.0071772,-7.6615743,NC,339.0,2002-07-17T20:00,31.5,22,7.4,30.1,0.0,0.0,0.0,0.0,0,1012.0,974.4,0,0,0,0,0.08,3.6,5.5,14.0,337,337,12.6,32.0,28.6,22.7,17.7,0.106,0.157,0.215,0.311,0,1666.57,0.0,0.0,0.0,0.0,0.0,0.0,41.0,23.0,18.0,199.7,41.0,93.9,Magnoliopsida; Pinales; Pinus pinaster Aiton; Tracheophyta; Olea europaea L.; Eucalyptus L'Hér.; 
2002,2002-07-12,Castelo Branco,Castelo Branco,Sarzedas,SARZEDAS,39.8506966,-7.687679,NC,403.0,2002-07-12T16:00,26.8,40,12.2,25.2,0.0,0.0,0.0,0.0,0,1019.9,974.3,4,1,0,12,0.56,2.11,21.4,28.6,318,319,45.4,33.8,24.8,22.1,17.3,0.099,0.16,0.224,0.306,1,3600.0,650.9,549.7,101.2,797.8,650.9,911.9,714.0,603.0,111.0,797.8,714.0,1000.3,Magnoliopsida; Vitis vinifera L.; Pinus pinaster Aiton; Tracheophyta; Eucalyptus L'Hér.; Olea europaea L.; Quercus suber L.; Quercus rotundifolia Lam.; 
2002,2002-07-19,Castelo Branco,Castelo Branco,Escalos de Cima,ESCALOS DE CIMA \ SF,39.9297891,-7.4042742,Desconhecida,364.0,2002-07-19T14:00,32.3,22,8.0,32.3,0.0,0.0,0.0,0.0,0,1010.8,970.6,0,0,0,0,0.77,3.76,11.6,15.1,206,205,33.5,34.8,26.1,22.0,17.0,0.139,0.167,0.229,0.322,1,3600.0,922.4,811.6,110.8,904.9,922.4,1187.8,949.0,835.0,114.0,904.9,949.0,1222.0,Magnoliopsida; Tracheophyta; Quercus suber L.; Olea europaea L.; Quercus rotundifolia Lam.; Pinus pinaster Aiton; Eucalyptus L'Hér.; Pinus pinea L.; 
2002,2002-07-15,Castelo Branco,Penamacor,Vale da Senhora da Póvoa,VALE DA SENHORA DA PÓVOA,40.27130065,-7.2191529603400735,NC,534.0,2002-07-15T16:00,28.9,17,1.3,26.6,0.0,0.0,0.0,0.0,0,1014.1,955.0,0,0,0,0,0.59,3.31,10.5,14.1,52,50,27.4,34.2,24.7,21.6,16.6,0.094,0.163,0.236,0.336,1,3600.0,693.6,599.8,93.8,881.6,693.6,900.7,762.0,659.0,103.0,881.6,762.0,989.5,Quercus L.; Quercus suber L.; Pinus pinaster Aiton; Tracheophyta; Olea europaea L.; Magnoliopsida; Eucalyptus L'Hér.; Pinales; 
2002,2002-07-20,Castelo Branco,Castelo Branco,Santo André das Tojeiras,Ferrarias Cimeiras,39.8068537,-7.6985628,NC,345.0,2002-07-20T19:00,28.3,31,9.5,26.8,0.0,0.0,0.0,0.0,0,1013.6,974.9,0,0,0,0,0.21,2.66,9.9,13.3,280,283,20.5,33.4,29.4,24.3,18.6,0.09,0.156,0.215,0.295,1,3600.0,114.6,79.9,34.7,523.0,114.6,202.3,185.0,129.0,56.0,523.0,185.0,326.7,Magnoliopsida; Pinus pinaster Aiton; Olea europaea L.; Tracheophyta
2002,2002-07-18,Castelo Branco,Castelo Branco,Monforte da Beira,MONFORTE DA BEIRA,39.7277995,-7.2879097,NC,439.0,2002-07-18T11:00,32.8,20,6.5,32.2,0.0,0.0,0.0,0.0,0,1012.4,964.2,0,0,0,0,0.7,4.0,10.0,12.2,193,194,28.1,35.2,26.2,23.0,17.7,0.099,0.154,0.217,0.29,1,3600.0,901.8,788.0,113.8,888.8,901.8,1173.9,856.0,748.0,108.0,888.8,856.0,1114.3,Tracheophyta; Quercus rotundifolia Lam.; Quercus suber L.; Olea europaea L.; Magnoliopsida; Eucalyptus L'Hér.; Pinus pinea L.; Pinus pinaster Aiton; Quercus L.; 
2002,2002-07-15,Castelo Branco,Castelo Branco,Louriçal do Campo,Alminhas da Torre,40.0444113,-7.5107617,NC,486.0,2002-07-15T21:00,24.7,22,1.8,21.4,0.0,0.0,0.0,0.0,0,1014.1,959.4,0,0,0,0,0.12,2.42,10.0,23.2,38,43,24.5,25.5,25.1,21.0,16.4,0.13,0.167,0.231,0.337,0,0.0,0.0,0.0,0.0,0.0,0.0,0.0,0.0,0.0,0.0,0.0,0.0,0.0,Pinus pinaster Aiton; Quercus rotundifolia Lam.; Magnoliopsida; Tracheophyta; Olea europaea L.; Quercus suber L.; Quercus L.; Eucalyptus L'Hér.; Acacia Mill.; 
2002,2002-06-18,Castelo Branco,Sertã,Cernache do Bonjardim,CERNACHE DO BONJARDIM,39.8190998,-8.185199304018756,NC,405.0,2002-06-18T13:00,23.9,57,15.0,24.7,0.0,0.0,0.0,0.0,3,1019.3,973.1,100,86,0,99,0.46,1.27,10.7,13.5,303,304,36.0,28.7,21.7,18.3,14.0,0.118,0.179,0.253,0.306,1,3600.0,663.2,361.0,302.2,378.2,663.2,1264.8,665.0,362.0,303.0,378.2,665.0,1268.2,Olea europaea L.; Tracheophyta; Pinus pinaster Aiton; Magnoliopsida; Eucalyptus L'Hér.
2002,2002-07-25,Castelo Branco,Penamacor,Aldeia do Bispo,ALDEIA DO BISPO \ SF,40.1194915,-7.1675482,NC,413.0,2002-07-25T15:00,35.0,18,7.2,35.1,0.0,0.0,0.0,0.0,0,1015.7,970.4,5,0,8,1,0.54,4.61,1.8,2.2,281,279,16.9,37.9,28.0,23.3,18.4,0.126,0.165,0.226,0.318,1,3600.0,675.7,532.5,143.2,667.6,675.7,1057.3,717.0,565.0,152.0,667.6,717.0,1122.0,Magnoliopsida; Pinus pinaster Aiton; Tracheophyta; Eucalyptus L'Hér.; Olea europaea L.; Quercus L.; Quercus suber L.; Pinus pinea L.; 
2002,2002-07-26,Castelo Branco,Castelo Branco,Lardosa,LARDOSA \ SF,39.9881774,-7.4432595,NC,406.0,2002-07-26T11:00,32.8,23,9.1,32.6,0.0,0.0,0.0,0.0,0,1014.2,969.4,2,0,3,0,0.67,3.81,10.1,12.9,117,117,30.2,33.3,27.0,22.9,17.9,0.132,0.166,0.228,0.332,1,3600.0,870.7,752.5,118.2,861.3,870.7,1158.4,825.0,713.0,112.0,861.3,825.0,1097.6,Magnoliopsida; Quercus suber L.; Tracheophyta; Eucalyptus L'Hér.; Olea europaea L.; Quercus L.; Quercus rotundifolia Lam.; Pinus pinaster Aiton; Pinales; Pinus pinea L.; Vitis vinifera L.; Acacia Mill.; 
2002,2002-07-19,Castelo Branco,Proença-a-Nova,Proença-a-Nova,Vergão \ POV,39.73720165,-7.91196919525089,Desconhecida,440.0,2002-07-19T13:00,31.4,21,6.4,31.2,0.0,0.0,0.0,0.0,0,1011.9,963.4,0,0,0,0,0.77,3.63,11.1,14.2,209,207,29.5,36.9,26.7,22.4,17.3,0.106,0.161,0.222,0.305,1,3600.0,966.1,854.2,111.9,906.3,966.1,1248.1,967.0,855.0,112.0,906.3,967.0,1249.3,Pinus pinaster Aiton; Tracheophyta; Olea europaea L.; Magnoliopsida
2002,2002-07-04,Castelo Branco,Proença-a-Nova,Montes da Senhora,Catraia Cimeira,39.7932074,-7.7899697,NC,400.0,2002-07-04T04:00,15.0,89,13.2,15.1,0.0,0.0,0.0,0.0,0,1018.3,971.3,6,7,0,0,0.0,0.19,6.1,14.2,320,333,13.3,18.2,24.8,23.1,17.3,0.083,0.166,0.24,0.31,0,0.0,0.0,0.0,0.0,0.0,0.0,0.0,0.0,0.0,0.0,0.0,0.0,0.0,Magnoliopsida; Pinus pinaster Aiton; Eucalyptus L'Hér.; Tracheophyta; Olea europaea L.; Vitis vinifera L.; Pinales; 
2002,2002-07-27,Castelo Branco,Fundão,Capinha,CAPINHA,40.21469635,-7.382837426254095,NC,503.0,2002-07-27T13:00,34.1,22,9.1,34.0,0.0,0.0,0.0,0.0,0,1012.3,957.5,0,0,0,0,0.73,4.2,11.0,14.1,238,238,31.7,38.4,27.9,23.2,17.6,0.095,0.16,0.226,0.337,1,3600.0,857.2,736.5,120.7,792.8,857.2,1232.0,859.0,738.0,121.0,792.8,859.0,1234.5,Quercus suber L.; Magnoliopsida; Eucalyptus L'Hér.; Pinus pinaster Aiton; Tracheophyta; Olea europaea L.; Quercus L.; Vitis vinifera L.; Pinales; 
2002,2002-07-27,Castelo Branco,Sertã,Sertã,Amioso \ POV,39.82435875,-8.08282085861341,NC,344.0,2002-07-27T15:00,30.9,35,13.5,31.2,0.0,0.0,0.0,0.0,0,1012.4,974.1,0,0,0,0,0.69,2.91,16.4,20.7,308,309,39.6,38.0,28.1,23.7,18.3,0.102,0.153,0.198,0.29,1,3600.0,809.9,707.0,102.9,880.6,809.9,1064.6,858.0,749.0,109.0,880.6,858.0,1127.9,Tracheophyta; Eucalyptus L'Hér.; Olea europaea L.; Pinus pinaster Aiton; Magnoliopsida
2002,2002-07-21,Castelo Branco,Vila de Rei,Vila de Rei,Casal Formoso,39.7040787,-8.102001,NC,290.0,2002-07-21T02:00,17.9,76,13.6,17.7,0.0,0.0,0.0,0.0,0,1014.0,980.2,0,0,0,0,0.02,0.5,9.7,18.7,2,16,20.5,21.2,27.1,23.6,18.3,0.093,0.157,0.214,0.299,0,0.0,0.0,0.0,0.0,0.0,0.0,0.0,0.0,0.0,0.0,0.0,0.0,0.0,Eucalyptus L'Hér.; Magnoliopsida; Olea europaea L.; Pinus pinaster Aiton; Pinales
2002,2002-07-21,Castelo Branco,Castelo Branco,Escalos de Baixo,Travanca \ REG,39.8859417,-7.3971427,Desconhecida,322.0,2002-07-21T15:00,30.9,27,9.5,30.5,0.0,0.0,0.0,0.0,0,1013.1,977.2,1,1,0,0,0.68,3.27,12.7,15.6,195,195,32.4,34.1,26.3,22.6,17.5,0.139,0.166,0.227,0.321,1,3600.0,799.0,683.0,116.0,848.0,799.0,1067.0,847.0,724.0,123.0,848.0,847.0,1131.1,Olea europaea L.; Magnoliopsida; Tracheophyta; Quercus suber L.; Eucalyptus L'Hér.; Pinus pinaster Aiton; Quercus L.; Quercus rotundifolia Lam.; Vitis vinifera L.; Pinales; Pinus pinea L.; 
2002,2002-07-25,Castelo Branco,Fundão,Aldeia Nova do Cabo,ALDEIA NOVA DO CABO \ SF,40.1331959,-7.529372,NC,507.0,2002-07-25T16:00,34.5,20,8.2,34.2,0.0,0.0,0.0,0.0,1,1015.5,960.2,20,0,27,13,0.54,4.39,4.8,5.9,318,322,15.8,40.5,28.6,23.2,17.9,0.093,0.16,0.225,0.333,1,3600.0,616.0,515.2,100.9,767.5,616.0,889.9,678.0,567.0,111.0,767.5,678.0,979.4,Tracheophyta; Magnoliopsida
2002,2002-07-21,Castelo Branco,Covilhã,Teixoso,TEIXOSO,40.3185839,-7.4562317,NC,543.0,2002-07-21T21:00,22.4,69,16.4,23.3,0.0,0.0,0.0,0.0,0,1014.6,953.2,4,4,0,0,0.03,0.85,9.3,12.9,298,300,25.9,26.4,27.2,22.5,16.9,0.092,0.163,0.233,0.346,0,0.0,0.0,0.0,0.0,0.0,0.0,0.0,0.0,0.0,0.0,0.0,0.0,0.0,Tracheophyta; Magnoliopsida; Pinus pinaster Aiton; Vitis vinifera L.; Olea europaea L.
2002,2002-06-18,Castelo Branco,Covilhã,Verdelhos,Serra do Espinhaço de cão,40.2805658,-7.5043211,NC,697.0,2002-06-18T17:00,24.5,53,14.3,24.4,0.0,0.0,0.0,0.0,1,1017.6,939.9,31,1,0,100,0.39,1.45,10.9,13.8,276,277,31.7,31.1,23.7,17.9,12.7,0.124,0.241,0.313,0.398,1,3600.0,482.2,371.2,111.0,702.1,482.2,700.5,556.0,428.0,128.0,702.1,556.0,807.7,Tracheophyta; Olea europaea L.; Magnoliopsida; Pinus pinaster Aiton
2002,2002-07-22,Castelo Branco,Idanha-a-Nova,Monsanto,Lagar de Maria Martins,40.038751,-7.1151133,NC,645.0,2002-07-22T00:00,19.8,71,14.3,20.5,0.0,0.0,0.0,0.0,0,1014.4,941.4,18,20,0,0,0.01,0.67,4.7,8.1,274,283,13.0,22.3,25.4,21.8,16.5,0.126,0.166,0.229,0.319,0,0.0,0.0,0.0,0.0,0.0,0.0,0.0,0.0,0.0,0.0,0.0,0.0,0.0,Quercus L.; Eucalyptus L'Hér.; Quercus rotundifolia Lam.; Quercus suber L.; Olea europaea L.; Tracheophyta; Magnoliopsida; Pinus pinaster Aiton; Vitis vinifera L.; 
2002,2002-06-18,Castelo Branco,Idanha-a-Nova,Monfortinho,Torre,40.0033288,-6.9164657,NC,390.0,2002-06-18T16:00,30.7,26,9.0,29.4,0.0,0.0,0.0,0.0,1,1016.0,972.6,30,0,0,99,0.59,3.28,13.3,17.4,251,252,33.1,34.1,26.5,20.4,14.4,0.13,0.189,0.261,0.321,1,3600.0,640.0,467.3,172.7,686.9,640.0,901.3,704.0,514.0,190.0,686.9,704.0,991.4,Magnoliopsida; Quercus rotundifolia Lam.; Tracheophyta; Olea europaea L.; Eucalyptus L'Hér.; Pinus pinea L.; Pinus pinaster Aiton; Quercus suber L.; Pinales; 
2002,2002-07-18,Castelo Branco,Castelo Branco,Sarzedas,São Domingos \ POVI,39.8504445,-7.6855887,NC,396.0,2002-07-18T15:00,35.3,16,5.9,34.1,0.0,0.0,0.0,0.0,0,1010.0,966.8,0,0,0,0,0.77,4.78,13.2,16.8,223,225,31.7,41.7,28.7,23.1,17.9,0.096,0.157,0.216,0.303,1,3600.0,821.6,718.7,102.9,885.4,821.6,1074.8,870.0,761.0,109.0,885.4,870.0,1138.1,Magnoliopsida; Vitis vinifera L.; Pinus pinaster Aiton; Tracheophyta; Eucalyptus L'Hér.; Olea europaea L.; Quercus suber L.; Quercus rotundifolia Lam.; 
2002,2002-07-21,Castelo Branco,Vila Velha de Ródão,Sarnadas de Ródão,Amarelos,39.7564386,-7.62389134176353,NC,370.0,2002-07-21T16:00,30.8,25,8.7,29.6,0.0,0.0,0.0,0.0,0,1012.4,971.3,0,0,0,0,0.61,3.31,12.7,16.6,209,207,33.1,37.0,27.9,23.4,17.9,0.106,0.156,0.21,0.309,1,3600.0,667.9,563.2,104.6,828.4,667.9,900.7,734.0,619.0,115.0,828.4,734.0,989.8,Eucalyptus L'Hér.; Pinus pinaster Aiton; Tracheophyta; Vitis vinifera L.; Olea europaea L.
2002,2002-07-21,Castelo Branco,Fundão,Silvares,SILVARES,40.1403177,-7.6613124,NC,407.0,2002-07-21T23:00,20.1,78,16.1,21.5,0.0,0.0,0.0,0.0,2,1015.5,968.7,70,78,0,0,0.0,0.52,5.0,6.8,249,252,15.1,24.4,28.5,24.2,18.5,0.086,0.16,0.228,0.331,0,0.0,0.0,0.0,0.0,0.0,0.0,0.0,0.0,0.0,0.0,0.0,0.0,0.0,Olea europaea L.; Magnoliopsida; Eucalyptus L'Hér.; Pinus pinaster Aiton
2002,2002-07-24,Castelo Branco,Fundão,Silvares,Cabeço do Pião,40.1320557,-7.7094577,NC,465.0,2002-07-24T08:00,24.7,50,13.6,24.8,0.0,0.0,0.0,0.0,0,1022.2,969.4,0,0,0,0,0.23,1.55,7.1,10.0,24,26,18.7,23.8,23.6,22.5,17.4,0.1,0.143,0.212,0.315,1,3600.0,408.0,317.8,90.3,671.7,408.0,627.0,330.0,257.0,73.0,671.7,330.0,507.1,Magnoliopsida; Pinus pinaster Aiton; Eucalyptus L'Hér.
2002,2002-07-24,Castelo Branco,Fundão,Pêro Viseu,PERO VISEU,40.2071956,-7.4443594,NC,509.0,2002-07-24T10:00,28.2,35,11.2,28.6,0.0,0.0,0.0,0.0,0,1022.0,965.0,0,0,0,0,0.5,2.49,5.7,6.8,108,108,16.6,29.7,23.6,22.4,17.2,0.096,0.162,0.229,0.339,1,3600.0,755.5,646.3,109.2,831.7,755.5,1029.9,692.0,592.0,100.0,831.7,692.0,943.3,Tracheophyta; Pinales; Pinus pinaster Aiton; Olea europaea L.; Magnoliopsida
2002,2002-07-25,Castelo Branco,Idanha-a-Nova,Rosmaninhal,Soalheiras \ POVI,39.7281391,-7.090735,NC,314.0,2002-07-25T15:00,36.0,18,7.6,36.3,0.0,0.0,0.0,0.0,0,1015.1,980.6,0,0,0,1,0.66,4.89,5.3,6.9,332,332,19.8,40.4,28.9,24.3,18.9,0.123,0.153,0.189,0.279,1,3600.0,774.4,660.4,114.0,826.9,774.4,1058.7,822.0,701.0,121.0,826.9,822.0,1123.8,Tracheophyta; Magnoliopsida; Olea europaea L.
2002,2002-04-02,Castelo Branco,Penamacor,Meimão,MEIMÃO,40.26931265,-7.144537769356621,NC,584.0,2002-04-02T19:00,10.7,76,6.7,7.8,0.1,0.1,0.0,0.0,51,1007.6,939.6,100,58,99,0,0.05,0.31,14.2,21.2,249,252,32.8,12.7,12.8,10.9,9.0,0.264,0.306,0.374,0.359,0,0.0,0.0,0.0,0.0,0.0,0.0,0.0,9.0,2.0,7.0,16.9,9.0,102.5,Pinus pinaster Aiton; Eucalyptus L'Hér.; Quercus suber L.; Tracheophyta; Quercus L.; Magnoliopsida; Pinales; Olea europaea L.; Castanea sativa Mill.; 
2002,2002-07-22,Castelo Branco,Fundão,Silvares,SILVARES,40.1403177,-7.6613124,NC,407.0,2002-07-22T18:00,25.0,37,9.2,22.7,0.0,0.0,0.0,0.0,3,1017.8,971.6,82,78,13,15,0.27,2.0,14.5,19.6,289,290,33.5,30.1,26.9,24.2,18.6,0.086,0.16,0.228,0.331,1,3600.0,185.8,92.9,92.9,275.9,185.8,446.2,236.0,118.0,118.0,275.9,236.0,566.7,Olea europaea L.; Magnoliopsida; Eucalyptus L'Hér.; Pinus pinaster Aiton
2002,2002-06-30,Castelo Branco,Fundão,Castelo Novo,CASTELO NOVO,40.06444705,-7.460806733657126,NC,473.0,2002-06-30T20:00,23.6,41,9.6,21.5,0.0,0.0,0.0,0.0,1,1013.2,959.8,29,0,9,80,0.13,1.72,13.7,23.4,325,329,35.6,26.8,26.3,21.6,15.5,0.097,0.176,0.254,0.345,1,0.0,0.0,0.0,0.0,0.0,0.0,0.0,36.0,7.0,29.0,57.5,36.0,107.3,Magnoliopsida; Pinus pinaster Aiton; Olea europaea L.; Tracheophyta; Quercus suber L.; Eucalyptus L'Hér.; Vitis vinifera L.; Pinales; Quercus L.; 
2002,2002-07-27,Castelo Branco,Castelo Branco,Alcains,ALCAINS,39.91996525,-7.4362786,NC,364.0,2002-07-27T15:00,33.9,23,9.6,33.5,0.0,0.0,0.0,0.0,0,1011.0,971.0,0,0,0,0,0.64,4.1,10.1,12.7,243,241,30.6,36.6,28.3,23.1,17.8,0.138,0.163,0.222,0.319,1,3600.0,695.5,543.8,151.7,682.2,695.5,1057.0,738.0,577.0,161.0,682.2,738.0,1121.6,Vitis vinifera L.; Tracheophyta; Magnoliopsida
2002,2002-07-03,Castelo Branco,Castelo Branco,Louriçal do Campo,LOURIÇAL DO CAMPO,40.0449204,-7.5098614,NC,483.0,2002-07-03T16:00,26.6,38,11.2,25.7,0.0,0.0,0.0,0.0,0,1016.6,962.4,0,0,0,0,0.56,2.16,16.4,21.5,308,310,42.8,30.4,23.5,20.6,15.3,0.137,0.176,0.245,0.342,1,3600.0,686.7,590.0,96.7,854.3,686.7,913.8,753.0,647.0,106.0,854.3,753.0,1002.1,Pinus pinaster Aiton; Quercus rotundifolia Lam.; Magnoliopsida; Tracheophyta; Olea europaea L.; Quercus suber L.; Quercus L.; Eucalyptus L'Hér.; Acacia Mill.; 
2002,2002-07-26,Castelo Branco,Castelo Branco,Lardosa,LARDOSA \ SF,39.9881774,-7.4432595,NC,406.0,2002-07-26T15:00,35.8,17,6.6,35.3,0.0,0.0,0.0,0.0,0,1011.8,967.6,9,0,14,1,0.68,4.91,8.3,10.5,198,196,26.6,37.8,28.4,23.0,17.9,0.132,0.166,0.228,0.331,1,3600.0,764.5,658.9,105.6,825.3,764.5,1058.6,811.0,699.0,112.0,825.3,811.0,1123.0,Magnoliopsida; Quercus suber L.; Tracheophyta; Eucalyptus L'Hér.; Olea europaea L.; Quercus L.; Quercus rotundifolia Lam.; Pinus pinaster Aiton; Pinales; Pinus pinea L.; Vitis vinifera L.; Acacia Mill.; 
2002,2002-07-06,Castelo Branco,Fundão,Fundão,FUNDÃO,40.1413475,-7.496455741188095,NC,485.0,2002-07-06T17:00,30.4,23,7.1,28.9,0.0,0.0,0.0,0.0,0,1013.5,959.9,0,0,0,0,0.45,3.34,7.0,8.9,305,310,21.6,36.2,26.2,21.8,16.1,0.094,0.171,0.246,0.342,1,3600.0,506.8,426.1,80.7,802.3,506.8,702.8,584.0,491.0,93.0,802.3,584.0,809.7,Tracheophyta; Magnoliopsida; Pinales; Olea europaea L.; Acacia Mill.
2002,2002-07-27,Castelo Branco,Castelo Branco,São Vicente da Beira,Casal da Serra,40.037489,-7.5602246,NC,560.0,2002-07-27T18:00,29.9,32,11.3,28.1,0.0,0.0,0.0,0.0,0,1011.5,950.0,0,0,0,0,0.37,2.89,15.2,20.5,306,308,35.6,36.3,29.9,23.9,18.1,0.085,0.158,0.222,0.328,1,3600.0,282.6,223.3,59.3,684.5,282.6,432.6,362.0,286.0,76.0,684.5,362.0,554.1,Tracheophyta; Olea europaea L.; Pinus pinaster Aiton; Quercus suber L.
2002,2002-07-17,Castelo Branco,Castelo Branco,Lousa,LOUSA,39.62295385,-8.12211156170701,NC,234.0,2002-07-17T15:00,34.7,19,7.6,34.8,0.0,0.0,0.0,0.0,0,1012.1,986.2,0,0,0,0,0.72,4.49,8.5,10.6,62,62,25.9,40.7,27.6,22.2,17.8,0.093,0.135,0.177,0.252,1,3600.0,826.9,723.9,103.0,887.2,826.9,1080.3,875.0,766.0,109.0,887.2,875.0,1143.1,Magnoliopsida; Tracheophyta; Quercus suber L.; Olea europaea L.; Quercus rotundifolia Lam.; Pinus pinaster Aiton; Eucalyptus L'Hér.; Pinus pinea L.; 
2002,2002-07-07,Castelo Branco,Castelo Branco,Santo André das Tojeiras,Vale Chiqueiro,39.8068537,-7.6985628,NC,345.0,2002-07-07T22:00,20.7,64,13.7,20.6,0.0,0.0,0.0,0.0,0,1014.9,975.1,0,0,0,0,0.04,0.88,9.1,14.8,288,299,18.0,25.2,28.0,23.2,17.4,0.09,0.161,0.229,0.299,0,0.0,0.0,0.0,0.0,0.0,0.0,0.0,0.0,0.0,0.0,0.0,0.0,0.0,Magnoliopsida; Pinus pinaster Aiton; Olea europaea L.; Tracheophyta
2002,2002-07-29,Castelo Branco,Belmonte,Belmonte,Serra da Esperança,40.3411853,-7.3582347,NC,711.0,2002-07-29T13:00,31.0,21,6.1,31.0,0.0,0.0,0.0,0.0,0,1015.1,937.7,0,0,0,0,0.76,3.54,10.1,12.7,297,299,30.6,38.0,26.9,22.9,16.9,0.086,0.155,0.225,0.331,1,3600.0,969.4,858.6,110.8,927.3,969.4,1228.5,971.0,860.0,111.0,927.3,971.0,1230.5,Magnoliopsida; Acacia Mill.; Pinus pinaster Aiton; Olea europaea L.
2002,2002-06-19,Castelo Branco,Belmonte,Inguias,INGUIAS,40.3103933,-7.3516832,NC,440.0,2002-06-19T16:00,27.9,37,12.0,27.6,0.0,0.0,0.0,0.0,0,1015.5,966.3,0,0,0,0,0.54,2.36,12.3,15.5,275,275,32.4,34.2,25.1,19.5,13.7,0.1,0.194,0.273,0.355,1,3600.0,640.1,546.4,93.8,798.0,640.1,907.0,703.0,600.0,103.0,798.0,703.0,996.0,Magnoliopsida; Tracheophyta; Acacia Mill.; Pinus pinaster Aiton; Vitis vinifera L.; Olea europaea L.; 
2002,2002-07-22,Castelo Branco,Covilhã,Vila Do Carvalho,ALDEIA DO CARVALHO,40.2831298,-7.504734964638136,NC,674.0,2002-07-22T23:00,17.7,82,14.5,18.3,0.0,0.0,0.0,0.0,1,1019.3,942.3,30,13,2,56,0.0,0.37,5.8,9.8,292,294,16.9,21.2,24.7,22.0,16.3,0.119,0.205,0.273,0.381,0,0.0,0.0,0.0,0.0,0.0,0.0,0.0,0.0,0.0,0.0,0.0,0.0,0.0,Tracheophyta; Magnoliopsida; Pinus pinaster Aiton; Olea europaea L.
2002,2002-06-18,Castelo Branco,Oleiros,Oleiros,Santo António,39.8957084,-7.8765451,NC,810.0,2002-06-18T00:00,14.3,84,11.7,14.2,0.0,0.0,0.0,0.0,0,1018.9,926.2,19,0,0,63,0.0,0.26,5.0,10.2,300,309,15.1,17.9,21.8,16.4,11.7,0.12,0.187,0.265,0.334,0,0.0,0.0,0.0,0.0,0.0,0.0,0.0,0.0,0.0,0.0,0.0,0.0,0.0,Pinus pinaster Aiton; Eucalyptus L'Hér.; Olea europaea L.; Magnoliopsida
2002,2002-07-27,Castelo Branco,Fundão,Pêro Viseu,PERO VISEU,40.2071956,-7.4443594,NC,509.0,2002-07-27T21:00,27.1,44,13.6,27.3,0.0,0.0,0.0,0.0,0,1013.4,956.7,0,0,0,0,0.06,2.02,6.9,13.7,317,325,18.4,28.8,29.2,23.3,17.6,0.095,0.16,0.225,0.337,0,0.0,0.0,0.0,0.0,0.0,0.0,0.0,0.0,0.0,0.0,0.0,0.0,0.0,Tracheophyta; Pinales; Pinus pinaster Aiton; Olea europaea L.; Magnoliopsida
2002,2002-07-29,Castelo Branco,Penamacor,Pedrógão de São Pedro,PEDROGÃO,40.088168,-7.2393143,NC,428.0,2002-07-29T08:00,24.9,51,14.0,25.4,0.0,0.0,0.0,0.0,0,1014.8,966.4,0,0,0,0,0.23,1.56,5.6,7.9,315,321,18.0,25.6,27.3,24.4,18.6,0.126,0.163,0.223,0.317,1,3600.0,422.9,336.1,86.8,716.3,422.9,622.5,341.0,271.0,70.0,716.3,341.0,501.9,Magnoliopsida; Tracheophyta; Quercus suber L.; Olea europaea L.; Eucalyptus L'Hér.; Quercus rotundifolia Lam.; Pinus pinaster Aiton; Pinales; Quercus L.; 
2002,2002-07-08,Castelo Branco,Fundão,Capinha,CAPINHA,40.21469635,-7.382837426254095,NC,503.0,2002-07-08T12:00,25.5,42,11.5,26.2,0.0,0.0,0.0,0.0,0,1014.2,957.8,0,0,0,0,0.64,1.9,12.8,16.6,281,283,32.0,32.8,24.2,21.4,15.6,0.096,0.171,0.246,0.346,1,3600.0,951.6,823.7,127.9,872.0,951.6,1249.8,930.0,805.0,125.0,872.0,930.0,1221.4,Quercus suber L.; Magnoliopsida; Eucalyptus L'Hér.; Pinus pinaster Aiton; Tracheophyta; Olea europaea L.; Quercus L.; Vitis vinifera L.; Pinales; 
2002,2002-07-09,Castelo Branco,Castelo Branco,São Vicente da Beira,Casal da Serra \ POVI,40.037489,-7.5602246,NC,560.0,2002-07-09T16:00,20.2,65,13.4,18.5,0.0,0.0,0.0,0.0,3,1015.1,951.4,84,93,1,0,0.21,0.83,18.8,25.7,258,259,45.0,25.3,23.5,22.0,16.3,0.093,0.167,0.242,0.337,1,0.0,222.4,27.3,195.1,39.7,222.4,911.1,244.0,30.0,214.0,39.7,244.0,999.4,Tracheophyta; Olea europaea L.; Pinus pinaster Aiton; Quercus suber L.
2002,2002-07-24,Castelo Branco,Castelo Branco,São Vicente da Beira,Casal da Serra \ POVI,40.037489,-7.5602246,NC,560.0,2002-07-24T13:00,30.7,26,9.0,33.0,0.0,0.0,0.0,0.0,0,1020.9,959.0,0,0,0,0,0.69,3.28,1.8,1.8,180,180,15.8,40.0,25.8,23.1,17.8,0.086,0.16,0.226,0.33,1,3600.0,956.6,840.8,115.8,899.5,956.6,1238.8,958.0,842.0,116.0,899.5,958.0,1240.6,Tracheophyta; Olea europaea L.; Pinus pinaster Aiton; Quercus suber L.
2002,2002-07-27,Castelo Branco,Oleiros,Álvaro,Gaspalha,39.9853324,-7.9508302,NC,472.0,2002-07-27T15:00,29.5,38,13.5,29.9,0.0,0.0,0.0,0.0,0,1013.4,961.1,0,0,0,0,0.66,2.58,15.8,20.1,305,306,39.2,36.4,27.0,22.5,17.2,0.108,0.152,0.195,0.29,1,3600.0,793.7,683.3,110.4,852.5,793.7,1062.9,841.0,724.0,117.0,852.5,841.0,1126.2,Olea europaea L.; Eucalyptus L'Hér.; Pinus pinaster Aiton; Magnoliopsida; Tracheophyta; 
2002,2002-07-29,Castelo Branco,Castelo Branco,Ninho do Açor,NINHO DO AÇOR,39.9698577,-7.5543326,NC,401.0,2002-07-29T12:00,31.9,20,6.5,31.7,0.0,0.0,0.0,0.0,0,1015.4,971.0,0,0,0,0,0.75,3.75,10.1,12.9,297,300,31.7,38.3,28.5,25.4,19.4,0.086,0.157,0.221,0.328,1,3600.0,963.2,851.4,111.8,922.5,963.2,1224.4,939.0,830.0,109.0,922.5,939.0,1193.6,Eucalyptus L'Hér.; Magnoliopsida; Pinus pinaster Aiton; Tracheophyta; Olea europaea L.; Quercus suber L.; Vitis vinifera L.; 
2002,2002-07-29,Castelo Branco,Sertã,Cernache do Bonjardim,Brejo da Correia,39.8208152,-8.238523,NC,238.0,2002-07-29T13:00,28.7,39,13.3,28.4,0.0,0.0,0.0,0.0,0,1017.1,990.1,0,0,0,0,0.73,2.41,22.7,29.3,317,318,49.0,34.9,26.4,24.1,18.7,0.098,0.153,0.2,0.291,1,3600.0,953.8,833.8,120.0,896.6,953.8,1233.9,954.0,834.0,120.0,896.6,954.0,1234.2,Eucalyptus L'Hér.; Pinus pinaster Aiton; Magnoliopsida; Tracheophyta
2002,2002-07-18,Castelo Branco,Castelo Branco,Louriçal do Campo,Lameiros do Monte \ CAS,40.0444113,-7.5107617,NC,486.0,2002-07-18T18:00,32.0,23,8.1,29.7,0.0,0.0,0.0,0.0,0,1009.4,956.2,1,0,1,0,0.36,3.68,12.6,17.3,267,266,32.8,33.6,27.2,21.6,16.7,0.129,0.165,0.228,0.336,1,3600.0,249.2,176.4,72.8,514.2,249.2,454.3,315.0,223.0,92.0,514.2,315.0,574.3,Pinus pinaster Aiton; Quercus rotundifolia Lam.; Magnoliopsida; Tracheophyta; Olea europaea L.; Quercus suber L.; Quercus L.; Eucalyptus L'Hér.; Acacia Mill.; 
2002,2002-07-24,Castelo Branco,Sertã,Cernache do Bonjardim,Sambado \ POV,39.8165101,-8.1862538,NC,402.0,2002-07-24T15:00,31.5,32,12.8,32.2,0.0,0.0,0.0,0.0,0,1020.6,975.8,2,0,3,0,0.69,3.15,12.7,16.0,313,314,33.1,37.3,25.3,21.8,16.9,0.106,0.151,0.199,0.289,1,3600.0,803.7,700.7,102.9,868.1,803.7,1069.9,851.0,742.0,109.0,868.1,851.0,1132.9,Olea europaea L.; Tracheophyta; Pinus pinaster Aiton; Eucalyptus L'Hér.
2002,2002-07-29,Castelo Branco,Sertã,Sertã,Amioso \ POV,39.82435875,-8.08282085861341,NC,344.0,2002-07-29T14:00,29.4,35,12.2,28.6,0.0,0.0,0.0,0.0,0,1016.3,977.7,0,0,0,0,0.74,2.68,22.9,30.3,314,315,50.0,35.9,26.9,24.0,18.5,0.102,0.153,0.196,0.289,1,3600.0,917.2,815.1,102.1,917.9,917.2,1178.1,943.0,838.0,105.0,917.9,943.0,1211.2,Tracheophyta; Eucalyptus L'Hér.; Olea europaea L.; Pinus pinaster Aiton; Magnoliopsida
2002,2002-07-29,Castelo Branco,Sertã,Sertã,Ribeiro do Vilar,39.82435875,-8.08282085861341,NC,344.0,2002-07-29T16:00,28.5,36,12.1,26.2,0.0,0.0,0.0,0.0,0,1015.8,977.1,0,0,0,0,0.61,2.47,25.2,33.7,317,318,53.3,35.2,27.5,24.0,18.5,0.102,0.153,0.196,0.289,1,3600.0,666.0,576.0,89.9,859.1,666.0,889.6,733.0,634.0,99.0,859.1,733.0,979.1,Tracheophyta; Eucalyptus L'Hér.; Olea europaea L.; Pinus pinaster Aiton; Magnoliopsida
2002,2002-07-21,Castelo Branco,Fundão,Silvares,Cabeço do Pião,40.1320557,-7.7094577,NC,465.0,2002-07-21T10:00,27.6,43,13.9,28.3,0.0,0.0,0.0,0.0,0,1014.7,962.7,0,0,0,0,0.51,2.1,9.3,11.9,152,151,27.0,30.4,25.1,22.4,17.1,0.098,0.144,0.215,0.316,1,3600.0,758.6,641.8,116.8,823.0,758.6,1033.1,695.0,588.0,107.0,823.0,695.0,946.5,Magnoliopsida; Pinus pinaster Aiton; Eucalyptus L'Hér.
2002,2002-07-26,Castelo Branco,Fundão,Donas,DONAS \ SF,40.1306529,-7.4750917,NC,511.0,2002-07-26T12:00,34.0,21,8.8,34.7,0.0,0.0,0.0,0.0,0,1014.1,958.4,2,0,3,0,0.73,4.18,7.4,9.4,141,140,25.6,38.4,27.8,23.5,18.0,0.094,0.16,0.225,0.333,1,3600.0,931.0,812.1,118.9,876.5,931.0,1228.4,908.0,792.0,116.0,876.5,908.0,1198.0,Olea europaea L.; Magnoliopsida; Tracheophyta; Pinus pinaster Aiton; Acacia Mill.; Eucalyptus L'Hér.
2002,2002-07-27,Castelo Branco,Fundão,Vale de Prazeres,Catrão \ REG,40.1106704,-7.4310164,NC,534.0,2002-07-27T00:00,23.8,65,16.9,25.2,0.0,0.0,0.0,0.0,0,1013.3,953.3,2,0,3,0,0.03,1.02,6.9,13.4,321,329,15.1,25.6,28.5,23.0,17.5,0.111,0.164,0.228,0.332,0,0.0,0.0,0.0,0.0,0.0,0.0,0.0,0.0,0.0,0.0,0.0,0.0,0.0,Eucalyptus L'Hér.; Tracheophyta; Olea europaea L.; Pinus pinaster Aiton; Magnoliopsida; Quercus suber L.; Quercus L.; Vitis vinifera L.; 
2002,2002-06-18,Santarém,Mação,Cardigos,Chaveira,39.7222078,-7.9959825,NC,402.0,2002-06-18T08:00,19.4,67,13.2,19.0,0.0,0.0,0.0,0.0,1,1018.9,972.4,31,2,0,97,0.21,0.74,10.2,13.6,321,323,25.2,21.7,22.9,19.7,14.7,0.103,0.179,0.255,0.31,1,3600.0,404.2,275.1,129.1,533.9,404.2,682.8,335.0,228.0,107.0,533.9,335.0,565.9,Pinus pinaster Aiton; Eucalyptus L'Hér.; Olea europaea L.; Tracheophyta
2002,2002-07-27,Castelo Branco,Castelo Branco,Castelo Branco,Castelo Branco \ SF,39.8266322,-7.4919318,NC,410.0,2002-07-27T22:00,24.8,49,13.3,24.4,0.0,0.0,0.0,0.0,0,1012.0,965.7,0,0,0,0,0.07,1.59,9.4,19.5,313,322,23.0,27.5,29.7,24.1,18.3,0.106,0.154,0.204,0.307,0,0.0,0.0,0.0,0.0,0.0,0.0,0.0,0.0,0.0,0.0,0.0,0.0,0.0,Tracheophyta; Olea europaea L.; Magnoliopsida
2002,2002-07-27,Castelo Branco,Castelo Branco,Castelo Branco,Quinta da Líria,39.8642754,-7.4930831,NC,322.0,2002-07-27T19:00,30.3,33,12.2,28.4,0.0,0.0,0.0,0.0,0,1010.8,974.9,0,0,0,0,0.28,2.89,17.6,26.6,317,319,38.5,33.0,29.6,23.7,18.1,0.126,0.154,0.197,0.305,1,3600.0,96.2,64.9,31.3,476.2,96.2,180.7,163.0,110.0,53.0,476.2,163.0,306.3,Magnoliopsida; Tracheophyta
2002,2002-07-28,Castelo Branco,Covilhã,Teixoso,TEIXOSO,40.3185839,-7.4562317,NC,543.0,2002-07-28T22:00,25.5,51,14.6,26.2,0.0,0.0,0.0,0.0,0,1015.0,954.2,0,0,0,0,0.04,1.6,5.9,10.9,313,316,13.0,27.2,29.2,23.5,17.7,0.092,0.16,0.226,0.342,0,0.0,0.0,0.0,0.0,0.0,0.0,0.0,0.0,0.0,0.0,0.0,0.0,0.0,Tracheophyta; Magnoliopsida; Pinus pinaster Aiton; Vitis vinifera L.; Olea europaea L.
2002,2002-07-27,Castelo Branco,Sertã,Pedrógão Pequeno,Bravo \ POV,39.9033995,-8.1312252,Desconhecida,358.0,2002-07-27T01:00,18.4,82,15.2,19.0,0.0,0.0,0.0,0.0,0,1014.8,973.3,0,0,0,0,0.0,0.39,7.5,12.9,325,333,15.1,22.8,28.0,23.2,17.9,0.109,0.152,0.196,0.291,0,0.0,0.0,0.0,0.0,0.0,0.0,0.0,0.0,0.0,0.0,0.0,0.0,0.0,Eucalyptus L'Hér.; Pinus pinaster Aiton; Magnoliopsida; Olea europaea L.; Tracheophyta
2002,2002-06-20,Castelo Branco,Fundão,Enxames,Enxames,40.1546967,-7.3836612,NC,467.0,2002-06-20T16:00,29.5,31,10.4,29.3,0.0,0.0,0.0,0.0,1,1016.7,964.7,23,0,0,76,0.56,2.85,9.1,11.7,261,261,25.9,35.0,24.8,19.6,13.7,0.098,0.192,0.271,0.355,1,3600.0,662.0,531.8,130.2,776.1,662.0,907.5,727.0,584.0,143.0,776.1,727.0,996.7,Magnoliopsida; Eucalyptus L'Hér.; Pinus pinaster Aiton; Tracheophyta; Olea europaea L.; Pinales; Quercus suber L.; Acacia Mill.; 
2002,2002-06-19,Castelo Branco,Covilhã,Vale Formoso,VALE FORMOSO,40.3733424,-7.3671721,NC,480.0,2002-06-19T15:00,28.2,37,12.1,29.2,0.0,0.0,0.0,0.0,0,1016.0,962.5,0,0,0,0,0.64,2.42,10.1,12.6,264,265,30.6,33.5,24.2,18.9,13.2,0.112,0.2,0.274,0.36,1,3600.0,807.3,698.8,108.5,860.2,807.3,1076.2,856.0,741.0,115.0,860.2,856.0,1141.1,Tracheophyta; Magnoliopsida; Quercus L.; Acacia Mill.; Olea europaea L.
2002,2002-07-29,Castelo Branco,Fundão,Fundão,FUNDÃO,40.1413475,-7.496455741188095,NC,485.0,2002-07-29T18:00,28.9,33,10.9,26.3,0.0,0.0,0.0,0.0,0,1014.8,960.9,0,0,0,0,0.39,2.68,19.7,27.8,308,310,47.5,34.6,29.5,24.5,18.5,0.093,0.158,0.221,0.331,1,3600.0,284.5,227.0,57.5,708.4,284.5,425.2,366.0,292.0,74.0,708.4,366.0,546.9,Tracheophyta; Magnoliopsida; Pinales; Olea europaea L.; Acacia Mill.
2002,2002-07-29,Castelo Branco,Covilhã,Sarzedo,SARZEDO \ SF,40.3666067,-7.4261703,NC,765.0,2002-07-29T16:00,30.0,24,7.2,28.0,0.0,0.0,0.0,0.0,0,1015.4,932.2,0,0,0,0,0.62,3.23,15.6,20.7,304,305,49.7,38.3,28.2,23.2,16.9,0.118,0.226,0.295,0.391,1,3600.0,664.8,575.9,88.9,870.8,664.8,877.4,733.0,635.0,98.0,870.8,733.0,967.5,Pinus pinaster Aiton; Magnoliopsida; Quercus L.; Castanea sativa Mill.
2002,2002-07-26,Castelo Branco,Idanha-a-Nova,Monfortinho,Nave da Silva,40.0033288,-6.9164657,Desconhecida,390.0,2002-07-26T12:00,34.4,20,8.5,34.8,0.0,0.0,0.0,0.0,0,1013.6,970.8,1,0,1,0,0.75,4.33,9.2,12.0,138,136,28.8,36.5,28.0,23.9,18.6,0.123,0.158,0.216,0.309,1,3600.0,934.3,810.3,124.0,873.3,934.3,1230.2,912.0,791.0,121.0,873.3,912.0,1200.9,Magnoliopsida; Quercus rotundifolia Lam.; Tracheophyta; Olea europaea L.; Eucalyptus L'Hér.; Pinus pinea L.; Pinus pinaster Aiton; Quercus suber L.; Pinales; 
2002,2002-07-18,Castelo Branco,Castelo Branco,Lousa,LOUSA,39.62295385,-8.12211156170701,NC,234.0,2002-07-18T08:00,25.9,36,9.5,24.8,0.0,0.0,0.0,0.0,0,1012.6,986.0,0,0,0,0,0.25,2.15,6.9,10.0,152,154,16.9,26.5,26.7,22.5,17.9,0.093,0.135,0.177,0.252,1,3600.0,415.6,326.8,88.8,682.6,415.6,634.0,337.0,265.0,72.0,682.6,337.0,514.1,Magnoliopsida; Tracheophyta; Quercus suber L.; Olea europaea L.; Quercus rotundifolia Lam.; Pinus pinaster Aiton; Eucalyptus L'Hér.; Pinus pinea L.; 
2002,2002-07-20,Castelo Branco,Fundão,Fatela,FATELA,40.1491801,-7.410521149999992,NC,536.0,2002-07-20T21:00,24.6,43,11.2,24.3,0.0,0.0,0.0,0.0,0,1015.7,955.5,0,0,0,0,0.04,1.77,4.8,9.4,312,317,14.8,26.0,26.6,22.2,16.9,0.112,0.167,0.233,0.335,0,0.0,0.0,0.0,0.0,0.0,0.0,0.0,0.0,0.0,0.0,0.0,0.0,0.0,Magnoliopsida; Olea europaea L.; Tracheophyta; Pinales; Vitis vinifera L.; Eucalyptus L'Hér.; Pinus pinaster Aiton; Quercus suber L.; ; Acacia Mill.
2002,2002-07-21,Castelo Branco,Fundão,Vale de Prazeres,Catrão,40.1106704,-7.4310164,NC,534.0,2002-07-21T10:00,27.3,39,12.2,27.4,0.0,0.0,0.0,0.0,0,1014.7,955.2,0,0,0,0,0.51,2.2,9.3,11.9,152,151,27.0,29.6,24.5,22.3,17.0,0.112,0.167,0.233,0.335,1,3600.0,758.1,641.4,116.7,820.3,758.1,1035.7,695.0,588.0,107.0,820.3,695.0,949.5,Eucalyptus L'Hér.; Tracheophyta; Olea europaea L.; Pinus pinaster Aiton; Magnoliopsida; Quercus suber L.; Quercus L.; Vitis vinifera L.; 
2002,2002-08-02,Castelo Branco,Proença-a-Nova,Proença-a-Nova,Relva da Louça,39.7215997,-7.9396157,NC,408.0,2002-08-02T13:00,28.7,22,4.7,27.4,0.0,0.0,0.0,0.0,0,1012.3,966.8,0,0,0,0,0.74,3.09,15.0,18.9,318,320,38.5,34.4,25.1,23.9,18.9,0.106,0.156,0.209,0.3,1,3600.0,955.0,845.1,109.9,915.1,955.0,1226.5,956.0,846.0,110.0,915.1,956.0,1227.8,Eucalyptus L'Hér.; Pinus pinaster Aiton; Olea europaea L.; Magnoliopsida
2002,2002-07-31,Castelo Branco,Castelo Branco,Alcains,ALCAINS,39.91996525,-7.4362786,NC,364.0,2002-07-31T16:00,30.2,25,7.9,28.9,0.0,0.0,0.0,0.0,0,1009.2,968.8,0,0,0,0,0.58,3.24,11.7,14.9,351,352,32.8,33.6,27.0,23.7,18.2,0.138,0.161,0.218,0.318,1,3600.0,639.5,529.9,109.6,804.2,639.5,874.7,706.0,585.0,121.0,804.2,706.0,965.6,Vitis vinifera L.; Tracheophyta; Magnoliopsida
2002,2002-07-18,Castelo Branco,Vila Velha de Ródão,Vila Velha de Ródão,Alvaiade,39.7045608,-7.7190067,NC,527.0,2002-07-18T11:00,31.2,22,6.9,30.7,0.0,0.0,0.0,0.0,0,1012.5,954.7,0,0,0,0,0.67,3.55,10.2,13.0,198,199,28.8,37.5,27.0,23.1,17.8,0.082,0.158,0.223,0.305,1,3600.0,895.8,783.9,111.8,887.7,895.8,1169.3,849.0,743.0,106.0,887.7,849.0,1108.3,Magnoliopsida; Pinus pinaster Aiton; Eucalyptus L'Hér.; Tracheophyta
2002,2002-07-27,Castelo Branco,Sertã,Sertã,Amioso,39.8663341,-8.0817653,NC,474.0,2002-07-27T20:00,23.1,56,13.8,23.2,0.0,0.0,0.0,0.0,0,1013.6,960.0,0,0,0,0,0.06,1.26,7.9,14.8,321,326,26.6,27.7,27.5,22.5,17.2,0.108,0.152,0.195,0.29,0,991.14,0.0,0.0,0.0,0.0,0.0,0.0,30.0,16.0,14.0,148.8,30.0,84.1,Pinus pinaster Aiton; Magnoliopsida; Olea europaea L.; Eucalyptus L'Hér.; Tracheophyta
2002,2002-07-21,Castelo Branco,Oleiros,Mosteiro,Vale de Mós \ CAS,39.9179399,-7.9849797,Desconhecida,717.0,2002-07-21T17:00,25.9,37,9.9,24.2,0.2,0.2,0.0,0.0,51,1013.3,934.2,6,0,5,9,0.42,2.13,12.0,15.1,254,252,36.7,32.3,25.1,20.5,15.4,0.107,0.15,0.211,0.318,1,3600.0,471.2,391.6,79.5,750.6,471.2,691.2,545.0,453.0,92.0,750.6,545.0,799.5,Olea europaea L.; Pinus pinaster Aiton; Magnoliopsida; Eucalyptus L'Hér.; Tracheophyta; Vitis vinifera L.; 
2002,2002-08-03,Castelo Branco,Sertã,Sertã,Maxial da Estrada,39.8451639,-8.0514879,NC,425.0,2002-08-03T13:00,26.1,41,11.9,27.0,0.0,0.0,0.0,0.0,0,1013.7,965.9,5,0,0,17,0.65,1.99,12.2,15.2,284,284,32.4,33.8,24.1,23.1,18.4,0.102,0.152,0.193,0.287,1,3600.0,933.2,820.3,112.9,890.2,933.2,1224.1,934.0,821.0,113.0,890.2,934.0,1225.1,Tracheophyta; Eucalyptus L'Hér.; Pinus pinaster Aiton; Magnoliopsida; Olea europaea L.
2002,2002-07-23,Castelo Branco,Sertã,Cernache do Bonjardim,Mendeira,39.7914193,-8.2592744,NC,256.0,2002-07-23T04:00,15.1,98,14.8,15.6,0.0,0.0,0.0,0.0,2,1019.2,988.8,66,73,0,0,0.0,0.04,7.4,13.7,317,325,16.6,18.5,23.7,22.7,17.7,0.099,0.153,0.209,0.294,0,0.0,0.0,0.0,0.0,0.0,0.0,0.0,0.0,0.0,0.0,0.0,0.0,0.0,Pinus pinaster Aiton; Eucalyptus L'Hér.
2002,2002-08-04,Castelo Branco,Castelo Branco,Louriçal do Campo,LOURIÇAL DO CAMPO \ SF,40.0444113,-7.5107617,NC,486.0,2002-08-04T17:00,28.6,27,8.0,26.5,0.0,0.0,0.0,0.0,0,1012.2,958.3,0,0,0,0,0.44,2.84,11.3,14.8,239,241,29.9,32.3,25.6,23.2,18.4,0.128,0.159,0.212,0.329,1,3600.0,460.2,383.4,76.8,785.6,460.2,648.5,539.0,449.0,90.0,785.6,539.0,759.5,Pinus pinaster Aiton; Quercus rotundifolia Lam.; Magnoliopsida; Tracheophyta; Olea europaea L.; Quercus suber L.; Quercus L.; Eucalyptus L'Hér.; Acacia Mill.; 
2002,2002-07-29,Castelo Branco,Idanha-a-Nova,Rosmaninhal,ROSMANINHAL \ SF,39.7281391,-7.090735,NC,314.0,2002-07-29T22:00,24.6,50,13.3,24.0,0.0,0.0,0.0,0.0,0,1015.2,979.4,10,0,0,33,0.08,1.56,11.4,21.2,298,310,25.9,27.9,30.5,25.5,19.4,0.122,0.153,0.186,0.278,0,0.0,0.0,0.0,0.0,0.0,0.0,0.0,0.0,0.0,0.0,0.0,0.0,0.0,Tracheophyta; Magnoliopsida; Olea europaea L.
2002,2002-07-30,Castelo Branco,Vila de Rei,Vila de Rei,Milreu,39.6751385,-8.143569043758214,NC,433.0,2002-07-30T11:00,25.5,41,11.5,25.0,0.0,0.0,0.0,0.0,0,1016.6,967.7,9,0,0,31,0.58,1.91,16.4,21.2,322,325,43.9,29.9,24.6,23.7,18.3,0.094,0.154,0.205,0.295,1,3600.0,862.9,745.5,117.4,860.7,862.9,1149.4,816.0,705.0,111.0,860.7,816.0,1087.0,Pinales; Olea europaea L.; Tracheophyta; Magnoliopsida; Pinus pinaster Aiton
2002,2002-07-28,Castelo Branco,Belmonte,Belmonte,Belmonte \ SF,40.3594236,-7.3480239,NC,599.0,2002-07-28T02:00,21.0,69,15.2,21.6,0.0,0.0,0.0,0.0,0,1013.4,945.7,9,0,15,0,0.02,0.76,7.8,16.9,347,1,17.6,22.1,26.9,22.5,16.8,0.097,0.163,0.234,0.346,0,0.0,0.0,0.0,0.0,0.0,0.0,0.0,0.0,0.0,0.0,0.0,0.0,0.0,Tracheophyta; Magnoliopsida; Pinus pinaster Aiton; Olea europaea L.
2002,2002-07-29,Castelo Branco,Castelo Branco,Castelo Branco,Castelo Branco,39.8266322,-7.4919318,NC,410.0,2002-07-29T01:00,20.6,65,13.8,20.6,0.0,0.0,0.0,0.0,0,1013.9,966.9,0,0,0,0,0.03,0.84,8.4,16.9,263,282,14.8,23.7,29.1,24.3,18.4,0.106,0.154,0.203,0.306,0,0.0,0.0,0.0,0.0,0.0,0.0,0.0,0.0,0.0,0.0,0.0,0.0,0.0,Tracheophyta; Olea europaea L.; Magnoliopsida
2002,2002-07-18,Castelo Branco,Castelo Branco,Alcains,ALCAINS,39.91996525,-7.4362786,NC,364.0,2002-07-18T14:00,34.2,17,6.0,33.8,0.0,0.0,0.0,0.0,0,1010.4,970.5,0,0,0,0,0.8,4.44,11.5,14.6,212,213,30.2,36.0,25.9,21.7,16.9,0.139,0.168,0.23,0.322,1,3600.0,929.2,818.4,110.8,911.2,929.2,1189.4,956.0,842.0,114.0,911.2,956.0,1223.6,Vitis vinifera L.; Tracheophyta; Magnoliopsida
2002,2002-07-23,Castelo Branco,Vila Velha de Ródão,Fratel,FRATEL,39.6139946,-7.71588885,NC,108.0,2002-07-23T23:00,22.7,70,17.0,23.7,0.0,0.0,0.0,0.0,0,1021.1,1008.5,0,0,0,0,0.03,0.82,9.7,20.6,321,333,21.2,25.0,27.2,24.6,19.5,0.127,0.153,0.189,0.284,0,0.0,0.0,0.0,0.0,0.0,0.0,0.0,0.0,0.0,0.0,0.0,0.0,0.0,Eucalyptus L'Hér.; Magnoliopsida; Pinus pinaster Aiton; Olea europaea L.
2002,2002-07-26,Santarém,Mação,Amêndoa,AMÊNDOA,39.66814,-8.064544,NC,485.0,2002-07-26T21:00,22.4,64,15.2,22.9,0.0,0.0,0.0,0.0,0,1013.9,958.9,2,0,3,0,0.04,0.97,8.7,14.1,315,320,21.6,27.3,29.1,22.9,17.6,0.109,0.151,0.189,0.278,0,0.0,0.0,0.0,0.0,0.0,0.0,0.0,0.0,0.0,0.0,0.0,0.0,0.0,Magnoliopsida; Olea europaea L.; Eucalyptus L'Hér.; Pinus pinaster Aiton
2002,2002-07-29,Castelo Branco,Sertã,Sertã,Corga Cega,39.82435875,-8.08282085861341,NC,344.0,2002-07-29T15:00,29.3,34,12.0,27.8,0.0,0.0,0.0,0.0,0,1016.0,977.4,0,0,0,0,0.7,2.67,24.2,32.4,316,317,51.8,35.9,27.3,24.0,18.5,0.102,0.153,0.196,0.289,1,3600.0,814.2,716.1,98.1,895.7,814.2,1060.7,863.0,759.0,104.0,895.7,863.0,1124.2,Tracheophyta; Eucalyptus L'Hér.; Olea europaea L.; Pinus pinaster Aiton; Magnoliopsida
2002,2002-07-25,Castelo Branco,Fundão,Silvares,SILVARES,40.1403177,-7.6613124,NC,407.0,2002-07-25T15:00,34.5,21,8.8,33.9,0.0,0.0,0.0,0.0,0,1017.1,972.3,3,0,5,0,0.6,4.35,8.1,9.6,302,304,19.8,42.8,29.4,24.3,18.9,0.085,0.159,0.225,0.329,1,3600.0,662.1,545.2,117.0,681.1,662.1,1061.0,702.0,578.0,124.0,681.1,702.0,1125.0,Olea europaea L.; Magnoliopsida; Eucalyptus L'Hér.; Pinus pinaster Aiton
2002,2002-07-29,Castelo Branco,Covilhã,Unhais da Serra,UNHAIS DA SERRA,40.2586476,-7.6241365,NC,658.0,2002-07-29T05:00,16.4,88,14.4,17.0,0.0,0.0,0.0,0.0,0,1015.1,939.8,0,0,0,0,0.0,0.23,5.9,8.8,322,325,14.4,19.1,26.5,23.2,17.1,0.116,0.202,0.267,0.378,0,0.0,0.0,0.0,0.0,0.0,0.0,0.0,0.0,0.0,0.0,0.0,0.0,0.0,Pinus pinaster Aiton; Magnoliopsida; Tracheophyta; Olea europaea L.
2002,2002-07-18,Castelo Branco,Fundão,Fundão,FUNDÃO,40.1413475,-7.496455741188095,NC,485.0,2002-07-18T22:00,25.7,41,11.4,25.3,0.0,0.0,0.0,0.0,0,1011.5,957.2,0,0,0,0,0.04,1.95,5.4,12.8,307,308,15.5,27.2,28.5,22.6,17.3,0.094,0.163,0.232,0.337,0,0.0,0.0,0.0,0.0,0.0,0.0,0.0,0.0,0.0,0.0,0.0,0.0,0.0,Tracheophyta; Magnoliopsida; Pinales; Olea europaea L.; Acacia Mill.
2002,2002-06-21,Castelo Branco,Idanha-a-Nova,Penha Garcia,Vale Feitoso,40.0422569,-7.0163521,NC,536.0,2002-06-21T13:00,31.1,20,5.5,31.7,0.0,0.0,0.0,0.0,0,1020.1,960.9,0,0,0,0,0.75,3.63,7.1,8.7,225,225,23.8,35.8,24.7,20.5,14.0,0.106,0.182,0.257,0.317,1,3600.0,987.0,869.5,117.5,912.9,987.0,1261.4,991.0,873.0,118.0,912.9,991.0,1266.5,Tracheophyta; Olea europaea L.; Pinus pinaster Aiton; Quercus rotundifolia Lam.; Magnoliopsida; Castanea sativa Mill.; Quercus suber L.; Eucalyptus L'Hér.; Pinus pinea L.; 
2002,2002-06-22,Castelo Branco,Fundão,Vale de Prazeres,Catrão,40.1106704,-7.4310164,NC,534.0,2002-06-22T15:00,32.1,22,7.5,31.8,0.0,0.0,0.0,0.0,0,1018.5,959.7,0,0,0,0,0.71,3.74,10.1,12.6,264,265,28.4,35.8,25.0,19.9,13.8,0.117,0.192,0.267,0.347,1,3600.0,832.3,725.7,106.6,889.3,832.3,1080.5,882.0,769.0,113.0,889.3,882.0,1145.0,Eucalyptus L'Hér.; Tracheophyta; Olea europaea L.; Pinus pinaster Aiton; Magnoliopsida; Quercus suber L.; Quercus L.; Vitis vinifera L.; 
2002,2002-07-29,Castelo Branco,Covilhã,Aldeia De São Francisco De Assis,Barroca Grande \ POVI,40.1425596,-7.7359839,NC,530.0,2002-07-29T14:00,30.6,27,9.6,29.7,0.0,0.0,0.0,0.0,0,1016.1,957.6,0,0,0,0,0.77,3.19,19.0,25.1,307,309,46.1,36.3,27.0,23.2,17.5,0.098,0.14,0.204,0.311,1,3600.0,918.2,813.3,104.9,920.6,918.2,1172.0,945.0,837.0,108.0,920.6,945.0,1206.2,Pinus pinaster Aiton; Magnoliopsida; Tracheophyta
2002,2002-06-22,Castelo Branco,Fundão,Alcaide,ALCAIDE,40.1338233,-7.44879207936232,NC,489.0,2002-06-22T16:00,32.0,24,8.9,31.3,0.0,0.0,0.0,0.0,0,1018.3,964.3,0,0,0,0,0.62,3.61,10.8,13.7,274,275,29.9,35.5,25.6,20.1,14.1,0.116,0.192,0.267,0.347,1,3600.0,683.3,585.8,97.5,852.2,683.3,910.2,750.0,643.0,107.0,852.2,750.0,999.2,Pinus pinaster Aiton; Magnoliopsida; Tracheophyta; Quercus L.; Eucalyptus L'Hér.; Pinales; Olea europaea L.; 
2002,2002-07-31,Castelo Branco,Covilhã,Unhais da Serra,UNHAIS DA SERRA,40.2586476,-7.6241365,NC,658.0,2002-07-31T03:00,17.8,67,11.5,16.6,0.0,0.0,0.0,0.0,0,1013.5,938.7,0,0,0,0,0.04,0.68,12.0,24.6,9,15,38.9,20.4,26.0,23.3,17.3,0.116,0.201,0.265,0.376,0,0.0,0.0,0.0,0.0,0.0,0.0,0.0,0.0,0.0,0.0,0.0,0.0,0.0,Pinus pinaster Aiton; Magnoliopsida; Tracheophyta; Olea europaea L.
2002,2002-07-26,Castelo Branco,Idanha-a-Nova,Penha Garcia,MURRACHINHA,40.0422569,-7.0163521,NC,536.0,2002-07-26T11:00,32.2,23,8.1,32.0,0.0,0.0,0.0,0.0,0,1014.8,956.1,2,0,3,0,0.65,3.72,8.4,10.5,137,139,25.6,34.9,27.3,23.4,18.0,0.104,0.159,0.217,0.305,1,3600.0,858.6,737.3,121.3,843.1,858.6,1159.5,814.0,699.0,115.0,843.1,814.0,1099.3,Tracheophyta; Olea europaea L.; Pinus pinaster Aiton; Quercus rotundifolia Lam.; Magnoliopsida; Castanea sativa Mill.; Quercus suber L.; Eucalyptus L'Hér.; Pinus pinea L.; 
2002,2002-06-21,Castelo Branco,Fundão,Enxames,Enxames,40.1546967,-7.3836612,NC,467.0,2002-06-21T11:00,28.4,32,10.0,29.8,0.0,0.0,0.0,0.0,0,1020.7,968.4,0,0,0,0,0.63,2.65,4.5,5.2,194,196,18.7,32.3,23.1,19.8,13.8,0.099,0.192,0.27,0.355,1,3600.0,919.4,798.7,120.7,884.3,919.4,1196.1,876.0,761.0,115.0,884.3,876.0,1139.7,Magnoliopsida; Eucalyptus L'Hér.; Pinus pinaster Aiton; Tracheophyta; Olea europaea L.; Pinales; Quercus suber L.; Acacia Mill.; 
2002,2002-07-29,Castelo Branco,Covilhã,Ourondo,OURONDO \ SF,40.1472989,-7.6818672,Desconhecida,403.0,2002-07-29T15:00,32.3,23,8.4,30.9,0.0,0.0,0.0,0.0,0,1016.8,972.2,0,0,0,0,0.74,3.74,17.6,22.4,298,300,38.9,40.7,29.7,25.4,19.4,0.085,0.157,0.221,0.327,1,3600.0,807.7,706.9,100.8,890.6,807.7,1053.1,857.0,750.0,107.0,890.6,857.0,1117.3,Magnoliopsida; Pinus pinaster Aiton; Olea europaea L.
2002,2002-07-29,Santarém,Mação,Cardigos,Casas da Ribeira,39.6947669,-8.0207277,NC,430.0,2002-07-29T17:00,27.8,35,11.1,24.4,0.0,0.0,0.0,0.0,0,1016.0,967.8,0,0,0,0,0.51,2.41,25.5,34.9,317,319,54.0,33.8,27.7,23.9,18.4,0.101,0.154,0.205,0.294,1,3600.0,482.4,405.9,76.5,798.7,482.4,674.2,561.0,472.0,89.0,798.7,561.0,784.0,Magnoliopsida; Olea europaea L.; Eucalyptus L'Hér.; Pinus pinaster Aiton; Tracheophyta
2002,2002-06-23,Castelo Branco,Penamacor,Águas,ÁGUAS,40.1046247,-7.205330353780623,NC,394.0,2002-06-23T13:00,30.3,29,10.4,32.2,0.0,0.0,0.0,0.0,0,1016.7,972.8,0,0,0,0,0.74,3.06,6.6,8.0,257,260,24.1,33.9,25.2,21.3,15.0,0.131,0.19,0.261,0.329,1,3600.0,989.2,868.7,120.5,912.2,989.2,1260.8,993.0,872.0,121.0,912.2,993.0,1265.6,Magnoliopsida; Pinus pinaster Aiton; Tracheophyta; Eucalyptus L'Hér.; Olea europaea L.; Quercus L.; Quercus suber L.; Pinus pinea L.; 
2002,2002-08-02,Castelo Branco,Penamacor,Benquerença,BENQUERENÇA,40.2247057,-7.2348752,NC,479.0,2002-08-02T03:00,17.5,47,6.0,15.4,0.0,0.0,0.0,0.0,0,1011.8,956.7,0,0,0,0,0.05,1.07,7.6,16.3,341,355,18.7,19.8,25.9,24.9,19.2,0.1,0.156,0.212,0.313,0,0.0,0.0,0.0,0.0,0.0,0.0,0.0,0.0,0.0,0.0,0.0,0.0,0.0,Magnoliopsida; Eucalyptus L'Hér.; Olea europaea L.; Pinus pinaster Aiton; Tracheophyta; Quercus rotundifolia Lam.; Quercus suber L.; Vitis vinifera L.; Quercus L.; Pinales; 
2002,2002-07-21,Castelo Branco,Vila Velha de Ródão,Sarnadas de Ródão,SARNADAS DO RODÃO,39.74608315,-7.624546839410389,NC,358.0,2002-07-21T13:00,30.0,32,11.5,31.2,0.0,0.0,0.0,0.0,0,1013.6,973.7,6,3,5,0,0.73,2.9,10.8,13.3,184,182,27.4,38.9,27.7,24.3,18.6,0.09,0.156,0.214,0.295,1,3600.0,957.9,837.1,120.9,890.3,957.9,1245.4,959.0,838.0,121.0,890.3,959.0,1246.9,Magnoliopsida; Olea europaea L.; Tracheophyta; Eucalyptus L'Hér.
2002,2002-07-21,Castelo Branco,Idanha-a-Nova,Aldeia de Santa Margarida,ALDEIA DE SANTA MARGARIDA,40.0615373,-7.2855024,NC,386.0,2002-07-21T18:00,30.5,25,8.4,28.3,0.0,0.0,0.0,0.0,0,1011.5,968.7,0,0,0,0,0.36,3.26,12.1,15.9,207,205,31.3,32.2,27.2,23.1,17.9,0.133,0.173,0.237,0.337,1,3600.0,281.5,215.5,66.1,643.0,281.5,443.9,358.0,274.0,84.0,643.0,358.0,564.5,Quercus suber L.; Tracheophyta; Magnoliopsida; Pinus pinaster Aiton; Quercus rotundifolia Lam.; Eucalyptus L'Hér.
2002,2002-06-25,Castelo Branco,Fundão,Capinha,CAPINHA,40.21469635,-7.382837426254095,NC,503.0,2002-06-25T15:00,31.0,28,10.4,30.1,0.0,0.0,0.0,0.0,0,1015.3,959.8,18,0,12,35,0.64,3.22,14.3,18.9,115,114,38.9,34.2,24.7,20.4,14.1,0.098,0.184,0.263,0.352,1,3600.0,715.2,548.2,167.0,672.9,715.2,1078.5,758.0,581.0,177.0,672.9,758.0,1143.0,Quercus suber L.; Magnoliopsida; Eucalyptus L'Hér.; Pinus pinaster Aiton; Tracheophyta; Olea europaea L.; Quercus L.; Vitis vinifera L.; Pinales; 
2002,2002-07-21,Castelo Branco,Fundão,Silvares,Cabeço do Pião,40.1320557,-7.7094577,NC,465.0,2002-07-21T05:00,16.9,89,15.0,17.7,0.0,0.0,0.0,0.0,0,1013.8,960.0,0,0,0,0,0.0,0.21,6.3,13.4,31,76,14.8,19.2,25.3,22.4,17.1,0.098,0.144,0.215,0.316,0,0.0,0.0,0.0,0.0,0.0,0.0,0.0,0.0,0.0,0.0,0.0,0.0,0.0,Magnoliopsida; Pinus pinaster Aiton; Eucalyptus L'Hér.
2002,2002-07-24,Castelo Branco,Idanha-a-Nova,Monfortinho,Monfortinho,40.0033288,-6.9164657,NC,390.0,2002-07-24T03:00,20.0,58,11.4,19.1,0.0,0.0,0.0,0.0,0,1020.6,975.4,4,0,0,14,0.04,0.99,9.1,20.2,353,3,17.3,21.0,25.1,23.6,18.4,0.124,0.159,0.218,0.309,0,0.0,0.0,0.0,0.0,0.0,0.0,0.0,0.0,0.0,0.0,0.0,0.0,0.0,Magnoliopsida; Quercus rotundifolia Lam.; Tracheophyta; Olea europaea L.; Eucalyptus L'Hér.; Pinus pinea L.; Pinus pinaster Aiton; Quercus suber L.; Pinales; 
2002,2002-06-25,Castelo Branco,Castelo Branco,Louriçal do Campo,LOURIÇAL DO CAMPO,40.0449204,-7.5098614,NC,483.0,2002-06-25T18:00,28.8,33,10.9,27.6,0.0,0.0,0.0,0.0,1,1014.9,961.2,40,0,20,92,0.25,2.65,10.1,16.0,107,98,23.8,29.2,24.7,20.2,14.4,0.135,0.185,0.256,0.345,1,3600.0,165.4,71.9,93.5,202.3,165.4,470.5,207.0,90.0,117.0,202.3,207.0,588.8,Pinus pinaster Aiton; Quercus rotundifolia Lam.; Magnoliopsida; Tracheophyta; Olea europaea L.; Quercus suber L.; Quercus L.; Eucalyptus L'Hér.; Acacia Mill.; 
2002,2002-06-21,Castelo Branco,Castelo Branco,Castelo Branco,Castelo Branco,39.8266322,-7.4919318,NC,410.0,2002-06-21T18:00,28.8,33,10.8,27.4,0.0,0.0,0.0,0.0,0,1018.4,972.4,0,0,0,0,0.34,2.67,11.2,15.2,274,275,25.9,33.1,25.9,20.4,14.5,0.108,0.174,0.25,0.32,1,3600.0,308.7,244.9,63.8,692.4,308.7,468.4,387.0,307.0,80.0,692.4,387.0,587.2,Tracheophyta; Olea europaea L.; Magnoliopsida
2002,2002-07-04,Castelo Branco,Covilhã,Peraboa,PERABOA,40.2452809,-7.376938677851085,NC,530.0,2002-07-04T07:00,15.9,77,11.9,15.2,0.0,0.0,0.0,0.0,0,1019.6,958.0,10,11,0,0,0.08,0.42,8.7,12.0,343,344,22.3,17.7,21.9,20.8,15.0,0.097,0.175,0.252,0.349,1,3600.0,193.2,109.0,84.2,327.1,193.2,441.0,140.0,79.0,61.0,327.1,140.0,319.5,Quercus L.; Magnoliopsida; Tracheophyta
2002,2002-08-03,Castelo Branco,Sertã,Sertã,Carga,39.8515634,-8.0671057,NC,385.0,2002-08-03T08:00,18.0,69,12.2,17.6,0.0,0.0,0.0,0.0,0,1014.4,969.8,0,0,0,0,0.16,0.64,7.7,9.7,319,321,20.2,20.8,22.9,23.1,18.4,0.108,0.151,0.189,0.287,1,3600.0,343.7,239.2,104.5,533.2,343.7,595.8,273.0,190.0,83.0,533.2,273.0,473.3,Pinus pinaster Aiton; Tracheophyta; Magnoliopsida; Eucalyptus L'Hér.
2002,2002-07-27,Castelo Branco,Belmonte,Caria,CARIA \ SF,40.32660535,-7.35626122035179,NC,473.0,2002-07-27T03:00,21.7,83,18.7,23.9,0.0,0.0,0.0,0.0,0,1012.3,958.6,0,0,0,0,0.0,0.44,7.2,12.1,323,330,15.1,22.7,27.6,22.9,17.4,0.102,0.162,0.228,0.341,0,0.0,0.0,0.0,0.0,0.0,0.0,0.0,0.0,0.0,0.0,0.0,0.0,0.0,Magnoliopsida; Tracheophyta; Olea europaea L.; Vitis vinifera L.; Quercus L.; Castanea sativa Mill.; Pinus pinaster Aiton; Acacia Mill.; Quercus suber L.; Pinales; Eucalyptus L'Hér.; 
2002,2002-06-29,Castelo Branco,Fundão,Fundão,FUNDÃO,40.1413475,-7.496455741188095,NC,485.0,2002-06-29T14:00,29.7,31,10.6,31.1,0.0,0.0,0.0,0.0,1,1017.0,963.1,24,3,35,0,0.71,2.9,8.1,10.2,291,293,21.6,36.7,25.0,21.3,15.3,0.102,0.178,0.255,0.346,1,3600.0,915.4,794.9,120.5,876.7,915.4,1199.9,942.0,818.0,124.0,876.7,942.0,1234.8,Tracheophyta; Magnoliopsida; Pinales; Olea europaea L.; Acacia Mill.
2002,2002-07-29,Castelo Branco,Penamacor,Aranhas,ARANHAS,40.1112959,-7.120030340909622,NC,483.0,2002-07-29T23:00,23.1,57,14.2,22.2,0.0,0.0,0.0,0.0,0,1014.8,960.1,8,0,0,27,0.09,1.21,16.2,28.7,339,342,33.8,26.1,29.7,24.8,18.7,0.104,0.157,0.213,0.303,0,0.0,0.0,0.0,0.0,0.0,0.0,0.0,0.0,0.0,0.0,0.0,0.0,0.0,Quercus suber L.; Olea europaea L.; Tracheophyta; Eucalyptus L'Hér.; Pinus pinaster Aiton; Magnoliopsida; Quercus L.; ; Pinus pinea L.
2002,2002-04-26,Castelo Branco,Proença-a-Nova,Peral,Peral,39.7193518,-7.898760199542231,NC,366.0,2002-04-26T15:00,24.9,40,10.5,23.9,0.0,0.0,0.0,0.0,1,1018.6,976.9,22,0,0,75,0.57,1.88,17.7,23.5,322,324,40.0,25.9,18.7,14.8,11.8,0.203,0.285,0.345,0.324,1,3600.0,757.2,658.2,99.0,887.4,757.2,1002.5,811.0,705.0,106.0,887.4,811.0,1073.7,Eucalyptus L'Hér.; Pinus pinaster Aiton; Tracheophyta; Magnoliopsida; Olea europaea L.; Pinales; Vitis vinifera L.; Quercus rotundifolia Lam.; Quercus suber L.; 
2002,2002-07-21,Castelo Branco,Idanha-a-Nova,Monsanto,Carroqueiro,40.0302987,-7.1293248,NC,429.0,2002-07-21T16:00,31.2,22,6.8,29.5,0.0,0.0,0.0,0.0,0,1012.2,964.8,0,0,0,0,0.6,3.56,12.5,16.1,192,190,33.1,35.2,27.1,23.2,17.7,0.125,0.161,0.218,0.305,1,3600.0,650.6,550.7,100.0,817.4,650.6,892.4,716.0,606.0,110.0,817.4,716.0,982.1,Quercus L.; Eucalyptus L'Hér.; Quercus rotundifolia Lam.; Quercus suber L.; Olea europaea L.; Tracheophyta; Magnoliopsida; Pinus pinaster Aiton; Vitis vinifera L.; 
2002,2002-05-25,Castelo Branco,Covilhã,Vila Do Carvalho,ALDEIA DO CARVALHO,40.2831298,-7.504734964638136,NC,674.0,2002-05-25T18:00,14.2,58,6.2,11.3,0.0,0.0,0.0,0.0,0,1020.7,942.7,2,2,0,0,0.2,0.68,13.6,18.2,307,309,36.4,18.9,16.5,13.9,11.3,0.258,0.294,0.347,0.407,1,3600.0,274.6,210.2,64.4,667.3,274.6,420.1,354.0,271.0,83.0,667.3,354.0,541.5,Tracheophyta; Magnoliopsida; Pinus pinaster Aiton; Olea europaea L.
