year,date,district,municipality,parish,local,latitude,longitude,cause,elevation,hourly.time,hourly.temperature_2m,hourly.relative_humidity_2m,hourly.dew_point_2m,hourly.apparent_temperature,hourly.precipitation,hourly.rain,hourly.snowfall,hourly.snow_depth,hourly.weather_code,hourly.pressure_msl,hourly.surface_pressure,hourly.cloud_cover,hourly.cloud_cover_low,hourly.cloud_cover_mid,hourly.cloud_cover_high,hourly.et0_fao_evapotranspiration,hourly.vapour_pressure_deficit,hourly.wind_speed_10m,hourly.wind_speed_100m,hourly.wind_direction_10m,hourly.wind_direction_100m,hourly.wind_gusts_10m,hourly.soil_temperature_0_to_7cm,hourly.soil_temperature_7_to_28cm,hourly.soil_temperature_28_to_100cm,hourly.soil_temperature_100_to_255cm,hourly.soil_moisture_0_to_7cm,hourly.soil_moisture_7_to_28cm,hourly.soil_moisture_28_to_100cm,hourly.soil_moisture_100_to_255cm,hourly.is_day,hourly.sunshine_duration,hourly.shortwave_radiation_instant,hourly.direct_radiation_instant,hourly.diffuse_radiation_instant,hourly.direct_normal_irradiance_instant,hourly.global_tilted_irradiance_instant,hourly.terrestrial_radiation_instant,hourly.shortwave_radiation,hourly.direct_radiation,hourly.diffuse_radiation,hourly.direct_normal_irradiance,hourly.global_tilted_irradiance,hourly.terrestrial_radiation,scientificNames
2003,2003-08-18,Porto,Paços de Ferreira,Ferreira,Gilde,41.2648221,-8.343541843352098,NC,336.0,2003-08-18T16:00,24.6,54,14.6,25.0,0.0,0.0,0.0,0.0,0,1019.4,981.0,2,0,0,8,0.45,1.44,11.8,15.0,293,294,29.2,30.2,23.6,22.5,18.1,0.112,0.165,0.239,0.344,1,3600.0,591.1,493.9,97.2,804.8,591.1,819.3,657.0,549.0,108.0,804.8,657.0,910.7,Eucalyptus L'Hér.; Tracheophyta; Magnoliopsida; Quercus L.; Pinus pinaster Aiton; 
2003,2003-08-18,Porto,Marco de Canaveses,Soalhães,S. SALVADOR,41.1603957,-8.0979057,NC,397.0,2003-08-18T15:00,24.8,50,13.6,25.5,0.0,0.0,0.0,0.0,0,1019.2,974.0,5,0,0,16,0.54,1.57,12.1,15.0,280,280,32.4,30.5,23.3,22.5,18.0,0.116,0.168,0.24,0.344,1,3600.0,745.6,646.2,99.4,869.6,745.6,991.9,795.0,689.0,106.0,869.6,795.0,1057.7,Magnoliopsida; Tracheophyta; Quercus L.; Eucalyptus L'Hér.; Pinus pinaster Aiton; Vitis vinifera L.; Castanea sativa Mill.; Pinales; 
2003,2003-08-15,Porto,Paredes,Lordelo,PARTEIRA,41.2327379,-8.4330482,NC,235.0,2003-08-15T20:00,19.2,80,15.6,19.3,0.0,0.0,0.0,0.0,3,1016.4,988.9,83,39,39,81,0.04,0.45,12.0,16.1,309,310,25.9,23.4,25.1,23.4,18.3,0.133,0.151,0.215,0.348,0,0.0,0.0,0.0,0.0,0.0,0.0,0.0,6.0,1.0,5.0,12.3,6.0,49.7,Magnoliopsida; Pinus pinaster Aiton; Eucalyptus L'Hér.; Tracheophyta; Vitis vinifera L.
2003,2003-08-15,Porto,Paços de Ferreira,Freamunde,GANDARELA,41.2883064,-8.342977,NC,365.0,2003-08-15T18:00,20.1,72,14.8,19.9,0.0,0.0,0.0,0.0,3,1016.6,974.4,81,50,16,87,0.15,0.66,12.2,16.8,298,298,35.6,25.4,24.8,22.9,17.7,0.103,0.169,0.241,0.345,1,3600.0,150.5,61.0,89.6,217.4,150.5,374.0,200.0,81.0,119.0,217.4,200.0,496.9,Tracheophyta; Eucalyptus L'Hér.; Magnoliopsida; Pinus pinaster Aiton; 
2003,2003-08-06,Porto,Santo Tirso,Refojos de Riba de Ave,Lug. Valongueira,41.2920945,-8.4471657,NC,216.0,2003-08-06T16:00,35.2,33,16.3,36.1,0.0,0.0,0.0,0.0,0,1016.7,992.7,1,0,0,4,0.61,3.82,13.3,17.3,322,324,23.8,36.3,26.6,21.8,17.7,0.105,0.195,0.251,0.352,1,3600.0,615.0,516.1,98.9,793.3,615.0,865.0,678.0,569.0,109.0,793.3,678.0,953.6,Tracheophyta; Magnoliopsida; Pinus pinaster Aiton; Vitis vinifera L.; Eucalyptus L'Hér.
2003,2003-08-03,Porto,Felgueiras,Lordelo,Escolas,41.3131724,-8.2257402,NC,233.0,2003-08-03T03:00,25.1,47,12.9,25.4,0.0,0.0,0.0,0.0,1,1012.4,985.8,42,0,30,80,0.03,1.71,4.5,6.7,241,254,28.4,21.8,24.7,21.0,17.5,0.131,0.22,0.26,0.354,0,0.0,0.0,0.0,0.0,0.0,0.0,0.0,0.0,0.0,0.0,0.0,0.0,0.0,Eucalyptus L'Hér.; Tracheophyta; Vitis vinifera L.; Magnoliopsida
2003,2003-08-18,Porto,Amarante,Gatão,Vista Alegre,41.2915468,-8.0691688,NC,173.0,2003-08-18T20:00,20.8,79,17.0,22.4,0.0,0.0,0.0,0.0,0,1020.4,1000.1,3,3,0,0,0.03,0.52,5.8,12.2,292,298,18.4,24.3,24.7,23.4,19.1,0.127,0.171,0.243,0.344,0,0.0,0.0,0.0,0.0,0.0,0.0,0.0,7.0,2.0,5.0,27.4,7.0,39.2,Magnoliopsida; Tracheophyta
2003,2003-08-13,Porto,Amarante,Oliveira,Paço,41.2577063,-8.2015419,NC,228.0,2003-08-13T03:00,24.6,79,20.7,28.7,0.0,0.0,0.0,0.0,0,1020.3,994.0,2,0,3,0,0.0,0.65,0.8,1.1,117,288,8.3,23.4,27.4,23.4,18.1,0.12,0.171,0.236,0.348,0,0.0,0.0,0.0,0.0,0.0,0.0,0.0,0.0,0.0,0.0,0.0,0.0,0.0,Magnoliopsida; Eucalyptus L'Hér.; Tracheophyta
2003,2003-08-15,Porto,Lousada,Nespereira,Barroca,41.255599,-8.2953609,NC,214.0,2003-08-15T13:00,24.1,55,14.6,24.5,0.0,0.0,0.0,0.0,3,1018.1,993.4,100,88,37,94,0.49,1.34,14.5,19.2,276,276,35.3,29.7,25.3,23.9,18.6,0.102,0.169,0.241,0.345,1,3600.0,724.2,508.4,215.8,573.6,724.2,1181.9,725.0,509.0,216.0,573.6,725.0,1183.2,Tracheophyta; Olea europaea L.; Pinus pinaster Aiton; Vitis vinifera L.; Magnoliopsida; Eucalyptus L'Hér.
2003,2003-08-12,Porto,Marco de Canaveses,Avessadas,CURRAIS,41.1738572,-8.0529142,NC,768.0,2003-08-12T18:00,28.8,52,18.0,31.5,1.0,1.0,0.0,0.0,55,1020.1,935.9,35,0,17,82,0.16,1.9,1.1,1.5,270,284,18.7,31.4,27.0,21.8,16.3,0.14,0.164,0.232,0.345,1,3600.0,174.8,109.0,65.8,380.3,174.8,381.7,231.0,144.0,87.0,380.3,231.0,504.4,Magnoliopsida; Tracheophyta; Pinus pinaster Aiton; Eucalyptus L'Hér.; Vitis vinifera L.; Pinales; Acacia Mill.; 
2003,2003-08-07,Porto,Amarante,Real,Eira,41.28916315,-8.19687303579801,NC,385.0,2003-08-07T18:00,32.5,36,15.3,33.4,0.0,0.0,0.0,0.0,0,1014.4,971.9,16,0,17,19,0.24,3.16,6.2,13.0,7,6,26.3,32.7,26.9,21.3,16.8,0.106,0.193,0.252,0.35,1,3600.0,191.8,111.7,80.1,365.2,191.8,406.9,249.0,145.0,104.0,365.2,249.0,528.1,Eucalyptus L'Hér.; Tracheophyta; Magnoliopsida; Vitis vinifera L.
2003,2003-08-16,Porto,Penafiel,Canelas,SERRA,41.0775596,-8.3165006,NC,335.0,2003-08-16T06:00,16.1,97,15.6,17.7,0.0,0.0,0.0,0.0,3,1015.6,976.3,97,100,12,0,0.01,0.06,1.6,1.8,243,259,10.4,19.2,23.4,23.6,18.5,0.115,0.164,0.233,0.342,1,0.0,3.2,0.0,3.2,0.0,0.7,51.9,1.0,0.0,1.0,0.0,1.0,16.2,Eucalyptus L'Hér.; Magnoliopsida; Tracheophyta
2003,2003-08-16,Porto,Paços de Ferreira,Sanfins de Ferreira,PINHEIROS,41.3266496,-8.3721821,NC,434.0,2003-08-16T15:00,20.7,68,14.5,20.8,0.0,0.0,0.0,0.0,3,1014.6,964.9,94,70,52,0,0.37,0.79,11.7,15.5,288,288,33.5,26.2,22.7,22.3,17.3,0.12,0.168,0.24,0.345,1,3600.0,574.7,429.2,145.6,572.4,574.7,1000.1,612.0,457.0,155.0,572.4,612.0,1065.0,Magnoliopsida; Eucalyptus L'Hér.; Tracheophyta; Pinus pinaster Aiton
2003,2003-08-16,Porto,Paços de Ferreira,Freamunde,CERCA,41.291328,-8.3495254,NC,353.0,2003-08-16T14:00,21.3,65,14.6,21.4,0.3,0.3,0.0,0.0,51,1014.5,974.0,61,54,21,0,0.38,0.88,11.7,15.0,281,281,29.5,26.5,23.1,22.8,17.8,0.119,0.168,0.24,0.345,1,3600.0,582.3,376.6,205.8,448.1,582.3,1121.0,600.0,388.0,212.0,448.1,600.0,1155.0,Tracheophyta; Eucalyptus L'Hér.; Magnoliopsida; Pinus pinaster Aiton; 
2003,2003-08-16,Porto,Paços de Ferreira,Paços de Ferreira,CAVADA,41.2746173,-8.3704226,NC,313.0,2003-08-16T17:00,20.8,69,15.0,21.2,0.0,0.0,0.0,0.0,2,1014.1,978.0,57,41,33,0,0.2,0.76,9.1,11.9,304,305,27.0,25.8,23.6,23.0,18.0,0.122,0.166,0.238,0.345,1,3600.0,252.3,159.2,93.1,347.0,252.3,612.1,298.0,188.0,110.0,347.0,298.0,722.8,Tracheophyta; Magnoliopsida; Eucalyptus L'Hér.
2003,2003-08-17,Porto,Paredes,Astromil,Igreja,41.1981228,-8.4195664,NC,200.0,2003-08-17T11:00,23.9,63,16.5,26.1,0.0,0.0,0.0,0.0,0,1015.6,992.6,1,0,1,0,0.46,1.08,6.8,7.5,302,305,18.7,27.3,22.7,23.2,18.7,0.15,0.151,0.215,0.347,1,3600.0,741.5,605.7,135.8,739.0,741.5,1093.6,699.0,571.0,128.0,739.0,699.0,1031.0,Magnoliopsida; Pinus pinaster Aiton; Eucalyptus L'Hér.; Tracheophyta; Vitis vinifera L.
2003,2003-08-03,Porto,Baião,Santa Marinha do Zêzere,SARNADA,41.3564855,-8.4465122,NC,100.0,2003-08-03T12:00,29.1,56,19.4,32.3,0.0,0.0,0.0,0.0,0,1013.0,1001.6,6,7,0,0,0.54,1.77,9.1,10.1,277,276,20.9,31.4,25.2,21.3,17.7,0.133,0.205,0.252,0.353,1,3600.0,738.9,553.9,185.0,613.0,738.9,1200.3,719.0,539.0,180.0,613.0,719.0,1168.0,Tracheophyta; Magnoliopsida; Pinus pinaster Aiton; Eucalyptus L'Hér.
2003,2003-08-10,Porto,Paredes,Astromil,STªMARINHA,41.1981228,-8.4195664,NC,200.0,2003-08-10T01:00,23.2,88,21.1,26.9,0.0,0.0,0.0,0.0,1,1013.7,990.6,46,51,0,0,0.0,0.35,5.4,6.5,318,326,12.6,23.6,27.2,22.8,18.0,0.132,0.167,0.224,0.351,0,0.0,0.0,0.0,0.0,0.0,0.0,0.0,0.0,0.0,0.0,0.0,0.0,0.0,Magnoliopsida; Pinus pinaster Aiton; Eucalyptus L'Hér.; Tracheophyta; Vitis vinifera L.
2003,2003-08-07,Porto,Paredes,Aguiar de Sousa,Brandião,41.0895783,-8.4306791,NC,168.0,2003-08-07T09:00,31.7,47,19.2,34.2,0.0,0.0,0.0,0.0,0,1016.7,997.8,10,0,17,0,0.36,2.46,6.4,10.0,63,75,14.8,28.1,25.2,22.3,18.1,0.13,0.189,0.242,0.351,1,3600.0,530.0,432.8,97.2,719.3,530.0,800.1,458.0,374.0,84.0,719.3,458.0,691.4,Magnoliopsida; Pinus pinaster Aiton; Eucalyptus L'Hér.; Tracheophyta; Vitis vinifera L.
2003,2003-08-17,Porto,Marco de Canaveses,Sobretâmega,RIBEIRINHA,41.1993999,-8.1651586,NC,110.0,2003-08-17T02:00,18.3,94,17.4,20.1,0.0,0.0,0.0,0.0,1,1014.0,1001.0,46,38,19,0,0.0,0.12,6.0,9.0,335,337,13.3,19.5,23.8,24.2,19.4,0.135,0.17,0.242,0.344,0,0.0,0.0,0.0,0.0,0.0,0.0,0.0,0.0,0.0,0.0,0.0,0.0,0.0,Vitis vinifera L.; Tracheophyta; Pinus pinaster Aiton; Magnoliopsida; Quercus L.; 
2003,2003-08-10,Porto,Baião,Santa Cruz do Douro,QUEIXOMIL,41.124492,-8.0130669,NC,449.0,2003-08-10T03:00,23.3,82,20.0,26.8,0.0,0.0,0.0,0.0,0,1013.6,962.7,2,0,4,0,0.0,0.51,2.4,1.6,117,153,5.8,22.5,26.6,22.5,17.5,0.129,0.161,0.221,0.349,0,0.0,0.0,0.0,0.0,0.0,0.0,0.0,0.0,0.0,0.0,0.0,0.0,0.0,Magnoliopsida; Pinus pinaster Aiton; Vitis vinifera L.; Quercus L.; Tracheophyta; Eucalyptus L'Hér.; Olea europaea L.; 
2003,2003-08-10,Porto,Penafiel,Canelas,Serra,41.0775596,-8.3165006,NC,335.0,2003-08-10T14:00,33.0,44,19.2,37.2,0.0,0.0,0.0,0.0,0,1014.2,977.1,0,0,0,0,0.68,2.8,7.9,9.7,273,272,21.2,36.2,27.2,23.0,17.9,0.115,0.176,0.24,0.345,1,3600.0,847.1,728.5,118.5,850.3,847.1,1140.5,872.0,750.0,122.0,850.3,872.0,1174.1,Eucalyptus L'Hér.; Magnoliopsida; Tracheophyta
2003,2003-08-19,Porto,Penafiel,Duas Igrejas,Aveleira de Além,41.1864654,-8.2690378,NC,403.0,2003-08-19T17:00,24.0,53,13.8,23.2,0.0,0.0,0.0,0.0,0,1019.4,973.4,0,0,0,0,0.35,1.41,14.3,18.8,315,317,34.2,29.4,23.7,22.0,17.9,0.104,0.164,0.238,0.343,1,3600.0,412.2,339.8,72.3,765.1,412.2,593.2,490.0,404.0,86.0,765.1,490.0,705.2,Eucalyptus L'Hér.; Tracheophyta; Magnoliopsida
2003,2003-08-07,Porto,Paredes,Rebordosa,Alto do Facho,41.2202567,-8.4112601,NC,216.0,2003-08-07T21:00,28.7,55,18.7,30.5,0.0,0.0,0.0,0.0,0,1014.0,989.6,7,0,7,8,0.07,1.79,9.8,18.4,8,11,16.9,28.0,27.4,22.0,17.7,0.138,0.176,0.229,0.352,0,0.0,0.0,0.0,0.0,0.0,0.0,0.0,0.0,0.0,0.0,0.0,0.0,0.0,Magnoliopsida; Pinus pinaster Aiton; Eucalyptus L'Hér.; Tracheophyta; Vitis vinifera L.
2003,2003-08-19,Porto,Lousada,Lustosa,LOUREIRO,41.3321025,-8.3085374,NC,411.0,2003-08-19T14:00,25.3,48,13.5,26.4,0.0,0.0,0.0,0.0,0,1019.5,972.8,3,3,0,0,0.59,1.67,11.8,14.6,308,310,31.3,30.8,22.9,22.0,17.8,0.113,0.157,0.228,0.339,1,3600.0,840.4,724.1,116.3,872.0,840.4,1108.8,867.0,747.0,120.0,872.0,867.0,1144.0,Vitis vinifera L.; Eucalyptus L'Hér.; Tracheophyta; Magnoliopsida
2003,2003-08-03,Porto,Lousada,Nespereira,BOAVISTA,41.2585038,-8.2978759,NC,239.0,2003-08-03T17:00,25.7,73,20.5,28.3,0.0,0.0,0.0,0.0,2,1013.9,986.6,57,63,0,0,0.35,0.89,10.7,13.4,290,290,33.1,31.0,25.9,21.0,17.4,0.126,0.215,0.258,0.353,1,3600.0,448.8,349.1,99.7,700.0,448.8,662.4,522.0,406.0,116.0,700.0,522.0,770.4,Tracheophyta; Magnoliopsida; Olea europaea L.; Pinus pinaster Aiton; Vitis vinifera L.; Eucalyptus L'Hér.
2003,2003-08-03,Porto,Paredes,Gandra,IGREJA,41.2012001,-8.439877415571775,NC,156.0,2003-08-03T20:00,23.1,80,19.4,26.3,0.0,0.0,0.0,0.0,0,1014.0,996.0,0,0,0,0,0.02,0.57,2.6,2.3,304,309,10.4,26.5,26.3,21.5,17.8,0.162,0.2,0.236,0.355,0,555.34,0.0,0.0,0.0,0.0,0.0,0.0,25.0,12.0,13.0,116.2,25.0,78.6,Magnoliopsida; Pinus pinaster Aiton; Eucalyptus L'Hér.; Tracheophyta; Vitis vinifera L.
2003,2003-08-19,Porto,Paredes,Mouriz,BOUÇA,41.2083789,-8.3434171,NC,189.0,2003-08-19T14:00,25.6,52,14.9,27.5,0.0,0.0,0.0,0.0,0,1019.3,997.6,2,2,0,0,0.59,1.59,11.0,13.5,302,304,27.7,30.6,23.7,23.0,18.9,0.132,0.161,0.23,0.344,1,3600.0,840.8,724.4,116.4,870.7,840.8,1111.0,867.0,747.0,120.0,870.7,867.0,1145.7,Magnoliopsida; Pinus pinaster Aiton; Eucalyptus L'Hér.; Tracheophyta; Vitis vinifera L.; Quercus L.
2003,2003-08-15,Porto,Santo Tirso,Água Longa,LG. LURDES,41.2603698,-8.4972609,NC,120.0,2003-08-15T16:00,22.7,67,16.2,22.5,0.0,0.0,0.0,0.0,2,1017.1,1003.1,65,38,12,78,0.3,0.92,15.9,20.6,298,299,35.3,28.1,25.5,23.9,18.9,0.13,0.153,0.217,0.347,1,3600.0,400.6,195.8,204.8,313.0,400.6,834.0,444.0,217.0,227.0,313.0,444.0,924.4,Tracheophyta; Eucalyptus L'Hér.; Pinales; Vitis vinifera L.; Pinus pinaster Aiton
2003,2003-08-03,Porto,Amarante,Real,BOMBOM,41.2472875,-8.172050257445942,NC,179.0,2003-08-03T22:00,22.9,86,20.5,27.0,0.0,0.0,0.0,0.0,0,1014.8,994.1,0,0,0,0,0.0,0.38,0.4,3.1,360,69,7.2,24.2,25.9,21.4,17.7,0.149,0.225,0.263,0.353,0,0.0,0.0,0.0,0.0,0.0,0.0,0.0,0.0,0.0,0.0,0.0,0.0,0.0,Tracheophyta; Acacia Mill.; Magnoliopsida; Pinales; Eucalyptus L'Hér.; Vitis vinifera L.
2003,2003-08-03,Porto,Santo Tirso,Reguenga,LG. CALVARIO,41.2755959,-8.4572825,NC,157.0,2003-08-03T23:00,22.1,83,19.1,25.3,0.0,0.0,0.0,0.0,0,1014.6,996.4,1,1,0,0,0.0,0.46,1.5,3.4,166,148,6.8,23.0,25.7,21.5,17.7,0.152,0.193,0.237,0.354,0,0.0,0.0,0.0,0.0,0.0,0.0,0.0,0.0,0.0,0.0,0.0,0.0,0.0,Pinus pinaster Aiton; Eucalyptus L'Hér.; Tracheophyta; Vitis vinifera L.
2003,2003-08-11,Porto,Amarante,Mancelos,Troxainho,41.2894833,-8.155317,NC,471.0,2003-08-11T20:00,31.1,39,15.7,32.5,0.0,0.0,0.0,0.0,0,1016.3,964.2,14,0,21,3,0.05,2.73,3.3,4.5,13,14,10.4,29.8,27.6,22.2,16.9,0.104,0.166,0.234,0.344,0,0.0,0.0,0.0,0.0,0.0,0.0,0.0,12.0,5.0,7.0,57.5,12.0,57.4,Tracheophyta; Magnoliopsida; Eucalyptus L'Hér.; Pinus pinaster Aiton; Vitis vinifera L.; 
2003,2003-08-11,Porto,Paredes,Beire,MOINHOS,41.2451216,-8.3240436,NC,192.0,2003-08-11T11:00,33.7,39,18.0,37.6,0.0,0.0,0.0,0.0,0,1015.8,994.4,5,0,9,0,0.55,3.17,1.3,1.8,124,127,12.6,33.0,26.4,23.1,18.2,0.122,0.178,0.24,0.349,1,3600.0,772.5,608.3,164.3,730.1,772.5,1109.3,729.0,574.0,155.0,730.1,729.0,1046.8,Magnoliopsida; Pinus pinaster Aiton; Eucalyptus L'Hér.; Tracheophyta; Vitis vinifera L.
2003,2003-08-20,Porto,Marco de Canaveses,Sande,Lamas,41.1044716,-8.1815849,NC,279.0,2003-08-20T11:00,24.3,58,15.6,27.2,0.0,0.0,0.0,0.0,0,1018.3,986.3,1,1,0,0,0.51,1.27,3.6,4.0,264,260,17.3,28.0,22.7,22.9,18.9,0.117,0.163,0.236,0.343,1,3600.0,826.5,717.2,109.3,881.0,826.5,1087.4,779.0,676.0,103.0,881.0,779.0,1025.0,Tracheophyta; Pinus pinaster Aiton; Vitis vinifera L.; Eucalyptus L'Hér.; Castanea sativa Mill.; Magnoliopsida; 
2003,2003-08-09,Porto,Baião,Teixeira,Barlioso,41.1913256,-7.923788,NC,457.0,2003-08-09T01:00,24.9,63,17.2,26.5,0.0,0.0,0.0,0.0,0,1015.2,963.6,0,0,0,0,0.03,1.18,6.5,10.2,93,72,11.9,23.3,26.7,22.3,17.3,0.131,0.183,0.239,0.35,0,0.0,0.0,0.0,0.0,0.0,0.0,0.0,0.0,0.0,0.0,0.0,0.0,0.0,Magnoliopsida; Tracheophyta; Eucalyptus L'Hér.; Pinus pinaster Aiton; Vitis vinifera L.; Pinales; Quercus L.; 
2003,2003-08-16,Porto,Paços de Ferreira,Penamaior,PANCADA,41.2875406,-8.4127999,NC,362.0,2003-08-16T17:00,20.5,69,14.7,20.6,0.0,0.0,0.0,0.0,1,1014.0,972.3,34,10,42,0,0.2,0.74,9.7,12.2,301,304,24.5,25.5,23.3,22.7,17.7,0.122,0.166,0.238,0.345,1,3600.0,249.8,156.7,93.1,341.4,249.8,612.1,295.0,185.0,110.0,341.4,295.0,722.8,Magnoliopsida; Eucalyptus L'Hér.; Tracheophyta; Vitis vinifera L.; 
2003,2003-08-11,Porto,Valongo,Campo,RIBEIRA,41.1958069,-8.4596581,NC,106.0,2003-08-11T07:00,23.6,89,21.6,27.8,0.0,0.0,0.0,0.0,2,1014.8,1002.5,59,61,7,0,0.05,0.32,3.9,5.6,22,40,12.6,23.1,26.4,23.7,18.8,0.108,0.167,0.231,0.348,1,3182.16,137.1,82.6,54.5,344.1,127.5,319.6,83.0,50.0,33.0,320.0,83.0,193.4,Pinus pinaster Aiton; Tracheophyta; Eucalyptus L'Hér.; Vitis vinifera L.
2003,2003-08-12,Porto,Amarante,Vila Garcia,Soutelo,41.3115133,-8.0796338,NC,247.0,2003-08-12T13:00,36.4,32,17.1,39.8,0.0,0.0,0.0,0.0,0,1018.4,991.1,4,0,7,0,0.71,4.12,6.8,8.3,238,236,17.3,36.6,27.4,23.2,18.0,0.115,0.183,0.25,0.348,1,3600.0,856.3,737.4,118.9,825.5,856.3,1189.7,857.0,738.0,119.0,825.5,857.0,1190.7,Tracheophyta; Eucalyptus L'Hér.; Pinus pinaster Aiton; Magnoliopsida; Vitis vinifera L.; 
2003,2003-08-20,Porto,Paredes,Recarei,ORENGA,41.1536564,-8.4122951,NC,87.0,2003-08-20T00:00,18.2,94,17.2,19.5,0.0,0.0,0.0,0.0,0,1019.9,1009.6,1,1,0,0,0.0,0.13,9.1,14.0,326,334,18.0,21.1,24.7,23.7,19.7,0.133,0.146,0.211,0.346,0,0.0,0.0,0.0,0.0,0.0,0.0,0.0,0.0,0.0,0.0,0.0,0.0,0.0,Magnoliopsida; Pinus pinaster Aiton; Eucalyptus L'Hér.; Tracheophyta; Vitis vinifera L.
2003,2003-08-15,Porto,Santo Tirso,Roriz,BUSTELO,41.3515405,-8.3829071,NC,220.0,2003-08-15T18:00,20.7,72,15.4,20.4,0.0,0.0,0.0,0.0,3,1016.6,991.0,82,45,26,86,0.16,0.69,14.4,18.5,302,303,32.0,25.1,24.8,23.3,18.2,0.119,0.172,0.24,0.346,1,3600.0,162.6,83.6,79.1,297.8,162.6,374.3,216.0,111.0,105.0,297.8,216.0,497.1,Magnoliopsida; Tracheophyta; Vitis vinifera L.; Quercus suber L.
2003,2003-08-20,Porto,Marco de Canaveses,Tabuado,TAPADA BARROS,41.1843748,-8.1228476,NC,230.0,2003-08-20T15:00,27.1,47,14.7,28.5,0.0,0.0,0.0,0.0,0,1016.5,990.3,0,0,0,0,0.57,1.91,11.1,13.8,295,298,28.8,31.6,23.8,22.7,18.8,0.12,0.169,0.241,0.343,1,3600.0,748.0,650.5,97.5,882.2,748.0,985.1,798.0,694.0,104.0,882.2,798.0,1051.0,Quercus L.; Tracheophyta; Magnoliopsida; Pinus pinaster Aiton; Vitis vinifera L.; Eucalyptus L'Hér.; 
2003,2003-08-16,Porto,Amarante,Ansiães,Póvoa,41.2359626,-7.9371071,NC,692.0,2003-08-16T12:00,20.7,57,11.8,20.9,0.0,0.0,0.0,0.0,3,1014.8,936.9,88,66,47,0,0.43,1.06,7.8,9.8,292,294,25.9,25.2,22.3,22.5,17.2,0.132,0.156,0.222,0.344,1,3600.0,690.1,472.4,217.7,537.6,690.1,1171.9,672.0,460.0,212.0,537.6,672.0,1141.2,Eucalyptus L'Hér.; Magnoliopsida; Tracheophyta; Quercus L.
2003,2003-08-08,Porto,Paços de Ferreira,Carvalhosa,S.Domingos,41.2851689,-8.37464,NC,316.0,2003-08-08T02:00,22.0,72,16.7,23.1,0.0,0.0,0.0,0.0,0,1013.8,977.5,6,0,10,0,0.02,0.73,8.3,16.9,90,74,18.0,22.8,26.3,21.7,17.2,0.106,0.19,0.249,0.351,0,0.0,0.0,0.0,0.0,0.0,0.0,0.0,0.0,0.0,0.0,0.0,0.0,0.0,Tracheophyta; Eucalyptus L'Hér.; Pinus pinaster Aiton; Magnoliopsida; Vitis vinifera L.; Quercus L.; 
2003,2003-08-20,Porto,Paços de Ferreira,Paços de Ferreira,R CHA VILAR,41.2760977,-8.3768913,NC,305.0,2003-08-20T16:00,25.7,51,14.7,26.1,0.0,0.0,0.0,0.0,0,1015.9,981.2,0,0,0,0,0.47,1.62,12.1,15.4,300,303,30.2,31.0,23.8,22.3,18.4,0.104,0.161,0.235,0.343,1,3600.0,599.1,512.0,87.1,844.6,599.1,809.9,667.0,570.0,97.0,844.6,667.0,901.6,Tracheophyta; Magnoliopsida
2003,2003-08-13,Porto,Marco de Canaveses,Soalhães,SOALHÃES,41.1603957,-8.0979057,NC,397.0,2003-08-13T00:00,25.3,75,20.5,28.7,0.0,0.0,0.0,0.0,0,1021.3,976.1,1,0,1,0,0.01,0.8,4.7,5.8,94,86,6.8,24.9,27.6,23.0,17.5,0.119,0.177,0.245,0.347,0,0.0,0.0,0.0,0.0,0.0,0.0,0.0,0.0,0.0,0.0,0.0,0.0,0.0,Magnoliopsida; Tracheophyta; Quercus L.; Eucalyptus L'Hér.; Pinus pinaster Aiton; Vitis vinifera L.; Castanea sativa Mill.; Pinales; 
2003,2003-08-12,Porto,Vila Nova de Gaia,Olival,R.Sª Marinha Olival,41.0672014,-8.51628885774278,NC,167.0,2003-08-12T15:00,32.2,49,20.0,35.2,0.0,0.0,0.0,0.0,0,1018.9,1000.1,4,0,7,0,0.61,2.47,13.4,16.6,275,274,30.6,36.8,28.5,23.7,18.6,0.121,0.154,0.217,0.35,1,3600.0,705.8,587.2,118.6,768.1,705.8,1018.3,750.0,624.0,126.0,768.1,750.0,1082.1,Eucalyptus L'Hér.; Pinus pinaster Aiton; Magnoliopsida; Tracheophyta
2003,2003-08-16,Porto,Marco de Canaveses,Avessadas,CASTELINHO,41.1627154,-8.1693677,NC,228.0,2003-08-16T01:00,17.3,92,16.0,18.8,0.0,0.0,0.0,0.0,2,1016.4,989.6,70,74,6,0,0.0,0.15,3.7,6.2,281,291,11.2,20.4,24.3,23.7,18.5,0.117,0.175,0.245,0.346,0,0.0,0.0,0.0,0.0,0.0,0.0,0.0,0.0,0.0,0.0,0.0,0.0,0.0,Magnoliopsida; Tracheophyta; Pinus pinaster Aiton; Eucalyptus L'Hér.; Vitis vinifera L.; Pinales; Acacia Mill.; ; Castanea sativa Mill.; Quercus L.
2003,2003-08-08,Porto,Paredes,Sobrosa,TOURILHE,41.2535012,-8.3618575,NC,358.0,2003-08-08T10:00,32.4,34,14.4,32.9,0.0,0.0,0.0,0.0,0,1014.1,974.5,4,0,6,0,0.52,3.21,9.4,12.3,97,97,22.7,29.8,24.9,21.4,16.9,0.105,0.189,0.249,0.35,1,3600.0,694.3,580.0,114.2,784.1,694.3,983.9,632.0,528.0,104.0,784.1,632.0,895.7,Magnoliopsida; Pinus pinaster Aiton; Eucalyptus L'Hér.; Tracheophyta; Vitis vinifera L.
2003,2003-08-17,Porto,Paredes,Aguiar de Sousa,Alvre,41.1271547,-8.4477733,NC,144.0,2003-08-17T22:00,18.1,93,17.0,19.5,0.0,0.0,0.0,0.0,1,1017.9,1000.9,24,27,0,0,0.0,0.15,7.2,10.4,297,304,19.8,21.6,24.5,23.7,19.2,0.137,0.158,0.226,0.345,0,0.0,0.0,0.0,0.0,0.0,0.0,0.0,0.0,0.0,0.0,0.0,0.0,0.0,Magnoliopsida; Pinus pinaster Aiton; Eucalyptus L'Hér.; Tracheophyta; Vitis vinifera L.; Quercus L.; Quercus suber L.
2003,2003-08-12,Porto,Vila Nova de Gaia,Sandim,Rua Candieira do Pinhal,41.0314958,-8.4947303,NC,100.0,2003-08-12T20:00,27.3,66,20.3,30.4,0.0,0.0,0.0,0.0,0,1019.5,1008.0,4,0,6,0,0.05,1.24,6.4,8.0,286,306,14.0,30.7,29.9,24.3,19.2,0.114,0.126,0.177,0.318,0,0.0,0.0,0.0,0.0,0.0,0.0,0.0,13.0,5.0,8.0,57.3,13.0,57.9,Tracheophyta; Quercus L.; Pinus pinea L.; Magnoliopsida; Eucalyptus L'Hér.
2003,2003-08-16,Porto,Santo Tirso,Refojos de Riba de Ave,FIAL,41.2920945,-8.4471657,NC,216.0,2003-08-16T21:00,19.2,81,15.9,20.0,0.0,0.0,0.0,0.0,1,1014.6,989.4,28,8,34,0,0.01,0.41,7.9,11.0,321,328,18.4,22.0,24.1,23.6,18.7,0.122,0.166,0.238,0.345,0,0.0,0.0,0.0,0.0,0.0,0.0,0.0,0.0,0.0,0.0,0.0,0.0,0.0,Tracheophyta; Magnoliopsida; Pinus pinaster Aiton; Vitis vinifera L.; Eucalyptus L'Hér.
2003,2003-08-17,Porto,Penafiel,Bustelo,CARRAPITO,41.2299987,-8.2677145,NC,259.0,2003-08-17T18:00,22.6,63,15.3,22.4,0.0,0.0,0.0,0.0,0,1015.3,985.5,4,0,0,13,0.21,1.0,13.2,18.2,296,300,31.0,26.6,23.8,22.9,18.3,0.139,0.163,0.231,0.345,1,3600.0,212.3,154.2,58.1,570.0,212.3,361.0,285.0,207.0,78.0,570.0,285.0,484.6,Magnoliopsida; Tracheophyta; Eucalyptus L'Hér.; Pinus pinaster Aiton; Vitis vinifera L.; Pinales; 
2003,2003-08-12,Porto,Baião,Mesquinhata,SILVARES,41.1138276,-8.087801971353556,NC,241.0,2003-08-12T13:00,36.4,32,17.1,39.8,0.0,0.0,0.0,0.0,0,1018.4,991.7,4,0,7,0,0.71,4.13,6.8,8.3,238,236,17.3,36.6,27.4,23.3,18.0,0.115,0.183,0.25,0.348,1,3600.0,856.2,737.3,118.9,824.0,856.2,1191.8,857.0,738.0,119.0,824.0,857.0,1192.9,Magnoliopsida; Tracheophyta; Vitis vinifera L.; Acacia Mill.; Eucalyptus L'Hér.; Quercus suber L.
2003,2003-08-20,Porto,Penafiel,Milhundos,AVELEIRA,41.2031681,-8.2692768,NC,288.0,2003-08-20T16:00,25.9,50,14.6,26.3,0.0,0.0,0.0,0.0,0,1015.9,983.1,0,0,0,0,0.47,1.69,12.1,15.4,300,303,30.2,30.4,23.6,22.2,18.4,0.127,0.159,0.228,0.344,1,3600.0,598.8,511.7,87.1,845.7,598.8,808.4,667.0,570.0,97.0,845.7,667.0,900.5,Eucalyptus L'Hér.; Magnoliopsida; Tracheophyta
2003,2003-08-20,Porto,Amarante,Figueiró (Santa Cristina),FONTELO,41.2976804,-8.176926,NC,347.0,2003-08-20T22:00,19.2,83,16.2,20.7,0.0,0.0,0.0,0.0,0,1016.3,976.1,0,0,0,0,0.0,0.38,5.1,5.1,172,184,10.1,21.7,24.2,22.3,18.3,0.1,0.163,0.237,0.342,0,0.0,0.0,0.0,0.0,0.0,0.0,0.0,0.0,0.0,0.0,0.0,0.0,0.0,Tracheophyta; Magnoliopsida; Eucalyptus L'Hér.; Vitis vinifera L.
2003,2003-08-12,Porto,Paredes,Mouriz,RIBEIROS ALTOS,41.1923087,-8.3673667,NC,281.0,2003-08-12T17:00,30.1,53,19.5,32.8,0.0,0.0,0.0,0.0,0,1018.9,987.2,6,0,7,7,0.34,2.01,6.2,7.3,280,281,22.7,34.0,28.2,22.9,17.7,0.128,0.157,0.219,0.349,1,3600.0,366.1,277.5,88.5,586.7,366.1,630.1,430.0,326.0,104.0,586.7,430.0,740.1,Magnoliopsida; Pinus pinaster Aiton; Eucalyptus L'Hér.; Tracheophyta; Vitis vinifera L.
2003,2003-08-20,Porto,Santo Tirso,Negrelos (são Tomé),L.Aldeia Nova,41.3488993,-8.403043,NC,145.0,2003-08-20T16:00,26.2,52,15.5,26.3,0.0,0.0,0.0,0.0,0,1016.1,999.4,0,0,0,0,0.48,1.63,16.6,21.1,312,316,32.4,30.5,24.1,22.7,19.0,0.127,0.152,0.218,0.344,1,3600.0,600.1,513.0,87.1,846.4,600.1,809.7,668.0,571.0,97.0,846.4,668.0,901.3,Magnoliopsida; Tracheophyta; Vitis vinifera L.; Quercus suber L.
2003,2003-08-20,Porto,Baião,Ancede,MORTAL,41.1046709,-8.0614156,NC,328.0,2003-08-20T21:00,20.4,80,16.9,22.0,0.0,0.0,0.0,0.0,0,1015.8,977.9,0,0,0,0,0.0,0.47,5.6,4.7,207,238,9.7,23.4,24.6,22.7,18.7,0.107,0.164,0.237,0.342,0,0.0,0.0,0.0,0.0,0.0,0.0,0.0,0.0,0.0,0.0,0.0,0.0,0.0,Magnoliopsida; Pinus pinaster Aiton; Tracheophyta; Vitis vinifera L.; Quercus suber L.; Acacia Mill.; Eucalyptus L'Hér.; Quercus L.; 
2003,2003-08-08,Porto,Penafiel,Canelas,UFE,41.0775596,-8.3165006,NC,335.0,2003-08-08T14:00,37.1,26,14.2,39.6,0.0,0.0,0.0,0.0,0,1013.9,977.3,6,0,5,9,0.7,4.69,5.5,6.4,293,297,16.6,37.7,27.1,22.4,17.8,0.11,0.183,0.243,0.347,1,3600.0,830.8,711.3,119.5,825.7,830.8,1146.0,855.0,732.0,123.0,825.7,855.0,1179.3,Eucalyptus L'Hér.; Magnoliopsida; Tracheophyta
2003,2003-08-12,Porto,Marco de Canaveses,Constance,OUTEIRO,41.2140707,-8.1661393,NC,158.0,2003-08-12T17:00,32.0,53,21.2,35.5,0.0,0.0,0.0,0.0,0,1018.8,1001.0,2,0,4,0,0.38,2.25,6.9,8.0,261,265,26.3,35.5,29.2,23.9,18.7,0.111,0.177,0.246,0.346,1,3600.0,397.4,318.3,79.1,674.9,397.4,628.2,467.0,374.0,93.0,674.9,467.0,738.2,Vitis vinifera L.; Tracheophyta; Pinus pinaster Aiton; Magnoliopsida; Eucalyptus L'Hér.; ; Quercus L.
2003,2003-08-04,Porto,Amarante,Real,REAL,41.2668833,-8.072193852545904,NC,87.0,2003-08-04T15:00,30.9,54,20.6,34.7,0.0,0.0,0.0,0.0,0,1016.1,1006.2,0,0,0,0,0.63,2.04,13.3,17.0,273,274,31.7,33.8,26.2,22.1,18.3,0.143,0.22,0.262,0.353,1,3600.0,779.0,676.2,102.8,865.0,779.0,1038.6,826.0,717.0,109.0,865.0,826.0,1101.3,Magnoliopsida; Tracheophyta; Eucalyptus L'Hér.; Vitis vinifera L.; Pinus pinaster Aiton
2003,2003-08-17,Porto,Santo Tirso,Guimarei,SERRA CANTEIRO,41.2999527,-8.4792107,NC,202.0,2003-08-17T14:00,25.3,52,14.9,25.7,0.0,0.0,0.0,0.0,1,1015.3,992.1,23,0,4,68,0.54,1.54,16.6,20.9,311,312,30.2,29.5,23.3,23.0,18.6,0.141,0.151,0.217,0.346,1,3600.0,759.0,619.2,139.8,738.9,759.0,1118.3,782.0,638.0,144.0,738.9,782.0,1152.2,Pinus pinaster Aiton; Magnoliopsida; Eucalyptus L'Hér.; Vitis vinifera L.; Tracheophyta
2003,2003-08-08,Porto,Baião,Teixeira,PRIEIRA,41.1913256,-7.923788,NC,457.0,2003-08-08T15:00,34.7,23,10.5,34.8,0.7,0.7,0.0,0.0,53,1014.2,964.3,42,0,46,48,0.53,4.27,4.7,5.4,302,307,18.0,35.9,26.9,22.1,17.2,0.131,0.184,0.239,0.351,1,3600.0,602.4,424.5,177.9,550.7,602.4,1025.5,640.0,451.0,189.0,550.7,640.0,1089.5,Magnoliopsida; Tracheophyta; Eucalyptus L'Hér.; Pinus pinaster Aiton; Vitis vinifera L.; Pinales; Quercus L.; 
2003,2003-08-17,Porto,Valongo,Alfena,R.DOS LAVADOUROS,41.2311173,-8.520273,NC,126.0,2003-08-17T15:00,25.6,54,15.5,25.6,0.0,0.0,0.0,0.0,1,1015.2,1000.7,31,0,5,92,0.49,1.51,17.3,22.2,315,317,31.7,30.3,24.3,23.8,19.3,0.13,0.156,0.224,0.344,1,3600.0,644.3,524.1,120.2,699.8,644.3,999.3,686.0,558.0,128.0,699.8,686.0,1063.9,Tracheophyta; Eucalyptus L'Hér.; Magnoliopsida
2003,2003-08-13,Porto,Penafiel,Canelas,Ribeiro do Couco \ RIB,41.0775596,-8.3165006,NC,335.0,2003-08-13T08:00,25.4,73,20.1,29.2,0.0,0.0,0.0,0.0,0,1021.5,983.2,4,0,0,13,0.16,0.89,1.3,1.5,326,14,10.4,26.6,26.5,23.6,18.2,0.119,0.169,0.237,0.343,1,3600.0,334.5,246.4,88.1,582.3,334.5,563.8,262.0,193.0,69.0,582.3,262.0,441.6,Eucalyptus L'Hér.; Magnoliopsida; Tracheophyta
2003,2003-08-17,Porto,Vila Nova de Gaia,Serzedo,R. CHEFE COUTO,41.0956616,-8.6101661,NC,110.0,2003-08-17T15:00,25.2,55,15.5,25.2,0.0,0.0,0.0,0.0,1,1015.2,1002.5,31,0,5,92,0.48,1.44,17.3,22.2,315,317,31.7,29.8,24.2,23.6,19.3,0.14,0.159,0.229,0.351,1,3600.0,644.4,524.2,120.2,698.5,644.4,1001.5,686.0,558.0,128.0,698.5,686.0,1066.1,Tracheophyta; Magnoliopsida; Eucalyptus L'Hér.
2003,2003-08-16,Porto,Marco de Canaveses,Soalhães,Senradelas,41.1718059,-8.0711317,NC,671.0,2003-08-16T13:00,20.6,60,12.4,20.3,0.0,0.0,0.0,0.0,3,1014.2,938.6,100,74,71,0,0.37,0.98,7.8,10.0,283,285,29.2,25.7,22.5,22.5,17.3,0.12,0.159,0.229,0.343,1,3600.0,557.0,366.4,190.7,414.4,557.0,1179.2,558.0,367.0,191.0,414.4,558.0,1181.2,Magnoliopsida; Tracheophyta; Quercus L.; Eucalyptus L'Hér.; Pinus pinaster Aiton; Vitis vinifera L.; Castanea sativa Mill.; Pinales; 
2003,2003-08-12,Porto,Valongo,Alfena,R. Vasco da Gama,41.2448422,-8.5149721,NC,99.0,2003-08-12T13:00,34.7,41,19.5,38.4,0.0,0.0,0.0,0.0,0,1018.3,1007.2,5,0,9,0,0.72,3.27,11.8,14.1,239,238,21.2,37.5,28.4,24.1,18.9,0.106,0.163,0.229,0.347,1,3600.0,857.7,736.7,121.0,824.0,857.7,1190.8,858.0,737.0,121.0,824.0,858.0,1191.3,Eucalyptus L'Hér.; Tracheophyta; Magnoliopsida
2003,2003-08-18,Aveiro,Arouca,Chave,Farrapa,40.8939334,-8.3528106,NC,497.0,2003-08-18T12:00,23.8,51,13.1,25.5,0.0,0.0,0.0,0.0,0,1020.2,963.8,2,2,0,0,0.56,1.44,7.3,8.8,290,289,24.8,28.1,22.3,22.6,18.2,0.136,0.163,0.232,0.341,1,3600.0,873.7,739.1,134.7,844.2,873.7,1168.6,850.0,719.0,131.0,844.2,850.0,1136.9,Pinus pinaster Aiton; Quercus L.; Tracheophyta; Eucalyptus L'Hér.; Magnoliopsida
2003,2003-08-18,Porto,Paços de Ferreira,Figueiró,FIGUEIRÓ,41.3053884,-8.353706,NC,345.0,2003-08-18T18:00,22.7,64,15.6,23.0,0.0,0.0,0.0,0.0,0,1019.4,979.7,0,0,0,0,0.21,0.99,10.9,14.8,297,299,26.3,27.5,23.7,22.3,18.0,0.111,0.164,0.236,0.344,1,3600.0,223.7,171.0,52.8,637.5,223.7,358.0,301.0,230.0,71.0,637.5,301.0,481.7,Tracheophyta; Magnoliopsida; Eucalyptus L'Hér.; Vitis vinifera L.; Pinus pinaster Aiton; 
2003,2003-08-18,Porto,Marco de Canaveses,Soalhães,Lamas,41.1603957,-8.0979057,NC,397.0,2003-08-18T19:00,21.2,68,15.0,21.9,0.0,0.0,0.0,0.0,0,1020.0,974.3,0,0,0,0,0.08,0.81,6.4,11.4,286,288,29.2,25.6,24.0,22.5,18.1,0.115,0.167,0.239,0.343,1,3600.0,49.7,32.0,17.7,366.8,49.7,97.3,115.0,74.0,41.0,438.7,115.0,225.2,Magnoliopsida; Tracheophyta; Quercus L.; Eucalyptus L'Hér.; Pinus pinaster Aiton; Vitis vinifera L.; Castanea sativa Mill.; Pinales; 
2003,2003-08-13,Porto,Paredes,Vilela,Presa \ CAS,41.1529706,-8.643292900814004,NC,69.0,2003-08-13T15:00,29.4,49,17.6,30.5,0.0,0.0,0.0,0.0,1,1021.5,1013.6,23,17,0,26,0.58,2.08,17.8,21.5,317,322,31.3,33.9,27.7,24.2,19.1,0.119,0.163,0.23,0.349,1,3600.0,709.5,560.8,148.7,735.7,709.5,1015.7,754.0,596.0,158.0,735.7,754.0,1079.4,Magnoliopsida; Pinus pinaster Aiton; Eucalyptus L'Hér.; Tracheophyta; Vitis vinifera L.
2003,2003-08-20,Porto,Gondomar,Baguim Do Monte (rio Tinto),Zo. Industrial,41.18562705,-8.5415098,NC,122.0,2003-08-20T06:00,15.9,100,15.9,17.0,0.0,0.0,0.0,0.0,1,1019.1,1004.5,40,45,0,0,0.0,0.01,6.8,11.3,3,9,17.3,18.6,23.2,23.4,19.5,0.122,0.154,0.222,0.343,1,0.0,5.2,0.0,5.2,0.0,0.5,31.5,1.0,0.0,1.0,0.0,1.0,6.0,Magnoliopsida; Tracheophyta
2003,2003-08-13,Viseu,Cinfães,Fornelos,Fundo de Vila \ POV,40.9991296,-8.1678259,NC,281.0,2003-08-13T15:00,31.8,44,18.0,34.2,0.0,0.0,0.0,0.0,0,1021.1,989.5,10,0,0,35,0.61,2.63,11.4,14.5,298,300,28.8,35.8,28.1,23.7,18.2,0.112,0.172,0.242,0.346,1,3600.0,713.7,598.0,115.7,785.8,713.7,1014.0,759.0,636.0,123.0,785.8,759.0,1078.4,Quercus L.; Eucalyptus L'Hér.; Magnoliopsida; Vitis vinifera L.; Tracheophyta; Pinales; 
2003,2003-08-18,Porto,Gondomar,Fânzeres,R.DA FELGA,41.1741636,-8.5344477,NC,115.0,2003-08-18T10:00,21.6,71,16.0,23.2,0.0,0.0,0.0,0.0,2,1020.2,1006.7,68,75,0,2,0.35,0.76,3.8,4.6,311,315,13.3,25.5,23.1,23.7,19.4,0.129,0.156,0.224,0.344,1,3600.0,627.9,475.6,152.3,664.4,627.9,955.5,569.0,431.0,138.0,664.4,569.0,865.9,Tracheophyta; Magnoliopsida
2003,2003-08-16,Porto,Paços de Ferreira,Paços de Ferreira,Via do Poder Local,41.2677178,-8.3690617,NC,298.0,2003-08-16T19:00,19.9,72,14.8,20.4,0.0,0.0,0.0,0.0,1,1014.0,979.5,32,16,30,0,0.07,0.64,7.0,10.0,305,308,18.7,23.6,23.8,23.1,18.1,0.122,0.166,0.238,0.345,1,3600.0,34.1,18.5,15.6,212.0,34.1,114.5,72.0,39.0,33.0,215.2,72.0,241.7,Eucalyptus L'Hér.; Tracheophyta; Magnoliopsida; Pinus pinaster Aiton
2003,2003-08-18,Porto,Penafiel,Recezinhos (são Martinho),FOFO,41.2269782,-8.218782,NC,291.0,2003-08-18T21:00,19.1,85,16.6,20.5,0.0,0.0,0.0,0.0,0,1020.8,986.8,4,4,0,0,0.0,0.32,5.8,8.9,292,302,13.7,22.2,23.8,22.6,18.3,0.127,0.171,0.243,0.344,0,0.0,0.0,0.0,0.0,0.0,0.0,0.0,0.0,0.0,0.0,0.0,0.0,0.0,Eucalyptus L'Hér.; Magnoliopsida; Vitis vinifera L.; Tracheophyta; Quercus L.
2003,2003-08-17,Porto,Paços de Ferreira,Carvalhosa,ABELHEIRA,41.2999643,-8.3625207,NC,331.0,2003-08-17T15:00,24.6,52,14.0,24.3,0.0,0.0,0.0,0.0,1,1015.1,977.4,34,6,9,78,0.45,1.49,13.7,17.5,305,307,30.2,29.2,23.1,22.6,18.0,0.117,0.165,0.238,0.344,1,3600.0,594.4,464.8,129.6,621.7,594.4,997.6,633.0,495.0,138.0,621.7,633.0,1062.4,Tracheophyta; Eucalyptus L'Hér.; Pinus pinaster Aiton; Magnoliopsida; Vitis vinifera L.; Quercus L.; 
2003,2003-08-08,Porto,Marco de Canaveses,Soalhães,ABELHA,41.1603957,-8.0979057,NC,397.0,2003-08-08T17:00,34.5,25,11.4,34.1,0.0,0.0,0.0,0.0,1,1014.1,970.5,31,0,29,46,0.35,4.11,5.8,7.2,270,270,17.3,34.9,27.3,21.9,17.1,0.108,0.191,0.251,0.35,1,3600.0,334.9,246.9,88.0,511.5,334.9,642.3,392.0,289.0,103.0,511.5,392.0,751.7,Magnoliopsida; Tracheophyta; Quercus L.; Eucalyptus L'Hér.; Pinus pinaster Aiton; Vitis vinifera L.; Castanea sativa Mill.; Pinales; 
2003,2003-08-19,Porto,Lousada,Barrosas (santo Estêvão),SRA.PADRÃO,41.3324072,-8.2777204,NC,354.0,2003-08-19T14:00,25.0,51,14.1,26.6,0.0,0.0,0.0,0.0,0,1019.3,978.9,2,2,0,0,0.58,1.57,11.0,13.5,302,304,27.7,30.8,23.0,22.2,18.1,0.108,0.164,0.238,0.343,1,3600.0,840.6,724.3,116.3,871.6,840.6,1109.6,867.0,747.0,120.0,871.6,867.0,1144.5,Magnoliopsida; Eucalyptus L'Hér.; Quercus L.; Tracheophyta
2003,2003-08-17,Porto,Valongo,Alfena,Ic24,41.22144345,-8.47176603571262,NC,183.0,2003-08-17T12:00,24.7,58,16.0,26.4,0.0,0.0,0.0,0.0,0,1015.6,994.5,2,0,3,0,0.49,1.29,9.9,11.9,303,305,22.7,28.8,23.1,23.4,18.9,0.132,0.156,0.224,0.345,1,3600.0,754.7,620.0,134.7,708.8,754.7,1167.3,734.0,603.0,131.0,708.8,734.0,1135.2,Magnoliopsida; Eucalyptus L'Hér.; Tracheophyta; Pinus pinaster Aiton
2003,2003-08-08,Porto,Penafiel,Croca,CASTRO,41.2204491,-8.2390371,NC,360.0,2003-08-08T17:00,34.8,31,15.4,35.9,0.0,0.0,0.0,0.0,0,1013.3,973.8,16,0,13,27,0.36,3.81,5.1,6.6,278,279,13.7,34.0,26.8,21.5,16.9,0.121,0.197,0.255,0.35,1,3600.0,357.5,268.5,88.9,554.4,357.5,644.3,418.0,314.0,104.0,554.4,418.0,753.4,Magnoliopsida; Eucalyptus L'Hér.; Vitis vinifera L.; Tracheophyta
2003,2003-08-04,Porto,Paços de Ferreira,Meixomil,LAMA,41.2842631,-8.3921962,NC,286.0,2003-08-04T13:00,28.9,55,18.9,32.9,0.0,0.0,0.0,0.0,0,1016.0,983.8,0,0,0,0,0.66,1.79,9.8,12.0,242,237,26.3,32.3,24.3,20.9,17.1,0.12,0.207,0.255,0.353,1,3600.0,923.8,810.9,113.0,890.7,923.8,1209.6,924.0,811.0,113.0,890.7,924.0,1209.8,Eucalyptus L'Hér.; Quercus L.; Tracheophyta; Magnoliopsida; Pinus pinaster Aiton; 
2003,2003-08-08,Porto,Paços de Ferreira,Penamaior,STª MARINHA,41.2748931,-8.4134869,NC,345.0,2003-08-08T19:00,31.1,43,17.2,32.9,0.0,0.0,0.0,0.0,0,1013.9,975.5,16,0,13,29,0.13,2.56,5.2,5.9,304,317,12.2,31.7,27.6,21.7,17.1,0.11,0.186,0.248,0.35,1,3600.0,67.7,41.6,26.1,354.2,67.7,156.2,122.0,75.0,47.0,354.2,122.0,281.7,Magnoliopsida; Eucalyptus L'Hér.; Tracheophyta; Vitis vinifera L.; 
2003,2003-08-04,Porto,Paços de Ferreira,Meixomil,SOBRAO PEQUENO,41.2842631,-8.3921962,NC,286.0,2003-08-04T17:00,26.7,60,18.4,28.5,0.0,0.0,0.0,0.0,0,1016.6,984.1,0,0,0,0,0.38,1.39,8.7,10.6,287,288,28.4,31.3,25.4,21.0,17.1,0.117,0.205,0.254,0.353,1,3600.0,460.7,382.5,78.2,768.9,460.7,661.0,536.0,445.0,91.0,768.9,536.0,769.0,Eucalyptus L'Hér.; Quercus L.; Tracheophyta; Magnoliopsida; Pinus pinaster Aiton; 
2003,2003-08-04,Porto,Penafiel,Portela,JUGUEIROS,41.1077057,-8.2950347,NC,181.0,2003-08-04T23:00,22.4,79,18.6,24.9,0.0,0.0,0.0,0.0,0,1018.0,997.0,0,0,0,0,0.0,0.57,5.4,8.5,20,28,13.0,22.7,25.7,21.7,17.8,0.135,0.214,0.259,0.352,0,0.0,0.0,0.0,0.0,0.0,0.0,0.0,0.0,0.0,0.0,0.0,0.0,0.0,Tracheophyta; Vitis vinifera L.; Magnoliopsida; Eucalyptus L'Hér.
2003,2003-08-20,Porto,Santo Tirso,Roriz,Cartomil,41.3515405,-8.3829071,NC,220.0,2003-08-20T20:00,21.7,71,16.3,22.9,0.0,0.0,0.0,0.0,0,1015.3,989.8,0,0,0,0,0.04,0.74,6.4,11.2,286,315,18.4,24.5,24.2,22.4,18.6,0.115,0.165,0.236,0.343,0,0.0,0.0,0.0,0.0,0.0,0.0,0.0,6.0,2.0,4.0,28.4,6.0,35.7,Magnoliopsida; Tracheophyta; Vitis vinifera L.; Quercus suber L.
2003,2003-08-20,Porto,Valongo,Ermesinde,R. MARGINAL,41.2114656,-8.528286446167854,NC,155.0,2003-08-20T22:00,20.3,84,17.5,22.9,0.0,0.0,0.0,0.0,0,1016.0,997.9,0,0,0,0,0.0,0.39,0.8,1.9,243,338,10.4,22.0,24.6,23.1,19.3,0.118,0.152,0.221,0.343,0,0.0,0.0,0.0,0.0,0.0,0.0,0.0,0.0,0.0,0.0,0.0,0.0,0.0,Magnoliopsida; Pinus pinaster Aiton; Eucalyptus L'Hér.; Tracheophyta
2003,2003-08-18,Porto,Maia,Barca,R. Fonte da Cova,41.2478094,-8.6109778,NC,83.0,2003-08-18T19:00,21.9,78,17.9,23.1,0.0,0.0,0.0,0.0,0,1020.0,1010.3,0,0,0,0,0.08,0.57,11.4,16.0,305,306,25.9,26.2,24.8,23.5,19.5,0.136,0.157,0.226,0.347,1,3600.0,52.8,32.8,20.0,375.8,52.8,106.7,116.0,72.0,44.0,410.0,116.0,234.4,Tracheophyta; Pinus pinaster Aiton; Eucalyptus L'Hér.
2003,2003-08-19,Porto,Marco de Canaveses,Vila Boa de Quires,Quires,41.2028475,-8.2047635,NC,275.0,2003-08-19T21:00,19.0,82,15.9,20.1,0.0,0.0,0.0,0.0,0,1020.3,988.1,1,1,0,0,0.0,0.39,6.2,9.1,280,304,15.1,22.3,24.0,22.6,18.5,0.123,0.17,0.242,0.344,0,0.0,0.0,0.0,0.0,0.0,0.0,0.0,0.0,0.0,0.0,0.0,0.0,0.0,Pinus pinaster Aiton; Tracheophyta; Eucalyptus L'Hér.; Magnoliopsida; Vitis vinifera L.; Quercus L.; Pinales; 
2003,2003-08-08,Porto,Paços de Ferreira,Eiriz,VARZEA,41.3049149,-8.3821976,NC,329.0,2003-08-08T19:00,31.2,43,17.3,33.0,0.0,0.0,0.0,0.0,0,1013.9,977.3,16,0,13,29,0.13,2.58,5.2,5.9,304,317,12.2,31.8,27.7,21.8,17.2,0.11,0.186,0.248,0.35,1,3600.0,67.7,41.6,26.1,354.2,67.7,156.2,122.0,75.0,47.0,354.2,122.0,281.7,Tracheophyta; Eucalyptus L'Hér.; Magnoliopsida; ; Pinus pinaster Aiton; Quercus L.
2003,2003-08-19,Porto,Paços de Ferreira,Meixomil,CENTENÁRIO,41.2842631,-8.3921962,NC,286.0,2003-08-19T21:00,19.1,82,16.0,20.3,0.0,0.0,0.0,0.0,0,1020.3,986.9,1,1,0,0,0.0,0.39,6.2,9.1,280,304,15.1,22.5,24.1,22.6,18.5,0.107,0.162,0.236,0.343,0,0.0,0.0,0.0,0.0,0.0,0.0,0.0,0.0,0.0,0.0,0.0,0.0,0.0,Eucalyptus L'Hér.; Quercus L.; Tracheophyta; Magnoliopsida; Pinus pinaster Aiton; 
2003,2003-08-19,Porto,Paredes,Baltar,ALTO TRIGAIS,41.1884484,-8.3735374,NC,300.0,2003-08-19T15:00,24.7,51,14.0,25.5,0.0,0.0,0.0,0.0,0,1019.2,984.8,0,0,0,0,0.53,1.52,12.7,16.0,305,306,29.2,30.0,23.4,22.2,18.2,0.141,0.148,0.212,0.346,1,3600.0,741.7,642.3,99.4,867.2,741.7,989.2,791.0,685.0,106.0,867.2,791.0,1054.9,Magnoliopsida; Pinus pinaster Aiton; Eucalyptus L'Hér.; Tracheophyta; Vitis vinifera L.
2003,2003-08-17,Porto,Vila Nova de Gaia,Vilar do Paraíso,TRAV. DA TELHEIRA,41.1131566,-8.598445,NC,201.0,2003-08-17T15:00,25.1,54,15.0,24.9,0.0,0.0,0.0,0.0,1,1015.5,992.4,44,10,14,88,0.49,1.47,18.4,23.5,318,320,36.0,29.8,23.8,23.3,18.8,0.13,0.156,0.224,0.344,1,3600.0,662.1,550.3,111.8,734.2,662.1,1000.2,705.0,586.0,119.0,734.2,705.0,1065.0,Magnoliopsida; Tracheophyta; Pinus pinaster Aiton; Pinus pinea L.
2003,2003-08-19,Porto,Marco de Canaveses,Alpendurada e Matos,MATOS,41.06780035,-8.27659524137066,NC,27.0,2003-08-19T17:00,24.8,57,15.6,24.0,0.0,0.0,0.0,0.0,0,1019.3,1016.2,0,0,0,0,0.36,1.35,18.6,24.6,319,322,33.8,30.2,25.6,24.1,20.1,0.129,0.156,0.224,0.344,1,3600.0,411.0,338.6,72.4,757.2,411.0,597.2,488.0,402.0,86.0,757.2,488.0,709.1,Pinus pinaster Aiton; Magnoliopsida; Quercus L.
2003,2003-08-17,Porto,Vila do Conde,Macieira da Maia,Lug. da Parradela,41.339307000000005,-8.676686537076645,NC,59.0,2003-08-17T20:00,19.4,85,16.8,19.5,0.0,0.0,0.0,0.0,0,1016.6,1009.6,11,2,0,31,0.04,0.34,15.9,21.8,321,322,32.0,23.6,24.7,23.7,19.3,0.11,0.162,0.239,0.345,0,0.0,0.0,0.0,0.0,0.0,0.0,0.0,9.0,3.0,6.0,38.1,9.0,46.8,Eucalyptus L'Hér.; Magnoliopsida
2003,2003-08-18,Porto,Paços de Ferreira,Ferreira,BARRIMAU,41.2648221,-8.343541843352098,NC,336.0,2003-08-18T13:00,24.3,54,14.5,26.4,0.0,0.0,0.0,0.0,0,1019.7,981.2,7,6,0,6,0.58,1.39,9.3,11.1,283,283,26.3,29.7,22.7,22.5,18.1,0.114,0.166,0.239,0.344,1,3600.0,878.9,742.1,136.8,844.6,878.9,1172.8,880.0,743.0,137.0,844.6,880.0,1174.3,Eucalyptus L'Hér.; Tracheophyta; Magnoliopsida; Quercus L.; Pinus pinaster Aiton; 
2003,2003-08-18,Porto,Paredes,Astromil,IGREJA,41.1981228,-8.4195664,NC,200.0,2003-08-18T13:00,24.7,56,15.2,26.7,0.0,0.0,0.0,0.0,0,1019.9,996.8,5,1,0,15,0.57,1.38,10.4,12.1,290,293,23.4,29.7,23.3,23.0,18.8,0.145,0.149,0.213,0.346,1,3600.0,852.0,711.1,140.8,809.4,852.0,1172.8,853.0,712.0,141.0,809.4,853.0,1174.3,Magnoliopsida; Pinus pinaster Aiton; Eucalyptus L'Hér.; Tracheophyta; Vitis vinifera L.
2003,2003-08-21,Porto,Amarante,Telões,Penedo,41.3096543,-8.1007731,NC,242.0,2003-08-21T11:00,27.3,48,15.4,29.1,0.0,0.0,0.0,0.0,0,1013.8,986.4,0,0,0,0,0.54,1.89,8.8,11.7,78,79,24.8,28.2,22.7,22.5,18.8,0.118,0.168,0.241,0.343,1,3600.0,802.2,690.8,111.4,853.1,802.2,1082.1,756.0,651.0,105.0,853.1,756.0,1019.8,Magnoliopsida; Pinus pinaster Aiton; Tracheophyta; Vitis vinifera L.; Eucalyptus L'Hér.; 
2003,2003-08-21,Porto,Penafiel,Galegos,GALEGOS,41.16163375,-8.314175988845378,NC,221.0,2003-08-21T12:00,28.9,45,15.6,31.5,0.0,0.0,0.0,0.0,0,1013.4,988.4,0,0,0,0,0.62,2.2,7.2,9.4,84,86,23.4,30.5,23.1,22.6,18.9,0.125,0.158,0.228,0.343,1,3600.0,869.7,757.6,112.0,875.7,869.7,1156.3,846.0,737.0,109.0,875.7,846.0,1124.8,Eucalyptus L'Hér.; Tracheophyta
2003,2003-08-18,Porto,Felgueiras,Jugueiros,TRAVANCAS,41.4013104,-8.2104389,NC,157.0,2003-08-18T14:00,25.9,52,15.2,27.7,0.0,0.0,0.0,0.0,1,1019.7,1001.6,20,0,0,67,0.57,1.62,11.0,13.4,281,284,27.7,31.5,24.0,23.5,19.2,0.114,0.16,0.231,0.341,1,3600.0,806.9,676.9,130.0,812.2,806.9,1112.6,832.0,698.0,134.0,812.2,832.0,1147.2,Pinus pinaster Aiton; Eucalyptus L'Hér.; Tracheophyta; Magnoliopsida
2003,2003-08-18,Porto,Valongo,Alfena,R. da Calada,41.22144345,-8.47176603571262,NC,183.0,2003-08-18T02:00,16.6,98,16.4,18.3,0.0,0.0,0.0,0.0,2,1017.9,996.2,67,74,0,0,0.0,0.03,3.9,4.8,304,312,13.0,19.4,23.4,23.3,18.9,0.129,0.156,0.224,0.344,0,0.0,0.0,0.0,0.0,0.0,0.0,0.0,0.0,0.0,0.0,0.0,0.0,0.0,Magnoliopsida; Eucalyptus L'Hér.; Tracheophyta; Pinus pinaster Aiton
2003,2003-08-19,Porto,Lousada,Nogueira,COUTADA,41.2852099,-8.2639497,NC,262.0,2003-08-19T20:00,20.3,76,16.0,21.5,0.0,0.0,0.0,0.0,0,1019.5,989.0,0,0,0,0,0.03,0.56,5.8,13.8,292,303,21.2,24.3,24.6,22.8,18.7,0.107,0.164,0.238,0.343,0,0.0,0.0,0.0,0.0,0.0,0.0,0.0,6.0,2.0,4.0,27.9,6.0,37.3,Magnoliopsida; Eucalyptus L'Hér.; Tracheophyta; Pinus pinaster Aiton; ; Vitis vinifera L.
2003,2003-08-18,Porto,Paredes,Beire,SILVEIRAS,41.2451216,-8.3240436,NC,192.0,2003-08-18T14:00,25.4,52,15.0,27.4,0.0,0.0,0.0,0.0,0,1019.5,997.4,7,0,0,23,0.59,1.54,10.5,13.2,286,287,28.4,30.4,23.6,23.1,18.8,0.136,0.162,0.231,0.345,1,3600.0,842.0,732.4,109.6,877.1,842.0,1114.6,868.0,755.0,113.0,877.1,868.0,1149.1,Magnoliopsida; Pinus pinaster Aiton; Eucalyptus L'Hér.; Tracheophyta; Vitis vinifera L.
2003,2003-08-08,Porto,Marco de Canaveses,Magrelos,ALDEIA,41.0847078,-8.2198565,NC,101.0,2003-08-08T21:00,31.2,50,19.6,34.0,0.0,0.0,0.0,0.0,0,1013.6,1002.2,5,0,8,0,0.05,2.26,6.0,12.1,25,30,14.4,29.4,28.9,23.3,18.7,0.117,0.192,0.252,0.349,0,0.0,0.0,0.0,0.0,0.0,0.0,0.0,0.0,0.0,0.0,0.0,0.0,0.0,Magnoliopsida; Quercus L.; Pinus pinaster Aiton; Tracheophyta
2003,2003-08-19,Porto,Trofa,Guidões,LG. BICHO,41.3228987,-8.6209065,NC,57.0,2003-08-19T12:00,24.4,57,15.2,26.2,0.0,0.0,0.0,0.0,1,1020.2,1013.5,25,28,0,0,0.55,1.32,10.7,12.8,318,322,22.7,28.7,23.7,23.6,19.6,0.12,0.155,0.227,0.345,1,3600.0,861.9,720.0,141.9,828.7,861.9,1160.2,838.0,700.0,138.0,828.7,838.0,1128.0,Pinus pinaster Aiton; Eucalyptus L'Hér.; Tracheophyta; Magnoliopsida
2003,2003-08-20,Porto,Penafiel,Duas Igrejas,CASTANHEIRA DE BAIXO,41.1864654,-8.2690378,NC,403.0,2003-08-20T12:00,24.7,52,14.1,27.0,0.0,0.0,0.0,0.0,0,1018.2,972.4,1,1,0,0,0.58,1.5,6.6,7.8,292,292,22.3,29.6,22.2,21.9,17.9,0.103,0.164,0.238,0.343,1,3600.0,889.8,777.8,112.0,895.6,889.8,1160.1,866.0,757.0,109.0,895.6,866.0,1129.1,Eucalyptus L'Hér.; Tracheophyta; Magnoliopsida
2003,2003-08-18,Porto,Felgueiras,Friande,VILARINHO,41.3700363,-8.1792832,NC,364.0,2003-08-18T19:00,21.5,67,15.2,22.0,0.0,0.0,0.0,0.0,0,1020.0,978.0,0,0,0,0,0.09,0.84,8.4,13.0,295,298,25.6,25.9,24.0,22.4,18.1,0.115,0.158,0.228,0.34,1,3600.0,50.7,31.9,18.8,366.2,50.7,99.1,116.0,73.0,43.0,430.2,116.0,226.6,Vitis vinifera L.; Tracheophyta; Pinus pinaster Aiton; Eucalyptus L'Hér.; Magnoliopsida
2003,2003-08-19,Porto,Maia,Águas Santas,R. da Igreja,41.206992,-8.5670816,NC,138.0,2003-08-19T23:00,18.6,90,16.9,19.7,0.0,0.0,0.0,0.0,0,1020.2,1003.9,0,0,0,0,0.0,0.22,9.2,14.0,321,331,19.4,21.2,23.9,23.0,19.2,0.134,0.156,0.225,0.346,0,0.0,0.0,0.0,0.0,0.0,0.0,0.0,0.0,0.0,0.0,0.0,0.0,0.0,Tracheophyta; Pinus pinaster Aiton; Magnoliopsida; Eucalyptus L'Hér.; 
2003,2003-08-20,Porto,Paredes,Parada de Todeia,APEADEIRO,41.1600948,-8.3729706,NC,127.0,2003-08-20T14:00,27.0,50,15.7,28.8,0.0,0.0,0.0,0.0,0,1017.1,1002.5,0,0,0,0,0.61,1.78,13.2,16.1,305,309,28.1,31.8,24.2,23.3,19.4,0.137,0.147,0.211,0.345,1,3600.0,850.2,743.6,106.6,896.6,850.2,1108.0,877.0,767.0,110.0,896.6,877.0,1142.9,Magnoliopsida; Pinus pinaster Aiton; Eucalyptus L'Hér.; Tracheophyta; Vitis vinifera L.
2003,2003-08-18,Porto,Paredes,Vandoma,Coval,41.203628,-8.3973416,NC,425.0,2003-08-18T17:00,23.4,56,14.3,23.0,0.0,0.0,0.0,0.0,0,1019.8,971.3,0,0,0,0,0.33,1.26,12.4,16.5,306,306,31.7,28.7,23.2,21.9,17.5,0.111,0.165,0.239,0.343,1,3600.0,412.4,336.5,75.9,748.3,412.4,600.3,489.0,399.0,90.0,748.3,489.0,711.8,Magnoliopsida; Pinus pinaster Aiton; Eucalyptus L'Hér.; Tracheophyta; Vitis vinifera L.
2003,2003-08-18,Porto,Felgueiras,Macieira da Lixa,PASSARIAS,41.3473984,-8.1441769,NC,375.0,2003-08-18T08:00,17.1,86,14.6,18.3,0.0,0.0,0.0,0.0,3,1019.6,975.8,84,93,0,0,0.12,0.28,1.9,2.2,158,171,11.5,20.0,21.8,22.7,18.1,0.117,0.168,0.24,0.344,1,3600.0,306.4,206.0,100.4,501.0,306.4,548.8,238.0,160.0,78.0,501.0,238.0,426.3,Eucalyptus L'Hér.; Tracheophyta; Pinus pinaster Aiton; Magnoliopsida
2003,2003-08-18,Porto,Vila do Conde,Tougues,R. CARVALHAL,41.3609502,-8.7002432,NC,41.0,2003-08-18T16:00,24.7,61,16.7,25.6,0.0,0.0,0.0,0.0,0,1019.7,1014.9,4,1,0,12,0.43,1.22,13.4,16.5,290,293,25.6,30.6,24.4,23.4,19.4,0.105,0.154,0.229,0.341,1,3600.0,575.5,470.1,105.4,763.3,575.5,822.2,639.0,522.0,117.0,763.3,639.0,913.0,Tracheophyta; Eucalyptus L'Hér.
2003,2003-08-13,Porto,Paços de Ferreira,Sanfins de Ferreira,COMIEIRA,41.3266496,-8.3721821,NC,434.0,2003-08-13T13:00,29.9,48,17.8,33.1,0.0,0.0,0.0,0.0,0,1021.9,973.3,6,0,0,21,0.66,2.18,10.9,13.7,304,305,32.0,34.2,26.2,22.4,17.0,0.101,0.173,0.243,0.346,1,3600.0,889.2,764.3,124.9,857.9,889.2,1187.0,890.0,765.0,125.0,857.9,890.0,1188.1,Magnoliopsida; Eucalyptus L'Hér.; Tracheophyta; Pinus pinaster Aiton
2003,2003-08-21,Porto,Santo Tirso,Monte Córdova,Lg. do Agrelo,41.3164414,-8.4320306,NC,357.0,2003-08-21T11:00,26.4,48,14.4,28.0,0.0,0.0,0.0,0.0,0,1014.0,973.7,0,0,0,0,0.53,1.8,8.0,10.6,82,80,22.3,28.4,22.2,21.9,18.1,0.103,0.161,0.234,0.342,1,3600.0,803.5,693.1,110.4,856.7,803.5,1081.2,757.0,653.0,104.0,856.7,757.0,1018.6,Tracheophyta; Vitis vinifera L.; Eucalyptus L'Hér.; Pinus pinaster Aiton; Magnoliopsida
2003,2003-08-20,Porto,Felgueiras,Varziela,MOUXINHOS,41.3492415,-8.2159638,NC,321.0,2003-08-20T17:00,25.9,50,14.7,25.6,0.0,0.0,0.0,0.0,0,1015.8,979.3,0,0,0,0,0.36,1.66,12.6,16.4,301,303,30.2,30.9,24.4,22.5,18.5,0.1,0.163,0.237,0.342,1,3600.0,412.8,338.0,74.8,765.2,412.8,590.1,491.0,402.0,89.0,765.2,491.0,701.8,Tracheophyta; Magnoliopsida; Vitis vinifera L.
2003,2003-08-04,Porto,Vila Nova de Gaia,São Félix Da Marinha,R. VELHA CALÇADA ROMANA,41.0305323,-8.6290322,NC,26.0,2003-08-04T07:00,20.4,93,19.3,23.4,0.0,0.0,0.0,0.0,1,1015.6,1012.5,31,34,0,0,0.05,0.17,3.3,7.6,193,183,9.0,21.7,25.2,22.7,18.9,0.113,0.153,0.203,0.325,1,3524.7,156.3,88.4,67.9,344.6,154.5,340.9,99.0,56.0,43.0,340.5,99.0,215.9,Eucalyptus L'Hér.; Magnoliopsida; Tracheophyta; Pinales; Pinus pinaster Aiton
2003,2003-08-20,Porto,Marco de Canaveses,Soalhães,TELHE,41.1603957,-8.0979057,NC,397.0,2003-08-20T18:00,24.3,55,14.8,24.3,0.0,0.0,0.0,0.0,0,1015.5,970.4,0,0,0,0,0.22,1.35,11.0,15.1,293,295,31.3,28.7,24.2,22.2,18.2,0.107,0.164,0.237,0.342,1,3600.0,216.9,166.4,50.6,650.2,216.9,341.9,296.0,227.0,69.0,650.2,296.0,466.4,Magnoliopsida; Tracheophyta; Quercus L.; Eucalyptus L'Hér.; Pinus pinaster Aiton; Vitis vinifera L.; Castanea sativa Mill.; Pinales; 
2003,2003-08-20,Porto,Penafiel,Galegos,OUTEIRO,41.1604125,-8.3114028,NC,229.0,2003-08-20T15:00,26.7,48,14.8,28.1,0.0,0.0,0.0,0.0,0,1016.5,990.4,0,0,0,0,0.56,1.82,11.1,13.8,295,298,28.8,31.3,23.8,22.6,18.8,0.127,0.159,0.228,0.344,1,3600.0,748.2,650.7,97.5,881.3,748.2,986.4,798.0,694.0,104.0,881.3,798.0,1052.0,Eucalyptus L'Hér.; Tracheophyta
2003,2003-08-06,Porto,Amarante,Gatão,Igreja \ POV,41.2915468,-8.0691688,NC,173.0,2003-08-06T12:00,34.9,35,17.2,38.8,0.0,0.0,0.0,0.0,0,1018.4,999.1,3,0,5,0,0.69,3.63,5.0,6.5,90,90,20.2,33.1,25.3,22.0,17.9,0.132,0.211,0.26,0.352,1,3600.0,900.7,790.8,109.9,879.4,900.7,1195.5,877.0,770.0,107.0,879.4,877.0,1164.0,Magnoliopsida; Tracheophyta
2003,2003-08-20,Porto,Gondomar,Baguim Do Monte (rio Tinto),R. da Primavéra,41.1962931,-8.5391932,NC,140.0,2003-08-20T01:00,17.6,95,16.8,18.7,0.0,0.0,0.0,0.0,0,1019.7,1003.1,4,4,0,0,0.0,0.1,8.4,13.7,335,337,16.9,20.1,24.1,23.3,19.4,0.122,0.154,0.222,0.343,0,0.0,0.0,0.0,0.0,0.0,0.0,0.0,0.0,0.0,0.0,0.0,0.0,0.0,Tracheophyta; Eucalyptus L'Hér.; Magnoliopsida
2003,2003-08-20,Porto,Vila do Conde,Azurara,Monte Santana,41.3455324,-8.7344345,NC,32.0,2003-08-20T13:00,25.4,56,16.1,27.0,0.0,0.0,0.0,0.0,0,1017.9,1014.2,0,0,0,0,0.59,1.42,15.8,19.4,313,320,31.0,30.7,23.8,23.4,19.7,0.101,0.16,0.237,0.344,1,3600.0,890.2,772.3,117.9,885.5,890.2,1165.1,891.0,773.0,118.0,885.5,891.0,1166.2,Tracheophyta; Eucalyptus L'Hér.
2003,2003-08-20,Porto,Santo Tirso,Negrelos (são Tomé),L.Mourinha,41.3488993,-8.403043,NC,145.0,2003-08-20T15:00,26.5,50,15.3,27.4,0.0,0.0,0.0,0.0,0,1016.7,1000.1,0,0,0,0,0.56,1.73,15.3,19.1,309,313,31.0,31.0,23.8,22.7,18.9,0.127,0.152,0.218,0.344,1,3600.0,748.3,650.8,97.5,882.7,748.3,984.9,798.0,694.0,104.0,882.7,798.0,1050.3,Magnoliopsida; Tracheophyta; Vitis vinifera L.; Quercus suber L.
2003,2003-08-22,Porto,Paredes,Vilela,VALCISÃO,41.2123637,-8.347580212435714,NC,191.0,2003-08-22T01:00,21.0,85,18.5,23.3,0.0,0.0,0.0,0.0,0,1012.9,990.7,6,0,10,0,0.0,0.36,5.9,8.3,101,85,11.9,22.0,24.9,22.8,19.1,0.123,0.157,0.227,0.343,0,0.0,0.0,0.0,0.0,0.0,0.0,0.0,0.0,0.0,0.0,0.0,0.0,0.0,Magnoliopsida; Pinus pinaster Aiton; Eucalyptus L'Hér.; Tracheophyta; Vitis vinifera L.; Quercus L.
2003,2003-08-06,Porto,Paços de Ferreira,Lamoso,Cavaleiros,41.3184642,-8.3603436,NC,373.0,2003-08-06T16:00,34.9,29,14.4,35.6,0.0,0.0,0.0,0.0,0,1017.0,975.9,2,0,0,8,0.58,3.96,9.7,13.0,315,318,19.8,35.4,25.7,20.9,16.8,0.106,0.199,0.254,0.351,1,3600.0,607.5,504.1,103.4,776.3,607.5,863.3,670.0,556.0,114.0,776.3,670.0,952.2,Magnoliopsida; Eucalyptus L'Hér.; Pinus pinaster Aiton; Tracheophyta; Quercus suber L.; 
2003,2003-08-22,Porto,Felgueiras,Pinheiro,PEDRE,41.3684352,-8.152882,NC,497.0,2003-08-22T14:00,29.8,35,12.6,30.9,0.0,0.0,0.0,0.0,0,1013.6,958.6,14,0,15,16,0.53,2.73,4.3,5.1,312,315,18.7,33.2,24.0,21.7,17.8,0.1,0.15,0.222,0.337,1,3600.0,678.8,499.6,179.1,609.5,678.8,1096.0,701.0,516.0,185.0,609.5,701.0,1131.9,Pinus pinaster Aiton; Tracheophyta; Magnoliopsida; Vitis vinifera L.; Eucalyptus L'Hér.
2003,2003-08-22,Porto,Paços de Ferreira,Modelos,BAIXA,41.2540986,-8.3854264,NC,292.0,2003-08-22T15:00,29.8,42,15.4,31.1,0.0,0.0,0.0,0.0,0,1013.4,980.7,20,0,9,48,0.48,2.45,6.8,8.4,273,277,20.2,34.0,25.0,22.4,18.7,0.099,0.159,0.232,0.341,1,3600.0,583.6,401.8,181.7,549.8,583.6,977.3,623.0,429.0,194.0,549.8,623.0,1043.4,Tracheophyta; Magnoliopsida; Vitis vinifera L.; Eucalyptus L'Hér.
2003,2003-08-14,Porto,Paredes,Rebordosa,R IGREJA,41.2232781,-8.4052398,NC,213.0,2003-08-14T02:00,19.7,91,18.2,21.7,0.0,0.0,0.0,0.0,1,1020.6,995.6,47,52,0,0,0.0,0.21,6.9,10.0,351,347,16.2,21.8,26.8,23.6,18.3,0.127,0.154,0.217,0.348,0,0.0,0.0,0.0,0.0,0.0,0.0,0.0,0.0,0.0,0.0,0.0,0.0,0.0,Magnoliopsida; Pinus pinaster Aiton; Eucalyptus L'Hér.; Tracheophyta; Vitis vinifera L.
2003,2003-08-14,Porto,Lousada,Meinedo,MANINHO,41.2560033,-8.2521656,NC,177.0,2003-08-14T12:00,27.4,48,15.6,29.4,0.0,0.0,0.0,0.0,1,1020.8,1000.5,25,0,0,82,0.61,1.88,11.3,13.9,292,295,28.4,31.1,25.6,23.6,18.4,0.116,0.174,0.241,0.347,1,3600.0,876.6,709.1,167.5,803.4,876.6,1176.4,853.0,690.0,163.0,803.4,853.0,1144.7,Magnoliopsida; Tracheophyta; Vitis vinifera L.
2003,2003-08-19,Porto,Felgueiras,Pinheiro,ORO,41.3684352,-8.152882,NC,497.0,2003-08-19T14:00,25.1,47,12.9,26.5,0.0,0.0,0.0,0.0,0,1019.2,963.1,2,2,0,0,0.59,1.7,9.4,11.8,288,290,29.2,30.9,22.7,21.9,17.6,0.11,0.154,0.225,0.339,1,3600.0,841.2,724.9,116.3,874.1,841.2,1107.4,868.0,748.0,120.0,874.1,868.0,1142.7,Pinus pinaster Aiton; Tracheophyta; Magnoliopsida; Vitis vinifera L.; Eucalyptus L'Hér.
2003,2003-08-08,Porto,Gondomar,Foz do Sousa,Rua de Cerquido,41.103053,-8.4818908,NC,66.0,2003-08-08T08:00,28.7,54,18.4,31.2,0.0,0.0,0.0,0.0,0,1013.0,1005.5,3,0,5,0,0.2,1.82,4.4,11.0,99,109,13.7,26.4,26.8,23.2,18.8,0.127,0.169,0.226,0.352,1,3600.0,347.4,262.4,84.9,607.3,347.4,574.8,274.0,207.0,67.0,607.3,274.0,453.4,Eucalyptus L'Hér.; Pinus pinaster Aiton; Magnoliopsida; Tracheophyta
2003,2003-08-19,Porto,Gondomar,São Pedro da Cova,R. COSTA VERDE,41.1618006,-8.5167083,NC,172.0,2003-08-19T15:00,25.0,53,14.7,25.2,0.0,0.0,0.0,0.0,0,1019.5,999.6,0,0,0,0,0.53,1.5,17.6,22.2,316,318,31.0,30.7,24.2,23.1,19.1,0.123,0.154,0.222,0.343,1,3600.0,738.5,640.9,97.6,862.9,738.5,991.8,787.0,683.0,104.0,862.9,787.0,1057.0,Tracheophyta; Magnoliopsida; Eucalyptus L'Hér.
2003,2003-08-20,Porto,Baião,Ancede,Canastrez,41.1046709,-8.0614156,NC,328.0,2003-08-20T13:00,26.5,47,14.3,29.0,0.0,0.0,0.0,0.0,0,1017.4,980.2,0,0,0,0,0.63,1.84,7.3,8.4,281,280,23.4,31.6,23.3,22.7,18.7,0.109,0.165,0.238,0.342,1,3600.0,902.4,791.6,110.8,905.8,902.4,1167.5,904.0,793.0,111.0,905.8,904.0,1169.6,Magnoliopsida; Pinus pinaster Aiton; Tracheophyta; Vitis vinifera L.; Quercus suber L.; Acacia Mill.; Eucalyptus L'Hér.; Quercus L.; 
2003,2003-08-19,Porto,Paredes,Lordelo,RIBEIRA,41.2544201,-8.41146,NC,269.0,2003-08-19T18:00,22.8,61,15.0,22.5,0.0,0.0,0.0,0.0,0,1019.3,988.2,0,0,0,0,0.22,1.08,13.2,18.2,305,308,30.2,27.8,24.3,22.7,18.6,0.107,0.162,0.235,0.343,1,3600.0,220.4,167.1,53.2,633.8,220.4,352.2,298.0,226.0,72.0,633.8,298.0,476.2,Magnoliopsida; Pinus pinaster Aiton; Eucalyptus L'Hér.; Tracheophyta; Vitis vinifera L.
2003,2003-08-20,Porto,Maia,Moreira,R. Stº Lenho,41.2518536,-8.6568442,NC,90.0,2003-08-20T17:00,24.3,61,16.3,23.5,0.0,0.0,0.0,0.0,0,1016.1,1005.7,0,0,0,0,0.34,1.19,20.6,28.0,324,328,38.9,29.3,24.4,23.0,19.4,0.099,0.159,0.236,0.344,1,3600.0,413.6,335.2,78.3,751.4,413.6,596.1,491.0,398.0,93.0,751.4,491.0,707.7,Magnoliopsida; Eucalyptus L'Hér.; Tracheophyta; Pinus pinaster Aiton; 
2003,2003-08-20,Porto,Amarante,Real,AGRA MAIOR,41.2472875,-8.172050257445942,NC,179.0,2003-08-20T19:00,23.5,66,16.8,24.9,0.0,0.0,0.0,0.0,0,1015.1,994.4,0,0,0,0,0.09,0.98,7.2,13.8,297,309,25.6,27.0,24.9,23.0,19.2,0.119,0.168,0.241,0.343,1,3472.17,46.8,29.7,17.1,340.9,45.8,88.0,115.0,73.0,42.0,441.8,115.0,216.2,Tracheophyta; Acacia Mill.; Magnoliopsida; Pinales; Eucalyptus L'Hér.; Vitis vinifera L.
2003,2003-08-06,Porto,Paredes,Rebordosa,Nabeiros,41.2171942,-8.3910532,NC,385.0,2003-08-06T17:00,33.7,34,15.7,34.0,0.0,0.0,0.0,0.0,0,1017.3,974.8,7,0,3,18,0.45,3.46,11.1,15.3,331,333,25.2,34.1,25.9,20.8,16.7,0.105,0.199,0.254,0.351,1,3600.0,424.3,344.5,79.7,702.8,424.3,651.8,495.0,402.0,93.0,702.8,495.0,760.5,Magnoliopsida; Pinus pinaster Aiton; Eucalyptus L'Hér.; Tracheophyta; Vitis vinifera L.; Quercus L.; Acacia Mill.
2003,2003-08-21,Porto,Paredes,Louredo,GRIFAO,41.2123637,-8.347580212435714,NC,191.0,2003-08-21T15:00,31.0,39,15.3,33.0,0.0,0.0,0.0,0.0,1,1011.8,990.4,31,0,50,2,0.53,2.76,4.9,5.4,287,290,17.6,33.5,24.4,22.8,19.1,0.124,0.158,0.227,0.343,1,3600.0,648.5,522.9,125.6,712.0,648.5,981.7,692.0,558.0,134.0,712.0,692.0,1047.5,Tracheophyta; Magnoliopsida; Eucalyptus L'Hér.; Pinus pinaster Aiton; Vitis vinifera L.; ; Quercus L.
2003,2003-08-19,Porto,Felgueiras,Caramos,MAIAS,41.3403403,-8.1701312,NC,337.0,2003-08-19T20:00,20.0,75,15.5,21.0,0.0,0.0,0.0,0.0,0,1019.5,980.4,0,0,0,0,0.03,0.58,5.8,13.8,292,303,21.2,24.1,24.3,22.5,18.3,0.104,0.164,0.238,0.343,0,0.0,0.0,0.0,0.0,0.0,0.0,0.0,6.0,2.0,4.0,28.1,6.0,36.5,Pinus pinaster Aiton; Tracheophyta; Eucalyptus L'Hér.; Magnoliopsida
2003,2003-08-05,Porto,Baião,Loivos do Monte,POÇA DO MONTE,41.1945144,-7.9710361,NC,708.0,2003-08-05T01:00,20.3,86,17.9,22.7,0.0,0.0,0.0,0.0,0,1019.1,939.1,0,0,0,0,0.0,0.33,3.2,5.2,27,56,11.9,21.3,24.7,20.3,16.0,0.128,0.188,0.238,0.352,0,0.0,0.0,0.0,0.0,0.0,0.0,0.0,0.0,0.0,0.0,0.0,0.0,0.0,Tracheophyta; Magnoliopsida; Pinales; Pinus pinaster Aiton; Eucalyptus L'Hér.; 
2003,2003-08-08,Porto,Vila Nova de Gaia,Pedroso,R. Carreira,41.0520994,-8.5602218,NC,157.0,2003-08-08T14:00,36.7,28,15.1,39.0,0.0,0.0,0.0,0.0,0,1013.4,996.0,2,0,1,4,0.73,4.45,8.4,9.6,290,290,18.7,37.5,27.8,22.5,18.1,0.126,0.178,0.24,0.356,1,3600.0,839.2,725.4,113.8,840.0,839.2,1148.8,863.0,746.0,117.0,840.0,863.0,1181.3,Eucalyptus L'Hér.; Tracheophyta; Magnoliopsida
2003,2003-08-08,Porto,Gondomar,São Pedro da Cova,R.Longras,41.1473685,-8.5074154,NC,78.0,2003-08-08T18:00,36.4,27,14.5,36.6,0.0,0.0,0.0,0.0,0,1012.9,1004.2,14,0,10,27,0.32,4.43,8.8,13.0,325,326,8.6,35.5,29.3,23.3,18.8,0.126,0.164,0.224,0.352,1,3600.0,230.4,170.3,60.1,554.9,230.4,408.3,299.0,221.0,78.0,554.9,299.0,529.8,Magnoliopsida; Eucalyptus L'Hér.; Tracheophyta; Vitis vinifera L.; Pinus pinaster Aiton
2003,2003-08-08,Porto,Trofa,Bougado (são Martinho),Ervosa,41.3420767,-8.5118295,NC,70.0,2003-08-08T20:00,30.5,58,21.3,33.9,0.0,0.0,0.0,0.0,0,1013.0,1005.1,8,0,10,5,0.07,1.83,7.6,13.2,360,11,15.8,31.2,29.0,22.9,18.4,0.109,0.172,0.239,0.348,0,252.54,0.0,0.0,0.0,0.0,0.0,0.0,19.0,9.0,10.0,93.8,19.0,69.2,Tracheophyta; Pinus pinaster Aiton; Magnoliopsida; Pinales; Vitis vinifera L.; Eucalyptus L'Hér.
2003,2003-08-10,Porto,Amarante,Telões,Covelas de Cima,41.3096543,-8.1007731,NC,242.0,2003-08-10T01:00,23.9,83,20.8,27.7,0.0,0.0,0.0,0.0,0,1013.8,986.0,0,0,0,0,0.0,0.5,2.9,2.2,150,180,6.8,23.6,27.1,22.7,17.8,0.116,0.193,0.254,0.349,0,0.0,0.0,0.0,0.0,0.0,0.0,0.0,0.0,0.0,0.0,0.0,0.0,0.0,Magnoliopsida; Pinus pinaster Aiton; Tracheophyta; Vitis vinifera L.; Eucalyptus L'Hér.; 
2003,2003-08-17,Porto,Amarante,Lufrei,FUNDO,41.276408,-8.0535287,NC,208.0,2003-08-17T16:00,25.5,52,14.9,25.3,0.0,0.0,0.0,0.0,1,1014.9,991.1,31,4,8,76,0.42,1.56,12.7,16.7,305,307,30.6,29.1,23.9,23.4,18.8,0.132,0.173,0.244,0.345,1,3600.0,516.4,402.2,114.3,654.4,516.4,820.1,574.0,447.0,127.0,654.4,574.0,911.5,Magnoliopsida; Tracheophyta; Pinus pinaster Aiton; Vitis vinifera L.; Eucalyptus L'Hér.; 
2003,2003-08-20,Porto,Maia,Águas Santas,A4,41.206992,-8.5670816,NC,138.0,2003-08-20T18:00,23.5,65,16.6,23.7,0.0,0.0,0.0,0.0,0,1015.5,999.5,0,0,0,0,0.22,1.01,14.3,19.3,311,315,30.6,27.5,24.4,22.9,19.3,0.131,0.155,0.224,0.346,1,3600.0,221.9,170.3,51.6,652.6,221.9,348.7,301.0,231.0,70.0,652.6,301.0,472.9,Tracheophyta; Pinus pinaster Aiton; Magnoliopsida; Eucalyptus L'Hér.; 
2003,2003-08-22,Porto,Paredes,Mouriz,MONTE,41.19055775,-8.363095614070224,NC,231.0,2003-08-22T17:00,27.5,51,16.5,28.5,0.7,0.7,0.0,0.0,53,1014.1,987.9,28,0,20,55,0.25,1.8,8.9,12.0,122,123,19.1,31.4,25.7,22.5,18.9,0.137,0.144,0.208,0.344,1,3600.0,235.4,139.9,95.5,321.8,235.4,581.5,281.0,167.0,114.0,321.8,281.0,694.0,Magnoliopsida; Pinus pinaster Aiton; Eucalyptus L'Hér.; Tracheophyta; Vitis vinifera L.
2003,2003-08-09,Porto,Paredes,Vilela,SEIXOSO,41.2317591,-8.3838933,NC,322.0,2003-08-09T03:00,20.8,79,16.9,22.2,0.0,0.0,0.0,0.0,0,1014.1,977.0,0,0,0,0,0.01,0.52,7.3,11.6,70,85,15.8,21.9,26.2,22.0,17.3,0.115,0.189,0.25,0.35,0,0.0,0.0,0.0,0.0,0.0,0.0,0.0,0.0,0.0,0.0,0.0,0.0,0.0,Magnoliopsida; Pinus pinaster Aiton; Eucalyptus L'Hér.; Tracheophyta; Vitis vinifera L.
2003,2003-08-20,Porto,Valongo,Valongo,R. ESTRADA VELHA,41.1882463,-8.4872744,NC,128.0,2003-08-20T21:00,20.5,86,18.0,22.9,0.0,0.0,0.0,0.0,0,1015.6,1000.6,0,0,0,0,0.0,0.35,3.2,6.9,270,317,14.0,23.5,24.9,23.3,19.5,0.118,0.152,0.221,0.343,0,0.0,0.0,0.0,0.0,0.0,0.0,0.0,0.0,0.0,0.0,0.0,0.0,0.0,Pinus pinaster Aiton; Tracheophyta; Magnoliopsida; Eucalyptus L'Hér.
2003,2003-08-21,Porto,Baião,Ancede,Eiriz \ POV,41.1046709,-8.0614156,NC,328.0,2003-08-21T12:00,28.2,46,15.4,30.8,0.0,0.0,0.0,0.0,0,1013.4,976.5,0,0,0,0,0.61,2.08,7.2,9.4,84,86,23.4,30.7,23.2,22.6,18.7,0.106,0.164,0.237,0.342,1,3600.0,869.4,757.4,112.0,874.5,869.4,1157.4,846.0,737.0,109.0,874.5,846.0,1126.3,Magnoliopsida; Pinus pinaster Aiton; Tracheophyta; Vitis vinifera L.; Quercus suber L.; Acacia Mill.; Eucalyptus L'Hér.; Quercus L.; 
2003,2003-08-21,Porto,Penafiel,Duas Igrejas,PERAFITA,41.1805131,-8.2536954,NC,446.0,2003-08-21T17:00,28.5,42,14.2,28.0,0.0,0.0,0.0,0.0,0,1011.7,962.1,16,0,19,17,0.37,2.27,13.2,18.1,299,301,31.3,31.5,24.0,21.6,17.7,0.097,0.161,0.236,0.342,1,3600.0,352.9,261.5,91.4,599.7,352.9,582.8,421.0,312.0,109.0,599.7,421.0,695.3,Eucalyptus L'Hér.; Magnoliopsida; Tracheophyta
2003,2003-08-21,Porto,Paços de Ferreira,Arreigada,Paião,41.2513469,-8.398373063787407,NC,249.0,2003-08-21T18:00,27.5,53,16.9,28.3,0.0,0.0,0.0,0.0,0,1011.5,983.4,12,0,14,11,0.24,1.74,11.5,16.5,309,314,32.8,30.4,25.1,22.6,18.8,0.1,0.16,0.233,0.342,1,3600.0,194.8,142.1,52.7,557.3,194.8,340.8,266.0,194.0,72.0,557.3,266.0,465.3,Eucalyptus L'Hér.; Tracheophyta; Magnoliopsida; Vitis vinifera L.; 
2003,2003-08-12,Porto,Santo Tirso,Agrela,L.Aldeia Nova,41.2596039,-8.4725002,NC,126.0,2003-08-12T15:00,32.5,48,20.1,35.0,0.0,0.0,0.0,0.0,0,1018.4,1004.2,2,0,4,0,0.59,2.53,14.9,18.2,277,278,25.6,36.3,28.6,23.7,18.7,0.126,0.157,0.221,0.349,1,3600.0,659.7,516.7,143.1,676.4,659.7,1017.4,701.0,549.0,152.0,676.4,701.0,1081.1,Eucalyptus L'Hér.; Tracheophyta; Quercus L.; Vitis vinifera L.
2003,2003-08-05,Porto,Baião,Santa Cruz do Douro,BAZINDE,41.124492,-8.0130669,NC,449.0,2003-08-05T02:00,20.8,87,18.5,23.1,0.0,0.0,0.0,0.0,0,1018.3,966.8,0,0,0,0,0.0,0.33,5.9,7.9,104,93,11.9,20.9,24.9,21.1,17.1,0.143,0.186,0.231,0.353,0,0.0,0.0,0.0,0.0,0.0,0.0,0.0,0.0,0.0,0.0,0.0,0.0,0.0,Magnoliopsida; Pinus pinaster Aiton; Vitis vinifera L.; Quercus L.; Tracheophyta; Eucalyptus L'Hér.; Olea europaea L.; 
2003,2003-08-21,Porto,Paços de Ferreira,Paços de Ferreira,REGO,41.3166905,-8.3834267,NC,462.0,2003-08-21T13:00,28.4,41,13.9,31.5,0.0,0.0,0.0,0.0,0,1013.1,961.7,11,0,18,0,0.62,2.28,2.6,3.7,106,101,17.6,31.5,22.3,21.3,17.5,0.1,0.162,0.236,0.342,1,3600.0,871.4,755.6,115.8,869.2,871.4,1161.8,873.0,757.0,116.0,869.2,873.0,1163.9,Eucalyptus L'Hér.; Tracheophyta; Pinus pinaster Aiton; Magnoliopsida
2003,2003-08-12,Porto,Maia,Águas Santas,R. Sobremoinhos,41.206992,-8.5670816,NC,138.0,2003-08-12T17:00,28.9,57,19.5,31.3,0.0,0.0,0.0,0.0,0,1018.8,1003.0,2,0,4,0,0.35,1.71,8.1,9.7,291,292,25.2,33.6,28.5,23.6,18.6,0.12,0.164,0.231,0.35,1,3600.0,392.8,311.0,81.8,655.3,392.8,632.1,461.0,365.0,96.0,655.3,461.0,741.9,Tracheophyta; Pinus pinaster Aiton; Magnoliopsida; Eucalyptus L'Hér.; 
2003,2003-08-18,Porto,Lousada,Barrosas (santo Estêvão),BENFICA,41.3324072,-8.2777204,NC,354.0,2003-08-18T22:00,17.9,93,16.7,19.5,0.0,0.0,0.0,0.0,1,1021.5,980.1,29,32,0,0,0.0,0.15,4.9,6.0,287,295,11.2,21.0,23.6,22.3,18.0,0.111,0.165,0.238,0.343,0,0.0,0.0,0.0,0.0,0.0,0.0,0.0,0.0,0.0,0.0,0.0,0.0,0.0,Magnoliopsida; Eucalyptus L'Hér.; Quercus L.; Tracheophyta
2003,2003-08-13,Porto,Penafiel,Pinheiro,Giesteira,41.1193264,-8.3031666,NC,204.0,2003-08-13T02:00,25.1,78,21.0,29.0,0.0,0.0,0.0,0.0,1,1020.4,996.9,37,40,1,0,0.0,0.71,3.6,4.3,354,5,11.5,24.1,28.0,23.8,18.4,0.111,0.177,0.246,0.346,0,0.0,0.0,0.0,0.0,0.0,0.0,0.0,0.0,0.0,0.0,0.0,0.0,0.0,Tracheophyta; Vitis vinifera L.; Eucalyptus L'Hér.
2003,2003-08-21,Porto,Paredes,Sobrosa,TOURILHE,41.2535012,-8.3618575,NC,358.0,2003-08-21T00:00,17.9,87,15.7,18.9,0.0,0.0,0.0,0.0,0,1015.6,974.0,0,0,0,0,0.0,0.26,6.2,5.4,126,132,10.1,19.1,23.3,22.0,18.1,0.103,0.161,0.235,0.343,0,0.0,0.0,0.0,0.0,0.0,0.0,0.0,0.0,0.0,0.0,0.0,0.0,0.0,Magnoliopsida; Pinus pinaster Aiton; Eucalyptus L'Hér.; Tracheophyta; Vitis vinifera L.
2003,2003-08-21,Porto,Penafiel,Croca,Agra,41.2204491,-8.2390371,NC,360.0,2003-08-21T19:00,26.0,58,17.1,27.6,0.0,0.0,0.0,0.0,0,1011.3,970.7,10,0,12,9,0.09,1.41,6.2,7.8,260,283,20.5,27.7,24.3,21.8,18.1,0.114,0.166,0.24,0.342,1,3384.96,35.0,21.0,14.0,241.1,33.8,81.8,90.0,54.0,36.0,331.2,90.0,210.2,Magnoliopsida; Eucalyptus L'Hér.; Vitis vinifera L.; Tracheophyta
2003,2003-08-21,Porto,Penafiel,Galegos,LAMEIRA,41.1604125,-8.3114028,NC,229.0,2003-08-21T15:00,30.8,38,15.0,32.6,0.0,0.0,0.0,0.0,1,1011.8,986.1,31,0,50,2,0.52,2.73,4.9,5.4,287,290,17.6,33.2,24.2,22.5,18.8,0.124,0.158,0.227,0.343,1,3600.0,648.5,522.9,125.6,711.6,648.5,982.1,692.0,558.0,134.0,711.6,692.0,1048.0,Eucalyptus L'Hér.; Tracheophyta
2003,2003-08-18,Porto,Vila Nova de Gaia,Pedroso,PARADELA BAIXO,41.0674983,-8.5421571,NC,109.0,2003-08-18T11:00,22.9,63,15.5,25.0,0.0,0.0,0.0,0.0,1,1019.9,1007.2,21,20,0,10,0.46,1.03,5.8,6.5,300,304,16.6,27.7,23.4,23.7,19.5,0.139,0.148,0.212,0.347,1,3600.0,768.3,634.6,133.7,776.1,768.3,1091.4,724.0,598.0,126.0,776.1,724.0,1028.5,Tracheophyta; Eucalyptus L'Hér.; Magnoliopsida
2003,2003-08-19,Porto,Lousada,Lodares,PLANICE,41.2389255,-8.2922928,NC,201.0,2003-08-19T21:00,19.3,83,16.4,20.7,0.0,0.0,0.0,0.0,0,1020.3,996.7,1,1,0,0,0.0,0.38,6.2,9.1,280,304,15.1,22.7,24.4,22.9,18.8,0.131,0.16,0.229,0.344,0,0.0,0.0,0.0,0.0,0.0,0.0,0.0,0.0,0.0,0.0,0.0,0.0,0.0,Magnoliopsida; Tracheophyta; Eucalyptus L'Hér.; Pinus pinaster Aiton
2003,2003-08-21,Porto,Paredes,Rebordosa,S MARTINHO,41.2200757,-8.4155371,NC,223.0,2003-08-21T17:00,28.6,48,16.6,28.8,0.0,0.0,0.0,0.0,0,1011.2,986.1,15,0,16,17,0.37,2.03,14.8,20.4,309,312,30.6,31.4,24.9,22.6,18.9,0.133,0.145,0.209,0.344,1,3600.0,359.3,268.7,90.7,611.9,359.3,586.8,428.0,320.0,108.0,611.9,428.0,699.0,Magnoliopsida; Pinus pinaster Aiton; Eucalyptus L'Hér.; Tracheophyta; Vitis vinifera L.
2003,2003-08-21,Porto,Amarante,Travanca,Laraias,41.2723342,-8.1914233,NC,208.0,2003-08-21T18:00,27.9,53,17.3,29.2,0.0,0.0,0.0,0.0,0,1011.1,987.6,16,0,24,7,0.23,1.79,9.4,14.2,293,300,28.8,30.2,25.1,22.6,18.9,0.123,0.157,0.227,0.343,1,3600.0,192.4,142.6,49.7,562.5,192.4,338.9,263.0,195.0,68.0,562.5,263.0,463.3,Tracheophyta; Magnoliopsida; Eucalyptus L'Hér.; Vitis vinifera L.; Pinus pinaster Aiton; 
2003,2003-08-20,Porto,Santo Tirso,Água Longa,L.Lurdes,41.2603698,-8.4972609,NC,120.0,2003-08-20T16:00,26.2,53,15.8,26.4,0.0,0.0,0.0,0.0,0,1016.1,1002.3,0,0,0,0,0.48,1.6,16.6,21.1,312,316,32.4,30.9,24.6,23.1,19.3,0.131,0.148,0.213,0.344,1,3600.0,600.2,513.1,87.2,844.3,600.2,811.9,668.0,571.0,97.0,844.3,668.0,903.5,Tracheophyta; Eucalyptus L'Hér.; Pinales; Vitis vinifera L.; Pinus pinaster Aiton
2003,2003-08-09,Porto,Vila do Conde,Vilar,Rua Albino Moreira,41.2894628,-8.6711218,NC,53.0,2003-08-09T07:00,22.9,97,22.4,26.8,0.0,0.0,0.0,0.0,0,1014.4,1008.2,0,0,0,0,0.04,0.09,8.4,9.4,350,358,13.3,23.8,27.2,23.3,18.6,0.093,0.177,0.248,0.35,1,3266.15,156.7,94.6,62.0,388.3,148.0,324.3,96.0,58.0,38.0,366.9,96.0,198.7,Tracheophyta; Eucalyptus L'Hér.; Magnoliopsida
2003,2003-08-18,Porto,Vila do Conde,Guilhabreu,R. CENTRAL,41.2928558,-8.6554183,NC,69.0,2003-08-18T12:00,23.5,61,15.4,25.5,0.0,0.0,0.0,0.0,0,1020.3,1012.2,7,5,0,9,0.5,1.14,8.0,8.3,265,270,19.8,29.1,23.3,23.5,19.3,0.108,0.162,0.239,0.345,1,3600.0,804.3,608.9,195.4,698.7,804.3,1163.2,782.0,592.0,190.0,698.7,782.0,1130.9,Tracheophyta; Eucalyptus L'Hér.
2003,2003-08-23,Porto,Amarante,Travanca,Moreira de Além \ CAS,41.2723342,-8.1914233,NC,208.0,2003-08-23T18:00,27.4,55,17.6,29.0,0.0,0.0,0.0,0.0,0,1014.0,990.4,14,0,19,8,0.19,1.64,7.7,11.7,307,313,24.5,30.0,26.2,22.7,19.1,0.128,0.155,0.224,0.342,1,3600.0,161.4,108.5,52.8,443.9,161.4,327.1,223.0,150.0,73.0,443.9,223.0,452.1,Tracheophyta; Magnoliopsida; Eucalyptus L'Hér.; Vitis vinifera L.; Pinus pinaster Aiton; 
2003,2003-08-13,Porto,Penafiel,Paço de Sousa,ALVITE,41.1662682,-8.3459799,NC,135.0,2003-08-13T13:00,31.5,51,20.2,35.4,0.0,0.0,0.0,0.0,0,1021.6,1006.3,7,0,0,24,0.68,2.25,12.5,15.5,309,312,28.1,35.2,27.8,24.0,18.7,0.119,0.17,0.236,0.348,1,3600.0,881.3,746.4,134.9,836.8,881.3,1188.6,882.0,747.0,135.0,836.8,882.0,1189.5,Tracheophyta; Eucalyptus L'Hér.; Magnoliopsida; Vitis vinifera L.
2003,2003-08-05,Porto,Vila do Conde,Gião,R. Estrada Particular,41.3102802,-8.6766877,NC,64.0,2003-08-05T08:00,21.6,82,18.4,23.3,0.0,0.0,0.0,0.0,0,1018.6,1011.1,4,2,0,9,0.16,0.46,9.8,14.1,336,341,18.7,22.0,23.4,22.1,18.2,0.105,0.191,0.254,0.353,1,3600.0,357.1,262.4,94.6,600.1,357.1,581.1,283.0,208.0,75.0,600.1,283.0,460.6,Magnoliopsida; Tracheophyta; Eucalyptus L'Hér.
2003,2003-08-13,Porto,Paredes,Mouriz,RIBEIROS ALTOS,41.1923087,-8.3673667,NC,281.0,2003-08-13T14:00,30.2,47,17.6,32.8,0.0,0.0,0.0,0.0,0,1021.0,989.3,4,0,0,15,0.63,2.29,11.4,14.3,294,295,29.2,34.2,27.0,23.0,17.8,0.127,0.155,0.218,0.349,1,3600.0,797.3,627.3,169.9,738.5,797.3,1131.9,821.0,646.0,175.0,738.5,821.0,1165.6,Magnoliopsida; Pinus pinaster Aiton; Eucalyptus L'Hér.; Tracheophyta; Vitis vinifera L.
2003,2003-08-13,Porto,Paredes,Vilela,VALCIZÃO,41.2123637,-8.347580212435714,NC,191.0,2003-08-13T15:00,31.6,42,17.3,33.7,0.0,0.0,0.0,0.0,0,1021.1,999.5,10,0,0,35,0.61,2.67,11.4,14.5,298,300,28.8,35.4,28.0,23.7,18.4,0.118,0.169,0.235,0.347,1,3600.0,713.8,598.2,115.7,787.0,713.8,1012.8,759.0,636.0,123.0,787.0,759.0,1076.9,Magnoliopsida; Pinus pinaster Aiton; Eucalyptus L'Hér.; Tracheophyta; Vitis vinifera L.; Quercus L.
2003,2003-08-21,Porto,Marco de Canaveses,Rio de Galinhas,VERDIAL,41.1861735,-8.1383514,NC,110.0,2003-08-21T22:00,23.7,78,19.6,26.7,0.0,0.0,0.0,0.0,0,1012.9,1000.2,7,0,8,6,0.0,0.66,4.8,5.8,167,158,14.0,25.1,25.8,23.4,19.7,0.114,0.166,0.24,0.342,0,0.0,0.0,0.0,0.0,0.0,0.0,0.0,0.0,0.0,0.0,0.0,0.0,0.0,Magnoliopsida; Tracheophyta; Pinales; Vitis vinifera L.
2003,2003-08-09,Porto,Gondomar,Foz do Sousa,ZEBREIROS,41.082231,-8.5159932,NC,46.0,2003-08-09T19:00,26.8,71,21.1,28.4,0.0,0.0,0.0,0.0,1,1013.8,1008.5,27,28,3,0,0.14,1.03,19.3,25.5,333,338,33.8,31.8,29.5,23.9,19.1,0.124,0.161,0.222,0.351,1,3600.0,63.3,29.5,33.9,258.7,63.3,151.7,116.0,54.0,62.0,258.7,116.0,277.8,Pinus pinaster Aiton; Tracheophyta; Eucalyptus L'Hér.
2003,2003-08-21,Porto,Baião,Ancede,FONTAINHAS,41.1046709,-8.0614156,NC,328.0,2003-08-21T15:00,30.5,37,14.1,32.0,0.0,0.0,0.0,0.0,1,1011.8,975.3,31,0,50,2,0.52,2.75,4.9,5.4,287,290,17.6,33.8,24.3,22.6,18.7,0.104,0.163,0.236,0.342,1,3600.0,648.2,522.7,125.5,711.9,648.2,981.3,692.0,558.0,134.0,711.9,692.0,1047.6,Magnoliopsida; Pinus pinaster Aiton; Tracheophyta; Vitis vinifera L.; Quercus suber L.; Acacia Mill.; Eucalyptus L'Hér.; Quercus L.; 
2003,2003-08-21,Porto,Penafiel,Milhundos,AVELEIRA ALEM,41.2031681,-8.2692768,NC,288.0,2003-08-21T15:00,30.4,38,14.6,32.1,0.0,0.0,0.0,0.0,1,1011.8,979.6,31,0,50,2,0.52,2.67,4.9,5.4,287,290,17.6,32.8,23.8,22.1,18.4,0.124,0.158,0.227,0.343,1,3600.0,648.3,522.8,125.5,712.7,648.3,980.4,692.0,558.0,134.0,712.7,692.0,1046.4,Eucalyptus L'Hér.; Magnoliopsida; Tracheophyta
2003,2003-08-18,Porto,Maia,Moreira,R. Quinta Mosteiro,41.2516543,-8.6523199,NC,91.0,2003-08-18T13:00,24.0,59,15.4,25.8,0.0,0.0,0.0,0.0,0,1020.1,1009.5,16,0,0,53,0.53,1.23,10.8,12.0,274,277,23.0,30.0,23.4,23.3,19.2,0.107,0.162,0.238,0.345,1,3600.0,817.4,650.5,166.9,740.1,817.4,1173.2,818.0,651.0,167.0,740.1,818.0,1174.1,Magnoliopsida; Eucalyptus L'Hér.; Tracheophyta; Pinus pinaster Aiton; 
2003,2003-08-18,Porto,Maia,Moreira,R. Stº. Senho,41.2474218,-8.6468626,NC,84.0,2003-08-18T15:00,25.0,59,16.4,26.5,0.0,0.0,0.0,0.0,0,1019.8,1010.0,18,2,0,54,0.51,1.3,13.4,15.9,284,288,25.9,30.4,24.2,23.5,19.5,0.137,0.157,0.226,0.347,1,3600.0,721.2,592.6,128.7,793.7,721.2,996.6,768.0,631.0,137.0,793.7,768.0,1061.3,Magnoliopsida; Eucalyptus L'Hér.; Tracheophyta; Pinus pinaster Aiton; 
2003,2003-08-21,Porto,Santo Tirso,Rebordões,LG.ALDEIA NOVA,41.3524388,-8.4295071,NC,114.0,2003-08-21T12:00,29.2,44,15.8,32.4,0.0,0.0,0.0,0.0,0,1013.3,1000.3,0,0,0,0,0.61,2.26,4.6,6.4,39,52,15.8,31.6,23.3,22.7,19.1,0.106,0.157,0.229,0.34,1,3600.0,863.7,751.7,112.1,870.9,863.7,1153.5,840.0,731.0,109.0,870.9,840.0,1121.8,Tracheophyta; Pinus pinaster Aiton; Eucalyptus L'Hér.; Magnoliopsida; Vitis vinifera L.
2003,2003-08-22,Porto,Felgueiras,Rande,Simalhas,41.3308088,-8.2277133,NC,214.0,2003-08-22T23:00,22.8,71,17.2,24.0,0.0,0.0,0.0,0.0,0,1015.6,990.9,0,0,0,0,0.03,0.81,9.1,12.2,97,104,13.7,22.7,25.5,22.7,19.0,0.131,0.156,0.226,0.342,0,0.0,0.0,0.0,0.0,0.0,0.0,0.0,0.0,0.0,0.0,0.0,0.0,0.0,Magnoliopsida; Tracheophyta; Eucalyptus L'Hér.; Vitis vinifera L.
2003,2003-08-15,Porto,Marco de Canaveses,Penha Longa,BARREIRO,41.1077811,-8.160269,NC,344.0,2003-08-15T11:00,22.0,61,14.0,21.9,0.0,0.0,0.0,0.0,3,1018.8,979.2,100,88,12,87,0.41,1.04,12.7,16.7,295,295,31.3,26.6,24.4,23.4,18.0,0.111,0.169,0.24,0.345,1,3600.0,673.2,376.3,296.8,455.6,673.2,1101.5,635.0,355.0,280.0,455.6,635.0,1039.0,Tracheophyta; Magnoliopsida; Pinus pinaster Aiton; Eucalyptus L'Hér.
2003,2003-08-15,Porto,Marco de Canaveses,Vila Boa de Quires,CORUJEIRAS,41.200721,-8.203458,NC,308.0,2003-08-15T21:00,17.9,84,15.3,18.5,0.0,0.0,0.0,0.0,3,1017.0,981.0,85,46,34,76,0.0,0.32,7.8,11.9,304,305,20.9,21.9,24.6,23.2,17.9,0.117,0.175,0.245,0.346,0,0.0,0.0,0.0,0.0,0.0,0.0,0.0,0.0,0.0,0.0,0.0,0.0,0.0,Pinus pinaster Aiton; Tracheophyta; Eucalyptus L'Hér.; Magnoliopsida; Vitis vinifera L.; Quercus L.; Pinales; 
2003,2003-08-21,Porto,Valongo,Campo,L. VINHAS,41.169334,-8.468279,NC,109.0,2003-08-21T14:00,30.4,44,16.6,33.1,0.0,0.0,0.0,0.0,0,1012.3,1000.0,4,0,6,0,0.59,2.44,6.7,7.4,306,313,18.4,34.0,24.6,23.3,19.7,0.115,0.152,0.22,0.342,1,3600.0,753.3,636.0,117.3,769.2,753.3,1105.0,777.0,656.0,121.0,769.2,777.0,1139.8,Magnoliopsida; Tracheophyta; Eucalyptus L'Hér.
2003,2003-08-23,Porto,Felgueiras,Lagares,Monte da Senhora,41.3673676,-8.2225278,NC,281.0,2003-08-23T02:00,18.9,84,16.2,20.1,0.0,0.0,0.0,0.0,0,1015.1,982.4,4,0,7,0,0.0,0.34,6.5,15.5,96,94,13.7,20.9,25.0,22.8,18.9,0.107,0.153,0.224,0.337,0,0.0,0.0,0.0,0.0,0.0,0.0,0.0,0.0,0.0,0.0,0.0,0.0,0.0,Magnoliopsida; Vitis vinifera L.; Tracheophyta
2003,2003-08-19,Porto,Felgueiras,Vila Cova Da Lixa,Picoto,41.3341303,-8.1547431,NC,383.0,2003-08-19T17:00,24.2,53,13.9,23.4,0.0,0.0,0.0,0.0,0,1019.1,975.4,0,0,0,0,0.35,1.42,13.6,17.9,307,310,30.2,29.6,23.9,22.2,18.0,0.104,0.164,0.238,0.343,1,3600.0,411.5,339.1,72.4,763.4,411.5,593.2,489.0,403.0,86.0,763.4,489.0,705.0,Pinus pinaster Aiton; Tracheophyta; Vitis vinifera L.; Magnoliopsida; Eucalyptus L'Hér.
2003,2003-08-22,Porto,Marco de Canaveses,Paredes de Viadores,JUNCAL,41.1406724,-8.1194187,NC,185.0,2003-08-22T03:00,20.3,84,17.5,22.0,0.0,0.0,0.0,0.0,0,1012.6,991.1,3,0,5,0,0.0,0.38,6.5,8.8,109,102,13.7,20.7,24.6,23.0,19.3,0.114,0.166,0.24,0.342,0,0.0,0.0,0.0,0.0,0.0,0.0,0.0,0.0,0.0,0.0,0.0,0.0,0.0,Magnoliopsida; Pinus pinaster Aiton; Eucalyptus L'Hér.; Tracheophyta; Vitis vinifera L.; 
2003,2003-08-09,Porto,Vila do Conde,Macieira da Maia,Rua Ponte D´Ave,41.339307000000005,-8.676686537076645,NC,59.0,2003-08-09T23:00,22.0,91,20.5,24.5,0.0,0.0,0.0,0.0,0,1014.3,1007.4,6,7,0,0,0.0,0.22,11.3,16.9,333,349,16.2,25.2,28.3,23.4,18.6,0.092,0.174,0.246,0.35,0,0.0,0.0,0.0,0.0,0.0,0.0,0.0,0.0,0.0,0.0,0.0,0.0,0.0,Eucalyptus L'Hér.; Magnoliopsida
2003,2003-08-21,Porto,Baião,Ancede,PENALVA,41.1045381,-8.060635584036364,NC,333.0,2003-08-21T15:00,30.4,37,14.0,31.9,0.0,0.0,0.0,0.0,1,1011.8,974.7,31,0,50,2,0.52,2.75,4.9,5.4,287,290,17.6,33.7,24.3,22.5,18.7,0.104,0.163,0.236,0.342,1,3600.0,648.2,522.7,125.5,711.9,648.2,981.3,692.0,558.0,134.0,711.9,692.0,1047.6,Magnoliopsida; Pinus pinaster Aiton; Tracheophyta; Vitis vinifera L.; Quercus suber L.; Acacia Mill.; Eucalyptus L'Hér.; Quercus L.; 
2003,2003-08-19,Porto,Paredes,Mouriz,A4 CARREIRA,41.1961447,-8.3533411,NC,180.0,2003-08-19T00:00,17.8,97,17.4,19.7,0.0,0.0,0.0,0.0,2,1021.3,1000.0,57,63,0,0,0.0,0.06,4.8,7.6,333,341,9.7,20.7,24.1,23.2,19.0,0.143,0.149,0.213,0.346,0,0.0,0.0,0.0,0.0,0.0,0.0,0.0,0.0,0.0,0.0,0.0,0.0,0.0,Magnoliopsida; Pinus pinaster Aiton; Eucalyptus L'Hér.; Tracheophyta; Vitis vinifera L.
2003,2003-08-22,Porto,Santo Tirso,Monte Córdova,LG.LAJEDO,41.3164414,-8.4320306,NC,357.0,2003-08-22T09:00,24.4,57,15.5,24.9,0.0,0.0,0.0,0.0,0,1014.7,974.1,2,0,3,0,0.3,1.3,9.7,13.3,88,88,23.0,24.4,22.8,21.9,18.2,0.1,0.16,0.233,0.342,1,3600.0,496.2,375.7,120.5,663.3,496.2,757.3,424.0,321.0,103.0,663.3,424.0,647.0,Tracheophyta; Vitis vinifera L.; Eucalyptus L'Hér.; Pinus pinaster Aiton; Magnoliopsida
2003,2003-08-22,Porto,Lousada,Boim,VILA CHÁ,41.261773,-8.2817803,NC,239.0,2003-08-22T14:00,31.0,37,14.7,32.5,0.0,0.0,0.0,0.0,1,1013.4,986.6,20,0,12,43,0.56,2.82,7.2,8.7,297,300,16.9,34.6,25.1,22.8,19.0,0.098,0.16,0.234,0.341,1,3600.0,695.5,522.1,173.4,635.3,695.5,1098.9,718.0,539.0,179.0,635.3,718.0,1134.4,Tracheophyta; Eucalyptus L'Hér.; Pinus pinaster Aiton; Magnoliopsida; Vitis vinifera L.; ; Olea europaea L.
2003,2003-08-22,Porto,Vila Nova de Gaia,Vilar de Andorinho,R.DAS MIMOSAS,41.1005159,-8.5921479,NC,173.0,2003-08-22T21:00,24.6,78,20.6,28.1,0.0,0.0,0.0,0.0,0,1014.5,994.6,1,0,2,0,0.0,0.67,4.6,9.2,39,45,12.2,25.7,25.8,22.7,19.2,0.127,0.153,0.224,0.348,0,0.0,0.0,0.0,0.0,0.0,0.0,0.0,0.0,0.0,0.0,0.0,0.0,0.0,Tracheophyta; Magnoliopsida; Pinus pinaster Aiton; Pinus pinea L.
2003,2003-08-15,Porto,Amarante,Lufrei,SABOGUEIRO,41.276408,-8.0535287,NC,208.0,2003-08-15T21:00,18.6,85,15.9,19.4,0.0,0.0,0.0,0.0,3,1017.0,992.6,85,46,34,76,0.0,0.33,7.8,11.9,304,305,20.9,22.5,25.2,23.8,18.6,0.117,0.175,0.245,0.346,0,0.0,0.0,0.0,0.0,0.0,0.0,0.0,0.0,0.0,0.0,0.0,0.0,0.0,Magnoliopsida; Tracheophyta; Pinus pinaster Aiton; Vitis vinifera L.; Eucalyptus L'Hér.; 
2003,2003-08-17,Porto,Baião,Gestaçô,Raveles \ CAS,41.1677523,-7.9285981,NC,618.0,2003-08-17T05:00,14.8,99,14.6,15.9,0.0,0.0,0.0,0.0,2,1014.3,943.1,63,59,17,0,0.0,0.02,3.1,6.3,324,347,8.3,16.3,20.8,21.9,17.0,0.147,0.164,0.229,0.346,0,0.0,0.0,0.0,0.0,0.0,0.0,0.0,0.0,0.0,0.0,0.0,0.0,0.0,Pinus pinaster Aiton; Magnoliopsida; Eucalyptus L'Hér.; Tracheophyta; Vitis vinifera L.; Quercus L.; 
2003,2003-08-20,Porto,Vila Nova de Gaia,Vilar de Andorinho,Rua Herois de Ultramar,41.097637950000006,-8.568625067986972,NC,100.0,2003-08-20T21:00,20.1,86,17.6,22.4,0.0,0.0,0.0,0.0,0,1015.6,1003.8,0,0,0,0,0.0,0.33,3.2,6.9,270,317,14.0,23.1,24.6,23.2,19.5,0.13,0.155,0.226,0.349,0,0.0,0.0,0.0,0.0,0.0,0.0,0.0,0.0,0.0,0.0,0.0,0.0,0.0,Eucalyptus L'Hér.; Magnoliopsida; Tracheophyta
2003,2003-08-10,Porto,Marco de Canaveses,Sande,LOURINTIM,41.1044716,-8.1815849,NC,279.0,2003-08-10T02:00,23.8,85,21.1,27.7,0.0,0.0,0.0,0.0,0,1013.5,981.6,2,2,1,0,0.0,0.44,3.4,3.6,162,217,6.8,23.2,27.1,22.9,17.9,0.111,0.184,0.248,0.349,0,0.0,0.0,0.0,0.0,0.0,0.0,0.0,0.0,0.0,0.0,0.0,0.0,0.0,Tracheophyta; Pinus pinaster Aiton; Vitis vinifera L.; Eucalyptus L'Hér.; Castanea sativa Mill.; Magnoliopsida; 
2003,2003-08-21,Porto,Marco de Canaveses,Várzea do Douro,Travassos,41.0738874,-8.266772,NC,119.0,2003-08-21T14:00,31.2,40,16.2,33.8,0.0,0.0,0.0,0.0,0,1012.3,998.9,4,0,6,0,0.6,2.71,6.7,7.4,306,313,18.4,34.1,24.6,23.4,19.7,0.113,0.164,0.237,0.342,1,3600.0,753.0,635.8,117.3,769.1,753.0,1104.9,777.0,656.0,121.0,769.1,777.0,1140.0,Eucalyptus L'Hér.; Tracheophyta; Vitis vinifera L.; Pinus pinaster Aiton; Magnoliopsida; Quercus L.
2003,2003-08-19,Porto,Santo Tirso,Água Longa,Lurdes,41.2603698,-8.4972609,NC,120.0,2003-08-19T15:00,25.5,52,14.9,25.8,0.0,0.0,0.0,0.0,0,1019.5,1005.6,0,0,0,0,0.54,1.57,17.6,22.2,316,318,31.0,30.7,24.3,23.2,19.3,0.134,0.149,0.215,0.345,1,3600.0,738.5,640.9,97.6,863.4,738.5,991.3,787.0,683.0,104.0,863.4,787.0,1056.4,Tracheophyta; Eucalyptus L'Hér.; Pinales; Vitis vinifera L.; Pinus pinaster Aiton
2003,2003-08-13,Porto,Marco de Canaveses,Avessadas,CORRAIS,41.1616546,-8.12779201865893,NC,185.0,2003-08-13T18:00,29.3,48,17.3,30.6,0.0,0.0,0.0,0.0,0,1020.6,999.5,17,0,0,57,0.26,2.1,8.7,11.2,287,291,23.4,33.0,28.8,24.0,18.5,0.114,0.179,0.247,0.347,1,3600.0,227.7,164.1,63.5,573.7,227.7,381.2,301.0,217.0,84.0,573.7,301.0,504.0,Magnoliopsida; Tracheophyta; Pinus pinaster Aiton; Eucalyptus L'Hér.; Vitis vinifera L.; Pinales; Acacia Mill.; 
2003,2003-08-20,Porto,Paços de Ferreira,Ferreira,MOITA,41.2663712,-8.3445627,NC,331.0,2003-08-20T11:00,23.6,59,15.0,26.2,0.0,0.0,0.0,0.0,0,1018.3,980.4,1,1,0,0,0.51,1.2,3.6,4.0,264,260,17.3,27.6,22.2,22.3,18.3,0.106,0.164,0.237,0.343,1,3600.0,826.7,717.4,109.3,883.9,826.7,1084.2,779.0,676.0,103.0,883.9,779.0,1021.6,Eucalyptus L'Hér.; Tracheophyta; Magnoliopsida; Quercus L.; Pinus pinaster Aiton; 
