year,date,district,municipality,parish,local,latitude,longitude,cause,elevation,hourly.time,hourly.temperature_2m,hourly.relative_humidity_2m,hourly.dew_point_2m,hourly.apparent_temperature,hourly.precipitation,hourly.rain,hourly.snowfall,hourly.snow_depth,hourly.weather_code,hourly.pressure_msl,hourly.surface_pressure,hourly.cloud_cover,hourly.cloud_cover_low,hourly.cloud_cover_mid,hourly.cloud_cover_high,hourly.et0_fao_evapotranspiration,hourly.vapour_pressure_deficit,hourly.wind_speed_10m,hourly.wind_speed_100m,hourly.wind_direction_10m,hourly.wind_direction_100m,hourly.wind_gusts_10m,hourly.soil_temperature_0_to_7cm,hourly.soil_temperature_7_to_28cm,hourly.soil_temperature_28_to_100cm,hourly.soil_temperature_100_to_255cm,hourly.soil_moisture_0_to_7cm,hourly.soil_moisture_7_to_28cm,hourly.soil_moisture_28_to_100cm,hourly.soil_moisture_100_to_255cm,hourly.is_day,hourly.sunshine_duration,hourly.shortwave_radiation_instant,hourly.direct_radiation_instant,hourly.diffuse_radiation_instant,hourly.direct_normal_irradiance_instant,hourly.global_tilted_irradiance_instant,hourly.terrestrial_radiation_instant,hourly.shortwave_radiation,hourly.direct_radiation,hourly.diffuse_radiation,hourly.direct_normal_irradiance,hourly.global_tilted_irradiance,hourly.terrestrial_radiation,scientificNames
2004,2004-07-04,Viana do Castelo,Ponte de Lima,Beiral do Lima,Torre,41.7637598,-8.4841489,NC,282.0,2004-07-04T13:00,24.3,56,14.9,26.1,0.0,0.0,0.0,0.0,0,1018.5,986.1,2,2,0,0,0.62,1.34,13.9,17.9,329,332,39.2,27.8,20.6,19.0,14.9,0.124,0.202,0.27,0.358,1,3600.0,954.3,829.4,124.9,880.0,954.3,1247.1,955.0,830.0,125.0,880.0,955.0,1248.0,Magnoliopsida; Pinus pinaster Aiton; Eucalyptus L'Hér.; Tracheophyta
2004,2004-07-04,Viana do Castelo,Viana do Castelo,Barroselas,Souto,41.6471968,-8.7014513,NC,69.0,2004-07-04T19:00,20.1,71,14.7,18.4,0.0,0.0,0.0,0.0,0,1017.8,1009.7,0,0,0,0,0.16,0.69,22.2,32.4,331,334,44.6,24.7,22.7,20.2,16.4,0.116,0.182,0.251,0.35,1,3600.0,149.2,104.1,45.2,532.7,149.2,258.4,218.0,152.0,66.0,532.7,218.0,377.5,Tracheophyta; Magnoliopsida; Quercus L.; Eucalyptus L'Hér.
2004,2004-07-03,Viana do Castelo,Arcos de Valdevez,Souto,Milhundos,41.8099641,-8.4439802,NC,80.0,2004-07-03T20:00,20.0,70,14.4,18.4,0.0,0.0,0.0,0.0,0,1018.9,1009.5,0,0,0,0,0.09,0.69,20.3,31.0,333,337,38.9,23.6,22.9,20.1,15.9,0.124,0.204,0.267,0.357,1,2502.1,12.3,6.9,5.4,79.2,9.8,27.2,64.0,36.0,28.0,269.3,64.0,141.7,Vitis vinifera L.; Magnoliopsida; Pinus pinaster Aiton; Eucalyptus L'Hér.; Tracheophyta; Quercus L.
2004,2004-07-04,Viana do Castelo,Paredes de Coura,Ferreira,Venade,41.9456186,-8.5648029,NC,525.0,2004-07-04T23:00,15.4,81,12.1,15.2,0.0,0.0,0.0,0.0,0,1018.3,957.3,4,5,0,0,0.0,0.34,5.8,8.6,353,2,18.7,17.9,20.3,17.7,13.6,0.115,0.192,0.268,0.358,0,0.0,0.0,0.0,0.0,0.0,0.0,0.0,0.0,0.0,0.0,0.0,0.0,0.0,Tracheophyta; Eucalyptus L'Hér.; Magnoliopsida; Quercus L.; Pinus pinaster Aiton; 
2004,2004-06-27,Viana do Castelo,Valença,Gandra,Tuido,42.0055903,-8.6164853,NC,96.0,2004-06-27T15:00,25.8,59,17.2,26.5,0.0,0.0,0.0,0.0,0,1021.9,1010.8,2,1,0,2,0.56,1.35,22.2,30.4,331,336,40.7,28.1,22.1,19.2,15.2,0.201,0.213,0.274,0.36,1,3600.0,803.7,685.3,118.5,835.0,803.7,1086.1,848.0,723.0,125.0,835.0,848.0,1145.9,Magnoliopsida; Eucalyptus L'Hér.; Tracheophyta; Vitis vinifera L.; Pinus pinaster Aiton; Acacia Mill.; 
2004,2004-05-20,Viana do Castelo,Caminha,Venade,Ribas,41.8603964,-8.8095563,NC,4.0,2004-05-20T20:00,20.4,66,13.9,20.1,0.0,0.0,0.0,0.0,1,1012.9,1012.4,38,0,15,98,0.06,0.81,10.8,20.6,356,6,24.1,21.9,21.6,16.6,13.4,0.159,0.266,0.33,0.379,0,166.31,0.0,0.0,0.0,0.0,0.0,0.0,25.0,8.0,17.0,74.1,25.0,85.1,Eucalyptus L'Hér.; Pinus pinaster Aiton; Tracheophyta; Magnoliopsida
2004,2004-07-03,Viana do Castelo,Monção,Barroças e Taias,BARROÇAS E TAIAS,41.9978507,-8.4985017,NC,145.0,2004-07-03T22:00,17.1,85,14.5,17.0,0.0,0.0,0.0,0.0,0,1020.2,1003.0,0,0,0,0,0.01,0.3,10.7,16.6,346,358,18.7,20.0,21.8,19.4,15.4,0.117,0.187,0.263,0.356,0,0.0,0.0,0.0,0.0,0.0,0.0,0.0,0.0,0.0,0.0,0.0,0.0,0.0,Pinus pinaster Aiton; Tracheophyta; Eucalyptus L'Hér.; Magnoliopsida; 
2004,2004-07-04,Viana do Castelo,Valença,Taião,TAIÃO,42.0156094,-8.620661185438873,NC,79.0,2004-07-04T20:00,20.0,71,14.5,18.6,0.0,0.0,0.0,0.0,0,1017.7,1008.4,0,0,0,0,0.09,0.68,19.4,30.9,338,341,42.1,23.4,22.5,19.8,15.9,0.113,0.184,0.261,0.355,1,2565.39,13.5,7.5,6.0,86.2,11.0,31.3,63.0,35.0,28.0,259.2,63.0,145.6,Magnoliopsida; Eucalyptus L'Hér.; Tracheophyta; Vitis vinifera L.; Pinus pinaster Aiton; Acacia Mill.; 
2004,2004-07-03,Viana do Castelo,Arcos de Valdevez,Soajo,Vilar de Soente,41.8842468,-8.313467,NC,632.0,2004-07-03T23:00,15.5,83,12.6,15.6,0.0,0.0,0.0,0.0,0,1020.0,947.0,0,0,0,0,0.0,0.3,4.7,6.8,360,360,13.3,18.2,21.0,18.2,13.4,0.177,0.253,0.322,0.408,0,0.0,0.0,0.0,0.0,0.0,0.0,0.0,0.0,0.0,0.0,0.0,0.0,0.0,Magnoliopsida; Pinales; Quercus L.; Pinus pinaster Aiton
2004,2004-07-04,Viana do Castelo,Valença,Friestas,FRIESTAS,42.0518243,-8.563231509227805,NC,2.0,2004-07-04T01:00,15.9,92,14.6,15.9,0.0,0.0,0.0,0.0,0,1019.1,1018.9,1,0,2,0,0.0,0.15,10.7,18.5,346,352,18.7,17.6,22.1,20.1,16.5,0.074,0.122,0.164,0.259,0,0.0,0.0,0.0,0.0,0.0,0.0,0.0,0.0,0.0,0.0,0.0,0.0,0.0,Pinus pinaster Aiton; Magnoliopsida; Tracheophyta; Vitis vinifera L.; 
2004,2004-06-27,Viana do Castelo,Caminha,Riba de Âncora,Pena,41.8112515,-8.8186725,NC,65.0,2004-06-27T11:00,22.7,73,17.6,24.5,0.0,0.0,0.0,0.0,0,1022.4,1014.8,18,20,0,0,0.46,0.74,15.4,19.6,339,347,34.2,25.9,21.7,20.0,16.1,0.204,0.217,0.276,0.361,1,3600.0,837.8,686.3,151.6,774.5,837.8,1172.6,796.0,652.0,144.0,774.5,796.0,1114.1,Pinus pinaster Aiton; Tracheophyta; Magnoliopsida; Eucalyptus L'Hér.
2004,2004-07-05,Viana do Castelo,Ponte da Barca,Lindoso,Cidadelhe,41.8601167,-8.2430935,NC,251.0,2004-07-05T07:00,17.4,84,14.8,18.1,0.0,0.0,0.0,0.0,1,1017.8,988.3,33,1,30,48,0.08,0.31,6.2,9.5,21,29,18.4,18.2,20.9,20.0,15.7,0.136,0.202,0.274,0.363,1,3600.0,214.4,124.5,89.9,384.5,214.4,428.4,155.0,90.0,65.0,384.5,155.0,309.7,Magnoliopsida; Vitis vinifera L.; Pinus pinaster Aiton
2004,2004-09-24,Viana do Castelo,Viana do Castelo,Anha,VILA NOVA DE ANHA,41.6583676,-8.7982116,NC,14.0,2004-09-24T14:00,26.8,45,13.8,28.0,0.0,0.0,0.0,0.0,0,1015.4,1013.8,0,0,0,0,0.51,1.95,7.4,7.8,331,347,19.8,29.9,22.7,20.9,20.0,0.108,0.207,0.27,0.33,1,3600.0,689.7,597.9,91.8,882.6,689.7,921.4,721.0,625.0,96.0,882.6,721.0,963.1,Magnoliopsida; Pinus pinaster Aiton; Tracheophyta; Eucalyptus L'Hér.
2004,2004-07-04,Viana do Castelo,Viana do Castelo,Vila Fria,VILA FRIA,41.66066935,-8.760610979887733,Desconhecida,39.0,2004-07-04T22:00,17.9,78,14.0,17.2,0.0,0.0,0.0,0.0,0,1018.6,1013.9,4,4,0,0,0.03,0.45,14.1,25.0,347,353,32.0,20.3,22.3,20.1,16.5,0.103,0.2,0.269,0.357,0,0.0,0.0,0.0,0.0,0.0,0.0,0.0,0.0,0.0,0.0,0.0,0.0,0.0,Eucalyptus L'Hér.; Tracheophyta; Magnoliopsida
2004,2004-07-04,Viana do Castelo,Ponte de Lima,Calheiros,Nova,41.8064192,-8.570225,NC,160.0,2004-07-04T10:00,21.3,65,14.4,22.3,0.0,0.0,0.0,0.0,0,1019.0,1000.3,0,0,0,0,0.43,0.89,9.7,12.1,329,333,28.8,23.3,20.1,19.5,15.7,0.127,0.2,0.262,0.355,1,3600.0,777.6,669.9,107.7,852.2,777.6,1040.2,715.0,616.0,99.0,852.2,715.0,956.4,Eucalyptus L'Hér.; Magnoliopsida; Tracheophyta; Olea europaea L.
2004,2004-07-04,Viana do Castelo,Monção,Moreira,Quinta da Torre,42.0184064,-8.492016,NC,76.0,2004-07-04T12:00,23.2,63,15.8,24.4,0.0,0.0,0.0,0.0,0,1019.3,1010.4,14,15,0,0,0.55,1.06,18.0,23.2,331,336,38.2,26.7,21.0,19.8,15.9,0.116,0.186,0.262,0.355,1,3600.0,928.6,802.6,126.1,858.8,928.6,1236.5,906.0,783.0,123.0,858.8,906.0,1206.4,Magnoliopsida; Pinus pinaster Aiton; Tracheophyta; Vitis vinifera L.; 
2004,2004-07-06,Viana do Castelo,Valença,Taião,Taião de Baixo,41.990382,-8.5846855,NC,320.0,2004-07-06T09:00,18.2,69,12.4,17.4,0.0,0.0,0.0,0.0,1,1014.2,977.0,39,18,0,75,0.23,0.65,10.0,13.4,15,20,28.4,20.0,19.6,18.7,14.8,0.114,0.185,0.262,0.355,1,3600.0,443.7,279.1,164.5,427.8,443.7,863.4,391.0,246.0,145.0,427.8,391.0,760.9,Magnoliopsida; Eucalyptus L'Hér.; Tracheophyta; Vitis vinifera L.; Pinus pinaster Aiton; Acacia Mill.; 
2004,2004-07-04,Viana do Castelo,Vila Nova de Cerveira,Candemil,CANDEMIL,41.9353247,-8.6971997785476,NC,368.0,2004-07-04T19:00,19.9,67,13.7,19.1,0.0,0.0,0.0,0.0,0,1017.8,975.2,0,0,0,0,0.15,0.75,13.2,19.5,334,337,38.2,24.1,21.5,18.7,14.7,0.117,0.19,0.261,0.355,1,3600.0,149.6,105.7,43.9,539.1,149.6,259.4,218.0,154.0,64.0,539.1,218.0,378.0,Tracheophyta; Pinus pinaster Aiton; Eucalyptus L'Hér.; Magnoliopsida
2004,2004-06-15,Viana do Castelo,Monção,Cambeses,Milagres,42.0467536,-8.470773,NC,134.0,2004-06-15T02:00,18.2,62,10.9,16.0,0.0,0.0,0.0,0.0,1,1018.5,1002.6,25,0,0,84,0.07,0.79,17.2,27.3,74,81,30.2,20.0,23.4,19.1,13.8,0.113,0.206,0.295,0.368,0,0.0,0.0,0.0,0.0,0.0,0.0,0.0,0.0,0.0,0.0,0.0,0.0,0.0,Vitis vinifera L.; Pinus pinaster Aiton; Magnoliopsida; Tracheophyta; 
2004,2004-07-08,Viana do Castelo,Viana do Castelo,Darque,Cais Novo,41.683106,-8.796185,NC,18.0,2004-07-08T12:00,17.9,66,11.6,17.1,0.0,0.0,0.0,0.0,1,1024.4,1022.2,35,14,37,0,0.38,0.69,14.7,17.8,301,302,29.2,21.6,18.8,20.0,16.9,0.283,0.209,0.267,0.356,1,3600.0,712.8,467.7,245.1,501.0,712.8,1235.3,695.0,456.0,239.0,501.0,695.0,1204.4,Tracheophyta; Magnoliopsida; Pinus pinaster Aiton; Eucalyptus L'Hér.
2004,2004-07-05,Viana do Castelo,Valença,Taião,Enchurreiras,41.990382,-8.5846855,NC,320.0,2004-07-05T10:00,21.2,56,12.1,20.6,0.0,0.0,0.0,0.0,2,1018.6,981.6,66,71,0,8,0.42,1.11,14.0,19.0,35,37,33.5,22.8,19.5,18.6,14.7,0.118,0.188,0.264,0.356,1,3600.0,748.1,598.0,150.1,761.7,748.1,1038.9,688.0,550.0,138.0,761.7,688.0,955.4,Magnoliopsida; Eucalyptus L'Hér.; Tracheophyta; Vitis vinifera L.; Pinus pinaster Aiton; Acacia Mill.; 
2004,2004-06-28,Viana do Castelo,Ponte de Lima,Arcos,São Pedro,41.767579,-8.635575703251872,NC,16.0,2004-06-28T17:00,28.4,57,19.0,28.9,0.0,0.0,0.0,0.0,0,1020.0,1018.2,7,0,0,22,0.46,1.68,21.4,29.5,335,340,35.3,29.2,23.8,20.2,16.2,0.187,0.223,0.269,0.358,1,3600.0,522.7,436.9,85.8,797.6,522.7,724.9,597.0,499.0,98.0,797.6,597.0,827.9,Magnoliopsida; Eucalyptus L'Hér.
2004,2004-07-03,Viana do Castelo,Ponte de Lima,Rebordões (santa Maria),Santa Maria,41.7353587,-8.5781207,NC,74.0,2004-07-03T13:00,24.8,45,12.1,25.3,0.0,0.0,0.0,0.0,0,1020.1,1011.5,0,0,0,0,0.65,1.72,16.8,21.1,329,337,32.8,28.3,21.3,20.1,16.2,0.123,0.186,0.253,0.351,1,3600.0,978.6,859.7,119.0,911.0,978.6,1248.6,979.0,860.0,119.0,911.0,979.0,1249.0,Eucalyptus L'Hér.; Pinus pinaster Aiton; Tracheophyta; Magnoliopsida
2004,2004-07-01,Viana do Castelo,Ponte de Lima,Vilar das Almas,Eiras,41.6370951,-8.5496266,NC,143.0,2004-07-01T18:00,22.3,53,12.3,18.8,0.0,0.0,0.0,0.0,0,1020.5,1003.8,0,0,0,0,0.32,1.26,28.5,39.5,331,332,55.1,26.1,22.6,19.7,15.3,0.133,0.203,0.264,0.356,1,3600.0,335.2,267.0,68.2,713.2,335.2,495.3,413.0,329.0,84.0,713.2,413.0,610.3,Eucalyptus L'Hér.; Pinus pinaster Aiton; Tracheophyta; Magnoliopsida
2004,2004-07-06,Viana do Castelo,Ponte de Lima,Gemieira,GEMIEIRA,41.7832158,-8.5239561,NC,11.0,2004-07-06T15:00,23.4,58,14.7,21.2,0.0,0.0,0.0,0.0,3,1012.8,1011.5,100,85,1,87,0.44,1.21,28.6,38.2,326,330,56.9,28.2,23.0,20.6,16.6,0.115,0.193,0.263,0.355,1,3600.0,617.9,311.8,306.1,380.9,617.9,1083.1,652.0,329.0,323.0,380.9,652.0,1143.0,Magnoliopsida; Eucalyptus L'Hér.; Tracheophyta; Quercus suber L.; Pinus pinaster Aiton
2004,2004-09-26,Viana do Castelo,Valença,Valença,VALENÇA,42.0247035,-8.6392948,NC,45.0,2004-09-26T04:00,13.9,84,11.2,12.8,0.0,0.0,0.0,0.0,1,1021.1,1015.6,26,0,0,86,0.01,0.25,10.1,18.0,84,87,18.7,16.3,20.8,20.5,19.6,0.142,0.216,0.259,0.322,0,0.0,0.0,0.0,0.0,0.0,0.0,0.0,0.0,0.0,0.0,0.0,0.0,0.0,Tracheophyta; Magnoliopsida
2004,2004-07-05,Viana do Castelo,Viana do Castelo,Alvarães,ALVARÃES,41.6484261,-8.7396176,NC,75.0,2004-07-05T21:00,20.2,64,13.1,18.2,0.0,0.0,0.0,0.0,0,1016.4,1007.6,0,0,0,0,0.11,0.86,20.4,32.8,351,357,40.0,22.9,23.1,20.2,16.4,0.112,0.179,0.249,0.349,0,0.0,0.0,0.0,0.0,0.0,0.0,0.0,0.0,0.0,0.0,0.0,0.0,2.9,Tracheophyta; Eucalyptus L'Hér.; Pinus pinaster Aiton; Magnoliopsida
2004,2004-07-01,Viana do Castelo,Vila Nova de Cerveira,Sopo,Espinhosa,41.9069165,-8.7368647,NC,270.0,2004-07-01T20:00,17.5,68,11.5,15.8,0.0,0.0,0.0,0.0,0,1020.4,988.6,0,0,0,0,0.07,0.64,14.3,26.2,335,339,43.6,21.4,21.7,19.1,15.0,0.139,0.203,0.266,0.357,1,2581.68,14.1,8.0,6.2,91.3,11.6,32.4,64.0,36.0,28.0,266.0,64.0,146.6,Eucalyptus L'Hér.; Pinus pinaster Aiton; Tracheophyta; Magnoliopsida
2004,2004-07-04,Viana do Castelo,Caminha,Riba de Âncora,Pena,41.8112515,-8.8186725,NC,65.0,2004-07-04T17:00,21.4,69,15.5,19.9,0.0,0.0,0.0,0.0,0,1017.9,1010.3,0,0,0,0,0.34,0.78,23.7,32.4,330,333,45.4,27.5,22.5,20.3,16.7,0.096,0.196,0.268,0.357,1,3600.0,511.5,422.1,89.3,769.6,511.5,725.7,584.0,482.0,102.0,769.6,584.0,828.6,Pinus pinaster Aiton; Tracheophyta; Magnoliopsida; Eucalyptus L'Hér.
2004,2004-06-04,Viana do Castelo,Ponte de Lima,Freixo,FREIXO,41.66032785,-8.594177125828846,NC,154.0,2004-06-04T14:00,30.0,34,12.6,33.0,0.0,0.0,0.0,0.0,0,1017.1,999.6,0,0,0,0,0.69,2.79,2.8,3.9,130,124,25.6,29.7,21.9,17.2,13.0,0.179,0.258,0.314,0.374,1,3600.0,920.2,809.4,110.8,904.1,920.2,1189.8,947.0,833.0,114.0,904.1,947.0,1224.5,Eucalyptus L'Hér.; Tracheophyta; Pinus pinaster Aiton; Magnoliopsida
2004,2004-07-04,Viana do Castelo,Arcos de Valdevez,Souto,SOUTO,41.8172543,-8.44340031426708,NC,157.0,2004-07-04T21:00,18.9,75,14.4,18.9,0.0,0.0,0.0,0.0,0,1017.3,998.8,0,0,0,0,0.05,0.54,10.0,19.3,319,331,28.4,21.8,22.5,19.6,15.5,0.12,0.199,0.265,0.357,0,0.0,0.0,0.0,0.0,0.0,0.0,0.0,0.0,0.0,0.0,0.0,0.0,3.4,Vitis vinifera L.; Tracheophyta; Magnoliopsida; Eucalyptus L'Hér.; Quercus L.
2004,2004-07-02,Viana do Castelo,Monção,Longos Vales,Nogueira,42.0496148,-8.4404588,NC,193.0,2004-07-02T08:00,16.4,63,9.3,13.9,0.0,0.0,0.0,0.0,0,1023.1,1000.1,2,2,0,0,0.2,0.7,16.3,21.3,18,22,34.2,17.9,19.3,19.0,14.7,0.13,0.194,0.27,0.358,1,3600.0,424.7,323.4,101.3,643.8,424.7,664.6,352.0,268.0,84.0,643.8,352.0,550.8,Vitis vinifera L.; Pinus pinaster Aiton; Tracheophyta; Magnoliopsida; Quercus L.; Eucalyptus L'Hér.; Acacia Mill.; 
2004,2004-07-07,Viana do Castelo,Caminha,Dem,DEM,41.84048545,-8.770811043242645,NC,259.0,2004-07-07T09:00,15.3,77,11.3,14.2,0.1,0.1,0.0,0.0,51,1017.6,986.9,100,100,22,0,0.19,0.39,10.4,13.7,224,225,36.0,18.7,19.0,19.1,15.4,0.118,0.186,0.259,0.353,1,3600.0,407.8,219.2,188.6,337.1,407.8,860.6,359.0,193.0,166.0,337.1,359.0,757.6,Pinus pinaster Aiton; Eucalyptus L'Hér.; Magnoliopsida; Tracheophyta; Quercus L.
2004,2004-06-16,Viana do Castelo,Melgaço,São Paio,Baratinha,42.0931519,-8.2597106,NC,253.0,2004-06-16T19:00,25.4,45,12.5,24.9,0.0,0.0,0.0,0.0,0,1017.5,988.5,0,0,0,0,0.18,1.79,8.6,14.8,327,331,29.9,27.0,23.3,18.8,13.1,0.113,0.211,0.3,0.37,1,3600.0,149.8,106.9,42.9,563.0,149.8,251.6,220.0,157.0,63.0,563.0,220.0,369.6,Tracheophyta; Vitis vinifera L.
2004,2004-06-28,Viana do Castelo,Monção,Cambeses,Milagres,42.0467536,-8.470773,NC,134.0,2004-06-28T22:00,20.7,73,15.7,20.1,0.0,0.0,0.0,0.0,0,1022.1,1006.3,0,0,0,0,0.05,0.66,17.1,27.8,28,41,33.1,21.9,22.8,19.2,15.1,0.17,0.207,0.272,0.359,0,0.0,0.0,0.0,0.0,0.0,0.0,0.0,0.0,0.0,0.0,0.0,0.0,0.0,Vitis vinifera L.; Pinus pinaster Aiton; Magnoliopsida; Tracheophyta; 
2004,2004-07-06,Viana do Castelo,Valença,Friestas,Lavandeiras,42.0447506,-8.5679013,NC,52.0,2004-07-06T20:00,17.4,78,13.5,14.6,0.0,0.0,0.0,0.0,1,1014.0,1007.8,34,8,20,49,0.08,0.45,27.6,39.9,327,329,55.8,21.2,21.9,20.0,16.2,0.109,0.179,0.258,0.354,1,935.01,8.2,2.6,5.6,30.1,6.6,26.3,44.0,14.0,30.0,105.1,44.0,140.6,Pinus pinaster Aiton; Magnoliopsida; Tracheophyta; Vitis vinifera L.; 
2004,2004-07-06,Viana do Castelo,Ponte da Barca,Britelo,BRITELO,41.8482028,-8.2854609,NC,119.0,2004-07-06T20:00,18.6,74,13.8,16.9,0.0,0.0,0.0,0.0,1,1013.4,999.4,34,9,20,48,0.08,0.56,19.7,30.5,310,315,45.4,22.3,22.7,20.0,15.9,0.121,0.197,0.269,0.358,1,0.0,4.2,0.8,3.5,9.0,3.3,21.4,27.0,5.0,22.0,38.0,27.0,136.0,Magnoliopsida; Quercus L.; Tracheophyta; Pinus pinaster Aiton
2004,2004-07-02,Viana do Castelo,Arcos de Valdevez,Jolda (são Paio),São Paio,41.7931753,-8.4849878,NC,13.0,2004-07-02T17:00,24.3,47,12.3,21.1,0.0,0.0,0.0,0.0,0,1021.1,1019.6,0,0,0,0,0.45,1.61,29.0,39.1,332,334,51.5,28.0,22.9,20.5,16.2,0.132,0.21,0.269,0.358,1,3600.0,525.1,439.3,85.8,804.4,525.1,722.6,600.0,502.0,98.0,804.4,600.0,825.8,Vitis vinifera L.; Eucalyptus L'Hér.; Magnoliopsida; Tracheophyta
2004,2004-07-07,Viana do Castelo,Ponte de Lima,Freixo,Paço,41.6532383,-8.605341047025863,NC,145.0,2004-07-07T00:00,14.6,79,11.0,12.8,0.0,0.0,0.0,0.0,1,1016.3,999.0,22,25,0,0,0.02,0.35,14.0,21.8,316,321,41.0,18.1,21.7,20.0,16.0,0.114,0.189,0.257,0.353,0,0.0,0.0,0.0,0.0,0.0,0.0,0.0,0.0,0.0,0.0,0.0,0.0,0.0,Eucalyptus L'Hér.; Vitis vinifera L.; Tracheophyta; Pinus pinaster Aiton; Magnoliopsida
2004,2004-06-28,Viana do Castelo,Valença,Verdoejo,Barreiras,42.0223828,-8.5934111,NC,546.0,2004-06-28T15:00,27.5,49,15.7,30.6,0.0,0.0,0.0,0.0,0,1021.2,960.1,10,0,0,35,0.61,1.89,5.7,6.9,305,309,19.8,28.1,20.6,17.1,12.9,0.182,0.221,0.28,0.362,1,3600.0,819.5,692.5,126.9,845.7,819.5,1083.6,865.0,731.0,134.0,845.7,865.0,1143.8,Magnoliopsida; Vitis vinifera L.; Pinus pinaster Aiton; Tracheophyta; Eucalyptus L'Hér.; 
2004,2004-07-08,Viana do Castelo,Viana do Castelo,Castelo do Neiva,Areia,41.6312709,-8.8010054,NC,41.0,2004-07-08T17:00,18.8,63,11.7,16.9,0.0,0.0,0.0,0.0,1,1025.2,1020.3,27,18,18,0,0.32,0.8,16.8,22.2,317,318,33.5,22.6,19.9,20.1,16.8,0.211,0.173,0.245,0.347,1,3600.0,485.4,377.8,107.6,693.3,485.4,721.0,555.0,432.0,123.0,693.3,555.0,824.4,Pinus pinaster Aiton; Tracheophyta; Eucalyptus L'Hér.
2004,2004-07-05,Viana do Castelo,Monção,Mazedo,MAZEDO,42.05656855,-8.491762953612218,NC,55.0,2004-07-05T21:00,18.9,71,13.5,17.1,0.0,0.0,0.0,0.0,0,1016.4,1009.9,0,0,0,0,0.08,0.63,20.4,32.8,351,357,40.0,22.2,22.9,19.9,15.9,0.11,0.18,0.262,0.356,0,0.0,0.0,0.0,0.0,0.0,0.0,0.0,0.0,0.0,0.0,0.0,0.0,4.0,Tracheophyta; Vitis vinifera L.; Magnoliopsida; Pinus pinaster Aiton; Eucalyptus L'Hér.; 
2004,2004-07-05,Viana do Castelo,Ponte da Barca,Bravães,BRAVÃES,41.7978436,-8.452927385709145,NC,70.0,2004-07-05T08:00,19.9,72,14.7,19.5,0.0,0.0,0.0,0.0,1,1018.0,1009.7,48,1,43,71,0.19,0.65,13.5,16.8,344,350,23.8,20.6,20.9,20.2,16.1,0.12,0.199,0.266,0.357,1,3600.0,366.0,219.4,146.6,442.6,366.0,655.7,302.0,181.0,121.0,442.6,302.0,541.0,Eucalyptus L'Hér.; Vitis vinifera L.; Pinus pinaster Aiton; Tracheophyta; Magnoliopsida
2004,2004-07-06,Viana do Castelo,Vila Nova de Cerveira,Gondar,GONDAR,41.9122396,-8.6794927,NC,226.0,2004-07-06T08:00,17.1,74,12.4,15.2,0.0,0.0,0.0,0.0,0,1014.6,988.0,20,3,1,55,0.18,0.52,18.2,23.7,9,13,33.8,19.0,20.2,19.3,15.6,0.115,0.188,0.26,0.354,1,3600.0,381.9,254.6,127.3,515.3,381.9,653.7,315.0,210.0,105.0,515.3,315.0,539.2,Magnoliopsida; Eucalyptus L'Hér.; Pinus pinaster Aiton
2004,2004-06-15,Viana do Castelo,Arcos de Valdevez,Padroso,Lamosa \ CAS,41.9418847,-8.490082,NC,493.0,2004-06-15T19:00,24.7,40,10.2,22.9,0.0,0.0,0.0,0.0,0,1018.1,962.4,0,0,0,0,0.22,1.87,13.0,22.2,34,36,32.8,25.6,22.1,17.9,12.3,0.131,0.226,0.31,0.373,1,3600.0,146.4,104.4,42.0,556.2,146.4,248.7,216.0,154.0,62.0,556.2,216.0,367.0,Tracheophyta; Magnoliopsida; Pinus pinaster Aiton; Quercus L.; Eucalyptus L'Hér.
2004,2004-07-03,Viana do Castelo,Ponte de Lima,Navió,NAVIO,41.6670938,-8.610355915206945,NC,135.0,2004-07-03T17:00,23.5,53,13.4,21.6,0.0,0.0,0.0,0.0,0,1019.3,1003.6,0,0,0,0,0.41,1.37,21.8,29.6,322,323,44.3,27.9,22.4,19.9,15.8,0.125,0.201,0.262,0.355,1,3600.0,520.4,434.7,85.7,796.8,520.4,721.8,595.0,497.0,98.0,796.8,595.0,825.3,Tracheophyta; Eucalyptus L'Hér.; Magnoliopsida; Vitis vinifera L.
2004,2004-07-06,Viana do Castelo,Ponte de Lima,Beiral do Lima,Beiral do Lima,41.7637598,-8.4841489,NC,282.0,2004-07-06T08:00,17.9,74,13.3,17.9,0.0,0.0,0.0,0.0,1,1014.0,981.1,22,6,0,54,0.18,0.52,6.5,8.7,357,5,19.8,19.5,20.3,19.1,15.1,0.116,0.196,0.267,0.357,1,3600.0,402.4,284.8,117.6,574.7,402.4,655.8,332.0,235.0,97.0,574.7,332.0,541.1,Magnoliopsida; Pinus pinaster Aiton; Eucalyptus L'Hér.; Tracheophyta
2004,2004-07-05,Viana do Castelo,Paredes de Coura,Ferreira,FERREIRA,41.9305132,-8.5932664,NC,297.0,2004-07-05T15:00,26.0,41,11.8,25.6,0.0,0.0,0.0,0.0,0,1017.0,983.2,9,0,15,0,0.59,1.98,16.0,21.6,8,11,38.2,29.5,21.6,19.2,15.2,0.114,0.188,0.26,0.354,1,3600.0,769.6,616.0,153.5,752.5,769.6,1083.1,812.0,650.0,162.0,752.5,812.0,1142.8,Tracheophyta; Eucalyptus L'Hér.; Magnoliopsida; Quercus L.; Pinus pinaster Aiton; 
2004,2004-07-07,Viana do Castelo,Ponte de Lima,Vitorino dos Piães,VITORINO DOS PIÃES,41.68319845,-8.626889798467637,NC,160.0,2004-07-07T17:00,14.4,83,11.6,12.9,3.0,3.0,0.0,0.0,63,1017.7,998.6,53,50,12,4,0.18,0.27,13.7,18.5,293,294,46.8,20.1,20.2,19.8,15.9,0.374,0.192,0.257,0.352,1,3600.0,329.6,147.7,181.8,271.6,329.6,719.8,377.0,169.0,208.0,271.6,377.0,823.4,Pinus pinaster Aiton; Tracheophyta; Magnoliopsida; Eucalyptus L'Hér.
2004,2004-06-14,Viana do Castelo,Viana do Castelo,Perre,Portela,41.7226783,-8.7785788,NC,63.0,2004-06-14T22:00,22.7,57,13.6,22.1,0.0,0.0,0.0,0.0,1,1017.6,1010.2,22,0,0,75,0.07,1.2,12.2,14.6,43,50,19.8,23.7,24.8,19.7,14.6,0.092,0.203,0.291,0.368,0,0.0,0.0,0.0,0.0,0.0,0.0,0.0,0.0,0.0,0.0,0.0,0.0,0.0,Tracheophyta; Eucalyptus L'Hér.; Vitis vinifera L.; Magnoliopsida
2004,2004-07-09,Viana do Castelo,Monção,Moreira,MOREIRA,42.0208646,-8.4869212,NC,82.0,2004-07-09T12:00,18.3,65,11.6,17.4,0.0,0.0,0.0,0.0,3,1023.0,1013.2,93,41,94,0,0.35,0.74,10.8,12.6,217,217,20.9,21.1,18.1,19.2,16.2,0.269,0.192,0.257,0.353,1,3600.0,603.0,231.8,371.2,249.0,603.0,1231.8,588.0,226.0,362.0,249.0,588.0,1201.1,Magnoliopsida; Pinus pinaster Aiton; Tracheophyta; Vitis vinifera L.; 
2004,2004-07-03,Viana do Castelo,Valença,Taião,TAIÃO,42.0156094,-8.620661185438873,NC,79.0,2004-07-03T21:00,18.4,80,14.9,18.1,0.0,0.0,0.0,0.0,0,1019.4,1010.0,0,0,0,0,0.04,0.42,13.4,23.2,340,344,28.4,21.7,22.4,19.8,15.8,0.117,0.187,0.263,0.356,0,0.0,0.0,0.0,0.0,0.0,0.0,0.0,1.0,0.0,1.0,0.0,1.0,6.3,Magnoliopsida; Eucalyptus L'Hér.; Tracheophyta; Vitis vinifera L.; Pinus pinaster Aiton; Acacia Mill.; 
2004,2004-06-29,Viana do Castelo,Monção,Cambeses,Milagres,42.0467536,-8.470773,NC,134.0,2004-06-29T06:00,15.2,95,14.4,15.1,0.0,0.0,0.0,0.0,1,1020.4,1004.4,24,6,0,61,0.01,0.09,10.9,14.4,44,53,18.4,17.3,21.1,19.2,15.1,0.17,0.207,0.272,0.359,1,1012.7,80.8,33.7,47.2,220.3,48.9,202.3,36.0,15.0,21.0,133.2,36.0,90.1,Vitis vinifera L.; Pinus pinaster Aiton; Magnoliopsida; Tracheophyta; 
2004,2004-07-01,Viana do Castelo,Ponte de Lima,Vitorino dos Piães,VITORINO DOS PIÃES,41.68319845,-8.626889798467637,NC,160.0,2004-07-01T22:00,16.9,69,11.3,14.1,0.0,0.0,0.0,0.0,0,1022.7,1003.6,0,0,0,0,0.07,0.59,22.0,36.4,356,360,45.0,19.8,22.3,19.8,15.5,0.14,0.211,0.265,0.356,0,0.0,0.0,0.0,0.0,0.0,0.0,0.0,0.0,0.0,0.0,0.0,0.0,0.0,Pinus pinaster Aiton; Tracheophyta; Magnoliopsida; Eucalyptus L'Hér.
2004,2004-07-02,Viana do Castelo,Ponte de Lima,Refóios do Lima,Caneiro,41.7933146,-8.542976,NC,68.0,2004-07-02T17:00,24.0,47,12.0,20.6,0.0,0.0,0.0,0.0,0,1021.1,1013.2,0,0,0,0,0.45,1.58,29.0,39.1,332,334,51.5,27.6,22.5,20.2,15.9,0.132,0.21,0.269,0.358,1,3600.0,525.1,439.3,85.8,804.4,525.1,722.6,600.0,502.0,98.0,804.4,600.0,825.8,Magnoliopsida; Eucalyptus L'Hér.; Tracheophyta; Vitis vinifera L.
2004,2004-07-03,Viana do Castelo,Ponte de Lima,Refóios do Lima,REFÓIOS DO LIMA,41.779262,-8.5633595,NC,28.0,2004-07-03T16:00,23.9,53,13.7,22.3,0.0,0.0,0.0,0.0,0,1019.2,1015.9,0,0,0,0,0.5,1.4,25.5,34.5,318,321,45.7,28.5,22.4,20.4,16.5,0.128,0.201,0.263,0.355,1,3600.0,695.6,597.6,98.1,855.0,695.6,924.7,759.0,652.0,107.0,855.0,759.0,1009.0,Tracheophyta; Magnoliopsida; Pinus pinaster Aiton
2004,2004-07-03,Viana do Castelo,Vila Nova de Cerveira,Gondar,Espinheira,41.9122396,-8.6794927,NC,226.0,2004-07-03T20:00,18.0,78,14.1,17.5,0.0,0.0,0.0,0.0,0,1019.5,992.9,0,0,0,0,0.05,0.46,12.9,20.3,330,335,28.1,22.1,21.7,19.3,15.4,0.124,0.195,0.263,0.355,1,2531.45,13.4,7.5,5.9,86.3,10.8,29.2,66.0,37.0,29.0,275.6,66.0,143.4,Magnoliopsida; Eucalyptus L'Hér.; Pinus pinaster Aiton
2004,2004-06-30,Viana do Castelo,Vila Nova de Cerveira,Gondar,Amieira,41.9122396,-8.6794927,NC,226.0,2004-06-30T20:00,19.2,70,13.7,17.6,0.0,0.0,0.0,0.0,0,1021.5,994.9,13,0,0,43,0.09,0.66,19.7,31.6,342,345,40.3,22.5,22.6,19.3,15.2,0.149,0.207,0.268,0.358,1,2556.98,14.7,8.3,6.4,95.5,12.0,30.9,69.0,39.0,30.0,289.5,69.0,145.0,Magnoliopsida; Eucalyptus L'Hér.; Pinus pinaster Aiton
2004,2004-06-16,Viana do Castelo,Ponte da Barca,Oleiros,Airo,41.7917581,-8.4390971,NC,200.0,2004-06-16T14:00,29.4,32,11.2,29.9,0.0,0.0,0.0,0.0,0,1018.7,996.0,0,0,0,0,0.73,2.77,14.1,16.4,310,308,30.6,31.7,22.3,19.0,13.5,0.115,0.212,0.301,0.371,1,3600.0,929.1,815.3,113.8,904.0,929.1,1195.2,955.0,838.0,117.0,904.0,955.0,1228.5,Eucalyptus L'Hér.; Vitis vinifera L.; Castanea sativa Mill.; Magnoliopsida; Quercus L.; Tracheophyta; Pinus pinaster Aiton
2004,2004-06-16,Viana do Castelo,Arcos de Valdevez,Grade,Vilela,41.8807263,-8.3705327,NC,229.0,2004-06-16T20:00,23.1,53,13.0,23.1,0.0,0.0,0.0,0.0,0,1017.5,991.1,0,0,0,0,0.07,1.34,6.6,14.1,331,341,22.0,25.2,23.7,19.1,13.5,0.112,0.205,0.294,0.367,1,2403.68,9.8,5.5,4.3,62.6,7.6,21.7,61.0,34.0,27.0,259.9,61.0,135.3,Magnoliopsida; Pinus pinaster Aiton; Tracheophyta; Quercus L.; Acacia Mill.
2004,2004-07-06,Viana do Castelo,Viana do Castelo,Carvoeiro,Monte de Padela,41.6509991,-8.6636379,NC,98.0,2004-07-06T18:00,19.3,66,12.8,16.0,0.0,0.0,0.0,0.0,1,1013.1,1001.6,35,24,13,20,0.24,0.76,28.7,39.4,325,329,58.3,24.0,22.2,20.0,16.3,0.115,0.19,0.258,0.353,1,3600.0,300.1,220.6,79.5,589.8,300.1,495.0,370.0,272.0,98.0,589.8,370.0,610.2,Tracheophyta; Eucalyptus L'Hér.; Vitis vinifera L.; Magnoliopsida; Pinus pinaster Aiton
2004,2004-07-09,Viana do Castelo,Ponte de Lima,Navió,NAVIO,41.6670938,-8.610355915206945,NC,135.0,2004-07-09T00:00,12.5,95,11.7,11.8,0.0,0.0,0.0,0.0,0,1025.7,1009.3,3,3,0,0,0.0,0.07,8.1,11.8,347,340,17.3,15.0,18.7,19.6,16.2,0.291,0.219,0.256,0.352,0,0.0,0.0,0.0,0.0,0.0,0.0,0.0,0.0,0.0,0.0,0.0,0.0,0.0,Tracheophyta; Eucalyptus L'Hér.; Magnoliopsida; Vitis vinifera L.
2004,2004-07-07,Viana do Castelo,Viana do Castelo,Castelo do Neiva,CASTELO DE NEIVA,41.6226827,-8.815146998729485,NC,0.0,2004-07-07T07:00,15.5,81,12.2,14.9,0.0,0.0,0.0,0.0,1,1017.5,1017.5,46,37,21,0,0.06,0.34,8.9,10.8,291,291,27.0,17.6,20.8,20.6,17.0,0.114,0.173,0.246,0.347,1,3600.0,141.4,60.2,81.2,190.8,141.4,417.5,101.0,43.0,58.0,190.8,101.0,298.2,Tracheophyta; Pinus pinaster Aiton; Magnoliopsida
2004,2004-07-12,Viana do Castelo,Monção,Cambeses,Milagres,42.0467536,-8.470773,NC,134.0,2004-07-12T03:00,13.0,86,10.7,10.5,0.0,0.0,0.0,0.0,0,1019.7,1003.5,0,0,0,0,0.02,0.22,18.7,28.7,28,33,31.7,15.5,19.4,18.6,16.0,0.216,0.193,0.255,0.351,0,0.0,0.0,0.0,0.0,0.0,0.0,0.0,0.0,0.0,0.0,0.0,0.0,0.0,Vitis vinifera L.; Pinus pinaster Aiton; Magnoliopsida; Tracheophyta; 
2004,2004-07-12,Viana do Castelo,Ponte da Barca,Vila Chã (Santiago),Lamelas,41.8027687,-8.3279714,NC,205.0,2004-07-12T14:00,26.0,39,11.1,26.8,0.0,0.0,0.0,0.0,0,1016.3,992.8,0,0,0,0,0.66,2.04,11.9,15.2,360,4,27.4,26.9,20.0,18.5,15.7,0.196,0.201,0.264,0.355,1,3600.0,916.9,803.9,113.0,895.3,916.9,1188.4,941.0,825.0,116.0,895.3,941.0,1219.6,Magnoliopsida; Vitis vinifera L.; Tracheophyta
2004,2004-07-04,Viana do Castelo,Vila Nova de Cerveira,Gondar,GONDAR,41.9122396,-8.6794927,NC,226.0,2004-07-04T13:00,22.6,64,15.6,23.2,0.0,0.0,0.0,0.0,2,1019.3,993.1,64,71,0,0,0.5,0.98,18.7,24.0,326,330,38.5,26.9,20.6,19.3,15.4,0.122,0.193,0.262,0.355,1,3600.0,830.6,607.7,222.9,645.2,830.6,1246.3,831.0,608.0,223.0,645.2,831.0,1246.8,Magnoliopsida; Eucalyptus L'Hér.; Pinus pinaster Aiton
2004,2004-07-12,Viana do Castelo,Monção,Cambeses,Milagres,42.0467536,-8.470773,NC,134.0,2004-07-12T08:00,15.8,66,9.5,12.6,0.0,0.0,0.0,0.0,0,1019.8,1003.8,0,0,0,0,0.19,0.61,20.7,26.5,31,34,35.6,17.1,18.5,18.6,16.0,0.214,0.193,0.255,0.351,1,3600.0,418.9,327.5,91.3,673.8,418.9,643.4,344.0,269.0,75.0,673.8,344.0,528.4,Vitis vinifera L.; Pinus pinaster Aiton; Magnoliopsida; Tracheophyta; 
2004,2004-07-05,Viana do Castelo,Ponte de Lima,Refóios do Lima,REFÓIOS DO LIMA,41.779262,-8.5633595,NC,28.0,2004-07-05T15:00,26.4,45,13.5,25.7,0.0,0.0,0.0,0.0,0,1016.5,1013.3,4,1,3,5,0.62,1.9,22.9,30.6,334,339,34.2,30.1,22.6,20.4,16.7,0.119,0.194,0.26,0.354,1,3600.0,818.0,706.2,111.9,861.3,818.0,1084.8,863.0,745.0,118.0,861.3,863.0,1144.4,Tracheophyta; Magnoliopsida; Pinus pinaster Aiton
2004,2004-07-06,Viana do Castelo,Viana do Castelo,Castelo do Neiva,Santiago,41.6223481,-8.7917159,NC,63.0,2004-07-06T11:00,21.6,62,14.0,20.5,0.0,0.0,0.0,0.0,2,1013.7,1006.3,74,49,3,92,0.4,0.99,19.5,24.3,326,331,38.2,24.9,21.5,20.2,16.5,0.115,0.174,0.247,0.348,1,3600.0,676.5,402.5,274.0,456.8,676.5,1165.9,642.0,382.0,260.0,456.8,642.0,1106.5,Tracheophyta; Pinus pinaster Aiton; Eucalyptus L'Hér.; Magnoliopsida
2004,2004-07-04,Viana do Castelo,Ponte de Lima,Navió,NAVIO,41.6670938,-8.610355915206945,NC,135.0,2004-07-04T01:00,14.7,94,13.8,14.4,0.0,0.0,0.0,0.0,0,1019.1,1002.9,1,0,2,0,0.0,0.1,10.7,18.5,346,352,18.7,17.7,21.7,19.9,15.8,0.125,0.2,0.261,0.355,0,0.0,0.0,0.0,0.0,0.0,0.0,0.0,0.0,0.0,0.0,0.0,0.0,0.0,Tracheophyta; Eucalyptus L'Hér.; Magnoliopsida; Vitis vinifera L.
2004,2004-07-06,Viana do Castelo,Viana do Castelo,Alvarães,Costeira,41.6272244,-8.7482233,NC,43.0,2004-07-06T02:00,16.3,80,12.8,14.7,0.0,0.0,0.0,0.0,0,1015.1,1010.0,1,1,0,0,0.03,0.38,17.5,27.8,352,3,31.7,18.9,22.5,20.4,16.6,0.112,0.179,0.249,0.349,0,0.0,0.0,0.0,0.0,0.0,0.0,0.0,0.0,0.0,0.0,0.0,0.0,0.0,Tracheophyta; Eucalyptus L'Hér.; Pinus pinaster Aiton
2004,2004-07-07,Viana do Castelo,Viana do Castelo,Barroselas,Fiopos,41.6471968,-8.7014513,NC,69.0,2004-07-07T14:00,16.9,82,13.8,15.7,0.2,0.2,0.0,0.0,51,1017.5,1009.3,85,84,13,5,0.27,0.35,17.1,22.4,252,251,41.4,21.1,20.4,20.2,16.6,0.213,0.177,0.248,0.348,1,3600.0,529.3,247.6,281.7,274.2,529.3,1194.5,543.0,254.0,289.0,274.2,543.0,1225.5,Tracheophyta; Magnoliopsida; Quercus L.; Eucalyptus L'Hér.
2004,2004-07-01,Viana do Castelo,Monção,Pias,Pias de Cima,42.0211452,-8.5079393,NC,115.0,2004-07-01T02:00,15.3,89,13.6,14.0,0.0,0.0,0.0,0.0,1,1020.3,1006.5,25,0,0,84,0.01,0.19,17.4,30.1,347,353,33.1,17.9,21.9,19.6,15.3,0.14,0.199,0.269,0.358,0,0.0,0.0,0.0,0.0,0.0,0.0,0.0,0.0,0.0,0.0,0.0,0.0,0.0,Magnoliopsida; Eucalyptus L'Hér.; Pinus pinaster Aiton; Vitis vinifera L.; Tracheophyta; Quercus L.; 
2004,2004-09-26,Viana do Castelo,Caminha,Vila Praia de Âncora,Bulhente,41.8158407,-8.8666642,NC,14.0,2004-09-26T18:00,22.8,55,13.4,22.1,0.0,0.0,0.0,0.0,0,1020.0,1018.4,0,0,0,0,0.13,1.24,12.4,20.6,352,355,17.6,25.4,22.8,21.1,20.0,0.1,0.201,0.268,0.329,1,3506.82,48.1,31.5,16.6,361.8,47.4,92.1,116.0,76.0,40.0,459.3,116.0,222.0,Tracheophyta; Magnoliopsida; Pinus pinaster Aiton
2004,2004-02-16,Viana do Castelo,Valença,Verdoejo,São Tomé,42.0223828,-8.5934111,NC,546.0,2004-02-16T18:00,9.7,77,5.9,8.1,0.0,0.0,0.0,0.0,2,1024.6,959.6,56,0,86,13,0.02,0.28,4.3,4.8,270,283,10.4,9.4,7.9,8.2,9.5,0.339,0.353,0.379,0.415,1,1370.43,4.3,1.4,2.9,15.5,3.3,11.0,54.0,17.0,37.0,130.6,54.0,138.1,Magnoliopsida; Vitis vinifera L.; Pinus pinaster Aiton; Tracheophyta; Eucalyptus L'Hér.; 
2004,2004-07-11,Viana do Castelo,Ponte de Lima,Calheiros,Devesa,41.809265,-8.5793561,NC,167.0,2004-07-11T21:00,18.2,68,12.3,15.8,0.0,0.0,0.0,0.0,0,1019.4,999.7,0,0,0,0,0.07,0.66,21.3,33.9,2,9,40.3,19.8,20.6,18.7,16.1,0.225,0.213,0.256,0.351,0,0.0,0.0,0.0,0.0,0.0,0.0,0.0,0.0,0.0,0.0,0.0,0.0,0.0,Pinus pinaster Aiton; Tracheophyta; Eucalyptus L'Hér.; Magnoliopsida; Olea europaea L.
2004,2004-07-12,Viana do Castelo,Ponte de Lima,Calheiros,Devesa,41.809265,-8.5793561,NC,167.0,2004-07-12T10:00,20.6,53,10.5,18.5,0.0,0.0,0.0,0.0,0,1019.5,999.9,0,0,0,0,0.42,1.15,20.1,25.5,27,31,41.4,21.1,18.8,18.7,16.2,0.218,0.212,0.256,0.351,1,3600.0,754.2,643.0,111.2,827.4,754.2,1028.6,692.0,590.0,102.0,827.4,692.0,943.7,Pinus pinaster Aiton; Tracheophyta; Eucalyptus L'Hér.; Magnoliopsida; Olea europaea L.
2004,2004-06-30,Viana do Castelo,Valença,São Julião,Cancelada,41.9426801,-8.6652108,NC,217.0,2004-06-30T14:00,24.2,55,14.6,24.0,0.0,0.0,0.0,0.0,0,1021.7,996.6,0,0,0,1,0.59,1.35,23.8,32.1,322,327,45.7,27.7,22.0,19.4,15.2,0.153,0.208,0.269,0.358,1,3600.0,918.8,803.8,115.0,889.7,918.8,1195.5,943.0,825.0,118.0,889.7,943.0,1227.0,Pinus pinaster Aiton; Tracheophyta; Vitis vinifera L.; Magnoliopsida; Eucalyptus L'Hér.; 
2004,2004-09-27,Viana do Castelo,Viana do Castelo,Meadela,Cova,41.71660995,-8.8133517375,NC,49.0,2004-09-27T19:00,21.0,66,14.3,20.8,0.0,0.0,0.0,0.0,0,1019.0,1013.2,0,0,0,0,0.07,0.86,11.2,15.5,356,359,18.4,23.5,22.7,20.9,19.8,0.098,0.199,0.267,0.329,0,0.0,0.0,0.0,0.0,0.0,0.0,0.0,5.0,2.0,3.0,29.8,5.0,32.2,Tracheophyta; Eucalyptus L'Hér.; Magnoliopsida
2004,2004-07-03,Viana do Castelo,Monção,Pias,Agrelas,42.0211452,-8.5079393,NC,115.0,2004-07-03T10:00,21.5,54,11.9,20.9,0.0,0.0,0.0,0.0,0,1021.4,1007.9,0,0,0,0,0.44,1.17,14.3,18.0,342,348,27.7,23.4,20.0,19.5,15.5,0.123,0.191,0.264,0.356,1,3600.0,781.4,666.2,115.2,846.4,781.4,1041.5,719.0,613.0,106.0,846.4,719.0,958.3,Magnoliopsida; Eucalyptus L'Hér.; Pinus pinaster Aiton; Vitis vinifera L.; Tracheophyta; Quercus L.; 
2004,2004-07-04,Viana do Castelo,Ponte da Barca,Bravães,Barbeitos,41.7976926,-8.4509651,NC,69.0,2004-07-04T15:00,25.8,55,16.0,25.6,0.0,0.0,0.0,0.0,0,1018.2,1010.2,10,11,0,0,0.57,1.5,24.8,32.5,330,334,46.1,29.8,22.4,20.1,16.0,0.121,0.201,0.266,0.357,1,3600.0,812.1,694.6,117.5,847.8,812.1,1084.0,857.0,733.0,124.0,847.8,857.0,1144.0,Eucalyptus L'Hér.; Vitis vinifera L.; Magnoliopsida; Pinus pinaster Aiton; Tracheophyta
2004,2004-07-04,Viana do Castelo,Valença,Verdoejo,VERDOEJO,42.044096550000006,-8.588472638220246,NC,47.0,2004-07-04T05:00,14.4,97,14.0,14.3,0.0,0.0,0.0,0.0,0,1018.6,1012.9,2,2,0,0,0.0,0.05,9.8,16.8,354,350,19.4,15.7,20.9,20.0,16.0,0.118,0.187,0.263,0.356,0,0.0,0.0,0.0,0.0,0.0,0.0,0.0,0.0,0.0,0.0,0.0,0.0,0.0,Magnoliopsida; Vitis vinifera L.; Pinus pinaster Aiton; Tracheophyta; Eucalyptus L'Hér.; 
2004,2004-06-30,Viana do Castelo,Valença,Verdoejo,Barreiras,42.0223828,-8.5934111,NC,546.0,2004-06-30T21:00,17.1,68,11.1,16.2,0.0,0.0,0.0,0.0,1,1021.0,957.8,20,0,0,67,0.05,0.62,8.2,13.4,345,354,24.1,19.9,21.2,17.6,13.1,0.144,0.21,0.275,0.361,0,0.0,0.0,0.0,0.0,0.0,0.0,0.0,0.0,0.0,0.0,0.0,0.0,5.3,Magnoliopsida; Vitis vinifera L.; Pinus pinaster Aiton; Tracheophyta; Eucalyptus L'Hér.; 
2004,2004-07-01,Viana do Castelo,Vila Nova de Cerveira,Loivo,Bagoada,41.9280383,-8.7318697,NC,162.0,2004-07-01T17:00,22.3,56,13.1,19.4,0.0,0.0,0.0,0.0,0,1020.8,1001.9,0,0,0,0,0.39,1.18,28.0,37.4,328,331,51.5,26.5,22.3,19.8,15.7,0.139,0.203,0.266,0.357,1,3600.0,522.9,437.1,85.8,797.5,522.9,725.2,597.0,499.0,98.0,797.5,597.0,827.9,Pinus pinaster Aiton; Magnoliopsida; Eucalyptus L'Hér.; Vitis vinifera L.; Tracheophyta
2004,2004-07-04,Viana do Castelo,Ponte da Barca,Bravães,BRAVÃES,41.7978436,-8.452927385709145,NC,70.0,2004-07-04T22:00,18.7,78,14.9,17.8,0.0,0.0,0.0,0.0,0,1018.4,1010.1,1,1,0,0,0.04,0.47,17.3,28.8,339,344,33.5,21.2,22.9,20.2,16.1,0.12,0.199,0.265,0.357,0,0.0,0.0,0.0,0.0,0.0,0.0,0.0,0.0,0.0,0.0,0.0,0.0,0.0,Eucalyptus L'Hér.; Vitis vinifera L.; Pinus pinaster Aiton; Tracheophyta; Magnoliopsida
2004,2004-06-16,Viana do Castelo,Ponte de Lima,Rebordões (souto),Casais,41.7198831,-8.5566572,NC,102.0,2004-06-16T15:00,29.6,34,11.9,29.9,0.0,0.0,0.0,0.0,0,1018.0,1006.4,0,0,0,0,0.68,2.75,14.3,17.1,317,316,29.2,33.5,24.1,19.9,14.4,0.105,0.194,0.285,0.365,1,3600.0,832.0,725.0,107.0,886.7,832.0,1083.7,879.0,766.0,113.0,886.7,879.0,1144.9,Eucalyptus L'Hér.; Magnoliopsida; Tracheophyta; Vitis vinifera L.
2004,2004-07-01,Viana do Castelo,Monção,Pias,Pias de Cima,42.0211452,-8.5079393,NC,115.0,2004-07-01T11:00,21.1,55,11.7,20.1,0.0,0.0,0.0,0.0,0,1021.3,1007.8,0,0,0,0,0.5,1.13,20.9,26.1,345,348,45.7,24.2,20.8,19.6,15.4,0.138,0.198,0.268,0.358,1,3600.0,898.9,783.1,115.8,886.1,898.9,1169.4,854.0,744.0,110.0,886.1,854.0,1111.0,Magnoliopsida; Eucalyptus L'Hér.; Pinus pinaster Aiton; Vitis vinifera L.; Tracheophyta; Quercus L.; 
2004,2004-06-16,Viana do Castelo,Caminha,Dem,Pedras Frias,41.8408718,-8.7699022,NC,253.0,2004-06-16T15:00,26.0,41,11.9,27.2,0.0,0.0,0.0,0.0,0,1017.9,989.0,0,0,0,0,0.61,1.98,9.2,11.2,315,318,26.6,31.4,23.3,19.1,13.7,0.105,0.195,0.286,0.366,1,3600.0,834.9,727.0,107.9,889.4,834.9,1083.3,882.0,768.0,114.0,889.4,882.0,1144.3,Pinus pinaster Aiton; Eucalyptus L'Hér.; Magnoliopsida; Tracheophyta; Quercus L.
2004,2004-07-05,Viana do Castelo,Ponte de Lima,Refóios do Lima,REFÓIOS DO LIMA,41.779262,-8.5633595,NC,28.0,2004-07-05T22:00,19.2,69,13.3,17.2,0.0,0.0,0.0,0.0,0,1015.7,1012.4,0,0,0,0,0.07,0.7,20.9,33.5,341,348,37.4,21.8,23.2,20.4,16.7,0.117,0.193,0.259,0.354,0,0.0,0.0,0.0,0.0,0.0,0.0,0.0,0.0,0.0,0.0,0.0,0.0,0.0,Tracheophyta; Magnoliopsida; Pinus pinaster Aiton
2004,2004-07-05,Viana do Castelo,Ponte da Barca,Vila Chã (Santiago),Lamelas,41.8027687,-8.3279714,NC,205.0,2004-07-05T15:00,27.2,43,13.5,28.3,0.0,0.0,0.0,0.0,0,1016.1,992.7,5,1,3,9,0.62,2.05,12.0,15.0,311,316,27.4,30.7,22.1,19.3,15.2,0.116,0.201,0.271,0.359,1,3600.0,814.8,687.8,127.0,840.7,814.8,1082.4,860.0,726.0,134.0,840.7,860.0,1142.5,Magnoliopsida; Vitis vinifera L.; Tracheophyta
2004,2004-07-06,Viana do Castelo,Paredes de Coura,Formariz,Vale,41.9215528,-8.5757697,NC,306.0,2004-07-06T02:00,14.6,81,11.5,13.5,0.0,0.0,0.0,0.0,1,1015.9,979.8,26,29,0,0,0.01,0.31,10.9,20.6,17,29,28.4,17.5,21.4,19.2,15.2,0.113,0.186,0.26,0.354,0,0.0,0.0,0.0,0.0,0.0,0.0,0.0,0.0,0.0,0.0,0.0,0.0,0.0,Tracheophyta; Eucalyptus L'Hér.; Magnoliopsida; Quercus L.; Pinus pinaster Aiton; 
2004,2004-07-05,Viana do Castelo,Paredes de Coura,Formariz,FORMARIZ,41.9215528,-8.5757697,NC,306.0,2004-07-05T19:00,21.8,55,12.3,20.4,0.0,0.0,0.0,0.0,0,1016.7,981.4,1,1,0,0,0.18,1.18,14.7,23.1,11,14,43.6,25.4,22.3,19.2,15.2,0.112,0.186,0.259,0.354,1,3600.0,136.4,86.4,50.0,441.8,136.4,258.7,199.0,126.0,73.0,441.8,199.0,377.3,Tracheophyta; Eucalyptus L'Hér.; Magnoliopsida; Quercus L.; Pinus pinaster Aiton; 
2004,2004-06-16,Viana do Castelo,Ponte da Barca,Bravães,BRAVÃES,41.7978436,-8.452927385709145,NC,70.0,2004-06-16T17:00,28.6,36,12.2,26.6,0.0,0.0,0.0,0.0,0,1017.1,1009.1,0,0,0,0,0.51,2.48,19.7,26.7,325,325,35.6,31.5,24.3,19.9,14.4,0.109,0.202,0.292,0.368,1,3600.0,518.8,431.5,87.3,798.1,518.8,716.5,594.0,494.0,100.0,798.1,594.0,820.3,Eucalyptus L'Hér.; Vitis vinifera L.; Pinus pinaster Aiton; Tracheophyta; Magnoliopsida
2004,2004-08-25,Viana do Castelo,Ponte de Lima,Gondufe,Aguieiro,41.7655223,-8.5126716,NC,154.0,2004-08-25T19:00,20.6,69,14.8,20.6,0.0,0.0,0.0,0.0,0,1020.8,1002.7,0,0,0,0,0.08,0.74,10.6,20.6,332,341,27.4,21.7,20.9,19.5,18.6,0.286,0.324,0.322,0.331,1,3084.04,30.8,19.3,11.6,220.9,28.1,60.6,96.0,60.0,36.0,387.7,96.0,188.9,Magnoliopsida; Eucalyptus L'Hér.; Vitis vinifera L.; Tracheophyta
2004,2004-07-05,Viana do Castelo,Ponte de Lima,Vitorino dos Piães,VITORINO DOS PIÃES,41.68319845,-8.626889798467637,NC,160.0,2004-07-05T19:00,23.4,52,13.1,21.1,0.0,0.0,0.0,0.0,0,1015.8,997.3,0,0,0,0,0.23,1.37,22.4,34.3,345,351,43.2,26.5,23.1,19.8,15.8,0.114,0.192,0.258,0.353,1,3600.0,139.8,92.1,47.7,476.6,139.8,255.6,205.0,135.0,70.0,476.6,205.0,374.8,Pinus pinaster Aiton; Tracheophyta; Magnoliopsida; Eucalyptus L'Hér.
2004,2004-07-05,Viana do Castelo,Valença,Cerdal,CERDAL,41.9911697,-8.644825,NC,8.0,2004-07-05T23:00,17.4,76,13.2,15.8,0.0,0.0,0.0,0.0,0,1016.4,1015.4,0,0,0,0,0.04,0.48,18.2,29.9,352,1,34.2,20.4,22.9,20.3,16.4,0.11,0.181,0.259,0.354,0,0.0,0.0,0.0,0.0,0.0,0.0,0.0,0.0,0.0,0.0,0.0,0.0,0.0,Magnoliopsida; Tracheophyta; Pinus pinaster Aiton; Eucalyptus L'Hér.; Vitis vinifera L.; 
2004,2004-07-06,Viana do Castelo,Ponte de Lima,Beiral do Lima,Beiral do Lima,41.7637598,-8.4841489,NC,282.0,2004-07-06T11:00,21.5,61,13.6,21.7,0.0,0.0,0.0,0.0,3,1013.4,980.9,100,78,6,91,0.37,1.01,7.9,10.1,321,325,31.0,24.6,20.6,19.1,15.1,0.116,0.195,0.267,0.357,1,3600.0,605.6,281.2,324.4,318.9,605.6,1166.6,575.0,267.0,308.0,318.9,575.0,1107.7,Magnoliopsida; Pinus pinaster Aiton; Eucalyptus L'Hér.; Tracheophyta
2004,2004-07-12,Viana do Castelo,Arcos de Valdevez,São Jorge,SÃO JORGE,41.822374,-8.3769036,NC,77.0,2004-07-12T16:00,26.9,40,12.3,24.9,0.0,0.0,0.0,0.0,0,1015.9,1007.0,0,0,0,0,0.58,2.11,24.6,33.4,348,353,43.2,27.5,21.3,19.3,16.5,0.196,0.205,0.258,0.352,1,3600.0,681.0,584.0,97.0,844.0,681.0,915.7,744.0,638.0,106.0,844.0,744.0,1000.5,Tracheophyta; Pinus pinaster Aiton; Vitis vinifera L.; Magnoliopsida
2004,2004-07-12,Viana do Castelo,Viana do Castelo,Montaria,Trás-Âncora,41.7909521,-8.7282473,NC,290.0,2004-07-12T18:00,22.7,50,11.8,21.1,0.0,0.0,0.0,0.0,0,1016.2,982.8,0,0,0,0,0.29,1.37,14.4,21.6,359,1,38.9,23.8,20.2,18.1,15.5,0.197,0.207,0.254,0.35,1,3600.0,327.4,261.9,65.5,710.8,327.4,487.7,405.0,324.0,81.0,710.8,405.0,603.2,Tracheophyta; Magnoliopsida; Eucalyptus L'Hér.
2004,2004-07-13,Viana do Castelo,Ponte de Lima,Anais,ANAIS,41.699011,-8.524176,NC,285.0,2004-07-13T00:00,16.2,73,11.4,15.2,0.0,0.0,0.0,0.0,0,1017.3,983.7,0,0,0,0,0.02,0.49,9.7,23.2,42,48,27.7,17.6,20.1,18.2,15.5,0.196,0.21,0.261,0.354,0,0.0,0.0,0.0,0.0,0.0,0.0,0.0,0.0,0.0,0.0,0.0,0.0,0.0,Eucalyptus L'Hér.; Pinus pinaster Aiton; Tracheophyta
2004,2004-07-12,Viana do Castelo,Ponte de Lima,Boalhosa,Laceiras,41.7620215,-8.3895061,NC,663.0,2004-07-12T19:00,20.6,53,10.5,18.9,0.0,0.0,0.0,0.0,0,1017.6,942.6,0,0,0,0,0.17,1.15,12.7,22.2,25,27,40.3,22.0,19.2,17.0,13.9,0.263,0.258,0.313,0.404,1,3600.0,142.6,102.4,40.2,559.1,142.6,242.5,213.0,153.0,60.0,559.1,213.0,362.2,Magnoliopsida; Tracheophyta; Quercus L.
2004,2004-07-02,Viana do Castelo,Valença,Sanfins,Eiras,42.0274576,-8.5726555,NC,193.0,2004-07-02T14:00,23.6,44,10.6,22.6,0.0,0.0,0.0,0.0,0,1022.3,999.9,0,0,0,0,0.62,1.63,21.4,27.5,333,338,42.1,27.6,20.9,19.4,15.3,0.131,0.197,0.268,0.358,1,3600.0,935.3,827.1,108.1,916.8,935.3,1193.7,960.0,849.0,111.0,916.8,960.0,1225.3,Pinus pinaster Aiton; Magnoliopsida; Eucalyptus L'Hér.
2004,2004-07-11,Viana do Castelo,Valença,Gandra,Tuido,42.0055903,-8.6164853,NC,96.0,2004-07-11T14:00,24.0,51,13.2,23.4,0.0,0.0,0.0,0.0,0,1018.8,1007.6,0,0,0,0,0.58,1.46,21.9,28.8,337,342,38.5,25.7,19.9,18.9,16.2,0.229,0.194,0.256,0.352,1,3600.0,869.7,691.3,178.4,769.1,869.7,1189.4,892.0,709.0,183.0,769.1,892.0,1219.9,Magnoliopsida; Eucalyptus L'Hér.; Tracheophyta; Vitis vinifera L.; Pinus pinaster Aiton; Acacia Mill.; 
2004,2004-07-13,Viana do Castelo,Valença,Cerdal,Paços,41.9744134,-8.6380142,NC,57.0,2004-07-13T21:00,21.0,55,11.5,18.7,0.0,0.0,0.0,0.0,0,1017.0,1010.3,0,0,0,0,0.11,1.12,19.1,33.9,1,9,36.4,22.2,22.2,19.2,16.6,0.162,0.187,0.252,0.35,0,0.0,0.0,0.0,0.0,0.0,0.0,0.0,0.0,0.0,0.0,0.0,0.0,0.0,Magnoliopsida; Tracheophyta; Pinus pinaster Aiton; Eucalyptus L'Hér.; Vitis vinifera L.; 
2004,2004-07-06,Viana do Castelo,Ponte de Lima,Refóios do Lima,Nogueira,41.7933146,-8.542976,NC,68.0,2004-07-06T18:00,20.4,66,13.8,16.7,0.0,0.0,0.0,0.0,2,1013.1,1005.1,75,57,24,30,0.26,0.82,33.4,45.4,319,322,59.4,25.2,22.9,20.3,16.2,0.116,0.192,0.262,0.355,1,3600.0,311.5,236.0,75.4,632.3,311.5,493.9,384.0,291.0,93.0,632.3,384.0,608.9,Magnoliopsida; Eucalyptus L'Hér.; Tracheophyta; Vitis vinifera L.
2004,2004-07-13,Viana do Castelo,Viana do Castelo,Montaria,MONTARIA,41.7913586,-8.728729045056994,NC,291.0,2004-07-13T03:00,14.5,78,10.7,13.6,0.0,0.0,0.0,0.0,0,1016.7,982.3,0,0,0,0,0.01,0.36,7.5,19.2,55,64,26.6,16.2,19.3,18.1,15.5,0.194,0.207,0.254,0.35,0,0.0,0.0,0.0,0.0,0.0,0.0,0.0,0.0,0.0,0.0,0.0,0.0,0.0,Tracheophyta; Magnoliopsida
2004,2004-07-08,Viana do Castelo,Viana do Castelo,Montaria,Trás-Âncora,41.7909521,-8.7282473,NC,290.0,2004-07-08T16:00,17.1,66,10.7,15.4,0.0,0.0,0.0,0.0,2,1024.8,990.5,66,47,39,0,0.32,0.66,14.2,18.8,306,306,35.3,20.8,18.0,18.5,15.3,0.3,0.209,0.257,0.352,1,3600.0,530.4,384.7,145.6,552.9,530.4,920.7,579.0,420.0,159.0,552.9,579.0,1005.1,Tracheophyta; Magnoliopsida; Eucalyptus L'Hér.
2004,2004-07-06,Viana do Castelo,Caminha,Dem,Pedras Frias,41.8408718,-8.7699022,NC,253.0,2004-07-06T22:00,14.6,80,11.2,12.7,0.0,0.0,0.0,0.0,3,1015.0,985.1,94,52,57,45,0.02,0.33,16.1,25.6,318,322,43.2,18.3,20.8,19.2,15.5,0.113,0.186,0.259,0.354,0,0.0,0.0,0.0,0.0,0.0,0.0,0.0,0.0,0.0,0.0,0.0,0.0,0.0,Pinus pinaster Aiton; Eucalyptus L'Hér.; Magnoliopsida; Tracheophyta; Quercus L.
2004,2004-07-02,Viana do Castelo,Viana do Castelo,Portela Susã,PORTELA SUSÃ,41.67065155,-8.686362731318548,NC,239.0,2004-07-02T22:00,16.7,68,10.7,14.5,0.0,0.0,0.0,0.0,0,1023.1,994.8,0,0,0,0,0.05,0.61,16.6,28.6,1,5,35.3,18.9,21.0,19.1,15.1,0.134,0.205,0.264,0.356,0,0.0,0.0,0.0,0.0,0.0,0.0,0.0,0.0,0.0,0.0,0.0,0.0,0.0,Magnoliopsida; Tracheophyta; Eucalyptus L'Hér.; Pinus pinaster Aiton; Vitis vinifera L.
2004,2004-07-07,Viana do Castelo,Viana do Castelo,Cardielos,SÃO SILVESTRE,41.7130468,-8.7391575,NC,34.0,2004-07-07T16:00,16.3,79,12.7,14.5,2.7,2.7,0.0,0.0,63,1017.4,1013.3,70,47,29,34,0.27,0.39,18.4,24.7,282,283,44.3,22.0,20.4,20.1,16.8,0.272,0.195,0.267,0.356,1,3600.0,510.5,308.9,201.6,442.1,510.5,924.5,557.0,337.0,220.0,442.1,557.0,1008.7,Magnoliopsida; Eucalyptus L'Hér.; Tracheophyta
2004,2004-07-13,Viana do Castelo,Valença,Cerdal,Paços,41.9744134,-8.6380142,NC,57.0,2004-07-13T12:00,26.3,48,14.5,28.0,0.0,0.0,0.0,0.0,0,1017.7,1011.1,0,0,0,0,0.63,1.77,12.8,15.9,344,355,24.5,27.0,20.3,19.1,16.6,0.177,0.189,0.253,0.35,1,3600.0,943.1,826.1,117.0,891.1,943.1,1227.0,919.0,805.0,114.0,891.1,919.0,1195.7,Magnoliopsida; Tracheophyta; Pinus pinaster Aiton; Eucalyptus L'Hér.; Vitis vinifera L.; 
2004,2004-07-13,Viana do Castelo,Arcos de Valdevez,Padroso,Eiradelas,41.9418847,-8.490082,NC,493.0,2004-07-13T22:00,18.3,55,9.1,16.7,0.0,0.0,0.0,0.0,0,1019.6,962.7,0,0,0,0,0.05,0.95,9.5,23.0,37,40,28.4,19.4,20.7,17.5,14.7,0.179,0.208,0.267,0.357,0,0.0,0.0,0.0,0.0,0.0,0.0,0.0,0.0,0.0,0.0,0.0,0.0,0.0,Tracheophyta; Magnoliopsida; Pinus pinaster Aiton; Quercus L.; Eucalyptus L'Hér.
2004,2004-07-03,Viana do Castelo,Monção,Longos Vales,Nogueira,42.0496148,-8.4404588,NC,193.0,2004-07-03T06:00,11.4,95,10.7,9.9,0.0,0.0,0.0,0.0,0,1021.7,998.4,2,2,0,0,0.01,0.06,12.1,19.3,27,33,25.6,14.1,19.3,19.0,14.8,0.123,0.19,0.268,0.358,1,1109.51,74.3,36.0,38.3,241.8,44.4,197.0,33.0,16.0,17.0,144.7,33.0,87.5,Vitis vinifera L.; Pinus pinaster Aiton; Tracheophyta; Magnoliopsida; Quercus L.; Eucalyptus L'Hér.; Acacia Mill.; 
2004,2004-07-18,Viana do Castelo,Viana do Castelo,Neiva,NEIVA,41.64307255,-8.772995261377742,NC,54.0,2004-07-18T09:00,18.8,86,16.3,20.2,0.0,0.0,0.0,0.0,2,1017.9,1011.5,79,87,0,3,0.2,0.31,5.4,6.1,323,332,14.4,22.1,22.0,20.7,17.3,0.114,0.16,0.234,0.341,1,3600.0,405.5,185.1,220.5,291.4,405.5,841.1,355.0,162.0,193.0,291.4,355.0,736.3,Tracheophyta; Magnoliopsida; Eucalyptus L'Hér.
2004,2004-07-13,Viana do Castelo,Valença,Verdoejo,VERDOEJO,42.044096550000006,-8.588472638220246,NC,47.0,2004-07-13T10:00,23.6,58,14.7,24.5,0.0,0.0,0.0,0.0,0,1018.0,1012.5,0,0,0,0,0.45,1.23,10.4,12.2,360,14,19.4,23.6,19.7,19.2,16.6,0.182,0.19,0.254,0.351,1,3600.0,756.0,644.9,111.1,830.4,756.0,1027.9,694.0,592.0,102.0,830.4,694.0,943.6,Magnoliopsida; Vitis vinifera L.; Pinus pinaster Aiton; Tracheophyta; Eucalyptus L'Hér.; 
2004,2004-07-09,Viana do Castelo,Viana do Castelo,Neiva,Aldeia de Cima,41.6257946,-8.7726431,NC,44.0,2004-07-09T09:00,17.5,73,12.6,17.6,0.0,0.0,0.0,0.0,1,1023.3,1018.0,41,36,10,10,0.26,0.54,4.7,6.3,293,294,14.4,19.6,18.4,19.8,16.8,0.207,0.174,0.245,0.346,1,3600.0,544.7,368.5,176.3,568.3,544.7,857.9,479.0,324.0,155.0,568.3,479.0,754.4,Tracheophyta; Eucalyptus L'Hér.; Pinus pinaster Aiton
2004,2004-07-13,Viana do Castelo,Ponte da Barca,Vila Nova De Muía,Requeixo,41.8056137,-8.3881045,NC,96.0,2004-07-13T03:00,16.1,79,12.4,14.7,0.0,0.0,0.0,0.0,0,1016.0,1004.6,0,0,0,0,0.02,0.39,14.1,23.3,13,32,25.9,17.3,20.7,19.2,16.5,0.19,0.204,0.258,0.352,0,0.0,0.0,0.0,0.0,0.0,0.0,0.0,0.0,0.0,0.0,0.0,0.0,0.0,Tracheophyta; Vitis vinifera L.; Eucalyptus L'Hér.; Pinus pinaster Aiton
2004,2004-07-13,Viana do Castelo,Valença,Cerdal,Paços,41.9744134,-8.6380142,NC,57.0,2004-07-13T15:00,27.8,39,12.6,26.9,0.0,0.0,0.0,0.0,0,1016.5,1009.9,0,0,0,0,0.66,2.27,21.7,29.3,341,346,35.3,28.9,21.4,19.1,16.6,0.169,0.188,0.253,0.35,1,3600.0,821.8,715.7,106.2,878.5,821.8,1078.2,867.0,755.0,112.0,878.5,867.0,1137.5,Magnoliopsida; Tracheophyta; Pinus pinaster Aiton; Eucalyptus L'Hér.; Vitis vinifera L.; 
2004,2004-07-13,Viana do Castelo,Ponte da Barca,Paço Vedro de Magalhães,Talhos,41.7961954,-8.4069532,NC,81.0,2004-07-13T15:00,29.1,41,14.3,28.7,0.0,0.0,0.0,0.0,0,1016.1,1006.8,0,0,0,0,0.68,2.39,22.7,30.3,337,342,34.2,30.0,22.1,19.4,16.5,0.171,0.201,0.257,0.352,1,3600.0,821.2,716.1,105.1,880.3,821.2,1076.6,867.0,756.0,111.0,880.3,867.0,1136.6,Tracheophyta; Eucalyptus L'Hér.; Pinus pinaster Aiton; Vitis vinifera L.; Magnoliopsida
2004,2004-07-03,Viana do Castelo,Ponte da Barca,Britelo,BRITELO,41.8482028,-8.2854609,NC,119.0,2004-07-03T19:00,21.9,61,13.9,20.9,0.0,0.0,0.0,0.0,0,1018.5,1004.6,0,0,0,0,0.18,1.03,15.6,22.8,322,325,38.9,25.6,22.8,19.9,15.6,0.125,0.209,0.274,0.36,1,3600.0,151.6,107.9,43.7,559.3,151.6,255.2,222.0,158.0,64.0,559.3,222.0,373.8,Magnoliopsida; Quercus L.; Tracheophyta; Pinus pinaster Aiton
2004,2004-07-03,Viana do Castelo,Monção,Moreira,Quinta da Torre,42.0184064,-8.492016,NC,76.0,2004-07-03T22:00,17.5,85,14.9,17.5,0.0,0.0,0.0,0.0,0,1019.8,1010.7,0,0,0,0,0.01,0.31,11.6,20.7,344,347,25.2,20.4,22.3,19.8,15.8,0.117,0.187,0.263,0.356,0,0.0,0.0,0.0,0.0,0.0,0.0,0.0,0.0,0.0,0.0,0.0,0.0,0.0,Magnoliopsida; Pinus pinaster Aiton; Tracheophyta; Vitis vinifera L.; 
2004,2004-07-13,Viana do Castelo,Vila Nova de Cerveira,Sopo,Curros,41.9069165,-8.7368647,NC,270.0,2004-07-13T14:00,25.7,44,12.7,27.3,0.0,0.0,0.0,0.0,0,1016.9,986.1,0,0,0,0,0.65,1.84,10.1,12.6,333,336,24.1,27.6,20.2,18.3,15.7,0.172,0.194,0.254,0.35,1,3600.0,918.4,805.3,113.1,897.2,918.4,1188.0,942.0,826.0,116.0,897.2,942.0,1218.5,Eucalyptus L'Hér.; Pinus pinaster Aiton; Tracheophyta; Magnoliopsida
2004,2004-07-20,Viana do Castelo,Viana do Castelo,Montaria,Chão da Pica,41.7909521,-8.7282473,NC,290.0,2004-07-20T14:00,21.4,63,13.9,22.4,0.0,0.0,0.0,0.0,0,1015.0,981.5,19,0,32,0,0.47,0.95,9.7,11.9,243,241,32.8,25.8,20.5,19.3,16.0,0.133,0.182,0.245,0.345,1,3600.0,737.7,572.0,165.7,642.3,737.7,1179.7,757.0,587.0,170.0,642.3,757.0,1210.6,Tracheophyta; Magnoliopsida; Eucalyptus L'Hér.
2004,2004-07-21,Viana do Castelo,Ponte de Lima,Calvelo,CALVELO,41.6824982,-8.5451768,NC,197.0,2004-07-21T10:00,22.1,69,16.1,23.7,0.0,0.0,0.0,0.0,3,1014.9,992.1,89,99,0,0,0.35,0.82,3.4,3.3,328,354,14.4,24.7,20.7,19.8,16.3,0.122,0.176,0.246,0.347,1,3600.0,598.7,357.2,241.4,466.0,598.7,1015.6,548.0,327.0,221.0,466.0,548.0,929.6,Acacia Mill.; Magnoliopsida; Eucalyptus L'Hér.; Tracheophyta
2004,2004-07-04,Viana do Castelo,Monção,Moreira,Quinta da Torre,42.0184064,-8.492016,NC,76.0,2004-07-04T16:00,23.6,62,15.9,23.1,0.0,0.0,0.0,0.0,0,1018.2,1009.3,1,1,0,0,0.46,1.11,23.4,31.4,329,332,45.0,28.3,22.0,19.8,15.9,0.114,0.185,0.262,0.355,1,3600.0,670.9,559.1,111.8,801.6,670.9,922.7,732.0,610.0,122.0,801.6,732.0,1006.8,Magnoliopsida; Pinus pinaster Aiton; Tracheophyta; Vitis vinifera L.; 
2004,2004-06-17,Viana do Castelo,Arcos de Valdevez,Grade,Vilela,41.8807263,-8.3705327,NC,229.0,2004-06-17T12:00,28.0,43,14.4,30.2,0.0,0.0,0.0,0.0,0,1017.3,991.3,0,0,0,0,0.65,2.14,8.7,10.4,300,304,25.9,30.3,22.3,19.2,13.6,0.112,0.204,0.293,0.367,1,3600.0,913.6,768.3,145.3,816.9,913.6,1246.3,893.0,751.0,142.0,816.9,893.0,1218.2,Magnoliopsida; Pinus pinaster Aiton; Tracheophyta; Quercus L.; Acacia Mill.
2004,2004-06-16,Viana do Castelo,Ponte da Barca,Oleiros,Airo,41.7917581,-8.4390971,NC,200.0,2004-06-16T21:00,21.9,60,13.7,21.7,0.0,0.0,0.0,0.0,0,1018.0,994.7,0,0,0,0,0.08,1.06,9.6,15.2,13,4,18.4,23.5,23.5,19.0,13.6,0.113,0.21,0.3,0.37,0,0.0,0.0,0.0,0.0,0.0,0.0,0.0,0.0,0.0,0.0,0.0,0.0,0.7,Eucalyptus L'Hér.; Vitis vinifera L.; Castanea sativa Mill.; Magnoliopsida; Quercus L.; Tracheophyta; Pinus pinaster Aiton
2004,2004-07-08,Viana do Castelo,Viana do Castelo,Darque,Areia,41.684107,-8.7993207,NC,11.0,2004-07-08T15:00,18.5,67,12.2,17.3,0.0,0.0,0.0,0.0,1,1025.1,1023.8,32,17,28,0,0.38,0.7,18.4,22.7,310,312,33.5,22.9,19.5,20.0,17.0,0.273,0.209,0.266,0.356,1,3600.0,672.0,473.9,198.1,578.6,672.0,1083.6,709.0,500.0,209.0,578.6,709.0,1143.3,Tracheophyta; Pinus pinaster Aiton; Eucalyptus L'Hér.; Magnoliopsida
2004,2004-07-14,Viana do Castelo,Arcos de Valdevez,Jolda (madalena),Madalena,41.8006127,-8.50065267849756,NC,75.0,2004-07-14T02:00,17.4,65,10.7,15.0,0.0,0.0,0.0,0.0,0,1015.4,1006.5,0,0,0,0,0.07,0.7,18.6,30.6,9,20,28.1,18.7,22.1,19.5,16.6,0.163,0.199,0.256,0.352,0,0.0,0.0,0.0,0.0,0.0,0.0,0.0,0.0,0.0,0.0,0.0,0.0,0.0,Vitis vinifera L.; Castanea sativa Mill.; Magnoliopsida; Eucalyptus L'Hér.; Pinus pinaster Aiton; Tracheophyta; Olea europaea L.
2004,2004-07-12,Viana do Castelo,Viana do Castelo,Chafé,Areia,41.6475753,-8.824587558179765,NC,9.0,2004-07-12T14:00,26.3,41,12.0,25.4,0.0,0.0,0.0,0.0,0,1016.7,1015.7,0,0,0,0,0.67,2.02,22.9,29.9,352,357,37.8,28.3,21.5,19.9,17.2,0.164,0.17,0.242,0.345,1,3600.0,913.4,800.3,113.1,889.6,913.4,1190.7,937.0,821.0,116.0,889.6,937.0,1221.4,Pinus pinaster Aiton; Tracheophyta
2004,2004-07-14,Viana do Castelo,Ponte de Lima,Calheiros,Outeiro,41.8064192,-8.570225,NC,160.0,2004-07-14T08:00,21.2,62,13.6,20.4,0.0,0.0,0.0,0.0,0,1017.1,998.4,0,0,0,0,0.23,0.95,13.1,20.9,82,88,29.2,20.2,20.3,19.0,16.3,0.167,0.204,0.253,0.349,1,3600.0,418.3,327.8,90.5,682.7,418.3,635.5,342.0,268.0,74.0,682.7,342.0,519.6,Eucalyptus L'Hér.; Magnoliopsida; Tracheophyta; Olea europaea L.
2004,2004-07-13,Viana do Castelo,Monção,Merufe,MERUFE,42.0297394,-8.3967117,NC,221.0,2004-07-13T09:00,21.4,60,13.4,20.8,0.0,0.0,0.0,0.0,0,1018.3,992.6,0,0,0,0,0.33,1.01,11.0,13.8,19,28,22.3,20.6,18.5,18.2,15.6,0.196,0.199,0.26,0.354,1,3600.0,598.5,495.0,103.5,768.3,598.5,852.7,526.0,435.0,91.0,768.3,526.0,749.3,Pinus pinaster Aiton; Magnoliopsida; Tracheophyta; Eucalyptus L'Hér.; Vitis vinifera L.; Pinales; Quercus L.; 
2004,2004-06-17,Viana do Castelo,Ponte da Barca,Oleiros,Airo,41.7917581,-8.4390971,NC,200.0,2004-06-17T05:00,14.5,88,12.5,14.9,0.0,0.0,0.0,0.0,0,1017.0,993.2,9,0,0,31,0.0,0.2,2.6,5.1,34,8,10.1,16.5,21.5,19.1,13.6,0.114,0.211,0.3,0.37,1,0.0,0.0,0.0,0.0,0.0,0.0,0.0,0.0,0.0,0.0,0.0,0.0,0.0,Eucalyptus L'Hér.; Vitis vinifera L.; Castanea sativa Mill.; Magnoliopsida; Quercus L.; Tracheophyta; Pinus pinaster Aiton
2004,2004-07-05,Viana do Castelo,Viana do Castelo,Castelo do Neiva,Areia,41.6312709,-8.8010054,NC,41.0,2004-07-05T09:00,20.2,69,14.4,19.5,0.0,0.0,0.0,0.0,0,1018.1,1013.3,10,0,5,25,0.3,0.73,14.9,19.1,353,1,27.4,22.2,21.0,20.3,16.6,0.119,0.177,0.248,0.348,1,3600.0,581.3,459.8,121.5,703.5,581.3,864.7,512.0,405.0,107.0,703.5,512.0,761.6,Pinus pinaster Aiton; Tracheophyta; Eucalyptus L'Hér.
2004,2004-10-03,Viana do Castelo,Ponte da Barca,Lavradas,Simães,41.8076477,-8.416428,NC,30.0,2004-10-03T16:00,23.2,55,13.7,22.8,0.0,0.0,0.0,0.0,0,1018.6,1015.1,12,10,0,10,0.27,1.28,11.2,13.3,310,311,20.9,25.8,20.2,20.4,20.0,0.12,0.2,0.275,0.323,1,3600.0,320.0,198.2,121.8,514.1,320.0,527.0,381.0,236.0,145.0,514.1,381.0,627.5,Magnoliopsida; Tracheophyta; Vitis vinifera L.; Pinus pinaster Aiton
2004,2004-07-06,Viana do Castelo,Monção,Longos Vales,Samarão,42.0491407,-8.4579677,NC,130.0,2004-07-06T05:00,14.3,84,11.7,12.7,0.0,0.0,0.0,0.0,0,1014.4,998.9,1,1,0,0,0.01,0.26,15.0,23.8,350,3,25.9,16.8,20.9,19.5,15.6,0.11,0.181,0.259,0.354,0,0.0,0.0,0.0,0.0,0.0,0.0,0.0,0.0,0.0,0.0,0.0,0.0,0.0,Vitis vinifera L.; Pinus pinaster Aiton; Tracheophyta; Magnoliopsida; Quercus L.; Eucalyptus L'Hér.; Acacia Mill.; 
2004,2004-07-13,Viana do Castelo,Paredes de Coura,Formariz,Vale,41.9215528,-8.5757697,NC,306.0,2004-07-13T15:00,27.2,40,12.4,27.5,0.0,0.0,0.0,0.0,0,1017.0,982.3,0,0,0,0,0.63,2.16,14.4,19.1,357,360,33.1,28.4,20.8,18.3,15.6,0.173,0.198,0.253,0.35,1,3600.0,825.3,721.1,104.2,885.9,825.3,1077.3,871.0,761.0,110.0,885.9,871.0,1136.9,Tracheophyta; Eucalyptus L'Hér.; Magnoliopsida; Quercus L.; Pinus pinaster Aiton; 
2004,2004-07-13,Viana do Castelo,Monção,Moreira,Quinta da Torre,42.0184064,-8.492016,NC,76.0,2004-07-13T19:00,24.1,48,12.2,21.8,0.0,0.0,0.0,0.0,0,1015.9,1007.1,0,0,0,0,0.24,1.58,20.7,33.5,353,359,38.9,25.2,22.1,19.0,16.4,0.162,0.187,0.252,0.35,1,3600.0,147.4,106.8,40.6,567.3,147.4,249.2,218.0,158.0,60.0,567.3,218.0,368.6,Magnoliopsida; Pinus pinaster Aiton; Tracheophyta; Vitis vinifera L.; 
2004,2004-07-06,Viana do Castelo,Ponte de Lima,Gemieira,GEMIEIRA,41.7832158,-8.5239561,NC,11.0,2004-07-06T00:00,17.8,79,14.1,16.0,0.0,0.0,0.0,0.0,0,1015.8,1014.5,0,0,0,0,0.04,0.43,21.6,33.5,342,348,35.3,20.5,23.6,20.6,16.5,0.114,0.195,0.264,0.356,0,0.0,0.0,0.0,0.0,0.0,0.0,0.0,0.0,0.0,0.0,0.0,0.0,0.0,Magnoliopsida; Eucalyptus L'Hér.; Tracheophyta; Quercus suber L.; Pinus pinaster Aiton
2004,2004-07-06,Viana do Castelo,Paredes de Coura,Formariz,Vale,41.9215528,-8.5757697,NC,306.0,2004-07-06T08:00,17.2,73,12.4,16.5,0.0,0.0,0.0,0.0,0,1014.5,978.7,19,2,1,56,0.17,0.53,9.9,13.0,19,24,26.3,19.2,20.2,19.2,15.2,0.113,0.186,0.259,0.354,1,3600.0,378.3,240.1,138.2,485.9,378.3,653.7,312.0,198.0,114.0,485.9,312.0,539.2,Tracheophyta; Eucalyptus L'Hér.; Magnoliopsida; Quercus L.; Pinus pinaster Aiton; 
2004,2004-07-07,Viana do Castelo,Viana do Castelo,Neiva,Monte,41.6463653,-8.5585649,NC,169.0,2004-07-07T16:00,16.4,78,12.6,14.9,2.5,2.5,0.0,0.0,63,1017.5,997.5,45,26,26,20,0.27,0.41,15.8,21.5,282,284,47.2,21.1,20.2,19.7,15.8,0.241,0.179,0.25,0.35,1,3600.0,486.3,285.7,200.6,410.3,486.3,921.4,531.0,312.0,219.0,410.3,531.0,1006.0,Vitis vinifera L.; Eucalyptus L'Hér.; Pinus pinaster Aiton; Magnoliopsida; Tracheophyta
2004,2004-07-13,Viana do Castelo,Arcos de Valdevez,Jolda (madalena),Madalena,41.8006127,-8.50065267849756,NC,75.0,2004-07-13T22:00,21.3,53,11.3,18.6,0.0,0.0,0.0,0.0,0,1016.3,1007.5,0,0,0,0,0.12,1.19,20.9,35.8,1,10,35.6,21.8,22.9,19.4,16.6,0.164,0.199,0.256,0.352,0,0.0,0.0,0.0,0.0,0.0,0.0,0.0,0.0,0.0,0.0,0.0,0.0,0.0,Vitis vinifera L.; Castanea sativa Mill.; Magnoliopsida; Eucalyptus L'Hér.; Pinus pinaster Aiton; Tracheophyta; Olea europaea L.
2004,2004-07-13,Viana do Castelo,Ponte de Lima,Vilar das Almas,Feitos,41.6370951,-8.5496266,NC,143.0,2004-07-13T15:00,28.7,39,13.3,28.1,0.0,0.0,0.0,0.0,0,1016.5,1000.2,0,0,0,0,0.67,2.4,21.7,29.3,341,346,35.3,30.1,21.9,19.0,16.1,0.157,0.184,0.25,0.349,1,3600.0,821.3,715.2,106.1,877.9,821.3,1078.3,867.0,755.0,112.0,877.9,867.0,1138.3,Eucalyptus L'Hér.; Pinus pinaster Aiton; Tracheophyta; Magnoliopsida
2004,2004-07-23,Viana do Castelo,Caminha,Vilarelho,VILARELHO,41.874058,-8.8342666,NC,8.0,2004-07-23T19:00,24.8,67,18.3,26.3,0.0,0.0,0.0,0.0,0,1019.6,1018.7,1,0,0,2,0.16,1.03,11.0,15.6,328,337,19.1,29.4,25.0,21.3,18.1,0.089,0.177,0.252,0.348,1,3600.0,131.4,93.7,37.7,550.0,131.4,225.7,202.0,144.0,58.0,550.0,202.0,347.0,Tracheophyta; Eucalyptus L'Hér.; Pinus pinaster Aiton
2004,2004-07-14,Viana do Castelo,Vila Nova de Cerveira,Nogueira,NOGUEIRA,41.957298050000006,-8.69710362780696,NC,87.0,2004-07-14T13:00,29.5,43,15.5,32.2,0.0,0.0,0.0,0.0,0,1017.0,1007.1,0,0,0,0,0.7,2.36,10.1,11.2,356,15,20.5,30.0,21.4,19.1,16.4,0.151,0.185,0.251,0.35,1,3600.0,949.4,836.3,113.0,894.3,949.4,1237.8,949.0,836.0,113.0,894.3,949.0,1237.3,Magnoliopsida; Pinus pinaster Aiton; Eucalyptus L'Hér.; Tracheophyta
2004,2004-07-12,Viana do Castelo,Viana do Castelo,Meixedo,Covas,41.7593271,-8.7076436,NC,83.0,2004-07-12T00:00,16.1,77,12.0,14.2,0.0,0.0,0.0,0.0,0,1019.0,1009.1,0,0,0,0,0.04,0.43,17.3,29.6,358,5,36.7,17.8,20.5,19.2,16.7,0.196,0.21,0.264,0.354,0,0.0,0.0,0.0,0.0,0.0,0.0,0.0,0.0,0.0,0.0,0.0,0.0,0.0,Magnoliopsida; Tracheophyta; Eucalyptus L'Hér.; Vitis vinifera L.
2004,2004-07-14,Viana do Castelo,Paredes de Coura,Formariz,Vale,41.9215528,-8.5757697,NC,306.0,2004-07-14T14:00,29.6,37,13.2,32.2,0.0,0.0,0.0,0.0,0,1016.9,982.5,0,0,0,0,0.69,2.63,5.8,6.6,4,13,22.7,30.5,21.4,18.5,15.7,0.152,0.194,0.251,0.349,1,3600.0,911.4,802.2,109.2,895.1,911.4,1186.3,935.0,823.0,112.0,895.1,935.0,1217.0,Tracheophyta; Eucalyptus L'Hér.; Magnoliopsida; Quercus L.; Pinus pinaster Aiton; 
2004,2004-07-06,Viana do Castelo,Ponte de Lima,Calheiros,Devesa,41.809265,-8.5793561,NC,167.0,2004-07-06T21:00,15.7,79,12.1,12.7,0.0,0.0,0.0,0.0,1,1014.8,995.0,23,5,12,39,0.06,0.38,24.8,36.4,332,334,50.4,19.6,21.5,19.6,15.9,0.115,0.19,0.258,0.353,0,0.0,0.0,0.0,0.0,0.0,0.0,0.0,0.0,0.0,0.0,0.0,0.0,3.4,Pinus pinaster Aiton; Tracheophyta; Eucalyptus L'Hér.; Magnoliopsida; Olea europaea L.
2004,2004-07-23,Viana do Castelo,Monção,Longos Vales,Samarão,42.0491407,-8.4579677,NC,130.0,2004-07-23T19:00,26.2,62,18.3,28.1,0.0,0.0,0.0,0.0,0,1019.8,1004.8,4,0,0,12,0.16,1.29,7.9,10.8,330,334,15.1,28.6,24.0,20.1,16.7,0.11,0.164,0.239,0.343,1,3600.0,132.4,94.8,37.6,561.7,132.4,223.6,204.0,146.0,58.0,561.7,204.0,344.5,Vitis vinifera L.; Pinus pinaster Aiton; Tracheophyta; Magnoliopsida; Quercus L.; Eucalyptus L'Hér.; Acacia Mill.; 
2004,2004-06-17,Viana do Castelo,Caminha,Dem,Pedras Frias,41.8408718,-8.7699022,NC,253.0,2004-06-17T05:00,16.6,73,11.7,16.4,0.0,0.0,0.0,0.0,0,1017.1,987.3,0,0,0,0,0.01,0.52,5.2,6.4,65,52,12.2,16.7,21.8,19.2,13.8,0.106,0.194,0.285,0.365,1,0.0,0.0,0.0,0.0,0.0,0.0,0.0,0.0,0.0,0.0,0.0,0.0,0.0,Pinus pinaster Aiton; Eucalyptus L'Hér.; Magnoliopsida; Tracheophyta; Quercus L.
2004,2004-07-13,Viana do Castelo,Valença,Taião,Enchurreiras,41.990382,-8.5846855,NC,320.0,2004-07-13T14:00,26.5,41,12.3,27.6,0.0,0.0,0.0,0.0,0,1017.5,981.2,0,0,0,0,0.66,2.03,12.0,15.2,351,355,29.5,27.6,19.8,17.8,15.2,0.174,0.192,0.256,0.352,1,3600.0,920.2,809.1,111.1,902.2,920.2,1186.9,944.0,830.0,114.0,902.2,944.0,1217.6,Magnoliopsida; Eucalyptus L'Hér.; Tracheophyta; Vitis vinifera L.; Pinus pinaster Aiton; Acacia Mill.; 
2004,2004-07-24,Viana do Castelo,Ponte de Lima,Cepões,CEPÕES,41.821356,-8.583773016001032,NC,133.0,2004-07-24T13:00,29.9,39,14.3,31.6,0.0,0.0,0.0,0.0,0,1022.2,1007.0,6,0,10,1,0.72,2.6,13.2,15.0,313,316,23.4,32.7,23.4,20.4,17.1,0.111,0.173,0.241,0.343,1,3600.0,946.6,833.5,113.1,901.6,946.6,1225.3,946.0,833.0,113.0,901.6,946.0,1224.6,Magnoliopsida; Pinus pinaster Aiton; Eucalyptus L'Hér.; Vitis vinifera L.; Tracheophyta; Olea europaea L.
2004,2004-07-14,Viana do Castelo,Ponte de Lima,Gondufe,Aguieiro,41.7655223,-8.5126716,NC,154.0,2004-07-14T16:00,31.4,30,11.8,32.1,0.0,0.0,0.0,0.0,0,1015.2,997.8,0,0,0,0,0.58,3.21,7.1,8.7,336,343,18.0,31.4,22.9,19.1,16.1,0.146,0.195,0.254,0.351,1,3600.0,682.8,588.5,94.3,851.3,682.8,915.1,746.0,643.0,103.0,851.3,746.0,999.8,Magnoliopsida; Eucalyptus L'Hér.; Vitis vinifera L.; Tracheophyta
2004,2004-07-24,Viana do Castelo,Melgaço,Cristoval,CRISTOVAL,42.1406276,-8.1953443,NC,260.0,2004-07-24T13:00,31.5,33,13.4,34.1,0.0,0.0,0.0,0.0,0,1022.4,993.1,0,0,0,0,0.7,3.09,5.9,6.6,281,283,24.8,33.8,23.9,20.2,15.9,0.199,0.271,0.317,0.425,1,3600.0,921.8,775.8,146.0,841.8,921.8,1221.6,922.0,776.0,146.0,841.8,922.0,1221.9,Quercus L.; Magnoliopsida; Vitis vinifera L.; Pinus pinaster Aiton
2004,2004-07-12,Viana do Castelo,Monção,Cambeses,Milagres,42.0467536,-8.470773,NC,134.0,2004-07-12T10:00,19.5,55,10.3,17.0,0.0,0.0,0.0,0.0,0,1020.1,1004.3,7,8,0,0,0.39,1.02,21.8,27.3,38,40,37.8,20.7,18.6,18.6,16.0,0.21,0.193,0.255,0.351,1,3600.0,729.6,613.1,116.5,788.2,729.6,1029.4,670.0,563.0,107.0,788.2,670.0,945.3,Vitis vinifera L.; Pinus pinaster Aiton; Magnoliopsida; Tracheophyta; 
2004,2004-07-07,Viana do Castelo,Viana do Castelo,Darque,DARQUE,41.68023,-8.7819539,Desconhecida,25.0,2004-07-07T15:00,17.4,81,14.1,16.2,0.3,0.3,0.0,0.0,51,1017.4,1014.4,74,70,12,11,0.29,0.38,18.8,25.6,267,268,41.8,22.1,20.4,20.2,16.8,0.244,0.195,0.267,0.356,1,3600.0,563.0,320.3,242.6,390.9,563.0,1084.2,594.0,338.0,256.0,390.9,594.0,1144.0,Magnoliopsida; Tracheophyta; Eucalyptus L'Hér.; Pinus pinaster Aiton; Pinales
2004,2004-07-14,Viana do Castelo,Ponte de Lima,Beiral do Lima,Beiral do Lima,41.7637598,-8.4841489,NC,282.0,2004-07-14T17:00,30.1,35,12.8,30.0,0.0,0.0,0.0,0.0,0,1015.5,983.8,3,0,5,0,0.46,2.79,8.2,10.3,319,324,22.3,29.9,22.5,18.5,15.6,0.15,0.2,0.258,0.352,1,3600.0,508.7,427.5,81.1,795.7,508.7,711.3,583.0,490.0,93.0,795.7,583.0,815.2,Magnoliopsida; Pinus pinaster Aiton; Eucalyptus L'Hér.; Tracheophyta
2004,2004-07-14,Viana do Castelo,Vila Nova de Cerveira,Campos,Cortinhal,41.9710284,-8.7009244,NC,21.0,2004-07-14T14:00,30.5,41,15.8,33.2,0.0,0.0,0.0,0.0,0,1016.3,1013.9,0,0,0,0,0.71,2.58,9.9,10.9,341,354,19.1,31.3,22.3,19.5,16.9,0.149,0.184,0.251,0.35,1,3600.0,910.6,800.5,110.2,893.0,910.6,1186.5,934.0,821.0,113.0,893.0,934.0,1217.0,Tracheophyta; Pinus pinaster Aiton; Eucalyptus L'Hér.; Magnoliopsida
2004,2004-07-24,Viana do Castelo,Ponte de Lima,Beiral do Lima,Beiral do Lima,41.7637598,-8.4841489,NC,282.0,2004-07-24T14:00,31.1,33,13.0,32.6,0.0,0.0,0.0,0.0,0,1021.8,990.0,14,0,23,0,0.73,3.02,11.1,13.6,306,310,28.8,33.7,23.5,19.9,16.3,0.108,0.171,0.244,0.346,1,3600.0,909.7,801.6,108.1,906.1,909.7,1172.7,934.0,823.0,111.0,906.1,934.0,1204.0,Magnoliopsida; Pinus pinaster Aiton; Eucalyptus L'Hér.; Tracheophyta
2004,2004-10-04,Viana do Castelo,Ponte de Lima,Arcos,Arcos,41.767579,-8.635575703251872,NC,16.0,2004-10-04T14:00,22.2,58,13.6,22.7,0.0,0.0,0.0,0.0,0,1017.9,1016.0,5,6,0,0,0.4,1.13,7.9,8.5,246,242,16.6,25.8,19.6,20.6,20.2,0.113,0.188,0.26,0.321,1,3600.0,598.5,447.2,151.3,716.0,598.5,854.4,629.0,470.0,159.0,716.0,629.0,897.9,Magnoliopsida; Eucalyptus L'Hér.
2004,2004-11-14,Viana do Castelo,Monção,Tangil,Armada,42.022956,-8.364877,NC,134.0,2004-11-14T15:00,12.8,57,4.6,10.2,0.0,0.0,0.0,0.0,0,1024.7,1008.5,0,0,0,0,0.19,0.63,9.1,12.8,34,38,20.5,12.9,10.5,13.1,17.1,0.35,0.364,0.389,0.369,1,3600.0,324.0,263.9,60.2,809.4,324.0,455.7,377.0,307.0,70.0,809.4,377.0,530.2,Magnoliopsida; Pinus pinaster Aiton; Vitis vinifera L.; Tracheophyta; Quercus L.; 
2004,2004-06-17,Viana do Castelo,Vila Nova de Cerveira,Gondar,Amieira,41.9122396,-8.6794927,NC,226.0,2004-06-17T14:00,26.1,46,13.6,27.4,0.0,0.0,0.0,0.0,0,1017.3,991.5,0,0,0,0,0.66,1.83,14.1,17.3,310,317,27.7,31.3,23.0,19.4,14.0,0.104,0.192,0.284,0.365,1,3600.0,925.6,808.8,116.8,896.4,925.6,1195.5,951.0,831.0,120.0,896.4,951.0,1228.3,Magnoliopsida; Eucalyptus L'Hér.; Pinus pinaster Aiton
2004,2004-07-14,Viana do Castelo,Valença,Gandra,Tuido,42.0055903,-8.6164853,NC,96.0,2004-07-14T17:00,30.0,41,15.4,29.5,0.0,0.0,0.0,0.0,0,1015.3,1004.4,0,0,0,0,0.49,2.49,16.5,21.9,337,343,29.5,30.3,22.8,19.0,16.4,0.143,0.183,0.25,0.349,1,3600.0,508.6,426.5,82.1,788.8,508.6,715.7,582.0,488.0,94.0,788.8,582.0,818.9,Magnoliopsida; Eucalyptus L'Hér.; Tracheophyta; Vitis vinifera L.; Pinus pinaster Aiton; Acacia Mill.; 
2004,2004-07-14,Viana do Castelo,Viana do Castelo,Barroselas,Feimento,41.6471968,-8.7014513,NC,69.0,2004-07-14T18:00,28.3,46,15.6,28.0,0.0,0.0,0.0,0.0,0,1015.3,1007.4,0,0,0,0,0.35,2.07,14.9,23.5,340,345,31.0,29.8,24.0,19.8,17.0,0.134,0.173,0.241,0.344,1,3600.0,322.9,258.3,64.6,703.9,322.9,485.8,400.0,320.0,80.0,703.9,400.0,601.8,Tracheophyta; Magnoliopsida; Quercus L.; Eucalyptus L'Hér.
2004,2004-06-17,Viana do Castelo,Arcos de Valdevez,Grade,Vilela,41.8807263,-8.3705327,NC,229.0,2004-06-17T16:00,27.7,40,13.1,28.0,0.0,0.0,0.0,0.0,0,1016.4,990.4,0,0,0,0,0.55,2.22,12.2,15.8,313,317,30.2,31.5,23.6,19.2,13.6,0.109,0.202,0.292,0.367,1,3600.0,678.8,571.8,107.0,825.3,678.8,917.9,742.0,625.0,117.0,825.3,742.0,1003.4,Magnoliopsida; Pinus pinaster Aiton; Tracheophyta; Quercus L.; Acacia Mill.
2004,2004-07-15,Viana do Castelo,Ponte de Lima,Gondufe,Cubelo,41.7655223,-8.5126716,NC,154.0,2004-07-15T09:00,28.0,45,15.0,28.0,0.0,0.0,0.0,0.0,0,1015.0,997.4,0,0,0,0,0.4,2.07,10.9,14.6,98,100,24.5,25.2,21.8,19.3,16.2,0.142,0.194,0.254,0.351,1,3600.0,596.1,494.7,101.4,772.2,596.1,848.1,523.0,434.0,89.0,772.2,523.0,744.0,Magnoliopsida; Eucalyptus L'Hér.; Vitis vinifera L.; Tracheophyta
2004,2004-07-16,Viana do Castelo,Monção,Trute,Sande,42.0106983,-8.4828385,NC,145.0,2004-07-16T02:00,20.5,83,17.5,22.8,0.0,0.0,0.0,0.0,0,1013.5,996.6,0,0,0,0,0.0,0.41,2.4,4.1,63,75,10.1,19.5,23.2,19.1,16.1,0.13,0.179,0.248,0.348,0,0.0,0.0,0.0,0.0,0.0,0.0,0.0,0.0,0.0,0.0,0.0,0.0,0.0,Pinus pinaster Aiton; Magnoliopsida; Eucalyptus L'Hér.; Vitis vinifera L.; Tracheophyta; 
2004,2004-07-15,Viana do Castelo,Caminha,Vilar de Mouros,Marinhas,41.8786123,-8.8040828,NC,12.0,2004-07-15T09:00,25.3,57,16.1,26.9,0.0,0.0,0.0,0.0,0,1015.0,1013.6,0,0,0,0,0.34,1.39,3.2,6.3,90,103,12.2,26.2,22.7,20.3,17.6,0.11,0.192,0.26,0.352,1,3600.0,589.5,489.2,100.3,765.4,589.5,846.1,517.0,429.0,88.0,765.4,517.0,742.0,Pinus pinaster Aiton; Magnoliopsida; Tracheophyta; Eucalyptus L'Hér.
2004,2004-06-17,Viana do Castelo,Viana do Castelo,Areosa,AREOSA,41.7211476,-8.8555868,NC,18.0,2004-06-17T17:00,24.8,51,13.9,23.5,0.0,0.0,0.0,0.0,0,1016.0,1013.9,0,0,0,0,0.43,1.54,19.2,25.8,322,327,33.1,31.4,25.0,20.6,15.2,0.087,0.194,0.285,0.366,1,3600.0,517.6,431.9,85.7,793.8,517.6,721.0,592.0,494.0,98.0,793.8,592.0,824.6,Tracheophyta; Magnoliopsida; Acacia Mill.; Eucalyptus L'Hér.
2004,2004-07-16,Viana do Castelo,Ponte de Lima,Rebordões (souto),Souto,41.72244325,-8.56183229916097,NC,107.0,2004-07-16T15:00,28.2,49,16.4,30.0,0.0,0.0,0.0,0.0,0,1012.7,1000.5,0,0,0,0,0.62,1.96,14.0,17.6,312,319,25.6,32.3,24.3,20.1,16.8,0.126,0.192,0.247,0.347,1,3600.0,816.7,709.6,107.1,873.2,816.7,1075.9,862.0,749.0,113.0,873.2,862.0,1135.7,Eucalyptus L'Hér.; Magnoliopsida; Pinus pinaster Aiton; Tracheophyta
2004,2004-07-18,Viana do Castelo,Ponte de Lima,Freixo,FREIXO,41.66032785,-8.594177125828846,NC,154.0,2004-07-18T16:00,23.7,62,16.1,24.6,0.0,0.0,0.0,0.0,1,1017.2,999.4,32,34,0,4,0.44,1.1,13.7,17.0,288,291,32.4,29.6,23.3,20.2,16.6,0.117,0.185,0.244,0.346,1,3600.0,629.1,476.4,152.7,693.4,629.1,909.7,688.0,521.0,167.0,693.4,688.0,994.9,Eucalyptus L'Hér.; Tracheophyta; Pinus pinaster Aiton; Magnoliopsida
2004,2004-07-18,Viana do Castelo,Paredes de Coura,Ferreira,Venade,41.9456186,-8.5648029,NC,525.0,2004-07-18T22:00,16.1,94,15.1,17.0,0.0,0.0,0.0,0.0,0,1018.8,957.9,6,7,0,0,0.0,0.11,4.9,5.9,287,308,11.2,19.6,21.5,18.1,14.5,0.116,0.18,0.25,0.349,0,0.0,0.0,0.0,0.0,0.0,0.0,0.0,0.0,0.0,0.0,0.0,0.0,0.0,Tracheophyta; Eucalyptus L'Hér.; Magnoliopsida; Quercus L.; Pinus pinaster Aiton; 
2004,2004-07-19,Viana do Castelo,Viana do Castelo,Areosa,AREOSA,41.7211476,-8.8555868,NC,18.0,2004-07-19T03:00,17.0,99,16.8,18.8,0.0,0.0,0.0,0.0,3,1016.9,1014.7,100,100,0,94,0.0,0.02,4.0,7.0,243,258,9.4,19.5,22.7,20.7,17.5,0.099,0.189,0.257,0.35,0,0.0,0.0,0.0,0.0,0.0,0.0,0.0,0.0,0.0,0.0,0.0,0.0,0.0,Tracheophyta; Magnoliopsida; Acacia Mill.; Eucalyptus L'Hér.
2004,2004-02-19,Viana do Castelo,Arcos de Valdevez,Sabadim,SABADIM,41.907053,-8.4581156,NC,129.0,2004-02-19T17:00,11.7,49,1.4,8.0,0.0,0.0,0.0,0.0,0,1006.3,990.9,0,0,0,0,0.14,0.7,12.4,18.4,17,23,26.3,11.8,9.5,10.5,12.0,0.328,0.346,0.374,0.413,1,3600.0,184.0,142.7,41.4,710.1,184.0,281.3,258.0,200.0,58.0,710.1,258.0,394.4,Pinus pinaster Aiton; Magnoliopsida; Eucalyptus L'Hér.; Tracheophyta
2004,2004-07-14,Viana do Castelo,Valença,Gandra,GANDRA,42.0156094,-8.620661185438873,NC,79.0,2004-07-14T14:00,30.1,41,15.4,32.7,0.0,0.0,0.0,0.0,0,1016.3,1007.3,0,0,0,0,0.7,2.53,9.9,10.9,341,354,19.1,30.9,21.9,19.1,16.5,0.149,0.184,0.251,0.35,1,3600.0,910.6,800.5,110.2,893.0,910.6,1186.5,934.0,821.0,113.0,893.0,934.0,1217.0,Magnoliopsida; Eucalyptus L'Hér.; Tracheophyta; Vitis vinifera L.; Pinus pinaster Aiton; Acacia Mill.; 
2004,2004-07-14,Viana do Castelo,Viana do Castelo,Barroselas,Rua Nova,41.6471968,-8.7014513,NC,69.0,2004-07-14T12:00,28.5,37,12.4,30.5,0.0,0.0,0.0,0.0,0,1017.0,1009.1,0,0,0,0,0.66,2.44,6.6,8.1,22,45,22.3,29.4,22.1,19.7,16.9,0.143,0.176,0.242,0.345,1,3600.0,939.1,824.1,114.9,887.8,939.1,1228.7,915.0,803.0,112.0,887.8,915.0,1197.3,Tracheophyta; Magnoliopsida; Quercus L.; Eucalyptus L'Hér.
2004,2004-06-17,Viana do Castelo,Ponte da Barca,Oleiros,Airo,41.7917581,-8.4390971,NC,200.0,2004-06-17T12:00,29.1,40,14.2,30.7,0.0,0.0,0.0,0.0,0,1017.7,995.0,0,0,0,0,0.69,2.41,12.3,13.8,308,319,24.8,30.6,22.2,19.1,13.6,0.112,0.209,0.299,0.37,1,3600.0,940.2,804.1,136.1,854.6,940.2,1246.8,919.0,786.0,133.0,854.6,919.0,1218.7,Eucalyptus L'Hér.; Vitis vinifera L.; Castanea sativa Mill.; Magnoliopsida; Quercus L.; Tracheophyta; Pinus pinaster Aiton
2004,2004-07-14,Viana do Castelo,Ponte de Lima,Gondufe,Cubelo,41.7655223,-8.5126716,NC,154.0,2004-07-14T21:00,24.7,62,17.0,26.0,0.0,0.0,0.0,0.0,0,1015.3,997.6,0,0,0,0,0.04,1.18,8.4,16.8,7,9,17.6,24.5,23.6,19.1,16.2,0.143,0.194,0.254,0.351,0,0.0,0.0,0.0,0.0,0.0,0.0,0.0,0.0,0.0,0.0,0.0,0.0,0.0,Magnoliopsida; Eucalyptus L'Hér.; Vitis vinifera L.; Tracheophyta
2004,2004-07-15,Viana do Castelo,Vila Nova de Cerveira,Nogueira,NOGUEIRA,41.957298050000006,-8.69710362780696,NC,87.0,2004-07-15T12:00,30.2,42,15.8,33.1,0.0,0.0,0.0,0.0,0,1014.9,1005.0,1,0,1,0,0.68,2.49,8.3,7.6,272,262,19.8,31.2,22.7,19.3,16.5,0.136,0.181,0.25,0.349,1,3600.0,928.9,815.0,113.9,880.5,928.9,1225.2,905.0,794.0,111.0,880.5,905.0,1193.7,Magnoliopsida; Pinus pinaster Aiton; Eucalyptus L'Hér.; Tracheophyta
2004,2004-07-13,Viana do Castelo,Ponte de Lima,Brandara,BRANDARA,41.7977034,-8.573498050000001,NC,96.0,2004-07-13T22:00,20.7,55,11.2,18.0,0.0,0.0,0.0,0.0,0,1016.3,1005.0,0,0,0,0,0.11,1.11,20.9,35.8,1,10,35.6,21.5,22.3,19.3,16.7,0.169,0.204,0.253,0.35,0,0.0,0.0,0.0,0.0,0.0,0.0,0.0,0.0,0.0,0.0,0.0,0.0,0.0,Eucalyptus L'Hér.; Tracheophyta; Magnoliopsida
2004,2004-07-13,Viana do Castelo,Monção,Cambeses,Milagres,42.0467536,-8.470773,NC,134.0,2004-07-13T23:00,18.2,60,10.3,15.1,0.0,0.0,0.0,0.0,0,1018.9,1003.0,0,0,0,0,0.1,0.84,21.9,35.2,30,35,34.6,19.6,21.5,18.7,16.1,0.161,0.187,0.252,0.35,0,0.0,0.0,0.0,0.0,0.0,0.0,0.0,0.0,0.0,0.0,0.0,0.0,0.0,Vitis vinifera L.; Pinus pinaster Aiton; Magnoliopsida; Tracheophyta; 
2004,2004-07-14,Viana do Castelo,Valença,Taião,Chão do Monte,41.990382,-8.5846855,NC,320.0,2004-07-14T01:00,15.8,62,8.6,13.9,0.0,0.0,0.0,0.0,0,1018.2,980.5,0,0,0,0,0.04,0.68,10.4,24.3,46,50,29.9,17.4,20.4,17.9,15.2,0.163,0.19,0.255,0.351,0,0.0,0.0,0.0,0.0,0.0,0.0,0.0,0.0,0.0,0.0,0.0,0.0,0.0,Magnoliopsida; Eucalyptus L'Hér.; Tracheophyta; Vitis vinifera L.; Pinus pinaster Aiton; Acacia Mill.; 
2004,2004-07-14,Viana do Castelo,Viana do Castelo,Chafé,Amorosa,41.6461506,-8.8206768,NC,15.0,2004-07-14T01:00,19.2,59,11.1,16.8,0.0,0.0,0.0,0.0,0,1016.1,1014.3,0,0,0,0,0.09,0.9,18.8,31.7,7,17,29.2,20.6,23.0,20.0,17.2,0.14,0.167,0.24,0.344,0,0.0,0.0,0.0,0.0,0.0,0.0,0.0,0.0,0.0,0.0,0.0,0.0,0.0,Pinus pinaster Aiton; Tracheophyta
2004,2004-06-17,Viana do Castelo,Caminha,Argela,Guimbra,41.8671641,-8.7916363,NC,31.0,2004-06-17T22:00,19.4,77,15.2,19.6,0.0,0.0,0.0,0.0,0,1016.6,1012.9,14,1,0,45,0.02,0.53,10.2,18.7,350,1,19.8,22.5,25.0,20.9,15.5,0.082,0.192,0.284,0.365,0,0.0,0.0,0.0,0.0,0.0,0.0,0.0,0.0,0.0,0.0,0.0,0.0,0.0,Tracheophyta; Magnoliopsida; Pinus pinaster Aiton; Eucalyptus L'Hér.
2004,2004-07-14,Viana do Castelo,Valença,Fontoura,Rio Torto,41.9613979,-8.6416119,NC,52.0,2004-07-14T20:00,26.3,56,16.9,26.5,0.0,0.0,0.0,0.0,0,1015.3,1009.3,0,0,0,0,0.13,1.5,15.2,24.3,5,12,24.8,26.4,23.5,19.4,16.6,0.141,0.183,0.25,0.349,1,2324.39,6.5,3.7,2.9,42.1,5.0,15.0,57.0,32.0,25.0,246.2,57.0,130.7,Pinus pinaster Aiton; Tracheophyta; Magnoliopsida
2004,2004-07-15,Viana do Castelo,Caminha,Vilar de Mouros,Marinhas,41.8786123,-8.8040828,NC,12.0,2004-07-15T14:00,26.7,53,16.4,29.9,0.0,0.0,0.0,0.0,0,1014.2,1012.8,0,0,0,0,0.62,1.63,7.2,7.4,273,256,22.0,34.1,24.3,20.3,17.6,0.104,0.19,0.259,0.352,1,3600.0,874.5,751.7,122.8,838.7,874.5,1186.3,897.0,771.0,126.0,838.7,897.0,1216.9,Pinus pinaster Aiton; Magnoliopsida; Tracheophyta; Eucalyptus L'Hér.
2004,2004-07-14,Viana do Castelo,Vila Nova de Cerveira,Campos,Cortinhal,41.9710284,-8.7009244,NC,21.0,2004-07-14T10:00,25.8,55,16.0,27.5,0.0,0.0,0.0,0.0,0,1017.2,1014.8,0,0,0,0,0.47,1.5,7.7,10.8,41,60,23.0,25.0,20.8,19.5,16.9,0.157,0.186,0.252,0.35,1,3600.0,754.5,645.5,109.0,834.4,754.5,1024.0,692.0,592.0,100.0,834.4,692.0,939.1,Tracheophyta; Pinus pinaster Aiton; Eucalyptus L'Hér.; Magnoliopsida
2004,2004-07-16,Viana do Castelo,Viana do Castelo,Carreço,Troviscoso,41.7486285,-8.8622634,NC,41.0,2004-07-16T19:00,21.3,77,17.1,21.6,0.0,0.0,0.0,0.0,0,1012.7,1007.9,0,0,0,0,0.14,0.58,15.4,21.7,323,328,29.5,26.8,24.6,20.2,17.2,0.103,0.193,0.258,0.352,1,3600.0,142.1,100.5,41.6,544.1,142.1,244.6,212.0,150.0,62.0,544.1,212.0,365.0,Tracheophyta; Eucalyptus L'Hér.; Magnoliopsida
2004,2004-11-27,Viana do Castelo,Viana do Castelo,Montaria,Pedrulhos,41.8138336,-8.7538867,NC,291.0,2004-11-27T22:00,9.2,81,6.1,6.8,0.0,0.0,0.0,0.0,2,1018.3,983.2,62,0,53,99,0.01,0.22,9.4,20.5,97,114,29.2,8.8,9.4,10.8,15.5,0.333,0.341,0.37,0.373,0,0.0,0.0,0.0,0.0,0.0,0.0,0.0,0.0,0.0,0.0,0.0,0.0,0.0,Magnoliopsida; Tracheophyta; Pinus pinaster Aiton; Eucalyptus L'Hér.
2004,2004-07-20,Viana do Castelo,Viana do Castelo,Vila Fria,VILA FRIA,41.66066935,-8.760610979887733,NC,39.0,2004-07-20T14:00,21.7,66,15.1,22.7,0.0,0.0,0.0,0.0,1,1015.1,1010.5,20,0,34,0,0.44,0.87,11.3,13.0,239,236,28.8,27.5,21.8,20.6,17.4,0.112,0.187,0.256,0.35,1,3600.0,689.1,510.7,178.4,572.6,689.1,1181.4,707.0,524.0,183.0,572.6,707.0,1212.1,Eucalyptus L'Hér.; Tracheophyta; Magnoliopsida
2004,2004-07-24,Viana do Castelo,Valença,Taião,Taião de Cima,41.9969898,-8.592612183267017,NC,344.0,2004-07-24T14:00,28.9,43,15.2,31.5,0.0,0.0,0.0,0.0,0,1022.2,983.3,7,0,11,0,0.67,2.24,8.9,10.9,302,304,25.9,32.5,22.8,19.3,15.7,0.111,0.165,0.24,0.344,1,3600.0,893.3,775.4,117.9,877.5,893.3,1171.2,917.0,796.0,121.0,877.5,917.0,1202.4,Magnoliopsida; Eucalyptus L'Hér.; Tracheophyta; Vitis vinifera L.; Pinus pinaster Aiton; Acacia Mill.; 
2004,2004-07-15,Viana do Castelo,Ponte de Lima,Beiral do Lima,Podouro,41.7637598,-8.4841489,NC,282.0,2004-07-15T12:00,30.7,36,13.8,33.2,0.0,0.0,0.0,0.0,0,1014.9,983.3,1,0,1,0,0.68,2.83,6.1,7.6,230,225,23.0,30.1,22.0,18.7,15.7,0.142,0.197,0.257,0.352,1,3600.0,935.6,820.7,114.9,885.4,935.6,1227.1,912.0,800.0,112.0,885.4,912.0,1196.1,Magnoliopsida; Pinus pinaster Aiton; Eucalyptus L'Hér.; Tracheophyta
2004,2004-06-17,Viana do Castelo,Paredes de Coura,Ferreira,São Silvestre,41.9597,-8.5711,NC,727.0,2004-06-17T22:00,16.4,75,11.9,16.3,0.0,0.0,0.0,0.0,0,1017.4,934.4,4,0,0,14,0.0,0.47,4.8,7.1,48,30,11.9,18.9,20.7,16.3,10.7,0.108,0.202,0.293,0.368,0,0.0,0.0,0.0,0.0,0.0,0.0,0.0,0.0,0.0,0.0,0.0,0.0,0.0,Tracheophyta; Eucalyptus L'Hér.; Magnoliopsida; Quercus L.; Pinus pinaster Aiton; 
2004,2004-07-19,Viana do Castelo,Vila Nova de Cerveira,Reboreda,REBOREDA,41.9550028,-8.718220213393582,NC,73.0,2004-07-19T06:00,17.6,96,16.9,19.3,0.2,0.2,0.0,0.0,51,1016.5,1007.8,100,100,26,98,0.02,0.09,5.4,5.0,160,180,13.0,19.9,22.3,20.3,16.8,0.116,0.172,0.244,0.346,1,0.0,9.3,0.0,9.3,0.0,4.9,148.9,4.0,0.0,4.0,0.0,4.0,64.1,Pinus pinaster Aiton; Magnoliopsida; Tracheophyta; Eucalyptus L'Hér.
2004,2004-07-16,Viana do Castelo,Ponte de Lima,Freixo,Paço,41.6532383,-8.605341047025863,NC,145.0,2004-07-16T22:00,18.9,90,17.2,20.5,0.0,0.0,0.0,0.0,0,1014.2,997.2,0,0,0,0,0.0,0.22,6.8,11.8,288,310,17.3,22.4,24.4,20.0,16.6,0.124,0.191,0.246,0.347,0,0.0,0.0,0.0,0.0,0.0,0.0,0.0,0.0,0.0,0.0,0.0,0.0,0.0,Eucalyptus L'Hér.; Vitis vinifera L.; Tracheophyta; Pinus pinaster Aiton; Magnoliopsida
2004,2004-07-21,Viana do Castelo,Ponte de Lima,Freixo,Fojo \ CAS,41.6532383,-8.605341047025863,NC,145.0,2004-07-21T15:00,25.4,58,16.6,27.3,0.0,0.0,0.0,0.0,0,1013.8,997.1,0,0,0,0,0.55,1.36,13.1,15.7,278,279,27.0,30.3,22.6,20.3,16.9,0.125,0.179,0.242,0.344,1,3600.0,777.1,667.3,109.8,827.9,777.1,1067.9,821.0,705.0,116.0,827.9,821.0,1128.2,Eucalyptus L'Hér.; Vitis vinifera L.; Tracheophyta; Pinus pinaster Aiton; Magnoliopsida
2004,2004-07-17,Viana do Castelo,Viana do Castelo,Montaria,Trás-Âncora,41.7909521,-8.7282473,NC,290.0,2004-07-17T13:00,22.2,63,14.7,23.4,0.0,0.0,0.0,0.0,1,1016.2,982.8,29,0,0,96,0.51,1.0,13.6,17.3,307,312,33.1,27.4,21.8,19.1,15.8,0.124,0.188,0.247,0.347,1,3600.0,839.2,533.1,306.1,571.5,839.2,1235.3,839.0,533.0,306.0,571.5,839.0,1235.0,Tracheophyta; Magnoliopsida; Eucalyptus L'Hér.
2004,2004-07-14,Viana do Castelo,Ponte de Lima,Calheiros,Outeiro,41.8064192,-8.570225,NC,160.0,2004-07-14T05:00,15.8,70,10.2,14.3,0.0,0.0,0.0,0.0,0,1015.6,996.6,0,0,0,0,0.03,0.55,10.2,21.3,51,64,19.8,17.2,20.6,19.0,16.3,0.168,0.204,0.253,0.35,0,0.0,0.0,0.0,0.0,0.0,0.0,0.0,0.0,0.0,0.0,0.0,0.0,0.0,Eucalyptus L'Hér.; Magnoliopsida; Tracheophyta; Olea europaea L.
2004,2004-07-17,Viana do Castelo,Ponte de Lima,Gemieira,GEMIEIRA,41.7832158,-8.5239561,NC,11.0,2004-07-17T12:00,25.2,59,16.5,26.3,0.0,0.0,0.0,0.0,1,1016.8,1015.5,29,0,0,98,0.56,1.32,18.4,22.4,312,316,30.2,29.8,23.5,20.8,17.3,0.119,0.184,0.25,0.349,1,3600.0,882.7,701.0,181.7,758.2,882.7,1224.2,860.0,683.0,177.0,758.2,860.0,1192.8,Magnoliopsida; Eucalyptus L'Hér.; Tracheophyta; Quercus suber L.; Pinus pinaster Aiton
2004,2004-07-14,Viana do Castelo,Valença,Gandra,Tuido,42.0055903,-8.6164853,NC,96.0,2004-07-14T13:00,29.5,43,15.5,32.6,0.0,0.0,0.0,0.0,0,1016.6,1005.7,0,0,0,0,0.7,2.36,7.6,8.0,357,18,20.2,30.0,21.4,19.0,16.4,0.151,0.185,0.251,0.35,1,3600.0,952.4,838.4,114.0,896.9,952.4,1237.2,952.0,838.0,114.0,896.9,952.0,1236.7,Magnoliopsida; Eucalyptus L'Hér.; Tracheophyta; Vitis vinifera L.; Pinus pinaster Aiton; Acacia Mill.; 
2004,2004-07-18,Viana do Castelo,Ponte de Lima,Calheiros,Devesa,41.809265,-8.5793561,NC,167.0,2004-07-18T18:00,21.3,74,16.5,22.0,0.0,0.0,0.0,0.0,1,1017.8,998.3,25,28,0,0,0.2,0.65,10.6,14.0,294,299,22.7,26.7,23.0,19.9,16.5,0.119,0.185,0.246,0.346,1,3600.0,264.0,177.9,86.1,491.4,264.0,479.3,328.0,221.0,107.0,491.4,328.0,595.6,Pinus pinaster Aiton; Tracheophyta; Eucalyptus L'Hér.; Magnoliopsida; Olea europaea L.
2004,2004-07-14,Viana do Castelo,Arcos de Valdevez,Cabreiro,Vilela Seca,41.9422396,-8.3918417,NC,381.0,2004-07-14T10:00,25.3,47,13.1,26.2,0.0,0.0,0.0,0.0,0,1018.0,974.7,1,0,1,0,0.48,1.73,6.8,9.5,72,79,23.0,23.9,19.4,17.9,15.1,0.162,0.197,0.258,0.352,1,3600.0,761.7,653.8,107.9,842.5,761.7,1027.2,699.0,600.0,99.0,842.5,699.0,942.6,Magnoliopsida; Tracheophyta
