year,date,district,municipality,parish,local,latitude,longitude,cause,elevation,hourly.time,hourly.temperature_2m,hourly.relative_humidity_2m,hourly.dew_point_2m,hourly.apparent_temperature,hourly.precipitation,hourly.rain,hourly.snowfall,hourly.snow_depth,hourly.weather_code,hourly.pressure_msl,hourly.surface_pressure,hourly.cloud_cover,hourly.cloud_cover_low,hourly.cloud_cover_mid,hourly.cloud_cover_high,hourly.et0_fao_evapotranspiration,hourly.vapour_pressure_deficit,hourly.wind_speed_10m,hourly.wind_speed_100m,hourly.wind_direction_10m,hourly.wind_direction_100m,hourly.wind_gusts_10m,hourly.soil_temperature_0_to_7cm,hourly.soil_temperature_7_to_28cm,hourly.soil_temperature_28_to_100cm,hourly.soil_temperature_100_to_255cm,hourly.soil_moisture_0_to_7cm,hourly.soil_moisture_7_to_28cm,hourly.soil_moisture_28_to_100cm,hourly.soil_moisture_100_to_255cm,hourly.is_day,hourly.sunshine_duration,hourly.shortwave_radiation_instant,hourly.direct_radiation_instant,hourly.diffuse_radiation_instant,hourly.direct_normal_irradiance_instant,hourly.global_tilted_irradiance_instant,hourly.terrestrial_radiation_instant,hourly.shortwave_radiation,hourly.direct_radiation,hourly.diffuse_radiation,hourly.direct_normal_irradiance,hourly.global_tilted_irradiance,hourly.terrestrial_radiation,scientificNames
2005,2005-04-11,Viana do Castelo,Paredes de Coura,Romarigães,Outeiral,41.8583347,-8.6340414,NC,198.0,2005-04-11T17:00,17.0,52,7.0,13.7,0.0,0.0,0.0,0.0,0,1023.4,999.9,0,0,0,0,0.27,0.93,17.1,23.1,352,358,32.8,16.9,13.0,11.8,10.2,0.315,0.347,0.386,0.375,1,3600.0,369.9,294.7,75.1,739.7,369.9,542.9,448.0,357.0,91.0,739.7,448.0,657.6,Eucalyptus L'Hér.; Pinus pinaster Aiton; Magnoliopsida; Tracheophyta; Quercus L.; 
2005,2005-06-23,Viana do Castelo,Vila Nova de Cerveira,Loivo,Alto de São Paio,41.9300787,-8.7404119,NC,95.0,2005-06-23T09:00,21.8,81,18.3,23.3,0.0,0.0,0.0,0.0,1,1018.1,1007.0,47,0,62,32,0.27,0.51,10.7,15.2,213,211,26.3,24.7,23.0,20.0,15.1,0.111,0.225,0.31,0.366,1,3600.0,522.3,342.6,179.8,515.9,522.3,879.2,462.0,303.0,159.0,515.9,462.0,777.6,Magnoliopsida; Tracheophyta; Eucalyptus L'Hér.; Vitis vinifera L.; Pinus pinaster Aiton
2005,2005-03-11,Viana do Castelo,Valença,Sanfins,Barreira,42.018387,-8.5788326,NC,342.0,2005-03-11T21:00,7.7,81,4.6,5.5,0.0,0.0,0.0,0.0,1,1015.5,974.3,21,0,6,57,0.0,0.2,6.0,6.6,73,29,11.5,6.6,7.8,6.0,7.9,0.254,0.288,0.329,0.37,0,0.0,0.0,0.0,0.0,0.0,0.0,0.0,0.0,0.0,0.0,0.0,0.0,0.0,Magnoliopsida; Pinus pinaster Aiton; Eucalyptus L'Hér.
2005,2005-09-30,Viana do Castelo,Ponte de Lima,Cepões,Aveleira,41.8237187,-8.5954092,NC,63.0,2005-09-30T17:00,25.7,43,12.3,24.3,0.0,0.0,0.0,0.0,0,1020.8,1013.5,0,0,0,0,0.26,1.87,14.7,21.9,335,337,23.4,28.0,22.7,20.6,20.3,0.113,0.17,0.212,0.32,1,3600.0,205.5,158.8,46.6,678.0,205.5,319.7,282.0,218.0,64.0,678.0,282.0,438.8,Tracheophyta; Pinus pinaster Aiton; Vitis vinifera L.; Magnoliopsida; Olea europaea L.; Eucalyptus L'Hér.
2005,2005-04-12,Viana do Castelo,Monção,Valadares,Bemposta,42.07767675,-8.374620302382713,NC,57.0,2005-04-12T02:00,7.0,88,5.1,4.7,0.0,0.0,0.0,0.0,0,1024.1,1017.0,0,0,0,0,0.0,0.12,7.7,19.3,53,63,24.5,8.9,11.8,11.8,10.0,0.328,0.352,0.387,0.374,0,0.0,0.0,0.0,0.0,0.0,0.0,0.0,0.0,0.0,0.0,0.0,0.0,0.0,Magnoliopsida; Vitis vinifera L.; Eucalyptus L'Hér.; Pinales; Pinus pinaster Aiton; Tracheophyta; 
2005,2005-04-12,Viana do Castelo,Monção,Valadares,Bemposta,42.07767675,-8.374620302382713,NC,57.0,2005-04-12T11:00,15.2,65,8.6,15.8,0.0,0.0,0.0,0.0,0,1023.9,1017.0,1,1,0,0,0.41,0.61,3.1,4.5,69,76,20.5,15.7,11.3,11.7,10.0,0.327,0.35,0.387,0.374,1,3600.0,811.3,706.0,105.3,912.0,811.3,1054.3,763.0,664.0,99.0,912.0,763.0,991.6,Magnoliopsida; Vitis vinifera L.; Eucalyptus L'Hér.; Pinales; Pinus pinaster Aiton; Tracheophyta; 
2005,2005-06-21,Viana do Castelo,Vila Nova de Cerveira,Mentrestido,Cheira,41.90321555,-8.668063501293204,NC,229.0,2005-06-21T13:00,25.8,66,19.0,29.8,0.0,0.0,0.0,0.0,0,1017.3,991.1,0,0,0,0,0.62,1.13,10.9,11.4,314,325,21.6,29.4,22.3,18.8,13.9,0.154,0.23,0.311,0.372,1,3600.0,934.6,783.8,150.8,829.7,934.6,1251.1,936.0,785.0,151.0,829.7,936.0,1253.0,Magnoliopsida; Pinus pinaster Aiton; Eucalyptus L'Hér.
2005,2005-05-30,Viana do Castelo,Viana do Castelo,Deocriste,Monte,41.6786175,-8.7166429,NC,86.0,2005-05-30T16:00,23.1,54,13.2,21.4,0.0,0.0,0.0,0.0,0,1020.7,1010.6,0,0,0,0,0.47,1.3,24.5,33.8,356,1,46.8,23.0,18.1,15.7,12.8,0.276,0.322,0.373,0.384,1,3600.0,672.2,578.3,93.8,856.4,672.2,898.9,738.0,635.0,103.0,856.4,738.0,987.0,Eucalyptus L'Hér.; Magnoliopsida; Tracheophyta; Pinus pinaster Aiton
2005,2005-10-01,Viana do Castelo,Ponte da Barca,Bravães,Pegadinha,41.7976926,-8.4509651,NC,69.0,2005-10-01T21:00,16.9,69,11.1,13.4,0.0,0.0,0.0,0.0,0,1021.6,1013.3,0,0,0,0,0.08,0.6,26.4,39.8,5,13,46.4,19.9,22.1,20.7,20.4,0.109,0.171,0.204,0.319,0,0.0,0.0,0.0,0.0,0.0,0.0,0.0,0.0,0.0,0.0,0.0,0.0,0.0,Eucalyptus L'Hér.; Vitis vinifera L.; Magnoliopsida; Pinus pinaster Aiton; Tracheophyta
2005,2005-10-02,Viana do Castelo,Ponte de Lima,Friastelas,Cousseira,41.6758414,-8.5761898,NC,214.0,2005-10-02T21:00,16.0,55,6.9,12.8,0.0,0.0,0.0,0.0,0,1021.8,996.3,0,0,0,0,0.08,0.82,16.6,28.3,41,49,34.6,18.2,20.6,20.0,19.6,0.106,0.165,0.205,0.318,0,0.0,0.0,0.0,0.0,0.0,0.0,0.0,0.0,0.0,0.0,0.0,0.0,0.0,Tracheophyta; Eucalyptus L'Hér.; Pinus pinaster Aiton
2005,2005-10-02,Viana do Castelo,Monção,Merufe,Paçô do Monte,42.0297394,-8.3967117,NC,221.0,2005-10-02T22:00,13.2,69,7.6,10.4,0.0,0.0,0.0,0.0,0,1022.6,996.1,0,0,0,0,0.04,0.48,14.8,25.4,51,58,31.0,15.9,19.2,19.6,19.4,0.11,0.171,0.201,0.316,0,0.0,0.0,0.0,0.0,0.0,0.0,0.0,0.0,0.0,0.0,0.0,0.0,0.0,Pinus pinaster Aiton; Magnoliopsida; Tracheophyta; Eucalyptus L'Hér.; Vitis vinifera L.; Pinales; Quercus L.; 
2005,2005-04-13,Viana do Castelo,Valença,São Pedro da Torre,Igreja,41.9899338,-8.6675593,NC,16.0,2005-04-13T22:00,10.8,90,9.3,8.5,0.0,0.0,0.0,0.0,1,1014.3,1012.3,33,13,0,70,0.0,0.12,14.9,22.9,323,323,31.3,12.5,14.1,12.4,10.8,0.3,0.334,0.378,0.37,0,0.0,0.0,0.0,0.0,0.0,0.0,0.0,0.0,0.0,0.0,0.0,0.0,0.0,Pinus pinaster Aiton; Tracheophyta; Eucalyptus L'Hér.; Magnoliopsida; 
2005,2005-02-02,Viana do Castelo,Monção,Trute,Vilar,42.0131183,-8.4704681,NC,230.0,2005-02-02T08:00,0.4,94,-0.5,-3.2,0.0,0.0,0.0,0.0,0,1031.2,1002.1,0,0,0,0,0.01,0.04,9.8,15.3,66,66,20.2,1.6,4.2,6.7,10.4,0.333,0.343,0.369,0.376,1,0.0,4.2,0.0,4.2,0.0,0.5,38.9,1.0,0.0,1.0,0.0,1.0,9.3,Pinus pinaster Aiton; Magnoliopsida; Eucalyptus L'Hér.; Vitis vinifera L.; Tracheophyta; 
2005,2005-02-02,Viana do Castelo,Paredes de Coura,Bico,Túmio,41.8868795,-8.5151231,NC,583.0,2005-02-02T22:00,2.1,92,0.9,-1.2,0.0,0.0,0.0,0.0,0,1030.8,959.3,0,0,0,0,0.0,0.06,8.8,17.0,71,85,25.2,2.4,4.3,4.7,8.5,0.337,0.349,0.374,0.386,0,0.0,0.0,0.0,0.0,0.0,0.0,0.0,0.0,0.0,0.0,0.0,0.0,0.0,Magnoliopsida; Tracheophyta; Quercus L.; Pinales; Eucalyptus L'Hér.; 
2005,2005-10-08,Viana do Castelo,Valença,São Pedro da Torre,Rua dos Castros,41.9912105,-8.6662331,NC,20.0,2005-10-08T14:00,25.7,32,7.7,24.0,0.0,0.0,0.0,0.0,2,1016.6,1014.3,61,0,52,98,0.39,2.24,7.0,6.9,282,276,24.1,27.5,19.2,19.8,20.4,0.104,0.164,0.2,0.312,1,3600.0,502.3,260.2,242.1,431.8,502.3,826.0,529.0,274.0,255.0,431.8,529.0,869.9,Pinus pinaster Aiton; Tracheophyta; Eucalyptus L'Hér.; Magnoliopsida; 
2005,2005-03-12,Viana do Castelo,Arcos de Valdevez,Ázere,Figueiredo,41.8686841,-8.3892705,NC,146.0,2005-03-12T16:00,16.0,51,5.9,13.8,0.0,0.0,0.0,0.0,1,1009.0,991.8,48,4,73,2,0.23,0.89,8.3,10.1,268,266,20.9,14.2,8.8,7.0,8.8,0.258,0.29,0.33,0.369,1,3600.0,334.8,207.0,127.8,459.0,334.8,624.8,385.0,238.0,147.0,459.0,385.0,718.5,Magnoliopsida; Eucalyptus L'Hér.; Pinus pinaster Aiton; Vitis vinifera L.
2005,2005-06-22,Viana do Castelo,Ponte da Barca,Nogueira,Granja,41.7899908,-8.4200146,NC,94.0,2005-06-22T12:00,32.9,34,14.9,35.8,0.0,0.0,0.0,0.0,1,1014.4,1003.8,20,0,5,57,0.71,3.32,6.4,6.2,344,7,14.4,31.1,23.2,19.7,14.3,0.152,0.232,0.308,0.381,1,3600.0,930.5,786.2,144.3,835.9,930.5,1245.4,909.0,768.0,141.0,835.9,909.0,1216.5,Tracheophyta; Vitis vinifera L.; Quercus L.; Magnoliopsida
2005,2005-06-22,Viana do Castelo,Ponte da Barca,Bravães,Senhora da Pegada,41.7976926,-8.4509651,NC,69.0,2005-06-22T10:00,31.1,44,17.3,34.2,0.0,0.0,0.0,0.0,1,1015.1,1007.3,39,0,28,73,0.52,2.55,3.2,5.7,27,55,12.2,28.3,22.7,19.8,14.5,0.156,0.233,0.309,0.381,1,3600.0,755.0,601.0,154.0,755.0,755.0,1054.0,696.0,554.0,142.0,755.0,696.0,971.6,Eucalyptus L'Hér.; Vitis vinifera L.; Magnoliopsida; Pinus pinaster Aiton; Tracheophyta
2005,2005-04-27,Viana do Castelo,Viana do Castelo,Torre,Cheira,41.7169271,-8.7199494,NC,31.0,2005-04-27T12:00,15.9,69,10.3,17.5,0.0,0.0,0.0,0.0,0,1018.4,1014.7,2,1,0,4,0.48,0.55,5.2,5.2,258,254,18.7,19.3,13.7,13.0,11.7,0.377,0.391,0.395,0.375,1,3600.0,927.0,818.3,108.7,932.8,927.0,1184.8,904.0,798.0,106.0,932.8,904.0,1155.5,Pinus pinaster Aiton; Tracheophyta; Eucalyptus L'Hér.; Magnoliopsida; ; Vitis vinifera L.
2005,2005-03-12,Viana do Castelo,Valença,Gandra,Ozão,42.0055903,-8.6164853,NC,96.0,2005-03-12T17:00,15.6,53,5.9,13.4,0.0,0.0,0.0,0.0,1,1009.5,998.1,22,3,26,12,0.17,0.84,7.6,10.1,275,268,18.4,13.7,9.5,7.8,9.3,0.248,0.284,0.328,0.368,1,3600.0,224.2,147.1,77.1,504.8,224.2,403.9,288.0,189.0,99.0,504.8,288.0,518.9,Magnoliopsida; Eucalyptus L'Hér.; Tracheophyta; Vitis vinifera L.; Pinus pinaster Aiton; Acacia Mill.; 
2005,2005-04-12,Viana do Castelo,Viana do Castelo,Moreira de Geraz do Lima,Gandra,41.7148593,-8.6804043,NC,22.0,2005-04-12T18:00,16.5,66,10.2,14.3,0.0,0.0,0.0,0.0,0,1018.8,1016.2,0,0,0,0,0.16,0.63,15.4,24.0,323,327,33.5,17.4,14.9,12.9,11.4,0.283,0.333,0.38,0.374,1,3600.0,186.4,140.8,45.5,643.6,186.4,298.0,266.0,201.0,65.0,643.6,266.0,425.3,Eucalyptus L'Hér.; Vitis vinifera L.; Tracheophyta; Pinus pinaster Aiton; Magnoliopsida
2005,2005-06-22,Viana do Castelo,Valença,Verdoejo,VERDOEJO,42.044096550000006,-8.588472638220246,NC,47.0,2005-06-22T22:00,23.6,90,21.8,27.7,0.0,0.0,0.0,0.0,0,1015.5,1010.0,0,0,0,0,0.0,0.3,4.5,2.9,194,240,13.3,24.9,25.3,20.0,14.7,0.129,0.215,0.304,0.371,0,0.0,0.0,0.0,0.0,0.0,0.0,0.0,0.0,0.0,0.0,0.0,0.0,0.0,Magnoliopsida; Vitis vinifera L.; Pinus pinaster Aiton; Tracheophyta; Eucalyptus L'Hér.; 
2005,2005-06-22,Viana do Castelo,Ponte de Lima,Gemieira,Regueira,41.7793831,-8.5203845,NC,36.0,2005-06-22T17:00,32.5,41,17.7,33.9,0.0,0.0,0.0,0.0,0,1013.4,1009.3,7,0,0,24,0.47,2.88,10.2,10.9,293,297,22.3,32.2,25.3,20.1,14.7,0.143,0.228,0.307,0.381,1,3600.0,493.3,410.2,83.1,753.4,493.3,720.9,564.0,469.0,95.0,753.4,564.0,824.3,Magnoliopsida; Tracheophyta; Vitis vinifera L.; Eucalyptus L'Hér.; Quercus suber L.; Pinus pinaster Aiton
2005,2005-10-03,Viana do Castelo,Ponte da Barca,Lavradas,Ginzo,41.772688,-8.4761668,NC,209.0,2005-10-03T10:00,18.6,45,6.3,17.1,0.0,0.0,0.0,0.0,0,1023.9,999.2,0,0,0,0,0.27,1.18,4.0,5.0,80,90,14.4,19.1,18.0,20.0,19.7,0.11,0.172,0.207,0.32,1,3600.0,538.3,446.9,91.4,803.2,538.3,760.5,477.0,396.0,81.0,803.2,477.0,673.8,Magnoliopsida; Quercus L.; Olea europaea L.; Eucalyptus L'Hér.; Pinus pinaster Aiton; Vitis vinifera L.
2005,2005-02-02,Viana do Castelo,Ponte de Lima,Anais,Bom Jesus,41.6986811,-8.5253797,NC,265.0,2005-02-02T18:00,11.0,74,6.5,9.0,0.0,0.0,0.0,0.0,0,1028.8,996.6,0,0,0,0,0.02,0.34,7.2,10.0,6,26,17.3,8.3,6.0,6.0,9.8,0.33,0.344,0.372,0.382,0,1274.03,0.0,0.0,0.0,0.0,0.0,0.0,33.0,19.0,14.0,184.4,33.0,84.9,Eucalyptus L'Hér.; Pinus pinaster Aiton; Tracheophyta
2005,2005-06-06,Viana do Castelo,Ponte de Lima,Labrujó,Monte da Madalena,41.8543636,-8.541474,NC,526.0,2005-06-06T20:00,22.0,57,13.1,21.4,0.0,0.0,0.0,0.0,0,1017.5,957.7,0,0,0,0,0.08,1.14,10.6,19.4,18,22,27.0,21.7,20.0,15.1,10.7,0.194,0.275,0.349,0.395,1,2078.27,0.4,0.2,0.2,2.7,0.3,1.0,50.0,28.0,22.0,227.2,50.0,115.0,Magnoliopsida; Eucalyptus L'Hér.; Quercus L.
2005,2005-03-13,Viana do Castelo,Viana do Castelo,Neiva,Aldeia de Cima,41.6257946,-8.7726431,NC,44.0,2005-03-13T08:00,7.6,91,6.2,5.8,0.0,0.0,0.0,0.0,0,1010.0,1004.6,16,11,1,19,0.02,0.1,6.0,8.9,123,148,13.3,7.7,9.4,9.2,10.4,0.206,0.255,0.31,0.346,1,2585.79,131.6,75.0,56.7,358.8,106.5,289.4,72.0,41.0,31.0,290.2,72.0,158.3,Tracheophyta; Eucalyptus L'Hér.; Pinus pinaster Aiton
2005,2005-01-29,Viana do Castelo,Valença,Fontoura,Paço,41.9623472,-8.626216,NC,93.0,2005-01-29T17:00,10.8,59,3.1,6.8,0.0,0.0,0.0,0.0,0,1021.0,1009.7,10,11,1,0,0.1,0.53,16.3,24.5,28,30,33.5,9.2,7.2,8.4,11.5,0.335,0.348,0.373,0.375,1,3600.0,79.4,39.1,40.3,330.0,79.4,167.1,132.0,65.0,67.0,330.0,132.0,277.7,Pinus pinaster Aiton; Magnoliopsida; Tracheophyta; Eucalyptus L'Hér.
2005,2005-06-06,Viana do Castelo,Ponte da Barca,Lindoso,Cruzeiro,41.8666101,-8.1997242,NC,454.0,2005-06-06T23:00,18.5,74,13.8,18.3,0.0,0.0,0.0,0.0,0,1019.0,966.5,5,0,0,16,0.02,0.56,9.5,22.7,61,65,31.0,18.9,20.4,15.8,11.1,0.2,0.271,0.345,0.395,0,0.0,0.0,0.0,0.0,0.0,0.0,0.0,0.0,0.0,0.0,0.0,0.0,0.0,Magnoliopsida; Pinus pinaster Aiton; Vitis vinifera L.
2005,2005-06-02,Viana do Castelo,Ponte de Lima,Labrujó,Monte Madalena,41.8543636,-8.541474,NC,526.0,2005-06-02T21:00,16.2,92,14.9,16.9,0.0,0.0,0.0,0.0,1,1014.4,953.7,28,1,0,92,0.0,0.15,6.1,7.6,320,329,14.8,18.2,18.8,14.4,10.4,0.243,0.303,0.364,0.398,0,0.0,0.0,0.0,0.0,0.0,0.0,0.0,0.0,0.0,0.0,0.0,0.0,0.0,Magnoliopsida; Eucalyptus L'Hér.; Quercus L.
2005,2005-04-28,Viana do Castelo,Ponte de Lima,Arcos,Terrafeita,41.7634894,-8.6557934,NC,61.0,2005-04-28T21:00,12.6,93,11.6,12.1,0.0,0.0,0.0,0.0,0,1020.7,1013.3,0,0,0,0,0.0,0.1,7.2,9.4,6,358,12.6,14.1,15.3,13.0,11.5,0.352,0.375,0.393,0.376,0,0.0,0.0,0.0,0.0,0.0,0.0,0.0,0.0,0.0,0.0,0.0,0.0,0.0,Eucalyptus L'Hér.; Pinus pinaster Aiton; Tracheophyta; Vitis vinifera L.
2005,2005-06-04,Viana do Castelo,Ponte de Lima,Refóios do Lima,Genso,41.7933146,-8.542976,NC,68.0,2005-06-04T17:00,24.4,46,12.2,21.2,0.0,0.0,0.0,0.0,0,1018.1,1010.2,3,0,0,10,0.45,1.64,27.5,38.6,334,338,46.1,24.9,20.1,16.8,12.7,0.208,0.284,0.355,0.393,1,3600.0,504.9,420.6,84.3,799.4,504.9,699.3,581.0,484.0,97.0,799.4,581.0,804.7,Magnoliopsida; Eucalyptus L'Hér.; Tracheophyta; Vitis vinifera L.
2005,2005-06-05,Viana do Castelo,Ponte de Lima,Refóios do Lima,Genso,41.7933146,-8.542976,NC,68.0,2005-06-05T10:00,25.0,52,14.5,25.8,0.0,0.0,0.0,0.0,0,1019.7,1011.8,0,0,0,0,0.49,1.51,11.5,13.7,346,357,20.9,23.6,18.6,16.9,12.8,0.211,0.282,0.353,0.393,1,3600.0,790.1,675.2,114.9,847.5,790.1,1058.6,729.0,623.0,106.0,847.5,729.0,976.8,Magnoliopsida; Eucalyptus L'Hér.; Tracheophyta; Vitis vinifera L.
2005,2005-06-08,Viana do Castelo,Ponte da Barca,Paço Vedro de Magalhães,Talhós,41.7961954,-8.4069532,NC,81.0,2005-06-08T20:00,26.0,67,19.4,27.3,0.0,0.0,0.0,0.0,0,1015.8,1006.5,4,0,5,5,0.1,1.13,15.8,28.3,339,348,27.0,25.6,23.5,17.9,13.0,0.152,0.254,0.339,0.39,1,2165.04,2.7,1.4,1.2,16.5,1.9,6.4,50.0,27.0,23.0,215.4,50.0,120.5,Tracheophyta; Eucalyptus L'Hér.; Pinus pinaster Aiton; Vitis vinifera L.; Magnoliopsida
2005,2005-10-03,Viana do Castelo,Melgaço,Paderne,Peso,42.103836,-8.2869151,NC,69.0,2005-10-03T14:00,23.9,35,7.7,23.8,0.0,0.0,0.0,0.0,0,1021.9,1013.8,0,0,0,0,0.45,1.92,2.8,4.1,40,52,20.9,27.0,19.3,20.5,20.4,0.109,0.17,0.201,0.316,1,3600.0,658.3,569.8,88.5,909.9,658.3,856.0,692.0,599.0,93.0,909.9,692.0,899.8,Tracheophyta; Vitis vinifera L.; Pinus pinaster Aiton; Magnoliopsida; Eucalyptus L'Hér.
2005,2005-03-13,Viana do Castelo,Monção,Merufe,Chã da Moura,42.0297394,-8.3967117,NC,221.0,2005-03-13T19:00,11.7,86,9.5,10.7,0.0,0.0,0.0,0.0,2,1011.0,984.6,53,38,31,0,0.02,0.19,6.4,6.9,232,231,13.0,10.9,9.0,6.4,7.8,0.27,0.297,0.335,0.371,0,0.0,0.0,0.0,0.0,0.0,0.0,0.0,13.0,4.0,9.0,44.1,13.0,65.5,Pinus pinaster Aiton; Magnoliopsida; Tracheophyta; Eucalyptus L'Hér.; Vitis vinifera L.; Pinales; Quercus L.; 
2005,2005-06-06,Viana do Castelo,Arcos de Valdevez,Vale,Penacova,41.8384985,-8.3696615,NC,185.0,2005-06-06T14:00,29.6,39,14.2,32.1,0.0,0.0,0.0,0.0,0,1017.3,996.3,0,0,0,0,0.72,2.53,9.3,11.3,347,351,23.4,28.3,20.2,16.4,12.2,0.187,0.272,0.348,0.392,1,3600.0,934.8,822.1,112.7,918.4,934.8,1189.1,962.0,846.0,116.0,918.4,962.0,1223.7,Vitis vinifera L.; Pinus pinaster Aiton; Tracheophyta; Magnoliopsida; Quercus L.; Eucalyptus L'Hér.; Acacia Mill.; 
2005,2005-10-08,Viana do Castelo,Ponte da Barca,Cuide de Vila Verde,Danaia,41.7780312,-8.4172177,NC,71.0,2005-10-08T19:00,23.2,40,8.7,22.4,0.0,0.0,0.0,0.0,2,1017.3,1009.0,73,0,78,86,0.02,1.72,3.1,1.5,315,346,4.7,21.7,20.4,20.1,20.4,0.1,0.159,0.201,0.316,0,0.0,0.0,0.0,0.0,0.0,0.0,0.0,0.0,0.0,0.0,0.0,0.0,0.0,Vitis vinifera L.; Tracheophyta; Magnoliopsida; Pinus pinaster Aiton
2005,2005-06-09,Viana do Castelo,Ponte da Barca,Oleiros,Cabaçal,41.8009208,-8.4369581,NC,73.0,2005-06-09T14:00,27.2,48,15.3,28.8,0.0,0.0,0.0,0.0,0,1016.7,1008.3,0,0,0,0,0.66,1.87,15.1,19.8,270,271,36.4,29.9,22.6,18.1,13.2,0.147,0.249,0.336,0.39,1,3600.0,910.1,794.4,115.7,884.3,910.1,1192.4,936.0,817.0,119.0,884.3,936.0,1226.4,Pinus pinaster Aiton; Eucalyptus L'Hér.; Castanea sativa Mill.; Magnoliopsida; Tracheophyta; Vitis vinifera L.
2005,2005-02-01,Viana do Castelo,Ponte de Lima,Rendufe,Valinho,41.8588402,-8.5557057,NC,455.0,2005-02-01T00:00,-1.1,91,-2.4,-4.8,0.0,0.0,0.0,0.0,0,1032.1,975.1,0,0,0,0,0.0,0.05,8.5,14.5,78,71,20.9,0.3,3.5,5.6,9.3,0.337,0.349,0.375,0.382,0,0.0,0.0,0.0,0.0,0.0,0.0,0.0,0.0,0.0,0.0,0.0,0.0,0.0,Magnoliopsida; Eucalyptus L'Hér.; Tracheophyta; Quercus L.
2005,2005-06-10,Viana do Castelo,Viana do Castelo,Chafé,Amorosa,41.6461506,-8.8206768,NC,15.0,2005-06-10T23:00,16.5,92,15.2,17.3,0.0,0.0,0.0,0.0,2,1011.4,1009.6,75,77,0,19,0.0,0.15,7.0,7.9,291,294,14.0,19.7,22.5,19.1,14.2,0.135,0.23,0.316,0.341,0,0.0,0.0,0.0,0.0,0.0,0.0,0.0,0.0,0.0,0.0,0.0,0.0,0.0,Pinus pinaster Aiton; Tracheophyta
2005,2005-03-14,Viana do Castelo,Vila Nova de Cerveira,Cornes,Carvalhal,41.9613518,-8.6796886,NC,58.0,2005-03-14T20:00,12.7,85,10.2,11.8,0.0,0.0,0.0,0.0,0,1015.6,1008.6,6,7,0,0,0.0,0.22,6.5,9.5,236,241,13.7,11.5,10.9,8.5,9.5,0.244,0.28,0.326,0.368,0,0.0,0.0,0.0,0.0,0.0,0.0,0.0,0.0,0.0,0.0,0.0,0.0,0.0,Tracheophyta; Magnoliopsida; Pinus pinaster Aiton
2005,2005-10-08,Viana do Castelo,Caminha,Argela,Viso,41.8671641,-8.7916363,NC,31.0,2005-10-08T20:00,19.2,65,12.5,19.2,0.0,0.0,0.0,0.0,2,1017.7,1014.0,53,0,55,67,0.02,0.78,5.6,5.2,27,34,7.2,19.8,20.5,20.4,20.7,0.081,0.167,0.225,0.323,0,0.0,0.0,0.0,0.0,0.0,0.0,0.0,0.0,0.0,0.0,0.0,0.0,0.0,Tracheophyta; Magnoliopsida; Pinus pinaster Aiton; Eucalyptus L'Hér.
2005,2005-03-15,Viana do Castelo,Valença,Gondomil,Alvarim,42.03333,-8.5528215,NC,45.0,2005-03-15T16:00,18.5,55,9.3,16.4,0.0,0.0,0.0,0.0,0,1020.3,1014.9,0,0,0,0,0.31,0.96,13.8,19.0,221,213,32.0,17.7,11.5,8.8,9.6,0.237,0.277,0.325,0.368,1,3600.0,466.0,393.6,72.4,849.4,466.0,641.1,534.0,451.0,83.0,849.4,534.0,734.6,Magnoliopsida; Tracheophyta; Pinus pinaster Aiton; Eucalyptus L'Hér.; Vitis vinifera L.; 
2005,2005-06-03,Viana do Castelo,Viana do Castelo,Alvarães,Costeira,41.6272244,-8.7482233,NC,43.0,2005-06-03T13:00,21.2,63,13.8,21.7,0.0,0.0,0.0,0.0,1,1018.0,1012.9,26,5,0,72,0.53,0.93,18.1,22.6,325,329,36.7,24.0,19.1,16.9,13.4,0.214,0.283,0.351,0.361,1,3600.0,922.3,717.9,204.4,764.5,922.3,1248.4,925.0,720.0,205.0,764.5,925.0,1252.1,Tracheophyta; Eucalyptus L'Hér.; Pinus pinaster Aiton
2005,2005-05-05,Viana do Castelo,Viana do Castelo,Alvarães,Costeira,41.6272244,-8.7482233,NC,43.0,2005-05-05T13:00,21.1,51,10.6,21.7,0.0,0.0,0.0,0.0,0,1021.2,1016.1,0,0,0,0,0.57,1.22,12.3,15.5,15,25,25.9,21.2,15.6,14.1,11.9,0.353,0.374,0.375,0.359,1,3600.0,947.4,833.8,113.6,927.7,947.4,1208.9,951.0,837.0,114.0,927.7,951.0,1213.6,Tracheophyta; Eucalyptus L'Hér.; Pinus pinaster Aiton
2005,2005-06-16,Viana do Castelo,Valença,Gondomil,Granmilho,42.0299181,-8.549773,NC,51.0,2005-06-16T03:00,15.3,99,15.2,16.2,0.0,0.0,0.0,0.0,1,1024.3,1018.1,22,25,0,0,0.0,0.01,6.2,8.4,36,7,8.3,16.6,19.2,18.3,14.0,0.232,0.242,0.322,0.376,0,0.0,0.0,0.0,0.0,0.0,0.0,0.0,0.0,0.0,0.0,0.0,0.0,0.0,Magnoliopsida; Tracheophyta; Pinus pinaster Aiton; Eucalyptus L'Hér.; Vitis vinifera L.; 
2005,2005-04-28,Viana do Castelo,Viana do Castelo,Serreleis,Barco do Porto,41.7015056,-8.7463592,NC,3.0,2005-04-28T18:00,16.8,75,12.2,16.3,0.0,0.0,0.0,0.0,0,1019.9,1019.5,0,0,0,0,0.15,0.49,8.0,8.7,306,312,17.3,18.3,15.9,13.4,11.9,0.35,0.376,0.393,0.376,1,3600.0,205.5,122.1,83.4,455.3,205.5,362.1,276.0,164.0,112.0,455.3,276.0,486.2,Magnoliopsida; Pinales; Tracheophyta
2005,2005-05-06,Viana do Castelo,Viana do Castelo,Viana Do Castelo (monserrate),Sta Luzia,41.6968768,-8.8329607,NC,51.0,2005-05-06T19:00,19.0,71,13.6,18.8,0.0,0.0,0.0,0.0,0,1018.5,1012.4,15,0,0,49,0.09,0.63,9.0,11.0,337,341,15.1,19.5,17.8,14.3,12.0,0.321,0.361,0.384,0.377,1,3600.0,78.2,51.3,26.9,490.2,78.2,140.5,148.0,97.0,51.0,490.2,148.0,266.0,Magnoliopsida; Tracheophyta; Pinales; Eucalyptus L'Hér.
2005,2005-01-29,Viana do Castelo,Ponte da Barca,Lindoso,Cruzeiro,41.8666101,-8.1997242,NC,454.0,2005-01-29T18:00,6.8,71,2.0,3.6,0.0,0.0,0.0,0.0,0,1021.6,966.8,1,0,1,0,0.03,0.28,9.0,21.8,29,31,27.4,5.0,3.8,5.8,9.5,0.348,0.357,0.38,0.386,0,429.34,0.0,0.0,0.0,0.0,0.0,0.0,23.0,11.0,12.0,117.2,23.0,71.8,Magnoliopsida; Pinus pinaster Aiton; Vitis vinifera L.
2005,2005-04-28,Viana do Castelo,Ponte de Lima,Ribeira,Ermida,41.7621182,-8.5348414,NC,421.0,2005-04-28T19:00,15.6,70,10.2,15.0,0.0,0.0,0.0,0.0,0,1020.3,971.0,0,0,0,0,0.06,0.53,4.8,7.0,297,291,14.4,15.5,14.0,10.7,8.9,0.364,0.384,0.409,0.397,1,3600.0,54.4,35.5,18.8,407.4,54.4,99.3,124.0,81.0,43.0,482.5,124.0,226.6,Eucalyptus L'Hér.; Magnoliopsida
2005,2005-06-21,Viana do Castelo,Ponte da Barca,Crasto,CRASTO,41.74002445,-8.46463942951376,NC,598.0,2005-06-21T21:00,21.4,76,17.1,23.4,0.0,0.0,0.0,0.0,0,1017.4,949.7,0,0,0,0,0.03,0.61,3.9,5.8,34,22,10.4,21.8,22.0,16.8,11.3,0.157,0.233,0.31,0.384,0,0.0,0.0,0.0,0.0,0.0,0.0,0.0,0.0,0.0,0.0,0.0,0.0,1.6,Magnoliopsida; Eucalyptus L'Hér.; Pinus pinaster Aiton; Quercus L.
2005,2005-03-15,Viana do Castelo,Melgaço,Cousso,Cela,42.0595829,-8.2986206,NC,582.0,2005-03-15T11:00,14.0,58,5.9,11.2,0.0,0.0,0.0,0.0,1,1020.5,952.7,49,54,0,0,0.29,0.67,12.8,16.8,190,189,39.6,11.3,6.2,4.9,6.2,0.302,0.333,0.37,0.402,1,3600.0,609.4,471.9,137.5,730.5,609.4,893.9,563.0,436.0,127.0,730.5,563.0,825.8,Quercus L.; Magnoliopsida; Pinus pinaster Aiton
2005,2005-05-08,Viana do Castelo,Valença,Gondomil,Olo,42.0232137,-8.555435,NC,94.0,2005-05-08T03:00,12.5,92,11.2,11.3,0.0,0.0,0.0,0.0,3,1014.4,1003.1,90,84,1,47,0.0,0.11,10.8,13.7,182,194,15.5,13.1,16.1,14.0,11.1,0.329,0.354,0.385,0.379,0,0.0,0.0,0.0,0.0,0.0,0.0,0.0,0.0,0.0,0.0,0.0,0.0,0.0,Magnoliopsida; Tracheophyta; Pinus pinaster Aiton; Eucalyptus L'Hér.; Vitis vinifera L.; 
2005,2005-06-21,Viana do Castelo,Ponte da Barca,Bravães,Pegadinha,41.7976926,-8.4509651,NC,69.0,2005-06-21T23:00,21.7,87,19.4,24.0,0.0,0.0,0.0,0.0,0,1016.1,1008.0,5,0,0,18,0.0,0.34,8.6,11.7,2,9,13.0,21.8,24.3,19.8,14.4,0.156,0.234,0.309,0.382,0,0.0,0.0,0.0,0.0,0.0,0.0,0.0,0.0,0.0,0.0,0.0,0.0,0.0,Eucalyptus L'Hér.; Vitis vinifera L.; Magnoliopsida; Pinus pinaster Aiton; Tracheophyta
2005,2005-10-08,Viana do Castelo,Valença,Boivão,Furnas,42.0103856,-8.5360974,NC,178.0,2005-10-08T22:00,18.1,56,9.1,16.7,0.0,0.0,0.0,0.0,0,1018.0,997.0,18,0,0,60,0.04,0.92,8.1,8.9,77,58,11.5,17.2,19.7,19.4,19.8,0.103,0.16,0.199,0.312,0,0.0,0.0,0.0,0.0,0.0,0.0,0.0,0.0,0.0,0.0,0.0,0.0,0.0,Magnoliopsida; Pinus pinaster Aiton; 
2005,2005-03-16,Viana do Castelo,Melgaço,Cristoval,Grova,42.1319119,-8.2064651,NC,255.0,2005-03-16T17:00,16.3,70,10.8,15.5,0.7,0.7,0.0,0.0,53,1026.7,996.3,54,0,84,11,0.14,0.56,7.2,10.2,233,231,29.5,15.1,10.3,7.4,8.6,0.33,0.378,0.421,0.448,1,3600.0,188.6,93.1,95.5,310.0,188.6,415.4,241.0,119.0,122.0,310.0,241.0,530.8,Tracheophyta; Magnoliopsida; Vitis vinifera L.; Castanea sativa Mill.; Pinus pinaster Aiton; Quercus L.
2005,2005-06-23,Viana do Castelo,Vila Nova de Cerveira,Sopo,France,41.88445465,-8.761274594707672,NC,30.0,2005-06-23T00:00,21.9,85,19.2,24.0,0.0,0.0,0.0,0.0,1,1015.7,1012.2,23,0,4,69,0.01,0.39,9.2,12.1,154,157,18.0,22.8,24.8,20.4,15.5,0.109,0.225,0.31,0.366,0,0.0,0.0,0.0,0.0,0.0,0.0,0.0,0.0,0.0,0.0,0.0,0.0,0.0,Eucalyptus L'Hér.; Magnoliopsida; Tracheophyta; Pinus pinaster Aiton
2005,2005-06-05,Viana do Castelo,Viana do Castelo,Deocriste,Sr Crasto,41.6904909,-8.7043822,NC,42.0,2005-06-05T11:00,22.4,63,14.9,24.2,0.0,0.0,0.0,0.0,0,1019.9,1015.0,0,0,0,0,0.52,1.01,10.6,12.1,336,348,21.6,24.0,18.5,16.9,13.6,0.189,0.281,0.353,0.378,1,3600.0,903.7,786.0,117.7,885.5,903.7,1179.5,860.0,748.0,112.0,885.5,860.0,1122.5,Magnoliopsida; Eucalyptus L'Hér.; Tracheophyta; Pinus pinaster Aiton
2005,2005-06-05,Viana do Castelo,Ponte de Lima,Refóios do Lima,Cedofeitas,41.7933146,-8.542976,NC,68.0,2005-06-05T15:00,27.9,52,17.0,28.4,0.0,0.0,0.0,0.0,0,1018.5,1010.7,0,0,0,0,0.62,1.82,23.4,31.7,335,341,39.6,27.9,20.5,16.9,12.8,0.199,0.278,0.352,0.393,1,3600.0,820.9,714.1,106.7,884.5,820.9,1072.8,869.0,756.0,113.0,884.5,869.0,1135.7,Magnoliopsida; Eucalyptus L'Hér.; Tracheophyta; Vitis vinifera L.
2005,2005-02-04,Viana do Castelo,Ponte de Lima,Refóios do Lima,Costa,41.7933146,-8.542976,NC,68.0,2005-02-04T19:00,9.2,68,3.6,5.9,0.0,0.0,0.0,0.0,0,1024.8,1016.4,0,0,0,0,0.03,0.38,12.8,18.9,338,336,20.2,7.1,7.2,7.3,10.9,0.326,0.34,0.37,0.381,0,0.0,0.0,0.0,0.0,0.0,0.0,0.0,0.0,0.0,0.0,0.0,0.0,0.0,Magnoliopsida; Eucalyptus L'Hér.; Tracheophyta; Vitis vinifera L.
2005,2005-03-18,Viana do Castelo,Viana do Castelo,Perre,Portelas,41.7226783,-8.7785788,NC,63.0,2005-03-18T11:00,19.7,43,6.7,17.2,0.0,0.0,0.0,0.0,0,1020.7,1013.2,0,0,0,0,0.39,1.31,14.1,20.1,140,137,35.6,17.6,12.8,10.5,10.3,0.184,0.257,0.319,0.368,1,3600.0,671.5,574.2,97.3,866.6,671.5,915.3,621.0,531.0,90.0,866.6,621.0,846.4,Tracheophyta; Eucalyptus L'Hér.; Vitis vinifera L.; Magnoliopsida
2005,2005-10-04,Viana do Castelo,Melgaço,Cousso,Virtelo,42.05921125,-8.298923438534105,NC,582.0,2005-10-04T12:00,20.8,29,2.2,19.3,0.0,0.0,0.0,0.0,0,1021.5,955.1,0,0,0,0,0.45,1.74,5.9,7.3,101,101,20.9,21.9,15.8,17.7,17.6,0.14,0.213,0.239,0.351,1,3600.0,733.8,640.4,93.4,935.8,733.8,935.8,715.0,624.0,91.0,935.8,715.0,911.9,Quercus L.; Magnoliopsida; Pinus pinaster Aiton
2005,2005-05-25,Viana do Castelo,Arcos de Valdevez,Padreiro (Salvador),Cruzeiro,41.8071322,-8.4797817,NC,59.0,2005-05-25T20:00,19.0,83,16.0,19.0,0.0,0.0,0.0,0.0,1,1019.1,1012.1,21,1,0,66,0.04,0.37,14.1,22.9,322,332,24.1,20.0,19.3,14.8,12.1,0.314,0.348,0.39,0.398,0,1344.61,0.0,0.0,0.0,0.0,0.0,0.0,36.0,18.0,18.0,159.6,36.0,91.2,Vitis vinifera L.; Magnoliopsida; Olea europaea L.; Tracheophyta; Eucalyptus L'Hér.
2005,2005-06-22,Viana do Castelo,Ponte de Lima,Serdedelo,Malhoeiro,41.7503357,-8.5397454,NC,226.0,2005-06-22T17:00,31.5,43,17.4,34.0,0.0,0.0,0.0,0.0,0,1014.0,988.7,16,0,1,51,0.41,2.63,1.6,2.9,207,180,18.7,31.4,24.4,19.2,13.8,0.144,0.228,0.308,0.382,1,3600.0,503.7,421.5,82.2,774.4,503.7,720.7,576.0,482.0,94.0,774.4,576.0,824.2,Magnoliopsida; Eucalyptus L'Hér.; Pinus pinaster Aiton; Tracheophyta
2005,2005-06-18,Viana do Castelo,Ponte de Lima,Arcozelo,S. Goncalo,41.7692632,-8.5947418,NC,20.0,2005-06-18T15:00,25.7,71,20.0,27.9,0.0,0.0,0.0,0.0,1,1017.8,1015.5,40,13,7,80,0.49,0.96,18.8,23.9,324,329,32.8,28.6,23.3,19.2,14.8,0.21,0.253,0.319,0.375,1,3600.0,734.7,509.4,225.3,622.3,734.7,1084.5,776.0,538.0,238.0,622.3,776.0,1145.5,Tracheophyta; Vitis vinifera L.; Magnoliopsida; Pinus pinaster Aiton; Eucalyptus L'Hér.
2005,2005-06-05,Viana do Castelo,Viana do Castelo,Cardielos,Porto,41.7039626,-8.7410943,NC,6.0,2005-06-05T15:00,23.9,62,16.2,24.1,0.0,0.0,0.0,0.0,0,1018.5,1017.8,0,0,0,0,0.53,1.12,23.4,31.7,335,341,39.6,26.7,20.1,17.2,13.9,0.18,0.278,0.352,0.378,1,3600.0,821.2,714.4,106.8,882.7,821.2,1075.5,869.0,756.0,113.0,882.7,869.0,1138.0,Magnoliopsida; Tracheophyta; Pinales
2005,2005-03-18,Viana do Castelo,Ponte da Barca,Ermida,Lage,41.820379,-8.2583252,NC,494.0,2005-03-18T12:00,20.1,39,5.8,18.0,0.0,0.0,0.0,0.0,0,1020.6,963.8,0,0,0,0,0.46,1.44,14.5,19.9,136,135,45.0,16.3,9.6,6.9,6.5,0.254,0.285,0.329,0.377,1,3600.0,757.8,661.4,96.4,913.3,757.8,1000.4,731.0,638.0,93.0,913.3,731.0,965.0,Magnoliopsida; Pinus pinaster Aiton
2005,2005-02-20,Viana do Castelo,Viana do Castelo,Perre,Costa,41.7211032,-8.7947817,NC,24.0,2005-02-20T23:00,7.1,77,3.4,2.9,0.0,0.0,0.0,0.0,2,1017.7,1014.7,65,45,41,0,0.02,0.23,18.4,28.1,358,358,33.1,7.7,9.4,9.6,11.4,0.249,0.296,0.346,0.374,0,0.0,0.0,0.0,0.0,0.0,0.0,0.0,0.0,0.0,0.0,0.0,0.0,0.0,Tracheophyta; Vitis vinifera L.; Eucalyptus L'Hér.
2005,2005-06-12,Viana do Castelo,Ponte da Barca,Ruivos,Real Cima,41.7671594,-8.4393717,NC,185.0,2005-06-12T03:00,14.7,96,14.1,15.2,0.2,0.2,0.0,0.0,51,1008.7,986.8,87,97,0,0,0.0,0.07,5.6,8.4,195,205,15.8,17.2,20.1,17.9,12.7,0.142,0.239,0.329,0.388,0,0.0,0.0,0.0,0.0,0.0,0.0,0.0,0.0,0.0,0.0,0.0,0.0,0.0,Eucalyptus L'Hér.; Vitis vinifera L.; Tracheophyta; Magnoliopsida; Castanea sativa Mill.; Pinus pinaster Aiton; Quercus L.
2005,2005-03-17,Viana do Castelo,Monção,Barbeita,Merim,42.0462163,-8.4010392,NC,164.0,2005-03-17T11:00,19.2,56,10.2,18.6,0.0,0.0,0.0,0.0,0,1026.7,1007.2,17,0,29,0,0.35,0.98,6.2,8.8,83,81,17.6,14.9,9.4,8.0,8.2,0.248,0.281,0.327,0.369,1,3600.0,634.9,511.6,123.3,781.3,634.9,905.1,587.0,473.0,114.0,781.3,587.0,836.8,Tracheophyta; Vitis vinifera L.; Eucalyptus L'Hér.; Magnoliopsida; Pinus pinaster Aiton; 
2005,2005-02-04,Viana do Castelo,Monção,Badim,SENHORA DA GRAÇA,42.0640413,-8.3623709,NC,266.0,2005-02-04T18:00,8.4,79,5.0,6.0,0.0,0.0,0.0,0.0,0,1024.4,992.0,0,0,0,0,0.02,0.23,7.8,10.7,304,315,15.1,7.3,5.6,5.9,9.6,0.329,0.342,0.369,0.377,0,1365.36,0.0,0.0,0.0,0.0,0.0,0.0,38.0,22.0,16.0,209.1,38.0,87.9,Vitis vinifera L.; Magnoliopsida; Pinus pinaster Aiton; Eucalyptus L'Hér.; Olea europaea L.; ; Pinales
2005,2005-02-21,Viana do Castelo,Viana do Castelo,Barroselas,Paço,41.6471968,-8.7014513,NC,69.0,2005-02-21T11:00,7.6,60,0.3,3.3,0.0,0.0,0.0,0.0,1,1016.1,1007.6,22,6,28,0,0.18,0.42,15.5,19.2,4,5,36.7,9.0,8.0,9.1,11.0,0.255,0.29,0.337,0.359,1,3600.0,500.9,356.1,144.9,667.2,500.9,746.5,453.0,322.0,131.0,667.2,453.0,675.1,Tracheophyta; Magnoliopsida; Quercus L.; Eucalyptus L'Hér.
2005,2005-06-18,Viana do Castelo,Viana do Castelo,Lanheses,Monte da Ola,41.7382855,-8.6743377,NC,36.0,2005-06-18T17:00,22.7,78,18.6,23.1,0.0,0.0,0.0,0.0,1,1017.5,1013.3,29,0,1,94,0.29,0.61,18.5,24.8,331,336,32.0,26.9,23.2,19.0,14.8,0.172,0.248,0.321,0.373,1,3600.0,427.7,233.5,194.2,428.6,427.7,721.8,489.0,267.0,222.0,428.6,489.0,825.3,Pinus pinaster Aiton; Magnoliopsida; Tracheophyta
2005,2005-03-19,Viana do Castelo,Arcos de Valdevez,Eiras,Andevizo,41.9167129,-8.4669829,NC,280.0,2005-03-19T03:00,8.3,83,5.5,6.5,0.0,0.0,0.0,0.0,3,1016.7,982.8,83,0,90,96,0.0,0.19,4.5,10.0,104,142,19.8,9.3,11.7,8.6,8.0,0.225,0.273,0.325,0.373,0,0.0,0.0,0.0,0.0,0.0,0.0,0.0,0.0,0.0,0.0,0.0,0.0,0.0,Quercus L.; Magnoliopsida; Eucalyptus L'Hér.; Pinus pinaster Aiton; Tracheophyta; 
2005,2005-03-17,Viana do Castelo,Melgaço,Cousso,Cela,42.0595829,-8.2986206,NC,582.0,2005-03-17T17:00,19.3,46,7.4,18.3,0.0,0.0,0.0,0.0,2,1024.0,957.1,53,0,88,0,0.18,1.21,2.9,5.1,83,98,15.8,16.2,9.8,5.7,6.1,0.28,0.325,0.367,0.401,1,3600.0,227.5,134.9,92.6,443.1,227.5,420.8,290.0,172.0,118.0,443.1,290.0,536.4,Quercus L.; Magnoliopsida; Pinus pinaster Aiton
2005,2005-06-13,Viana do Castelo,Viana do Castelo,Chafé,Amorosa,41.6461506,-8.8206768,NC,15.0,2005-06-13T16:00,20.0,83,17.0,20.5,0.0,0.0,0.0,0.0,1,1010.9,1009.1,47,42,15,2,0.32,0.4,15.8,20.1,249,249,26.6,23.0,20.3,19.1,14.5,0.347,0.23,0.311,0.34,1,3600.0,560.5,393.2,167.3,568.3,560.5,917.5,613.0,430.0,183.0,568.3,613.0,1003.5,Pinus pinaster Aiton; Tracheophyta
2005,2005-06-16,Viana do Castelo,Valença,Verdoejo,Barreiras,42.0223828,-8.5934111,NC,546.0,2005-06-16T01:00,14.2,95,13.5,14.7,0.0,0.0,0.0,0.0,0,1025.2,961.2,8,9,0,0,0.0,0.08,4.6,5.0,39,21,9.4,14.3,16.9,15.7,11.2,0.268,0.251,0.324,0.386,0,0.0,0.0,0.0,0.0,0.0,0.0,0.0,0.0,0.0,0.0,0.0,0.0,0.0,Magnoliopsida; Vitis vinifera L.; Pinus pinaster Aiton; Tracheophyta; Eucalyptus L'Hér.; 
2005,2005-10-04,Viana do Castelo,Viana do Castelo,Perre,Vieito,41.7306558,-8.8071346,NC,221.0,2005-10-04T15:00,23.7,30,5.0,21.7,0.0,0.0,0.0,0.0,0,1019.5,994.0,0,0,0,0,0.4,2.06,7.3,6.6,303,292,15.5,26.7,19.0,19.6,19.5,0.107,0.167,0.21,0.319,1,3600.0,542.6,463.8,78.8,883.8,542.6,717.7,599.0,512.0,87.0,883.8,599.0,792.3,Eucalyptus L'Hér.; Magnoliopsida
2005,2005-06-18,Viana do Castelo,Ponte da Barca,Ruivos,Enxertos,41.7632949,-8.4388762,NC,194.0,2005-06-18T23:00,20.7,89,18.9,22.0,0.0,0.0,0.0,0.0,1,1018.5,995.8,26,0,0,88,0.01,0.26,13.9,23.4,350,4,28.8,21.6,22.8,18.1,13.3,0.199,0.249,0.316,0.384,0,0.0,0.0,0.0,0.0,0.0,0.0,0.0,0.0,0.0,0.0,0.0,0.0,0.0,Eucalyptus L'Hér.; Vitis vinifera L.; Magnoliopsida; Castanea sativa Mill.; Pinus pinaster Aiton
2005,2005-06-19,Viana do Castelo,Ponte da Barca,Britelo,Paradamonte,41.855434,-8.2701302,NC,231.0,2005-06-19T14:00,29.5,57,20.2,34.0,0.0,0.0,0.0,0.0,1,1013.9,987.9,32,1,12,81,0.56,1.76,4.7,6.6,32,41,24.8,30.2,23.2,18.5,13.5,0.188,0.243,0.316,0.386,1,3600.0,720.0,458.3,261.7,508.0,720.0,1194.9,740.0,471.0,269.0,508.0,740.0,1228.1,Magnoliopsida; Quercus L.; Pinus pinaster Aiton; Tracheophyta; Vitis vinifera L.; Olea europaea L.
2005,2005-10-05,Viana do Castelo,Ponte da Barca,Oleiros,Tomar,41.8009208,-8.4369581,NC,73.0,2005-10-05T12:00,25.4,23,2.5,24.2,0.0,0.0,0.0,0.0,0,1019.0,1010.5,0,0,0,1,0.47,2.51,3.9,7.0,112,111,17.3,25.5,18.4,20.4,20.4,0.103,0.165,0.203,0.317,1,3600.0,728.2,632.7,95.5,926.9,728.2,934.0,709.0,616.0,93.0,926.9,709.0,909.4,Pinus pinaster Aiton; Eucalyptus L'Hér.; Castanea sativa Mill.; Magnoliopsida; Tracheophyta; Vitis vinifera L.
2005,2005-03-17,Viana do Castelo,Ponte da Barca,Nogueira,Cachada,41.7899908,-8.4200146,NC,94.0,2005-03-17T21:00,16.0,67,9.9,14.0,0.0,0.0,0.0,0.0,0,1023.1,1011.8,1,0,2,0,0.04,0.59,13.6,21.7,40,36,19.8,12.8,12.9,8.8,8.7,0.222,0.27,0.324,0.372,0,0.0,0.0,0.0,0.0,0.0,0.0,0.0,0.0,0.0,0.0,0.0,0.0,0.0,Tracheophyta; Vitis vinifera L.; Quercus L.; Magnoliopsida
2005,2005-06-16,Viana do Castelo,Valença,São Pedro da Torre,Igreja,41.9899338,-8.6675593,NC,16.0,2005-06-16T13:00,25.5,67,18.9,28.4,0.0,0.0,0.0,0.0,0,1023.8,1021.9,4,4,0,0,0.59,1.09,16.9,21.5,336,342,33.5,27.3,20.5,18.4,14.3,0.219,0.24,0.321,0.375,1,3600.0,936.4,803.6,132.8,851.5,936.4,1250.8,938.0,805.0,133.0,851.5,938.0,1252.9,Pinus pinaster Aiton; Tracheophyta; Eucalyptus L'Hér.; Magnoliopsida; 
2005,2005-02-21,Viana do Castelo,Viana do Castelo,Barroselas,Paço (Estradao STª Luzia),41.6471968,-8.7014513,NC,69.0,2005-02-21T11:00,7.6,60,0.3,3.3,0.0,0.0,0.0,0.0,1,1016.1,1007.6,22,6,28,0,0.18,0.42,15.5,19.2,4,5,36.7,9.0,8.0,9.1,11.0,0.255,0.29,0.337,0.359,1,3600.0,500.9,356.1,144.9,667.2,500.9,746.5,453.0,322.0,131.0,667.2,453.0,675.1,Tracheophyta; Magnoliopsida; Quercus L.; Eucalyptus L'Hér.
2005,2005-05-27,Viana do Castelo,Melgaço,Cristoval,Senhora de Fátima,42.1406276,-8.1953443,NC,260.0,2005-05-27T16:00,17.9,79,14.2,16.9,0.2,0.2,0.0,0.0,51,1016.4,985.9,89,99,0,0,0.19,0.43,15.8,21.7,253,251,48.2,19.9,17.5,14.3,11.1,0.356,0.405,0.463,0.467,1,1764.79,284.6,79.1,205.5,118.8,284.6,887.1,313.0,87.0,226.0,118.8,313.0,975.6,Quercus L.; Magnoliopsida; Vitis vinifera L.; Pinus pinaster Aiton
2005,2005-05-30,Viana do Castelo,Arcos de Valdevez,Rio Frio,Aveleiras,41.8593809,-8.4742031,NC,187.0,2005-05-30T15:00,22.1,54,12.4,21.0,0.0,0.0,0.0,0.0,0,1022.1,1000.3,0,0,0,0,0.52,1.23,23.1,31.6,11,17,46.8,22.3,16.9,15.0,12.0,0.286,0.326,0.374,0.384,1,3600.0,816.2,702.0,114.2,877.0,816.2,1065.5,865.0,744.0,121.0,877.0,865.0,1129.2,Magnoliopsida; Quercus L.; Pinales
2005,2005-02-03,Viana do Castelo,Valença,Cerdal,Oliveira da Mosca,41.9789,-8.622752,NC,50.0,2005-02-03T15:00,12.9,58,4.9,10.9,0.0,0.0,0.0,0.0,0,1026.9,1020.8,0,0,0,0,0.22,0.63,5.1,6.0,8,17,12.6,12.0,7.8,8.4,11.5,0.321,0.337,0.367,0.375,1,3600.0,401.6,312.0,89.5,759.6,401.6,578.4,444.0,345.0,99.0,759.6,444.0,639.5,Magnoliopsida; Tracheophyta; Pinus pinaster Aiton; Eucalyptus L'Hér.; Vitis vinifera L.; 
2005,2005-06-07,Viana do Castelo,Ponte da Barca,Vila Nova De Muía,Santo Amaro,41.80600765,-8.415000093962036,NC,38.0,2005-06-07T23:00,21.7,56,12.4,20.3,0.0,0.0,0.0,0.0,0,1016.6,1012.1,2,0,0,8,0.09,1.15,14.8,25.4,51,65,27.0,20.8,22.7,17.8,13.2,0.165,0.261,0.343,0.391,0,0.0,0.0,0.0,0.0,0.0,0.0,0.0,0.0,0.0,0.0,0.0,0.0,0.0,Magnoliopsida; Tracheophyta; Vitis vinifera L.; Pinus pinaster Aiton
2005,2005-06-16,Viana do Castelo,Caminha,Vila Praia de Âncora,R. Vilarinho,41.8181143,-8.8600742,NC,54.0,2005-06-16T17:00,22.3,76,18.0,22.6,0.0,0.0,0.0,0.0,0,1021.7,1015.3,0,0,0,0,0.32,0.64,18.4,26.0,332,336,40.0,25.4,21.2,18.4,14.4,0.218,0.254,0.325,0.374,1,3600.0,491.3,394.3,97.0,725.6,491.3,720.2,562.0,451.0,111.0,725.6,562.0,823.8,Tracheophyta; Magnoliopsida; Eucalyptus L'Hér.; Pinus pinaster Aiton
2005,2005-03-19,Viana do Castelo,Viana do Castelo,Montaria,Pedrulhos,41.8138336,-8.7538867,NC,291.0,2005-03-19T11:00,18.1,48,6.8,15.8,0.0,0.0,0.0,0.0,2,1017.1,983.1,65,14,68,40,0.33,1.09,10.1,13.3,186,182,41.0,16.0,11.6,9.3,8.8,0.209,0.262,0.319,0.367,1,3600.0,595.1,389.9,205.2,584.1,595.1,921.7,551.0,361.0,190.0,584.1,551.0,853.3,Magnoliopsida; Tracheophyta; Pinus pinaster Aiton; Eucalyptus L'Hér.
2005,2005-06-17,Viana do Castelo,Caminha,Riba de Âncora,Aldeia Nova,41.8112515,-8.8186725,NC,65.0,2005-06-17T09:00,25.3,60,16.8,26.5,0.0,0.0,0.0,0.0,0,1019.2,1011.6,0,0,0,0,0.37,1.3,7.9,12.8,93,101,18.7,24.5,20.8,18.8,14.8,0.191,0.244,0.322,0.369,1,3600.0,621.6,514.3,107.4,772.4,621.6,882.3,550.0,455.0,95.0,772.4,550.0,780.6,Pinus pinaster Aiton; Tracheophyta; Magnoliopsida; Eucalyptus L'Hér.
2005,2005-06-07,Viana do Castelo,Arcos de Valdevez,Távora (Santa Maria),Piedade,41.8126178,-8.4582457,NC,114.0,2005-06-07T17:00,32.1,27,10.7,31.0,0.0,0.0,0.0,0.0,0,1016.2,1003.3,13,0,0,44,0.46,3.49,8.6,9.7,338,338,16.2,28.6,22.3,17.2,12.7,0.164,0.261,0.343,0.391,1,3600.0,477.8,372.5,105.3,702.3,477.8,704.3,549.0,428.0,121.0,702.3,549.0,809.3,Tracheophyta; Vitis vinifera L.; Eucalyptus L'Hér.; Quercus L.; Magnoliopsida
2005,2005-06-19,Viana do Castelo,Ponte de Lima,Refóios do Lima,Ameixeda,41.7933146,-8.542976,NC,68.0,2005-06-19T15:00,29.6,60,21.0,33.5,0.0,0.0,0.0,0.0,0,1013.8,1006.1,16,0,2,51,0.54,1.67,10.5,13.7,344,360,33.1,30.3,23.8,19.1,14.2,0.188,0.246,0.314,0.383,1,3600.0,687.3,478.1,209.2,584.3,687.3,1083.8,726.0,505.0,221.0,584.3,726.0,1144.8,Magnoliopsida; Eucalyptus L'Hér.; Tracheophyta; Vitis vinifera L.
2005,2005-06-19,Viana do Castelo,Ponte da Barca,Crasto,Sanem,41.7740223,-8.431444,NC,137.0,2005-06-19T19:00,27.5,64,20.1,29.5,0.0,0.0,0.0,0.0,0,1013.6,998.0,5,0,0,16,0.19,1.32,13.5,22.2,335,343,25.2,27.2,24.0,18.7,13.8,0.183,0.244,0.314,0.383,1,3600.0,138.1,90.2,47.9,467.3,138.1,255.8,202.0,132.0,70.0,467.3,202.0,374.2,Vitis vinifera L.; Tracheophyta; Magnoliopsida; Eucalyptus L'Hér.; Pinus pinaster Aiton; Castanea sativa Mill.; Quercus L.
2005,2005-02-01,Viana do Castelo,Monção,Anhões,Redolho,41.9959416,-8.4361202,NC,481.0,2005-02-01T03:00,-2.8,95,-3.6,-6.7,0.0,0.0,0.0,0.0,0,1032.6,972.0,2,2,0,0,0.0,0.03,8.5,14.5,78,67,20.2,-0.1,2.6,5.2,9.1,0.338,0.349,0.373,0.378,0,0.0,0.0,0.0,0.0,0.0,0.0,0.0,0.0,0.0,0.0,0.0,0.0,0.0,Magnoliopsida; Pinus pinaster Aiton; Quercus L.; Eucalyptus L'Hér.; 
2005,2005-02-28,Viana do Castelo,Valença,Gandra,Tuído,41.999056,-8.6334747,NC,28.0,2005-02-28T20:00,2.3,51,-6.7,-3.8,0.0,0.0,0.0,0.0,0,1008.1,1004.6,0,0,0,0,0.06,0.35,21.8,34.4,34,38,46.1,5.2,7.2,8.1,10.4,0.286,0.308,0.34,0.371,0,0.0,0.0,0.0,0.0,0.0,0.0,0.0,0.0,0.0,0.0,0.0,0.0,0.0,Magnoliopsida; Eucalyptus L'Hér.; Tracheophyta; Vitis vinifera L.; Pinus pinaster Aiton; Acacia Mill.; 
2005,2005-06-23,Viana do Castelo,Valença,Cerdal,Bade,41.9789,-8.622752,NC,50.0,2005-06-23T07:00,22.4,88,20.4,24.9,0.0,0.0,0.0,0.0,0,1016.6,1010.7,16,0,5,44,0.09,0.32,10.8,18.8,176,183,22.7,22.1,23.5,20.1,14.7,0.131,0.216,0.304,0.371,1,3600.0,197.8,76.4,121.4,228.9,197.8,441.8,145.0,56.0,89.0,228.9,145.0,323.9,Magnoliopsida; Tracheophyta; Pinus pinaster Aiton; Eucalyptus L'Hér.; Vitis vinifera L.; 
2005,2005-06-23,Viana do Castelo,Valença,Gandra,Valinha,42.0055903,-8.6164853,NC,96.0,2005-06-23T15:00,25.2,65,18.2,28.2,0.0,0.0,0.0,0.0,0,1017.5,1006.4,16,6,18,0,0.49,1.11,6.9,8.0,261,260,20.5,29.7,24.2,19.9,14.5,0.127,0.213,0.303,0.371,1,3600.0,681.2,524.9,156.3,640.2,681.2,1085.5,719.0,554.0,165.0,640.2,719.0,1145.7,Magnoliopsida; Eucalyptus L'Hér.; Tracheophyta; Vitis vinifera L.; Pinus pinaster Aiton; Acacia Mill.; 
2005,2005-06-09,Viana do Castelo,Viana do Castelo,Mazarefes,S.Simao,41.6915616,-8.7733741,NC,1.0,2005-06-09T16:00,23.3,63,15.9,24.4,0.0,0.0,0.0,0.0,0,1015.6,1015.5,0,0,0,0,0.45,1.05,12.4,16.4,292,296,26.3,29.3,23.2,18.5,14.2,0.128,0.253,0.339,0.376,1,3600.0,651.6,527.3,124.3,765.2,651.6,914.6,713.0,577.0,136.0,765.2,713.0,1000.8,Magnoliopsida; Tracheophyta; Eucalyptus L'Hér.
2005,2005-06-20,Viana do Castelo,Ponte da Barca,Vila Nova De Muía,Bouça,41.80600765,-8.415000093962036,NC,38.0,2005-06-20T10:00,26.3,72,20.9,30.6,0.0,0.0,0.0,0.0,2,1015.5,1011.1,57,52,0,35,0.46,0.95,5.4,4.6,290,288,19.8,27.5,23.0,19.5,14.5,0.183,0.244,0.313,0.383,1,3600.0,734.2,593.2,141.0,744.6,734.2,1055.3,677.0,547.0,130.0,744.6,677.0,973.0,Magnoliopsida; Tracheophyta; Vitis vinifera L.; Pinus pinaster Aiton
2005,2005-03-17,Viana do Castelo,Viana do Castelo,Geraz Do Lima (santa Leocádia),Igreja,41.70760085,-8.703149645389331,NC,8.0,2005-03-17T21:00,16.8,72,11.7,15.4,0.0,0.0,0.0,0.0,0,1023.1,1022.1,1,0,2,0,0.04,0.54,13.6,21.7,40,36,19.8,15.0,14.2,10.6,10.6,0.185,0.258,0.319,0.368,0,0.0,0.0,0.0,0.0,0.0,0.0,0.0,0.0,0.0,0.0,0.0,0.0,0.0,Eucalyptus L'Hér.; Pinus pinaster Aiton; Magnoliopsida; Tracheophyta; Pinales; Olea europaea L.
2005,2005-06-04,Viana do Castelo,Ponte de Lima,Labruja,Ponte Nova,41.8413022,-8.5951337,NC,155.0,2005-06-04T23:00,16.3,76,12.0,15.6,0.0,0.0,0.0,0.0,0,1018.9,1000.5,8,0,0,26,0.02,0.45,9.0,18.1,360,5,21.6,17.3,18.9,16.3,12.7,0.216,0.286,0.355,0.382,0,0.0,0.0,0.0,0.0,0.0,0.0,0.0,0.0,0.0,0.0,0.0,0.0,0.0,Magnoliopsida; Vitis vinifera L.; Eucalyptus L'Hér.; Pinus pinaster Aiton; Quercus L.; Tracheophyta
2005,2005-01-27,Viana do Castelo,Ponte de Lima,Labrujó,Pena,41.8543636,-8.541474,NC,526.0,2005-01-27T15:00,4.8,45,-6.1,-0.7,0.0,0.0,0.0,0.0,3,1019.8,956.3,87,77,29,0,0.16,0.47,17.9,26.1,28,30,56.9,3.3,2.4,6.4,9.4,0.348,0.36,0.381,0.386,1,3600.0,348.7,239.3,109.4,629.2,348.7,536.5,389.0,267.0,122.0,629.2,389.0,598.6,Magnoliopsida; Eucalyptus L'Hér.; Quercus L.
2005,2005-01-30,Viana do Castelo,Valença,Sanfins,Monte,42.018387,-8.5788326,NC,342.0,2005-01-30T20:00,5.0,73,0.5,1.7,0.0,0.0,0.0,0.0,0,1030.3,988.1,0,0,0,0,0.01,0.24,8.5,20.8,62,64,29.2,5.0,5.9,6.8,10.1,0.333,0.346,0.371,0.377,0,0.0,0.0,0.0,0.0,0.0,0.0,0.0,0.0,0.0,0.0,0.0,0.0,0.0,Magnoliopsida; Pinus pinaster Aiton; Eucalyptus L'Hér.
2005,2005-02-02,Viana do Castelo,Arcos de Valdevez,Extremo,Mourisca,41.9654069,-8.4498403,NC,568.0,2005-02-02T21:00,3.9,89,2.3,1.0,0.0,0.0,0.0,0.0,0,1030.7,961.4,0,0,0,0,0.0,0.09,7.9,16.2,66,78,25.2,3.4,4.5,5.3,9.4,0.382,0.395,0.421,0.432,0,0.0,0.0,0.0,0.0,0.0,0.0,0.0,0.0,0.0,0.0,0.0,0.0,0.0,Magnoliopsida; Tracheophyta; Quercus L.; Eucalyptus L'Hér.
2005,2005-06-01,Viana do Castelo,Monção,Pias,Maurigo,42.0211452,-8.5079393,NC,115.0,2005-06-01T15:00,24.8,56,15.3,26.1,0.0,0.0,0.0,0.0,0,1015.8,1002.5,0,0,0,0,0.57,1.39,15.4,19.4,323,329,31.7,25.8,19.2,15.5,12.4,0.246,0.307,0.366,0.382,1,3600.0,822.3,717.5,104.8,894.1,822.3,1067.5,871.0,760.0,111.0,894.1,871.0,1130.7,Magnoliopsida; Eucalyptus L'Hér.; Pinus pinaster Aiton; Vitis vinifera L.; Tracheophyta; Quercus L.; 
2005,2005-06-18,Viana do Castelo,Ponte da Barca,Paço Vedro de Magalhães,Talhós (S. Sebastião),41.7961954,-8.4069532,NC,81.0,2005-06-18T17:00,26.6,66,19.8,27.0,0.0,0.0,0.0,0.0,1,1017.2,1007.9,30,1,1,94,0.36,1.18,22.7,30.1,327,332,37.1,28.6,23.9,18.8,14.0,0.2,0.249,0.316,0.384,1,3600.0,421.9,223.6,198.3,413.5,421.9,716.4,483.0,256.0,227.0,413.5,483.0,820.2,Tracheophyta; Eucalyptus L'Hér.; Pinus pinaster Aiton; Vitis vinifera L.; Magnoliopsida
2005,2005-06-20,Viana do Castelo,Ponte da Barca,Lindoso,Cruzeiro,41.8666101,-8.1997242,NC,454.0,2005-06-20T19:00,23.6,75,19.0,25.9,0.0,0.0,0.0,0.0,0,1015.8,964.3,14,3,0,38,0.13,0.71,7.1,9.8,300,306,22.7,25.9,23.5,17.9,12.5,0.187,0.235,0.309,0.385,1,3600.0,134.3,84.5,49.8,442.0,134.3,253.3,197.0,124.0,73.0,442.0,197.0,371.5,Magnoliopsida; Pinus pinaster Aiton; Vitis vinifera L.
2005,2005-06-23,Viana do Castelo,Viana do Castelo,Deocriste,Senhora do Crasto,41.6872738,-8.6939874,NC,236.0,2005-06-23T22:00,18.1,86,15.8,19.2,0.0,0.0,0.0,0.0,1,1018.4,990.7,23,24,0,4,0.0,0.29,6.1,9.2,310,321,10.1,21.0,22.9,19.1,13.9,0.144,0.229,0.307,0.372,0,0.0,0.0,0.0,0.0,0.0,0.0,0.0,0.0,0.0,0.0,0.0,0.0,0.0,Magnoliopsida; Eucalyptus L'Hér.; Pinus pinaster Aiton
2005,2005-06-16,Viana do Castelo,Viana do Castelo,Afife,Gamosa,41.7772119,-8.8505326,NC,63.0,2005-06-16T21:00,21.2,84,18.3,22.0,0.0,0.0,0.0,0.0,0,1021.2,1013.8,0,0,0,0,0.05,0.42,15.5,29.3,357,6,29.5,21.6,21.4,18.4,14.4,0.215,0.254,0.325,0.374,0,0.0,0.0,0.0,0.0,0.0,0.0,0.0,0.0,0.0,0.0,0.0,0.0,3.5,Magnoliopsida; Eucalyptus L'Hér.; Tracheophyta; Pinus pinaster Aiton
2005,2005-06-23,Viana do Castelo,Caminha,Moledo,Gateira,41.8475,-8.8570387,NC,38.0,2005-06-23T23:00,18.1,92,16.9,19.4,0.0,0.0,0.0,0.0,1,1017.6,1013.1,40,35,0,28,0.0,0.16,8.4,12.5,310,316,12.6,21.2,23.9,20.2,15.2,0.117,0.229,0.311,0.37,0,0.0,0.0,0.0,0.0,0.0,0.0,0.0,0.0,0.0,0.0,0.0,0.0,0.0,Tracheophyta; Pinus pinaster Aiton; Eucalyptus L'Hér.; Acacia Mill.
2005,2005-06-21,Viana do Castelo,Ponte de Lima,Arcozelo,Santo Ovídio,41.7918096,-8.5927082,NC,35.0,2005-06-21T21:00,22.4,86,19.9,24.7,0.0,0.0,0.0,0.0,0,1016.2,1012.1,1,1,0,0,0.03,0.38,10.1,16.0,343,352,17.3,24.1,24.3,19.9,15.0,0.163,0.239,0.312,0.373,0,0.0,0.0,0.0,0.0,0.0,0.0,0.0,0.0,0.0,0.0,0.0,0.0,4.9,Magnoliopsida; Vitis vinifera L.; Tracheophyta; Eucalyptus L'Hér.; Pinus pinaster Aiton; Olea europaea L.
2005,2005-06-24,Viana do Castelo,Ponte da Barca,Paço Vedro de Magalhães,São Sebastião,41.7961954,-8.4069532,NC,81.0,2005-06-24T01:00,17.1,97,16.7,17.9,0.0,0.0,0.0,0.0,2,1018.0,1008.3,78,87,0,0,0.0,0.05,10.9,15.9,326,332,18.0,20.1,23.5,20.1,14.6,0.141,0.224,0.304,0.38,0,0.0,0.0,0.0,0.0,0.0,0.0,0.0,0.0,0.0,0.0,0.0,0.0,0.0,Tracheophyta; Eucalyptus L'Hér.; Pinus pinaster Aiton; Vitis vinifera L.; Magnoliopsida
2005,2005-06-21,Viana do Castelo,Ponte de Lima,Fontão,São Cristóvão,41.7528472,-8.6510374,NC,77.0,2005-06-21T12:00,24.2,71,18.6,28.2,0.0,0.0,0.0,0.0,0,1017.5,1008.5,0,0,0,0,0.58,0.89,9.7,10.5,312,322,21.2,28.9,22.2,19.3,14.7,0.141,0.239,0.316,0.372,1,3600.0,938.9,809.8,129.0,860.8,938.9,1245.9,917.0,791.0,126.0,860.8,917.0,1216.9,Pinus pinaster Aiton; Tracheophyta; Eucalyptus L'Hér.; Magnoliopsida
2005,2005-03-19,Viana do Castelo,Ponte de Lima,Ribeira,Desconhecido,41.7633736,-8.555046,NC,85.0,2005-03-19T15:00,20.0,50,9.4,18.1,0.0,0.0,0.0,0.0,2,1013.6,1003.6,78,1,78,100,0.27,1.16,12.6,17.3,193,182,36.7,19.2,13.8,10.5,9.9,0.196,0.256,0.317,0.366,1,2751.43,338.6,92.8,245.8,151.7,338.6,844.1,365.0,100.0,265.0,151.7,365.0,910.0,Tracheophyta; Magnoliopsida; Eucalyptus L'Hér.; Pinus pinaster Aiton
2005,2005-03-05,Viana do Castelo,Ponte de Lima,Ribeira,Desconhecido,41.7633736,-8.555046,NC,85.0,2005-03-05T16:00,11.3,69,5.8,7.1,0.0,0.0,0.0,0.0,3,1022.4,1012.0,99,79,46,0,0.16,0.41,21.7,28.2,333,333,43.2,11.0,7.3,7.7,10.2,0.274,0.295,0.333,0.37,1,3600.0,297.4,179.8,117.6,423.5,297.4,590.5,344.0,208.0,136.0,423.5,344.0,683.2,Tracheophyta; Magnoliopsida; Eucalyptus L'Hér.; Pinus pinaster Aiton
2005,2005-06-19,Viana do Castelo,Viana do Castelo,Perre,Freixo,41.7226783,-8.7785788,NC,63.0,2005-06-19T11:00,24.3,71,18.7,27.1,0.0,0.0,0.0,0.0,1,1015.3,1008.0,21,0,9,52,0.46,0.88,9.3,11.4,332,347,24.1,26.3,21.7,19.0,14.6,0.168,0.247,0.32,0.373,1,3600.0,744.4,475.2,269.1,534.0,744.4,1178.9,708.0,452.0,256.0,534.0,708.0,1121.3,Tracheophyta; Eucalyptus L'Hér.; Vitis vinifera L.; Magnoliopsida
2005,2005-06-08,Viana do Castelo,Viana do Castelo,Vila Fria,Valverde,41.6625255,-8.7617649,NC,44.0,2005-06-08T02:00,22.5,37,7.3,19.6,0.0,0.0,0.0,0.0,0,1016.6,1011.4,0,0,0,0,0.13,1.71,14.8,25.3,89,96,27.7,20.3,21.9,17.7,13.8,0.147,0.264,0.344,0.377,0,0.0,0.0,0.0,0.0,0.0,0.0,0.0,0.0,0.0,0.0,0.0,0.0,0.0,Eucalyptus L'Hér.; Tracheophyta; Magnoliopsida; Pinus pinaster Aiton
2005,2005-06-17,Viana do Castelo,Ponte de Lima,Vilar do Monte,Costa,41.836137,-8.5495344,NC,544.0,2005-06-17T17:00,28.9,50,17.4,30.5,0.0,0.0,0.0,0.0,0,1018.2,957.8,6,0,7,5,0.43,2.01,8.2,11.3,293,297,16.9,27.8,21.3,16.3,11.7,0.219,0.251,0.321,0.388,1,3600.0,494.1,406.8,87.3,755.1,494.1,713.9,566.0,466.0,100.0,755.1,566.0,817.7,Magnoliopsida; Pinus pinaster Aiton; Eucalyptus L'Hér.; Tracheophyta; Quercus L.
2005,2005-06-08,Viana do Castelo,Ponte da Barca,Paço Vedro de Magalhães,Talhós,41.7961954,-8.4069532,NC,81.0,2005-06-08T23:00,21.8,75,17.0,22.7,0.0,0.0,0.0,0.0,0,1016.0,1006.5,2,0,4,0,0.03,0.66,10.9,19.1,352,12,22.3,21.8,23.1,17.9,13.0,0.153,0.254,0.339,0.39,0,0.0,0.0,0.0,0.0,0.0,0.0,0.0,0.0,0.0,0.0,0.0,0.0,0.0,Tracheophyta; Eucalyptus L'Hér.; Pinus pinaster Aiton; Vitis vinifera L.; Magnoliopsida
2005,2005-02-01,Viana do Castelo,Arcos de Valdevez,Paçô,Vilar,41.8295743,-8.4118568,NC,50.0,2005-02-01T21:00,4.9,86,2.7,1.3,0.0,0.0,0.0,0.0,0,1029.9,1023.6,0,0,0,0,0.0,0.12,12.9,18.0,23,26,19.1,4.5,6.2,7.4,11.3,0.333,0.346,0.373,0.382,0,0.0,0.0,0.0,0.0,0.0,0.0,0.0,0.0,0.0,0.0,0.0,0.0,0.0,Tracheophyta; Pinus pinaster Aiton; Magnoliopsida; Eucalyptus L'Hér.
2005,2005-06-19,Viana do Castelo,Ponte de Lima,Ponte de Lima,S. Gonçalo,41.780958,-8.5012667,NC,83.0,2005-06-19T14:00,29.6,58,20.6,32.9,0.0,0.0,0.0,0.0,1,1014.0,1004.6,26,1,9,66,0.54,1.72,11.8,14.1,348,3,30.6,30.1,23.4,19.0,14.1,0.19,0.246,0.315,0.383,1,3600.0,695.0,460.4,234.6,509.6,695.0,1196.8,714.0,473.0,241.0,509.6,714.0,1229.5,Tracheophyta; Eucalyptus L'Hér.; Vitis vinifera L.; Pinus pinaster Aiton; Magnoliopsida
2005,2005-06-24,Viana do Castelo,Monção,Merufe,Pretos,42.0381332,-8.3965229,NC,153.0,2005-06-24T01:00,16.6,99,16.4,17.6,0.0,0.0,0.0,0.0,3,1018.1,999.9,90,100,0,0,0.0,0.02,8.0,11.8,333,340,11.5,19.8,23.2,19.6,13.9,0.135,0.214,0.303,0.374,0,0.0,0.0,0.0,0.0,0.0,0.0,0.0,0.0,0.0,0.0,0.0,0.0,0.0,Pinus pinaster Aiton; Magnoliopsida; Tracheophyta; Eucalyptus L'Hér.; Vitis vinifera L.; Pinales; Quercus L.; 
2005,2005-06-19,Viana do Castelo,Vila Nova de Cerveira,Mentrestido,Cheira,41.90321555,-8.668063501293204,NC,229.0,2005-06-19T18:00,25.9,67,19.4,27.3,0.0,0.0,0.0,0.0,1,1013.8,987.7,31,0,23,57,0.27,1.09,15.1,21.4,335,343,29.9,27.1,23.0,18.3,13.8,0.172,0.236,0.315,0.373,1,3600.0,297.0,206.1,90.9,553.5,297.0,493.3,366.0,254.0,112.0,553.5,366.0,607.9,Magnoliopsida; Pinus pinaster Aiton; Eucalyptus L'Hér.
2005,2005-06-09,Viana do Castelo,Ponte de Lima,Anais,Corvos,41.6986811,-8.5253797,NC,265.0,2005-06-09T17:00,24.4,54,14.4,24.6,0.0,0.0,0.0,0.0,0,1015.3,985.0,0,0,0,0,0.38,1.42,8.7,11.0,287,293,27.0,27.3,22.0,16.9,12.0,0.144,0.248,0.335,0.39,1,3600.0,489.2,401.3,87.9,755.2,489.2,705.3,562.0,461.0,101.0,755.2,562.0,810.2,Eucalyptus L'Hér.; Pinus pinaster Aiton; Tracheophyta
2005,2005-03-19,Viana do Castelo,Ponte de Lima,Anais,Desconhecido,41.6986811,-8.5253797,NC,265.0,2005-03-19T18:00,15.1,75,10.7,13.5,0.3,0.3,0.0,0.0,51,1016.2,984.9,97,8,100,100,0.06,0.42,12.2,21.4,227,226,31.7,15.1,12.6,8.5,7.6,0.209,0.263,0.321,0.372,1,0.0,25.6,2.9,22.7,22.2,25.6,180.7,44.0,5.0,39.0,22.2,44.0,310.5,Eucalyptus L'Hér.; Pinus pinaster Aiton; Tracheophyta
2005,2005-06-19,Viana do Castelo,Caminha,Vila Praia de Âncora,Carvoeiro,41.8158407,-8.8666642,NC,14.0,2005-06-19T19:00,24.7,73,19.6,25.9,0.0,0.0,0.0,0.0,0,1013.4,1011.8,5,0,1,16,0.16,0.84,16.7,26.2,335,342,28.1,26.4,23.7,19.4,15.0,0.156,0.244,0.319,0.372,1,3600.0,140.2,93.4,46.7,476.2,140.2,259.9,204.0,136.0,68.0,476.2,204.0,378.3,Tracheophyta; Magnoliopsida; Pinus pinaster Aiton
2005,2005-03-18,Viana do Castelo,Viana do Castelo,Vila Franca,Viso,41.6845345,-8.7416926,NC,17.0,2005-03-18T13:00,21.3,41,7.6,20.4,0.0,0.0,0.0,0.0,0,1018.8,1016.8,0,0,0,1,0.49,1.48,10.5,15.8,153,145,32.0,20.6,13.7,10.8,10.6,0.18,0.256,0.319,0.368,1,3600.0,775.3,682.1,93.2,927.1,775.3,1016.4,774.0,681.0,93.0,927.1,774.0,1014.7,Eucalyptus L'Hér.; Magnoliopsida; Tracheophyta
2005,2005-06-24,Viana do Castelo,Caminha,Riba de Âncora,Aldeia Nova,41.8112515,-8.8186725,NC,65.0,2005-06-24T14:00,21.0,77,16.9,21.9,0.0,0.0,0.0,0.0,3,1018.2,1010.5,100,89,0,67,0.39,0.56,15.5,18.7,298,298,32.4,28.0,23.1,20.4,15.4,0.109,0.221,0.307,0.366,1,3600.0,667.4,335.1,332.2,370.1,667.4,1198.7,685.0,344.0,341.0,370.1,685.0,1230.4,Pinus pinaster Aiton; Tracheophyta; Magnoliopsida; Eucalyptus L'Hér.
2005,2005-03-19,Viana do Castelo,Valença,Ganfei,Azenhas,42.0445783,-8.6117008,NC,46.0,2005-03-19T21:00,14.2,88,12.2,13.0,0.1,0.1,0.0,0.0,51,1016.1,1010.6,99,86,5,63,0.01,0.2,13.3,24.2,139,143,31.0,14.2,14.1,10.3,9.6,0.236,0.264,0.32,0.366,0,0.0,0.0,0.0,0.0,0.0,0.0,0.0,0.0,0.0,0.0,0.0,0.0,0.0,Magnoliopsida; Eucalyptus L'Hér.; Pinus pinaster Aiton; Tracheophyta; Vitis vinifera L.; 
2005,2005-06-23,Viana do Castelo,Ponte da Barca,Grovelas,São João Evangelista,41.8076477,-8.416428,NC,30.0,2005-06-23T18:00,25.1,63,17.4,26.0,0.0,0.0,0.0,0.0,0,1017.0,1013.5,6,2,7,0,0.25,1.19,12.1,14.9,287,290,25.6,27.8,24.9,20.4,14.9,0.14,0.224,0.305,0.38,1,3600.0,261.4,180.2,81.2,482.1,261.4,494.9,322.0,222.0,100.0,482.1,322.0,609.7,Magnoliopsida; Tracheophyta; Vitis vinifera L.; Pinus pinaster Aiton
2005,2005-10-05,Viana do Castelo,Valença,Ganfei,Azenhas,42.0445783,-8.6117008,NC,46.0,2005-10-05T15:00,24.3,30,5.7,22.3,0.0,0.0,0.0,0.0,0,1017.8,1012.4,0,0,0,0,0.41,2.13,8.4,8.9,313,310,16.9,26.9,19.2,20.0,20.2,0.108,0.169,0.201,0.313,1,3600.0,535.2,455.6,79.6,886.2,535.2,703.6,592.0,504.0,88.0,886.2,592.0,778.3,Magnoliopsida; Eucalyptus L'Hér.; Pinus pinaster Aiton; Tracheophyta; Vitis vinifera L.; 
2005,2005-10-05,Viana do Castelo,Melgaço,Fiães,Junto ao convento,42.1054308,-8.211975,NC,692.0,2005-10-05T16:00,22.5,26,2.1,19.9,0.0,0.0,0.0,0.0,0,1017.9,940.2,1,0,0,3,0.29,2.02,5.9,7.2,308,307,20.2,24.8,17.1,17.4,17.5,0.121,0.182,0.218,0.33,1,3600.0,366.2,303.6,62.6,820.0,366.2,506.7,439.0,364.0,75.0,820.0,439.0,607.5,Magnoliopsida; Quercus L.; Castanea sativa Mill.
2005,2005-06-09,Viana do Castelo,Viana do Castelo,Chafé,Amorosa,41.6461506,-8.8206768,NC,15.0,2005-06-09T20:00,21.5,68,15.3,22.1,0.0,0.0,0.0,0.0,0,1015.3,1013.5,14,0,0,48,0.06,0.83,8.1,12.7,302,315,16.9,24.5,24.0,18.9,14.1,0.136,0.234,0.319,0.341,1,2231.31,4.3,2.2,2.2,24.7,3.2,10.3,52.0,26.0,26.0,204.6,52.0,124.7,Pinus pinaster Aiton; Tracheophyta
2005,2005-06-09,Viana do Castelo,Viana do Castelo,Geraz Do Lima (santa Leocádia),Igreja,41.70760085,-8.703149645389331,NC,8.0,2005-06-09T23:00,18.1,88,16.1,19.4,0.0,0.0,0.0,0.0,0,1015.1,1014.1,9,0,0,29,0.0,0.25,5.5,8.5,337,348,9.7,20.2,22.9,18.6,14.2,0.129,0.253,0.338,0.376,0,0.0,0.0,0.0,0.0,0.0,0.0,0.0,0.0,0.0,0.0,0.0,0.0,0.0,Eucalyptus L'Hér.; Pinus pinaster Aiton; Magnoliopsida; Tracheophyta; Pinales; Olea europaea L.
2005,2005-06-22,Viana do Castelo,Viana do Castelo,Geraz Do Lima (santa Leocádia),Santa Leocádia,41.69720995,-8.657253399665219,NC,106.0,2005-06-22T19:00,26.4,64,19.1,28.6,0.0,0.0,0.0,0.0,1,1013.9,1001.7,21,0,9,53,0.16,1.24,8.1,11.6,291,300,16.9,28.2,24.7,19.6,14.7,0.149,0.233,0.309,0.373,1,3600.0,134.5,78.9,55.6,403.1,134.5,259.3,196.0,115.0,81.0,403.1,196.0,377.7,Pinus pinaster Aiton; Tracheophyta; Magnoliopsida; Pinus pinea L.; Olea europaea L.; Eucalyptus L'Hér.
2005,2005-06-26,Viana do Castelo,Monção,Cortes,Boavista,42.072985,-8.4906665,NC,48.0,2005-06-26T17:00,23.4,76,19.0,24.8,0.0,0.0,0.0,0.0,0,1016.0,1010.4,10,7,6,0,0.31,0.68,13.7,17.1,252,252,22.7,28.1,23.0,20.3,15.1,0.136,0.207,0.297,0.369,1,3600.0,428.0,248.6,179.4,455.9,428.0,721.6,489.0,284.0,205.0,455.9,489.0,824.5,Tracheophyta; Vitis vinifera L.; Magnoliopsida; Pinus pinaster Aiton; Eucalyptus L'Hér.; 
2005,2005-03-19,Viana do Castelo,Monção,Riba de Mouro,Lijo,42.0389854,-8.3294946,NC,245.0,2005-03-19T23:00,11.2,94,10.2,10.2,0.0,0.0,0.0,0.0,2,1016.4,987.0,62,44,31,13,0.0,0.09,7.4,17.5,137,166,25.6,11.7,12.6,8.6,7.6,0.253,0.278,0.327,0.369,0,0.0,0.0,0.0,0.0,0.0,0.0,0.0,0.0,0.0,0.0,0.0,0.0,0.0,Pinus pinaster Aiton; Magnoliopsida; Quercus L.; Tracheophyta; Vitis vinifera L.; Eucalyptus L'Hér.; 
2005,2005-04-05,Viana do Castelo,Monção,Barbeita,Santiago,42.0684555,-8.4107817,NC,62.0,2005-04-05T21:00,13.9,92,12.6,14.2,0.0,0.0,0.0,0.0,1,1023.9,1016.4,50,12,15,99,0.0,0.13,4.1,5.0,75,90,8.3,13.6,14.5,12.3,9.6,0.392,0.401,0.403,0.372,0,0.0,0.0,0.0,0.0,0.0,0.0,0.0,0.0,0.0,0.0,0.0,0.0,0.0,Tracheophyta; Vitis vinifera L.; Eucalyptus L'Hér.; Magnoliopsida; Pinus pinaster Aiton; 
2005,2005-02-19,Viana do Castelo,Viana do Castelo,Neiva,Zona Industrial,41.6419418,-8.7732078,NC,53.0,2005-02-19T22:00,8.0,74,3.7,3.7,0.0,0.0,0.0,0.0,0,1024.2,1017.6,2,2,0,0,0.03,0.28,19.0,31.5,10,14,40.3,8.3,9.2,9.2,11.2,0.25,0.286,0.332,0.349,0,0.0,0.0,0.0,0.0,0.0,0.0,0.0,0.0,0.0,0.0,0.0,0.0,0.0,Tracheophyta; Magnoliopsida; Eucalyptus L'Hér.
2005,2005-06-27,Viana do Castelo,Ponte da Barca,Boivães,Cruzeiro,41.7636212,-8.4518719,NC,400.0,2005-06-27T16:00,21.4,51,10.9,20.8,0.0,0.0,0.0,0.0,1,1016.0,970.1,32,7,31,24,0.45,1.25,12.7,16.9,215,214,38.5,25.3,20.7,18.6,13.4,0.156,0.212,0.299,0.378,1,3600.0,657.3,518.1,139.1,745.0,657.3,920.5,718.0,566.0,152.0,745.0,718.0,1005.5,Magnoliopsida; Eucalyptus L'Hér.; Pinus pinaster Aiton; Vitis vinifera L.
2005,2005-06-10,Viana do Castelo,Viana do Castelo,Viana Do Castelo (monserrate),Stª Luzia,41.70153575,-8.835134067055522,NC,180.0,2005-06-10T17:00,20.3,73,15.3,20.9,0.0,0.0,0.0,0.0,0,1011.5,990.6,7,8,0,0,0.33,0.65,9.2,10.2,315,318,21.2,26.6,21.6,17.6,13.1,0.126,0.249,0.336,0.376,1,3600.0,492.5,398.4,94.1,744.0,492.5,710.6,565.0,457.0,108.0,744.0,565.0,815.1,Magnoliopsida; Eucalyptus L'Hér.; Tracheophyta; Pinales
2005,2005-06-06,Viana do Castelo,Ponte de Lima,Arcozelo,R. de 25 Abril,41.7918096,-8.5927082,NC,35.0,2005-06-06T15:00,28.6,46,15.7,29.1,0.0,0.0,0.0,0.0,0,1017.0,1013.0,0,0,0,0,0.65,2.13,20.6,27.5,344,349,34.2,28.1,21.1,17.4,13.7,0.193,0.275,0.349,0.381,1,3600.0,827.8,722.0,105.8,892.1,827.8,1075.1,876.0,764.0,112.0,892.1,876.0,1137.6,Magnoliopsida; Vitis vinifera L.; Tracheophyta; Eucalyptus L'Hér.; Pinus pinaster Aiton; Olea europaea L.
2005,2005-06-23,Viana do Castelo,Valença,Verdoejo,Ermegil,42.0455104,-8.5950473,NC,29.0,2005-06-23T22:00,19.5,91,17.9,21.4,0.0,0.0,0.0,0.0,0,1018.3,1014.9,20,13,6,15,0.0,0.21,6.6,11.9,315,325,10.8,22.7,24.6,20.4,14.9,0.127,0.212,0.302,0.371,0,0.0,0.0,0.0,0.0,0.0,0.0,0.0,0.0,0.0,0.0,0.0,0.0,0.0,Magnoliopsida; Vitis vinifera L.; Pinus pinaster Aiton; Tracheophyta; Eucalyptus L'Hér.; 
2005,2005-06-20,Viana do Castelo,Ponte da Barca,Crasto,Sanem,41.7740223,-8.431444,NC,137.0,2005-06-20T14:00,27.1,66,20.1,30.8,0.0,0.0,0.0,0.0,1,1015.2,999.5,22,4,0,61,0.59,1.23,13.9,16.6,295,300,29.9,30.3,23.5,18.9,13.8,0.174,0.241,0.312,0.383,1,3600.0,855.7,672.7,183.0,744.3,855.7,1197.0,879.0,691.0,188.0,744.3,879.0,1229.6,Vitis vinifera L.; Tracheophyta; Magnoliopsida; Eucalyptus L'Hér.; Pinus pinaster Aiton; Castanea sativa Mill.; Quercus L.
2005,2005-06-24,Viana do Castelo,Melgaço,Cristoval,Cruz,42.1406276,-8.1953443,NC,260.0,2005-06-24T06:00,17.1,99,16.9,19.1,0.0,0.0,0.0,0.0,2,1017.4,986.8,60,65,0,4,0.01,0.02,2.8,2.6,320,326,9.4,20.0,22.6,19.5,13.3,0.232,0.298,0.383,0.455,1,0.0,34.3,2.1,32.1,13.2,22.1,214.2,16.0,1.0,15.0,8.5,16.0,100.0,Quercus L.; Magnoliopsida; Vitis vinifera L.; Pinus pinaster Aiton
2005,2005-06-22,Viana do Castelo,Valença,Cerdal,Bade,41.9789,-8.622752,NC,50.0,2005-06-22T13:00,31.4,45,18.2,35.6,0.0,0.0,0.0,0.0,0,1014.2,1008.5,17,0,0,57,0.72,2.51,8.1,8.4,339,353,16.9,32.6,23.9,19.9,14.7,0.134,0.218,0.306,0.372,1,3600.0,939.9,795.0,144.8,841.7,939.9,1250.7,941.0,796.0,145.0,841.7,941.0,1252.2,Magnoliopsida; Tracheophyta; Pinus pinaster Aiton; Eucalyptus L'Hér.; Vitis vinifera L.; 
2005,2005-10-07,Viana do Castelo,Ponte de Lima,Gondufe,Paraíso,41.7655223,-8.5126716,NC,154.0,2005-10-07T20:00,18.2,57,9.5,17.2,0.0,0.0,0.0,0.0,0,1013.7,995.6,14,0,5,38,0.02,0.9,5.8,6.1,30,45,8.6,18.9,19.9,19.6,19.8,0.1,0.16,0.201,0.316,0,0.0,0.0,0.0,0.0,0.0,0.0,0.0,0.0,0.0,0.0,0.0,0.0,0.0,Magnoliopsida; Eucalyptus L'Hér.; Vitis vinifera L.; Tracheophyta
2005,2005-10-09,Viana do Castelo,Paredes de Coura,Agualonga,Cabanas,41.881299,-8.6193203,NC,252.0,2005-10-09T08:00,15.6,69,9.8,14.4,0.0,0.0,0.0,0.0,2,1017.8,988.0,57,0,58,73,0.06,0.56,7.9,11.3,87,121,17.3,15.2,17.9,19.2,19.6,0.102,0.159,0.201,0.315,1,1490.61,103.2,29.5,73.7,126.1,95.5,320.7,63.0,18.0,45.0,116.7,63.0,195.8,Pinus pinaster Aiton; Magnoliopsida; Eucalyptus L'Hér.; Tracheophyta; 
2005,2005-06-05,Viana do Castelo,Arcos de Valdevez,Vale,Penacova,41.8384985,-8.3696615,NC,185.0,2005-06-05T21:00,21.0,65,14.2,20.2,0.0,0.0,0.0,0.0,0,1018.3,996.7,0,0,0,0,0.06,0.86,14.6,27.0,350,1,27.7,20.9,20.6,16.2,12.1,0.195,0.277,0.351,0.393,0,0.0,0.0,0.0,0.0,0.0,0.0,0.0,0.0,0.0,0.0,0.0,0.0,0.0,Vitis vinifera L.; Pinus pinaster Aiton; Tracheophyta; Magnoliopsida; Quercus L.; Eucalyptus L'Hér.; Acacia Mill.; 
2005,2005-04-27,Viana do Castelo,Ponte de Lima,Arcozelo,Presa,41.8016769,-8.601985,NC,106.0,2005-04-27T14:00,17.3,65,10.5,17.8,0.0,0.0,0.0,0.0,0,1018.1,1005.5,5,0,0,17,0.48,0.7,11.1,12.2,283,284,24.1,19.7,14.0,12.5,11.1,0.378,0.393,0.402,0.378,1,3600.0,876.2,767.7,108.4,922.3,876.2,1124.3,905.0,793.0,112.0,922.3,905.0,1161.3,Tracheophyta; Magnoliopsida; Pinus pinaster Aiton; Eucalyptus L'Hér.
2005,2005-03-18,Viana do Castelo,Arcos de Valdevez,Soajo,Vilar de Soente,41.8842468,-8.313467,NC,632.0,2005-03-18T15:00,21.1,37,5.7,18.9,0.0,0.0,0.0,0.0,1,1017.6,946.1,47,0,71,13,0.44,1.58,12.1,17.3,150,149,44.3,18.2,10.5,6.6,6.6,0.285,0.333,0.378,0.424,1,3600.0,623.1,544.4,78.7,903.0,623.1,832.8,673.0,588.0,85.0,903.0,673.0,899.5,Magnoliopsida; Pinales; Quercus L.; Pinus pinaster Aiton
2005,2005-06-07,Viana do Castelo,Viana do Castelo,Cardielos,Porto,41.7039626,-8.7410943,NC,6.0,2005-06-07T11:00,26.6,39,11.6,26.4,0.0,0.0,0.0,0.0,0,1018.4,1017.7,0,0,0,1,0.62,2.11,15.8,23.1,66,76,44.6,26.6,20.7,17.7,14.0,0.16,0.268,0.347,0.377,1,3600.0,907.9,790.2,117.7,889.5,907.9,1179.9,864.0,752.0,112.0,889.5,864.0,1122.8,Magnoliopsida; Tracheophyta; Pinales
2005,2005-06-07,Viana do Castelo,Caminha,Venade,Sobral,41.8603964,-8.8095563,NC,4.0,2005-06-07T13:00,27.7,39,12.6,29.3,0.0,0.0,0.0,0.0,0,1017.6,1017.1,11,0,0,36,0.7,2.26,10.8,15.5,64,77,33.5,29.8,21.6,17.9,14.3,0.143,0.263,0.344,0.372,1,3600.0,963.5,839.8,123.7,892.9,963.5,1249.1,966.0,842.0,124.0,892.9,966.0,1252.3,Eucalyptus L'Hér.; Pinus pinaster Aiton; Tracheophyta; Magnoliopsida
2005,2005-06-07,Viana do Castelo,Ponte de Lima,Cabração,Regueira,41.8364629,-8.6502105,NC,159.0,2005-06-07T21:00,24.8,59,16.3,24.8,0.0,0.0,0.0,0.0,0,1016.3,998.0,15,0,0,50,0.09,1.27,15.1,20.5,25,22,22.7,23.1,22.2,17.2,13.1,0.173,0.265,0.344,0.38,0,0.0,0.0,0.0,0.0,0.0,0.0,0.0,0.0,0.0,0.0,0.0,0.0,0.0,Eucalyptus L'Hér.; Pinus pinaster Aiton; Magnoliopsida; Tracheophyta
2005,2005-02-20,Viana do Castelo,Paredes de Coura,Insalde,Ramil,41.9485994,-8.5329017,NC,509.0,2005-02-20T02:00,1.9,89,0.3,-1.4,0.0,0.0,0.0,0.0,2,1024.4,962.0,58,65,0,0,0.0,0.07,8.1,19.0,21,27,33.5,2.4,4.4,5.2,7.8,0.3,0.319,0.354,0.383,0,0.0,0.0,0.0,0.0,0.0,0.0,0.0,0.0,0.0,0.0,0.0,0.0,0.0,Quercus L.; Magnoliopsida; Eucalyptus L'Hér.; Pinus pinaster Aiton; Tracheophyta; 
2005,2005-06-07,Viana do Castelo,Valença,Gandra,Mondim de Cima,41.9981185,-8.6101189,NC,106.0,2005-06-07T16:00,31.2,29,11.3,32.0,0.0,0.0,0.0,0.0,0,1016.5,1004.5,13,0,0,44,0.56,3.2,5.7,5.0,342,360,18.4,28.8,21.4,16.8,12.9,0.171,0.264,0.344,0.38,1,3600.0,677.8,575.5,102.3,839.4,677.8,910.5,742.0,630.0,112.0,839.4,742.0,996.7,Magnoliopsida; Eucalyptus L'Hér.; Tracheophyta; Vitis vinifera L.; Pinus pinaster Aiton; Acacia Mill.; 
2005,2005-02-05,Viana do Castelo,Monção,Podame,Brejo,42.0420535,-8.369954,NC,140.0,2005-02-05T16:00,8.1,78,4.5,5.5,0.0,0.0,0.0,0.0,2,1019.8,1002.6,66,26,71,0,0.06,0.24,9.2,12.5,312,316,23.0,7.8,5.7,7.0,10.3,0.33,0.338,0.367,0.376,1,0.0,86.4,17.3,69.1,58.4,86.4,416.8,105.0,21.0,84.0,58.4,105.0,506.3,Magnoliopsida; Vitis vinifera L.; Pinus pinaster Aiton; Tracheophyta; 
2005,2005-06-08,Viana do Castelo,Ponte de Lima,Refóios do Lima,Cedufeita,41.7933146,-8.542976,NC,68.0,2005-06-08T13:00,31.5,38,15.6,35.4,0.0,0.0,0.0,0.0,0,1017.4,1009.7,0,0,0,0,0.71,2.85,3.9,7.1,158,135,16.6,30.2,22.0,17.8,13.1,0.159,0.257,0.34,0.391,1,3600.0,943.4,816.8,126.7,867.6,943.4,1249.8,946.0,819.0,127.0,867.6,946.0,1253.2,Magnoliopsida; Eucalyptus L'Hér.; Tracheophyta; Vitis vinifera L.
2005,2005-03-06,Viana do Castelo,Valença,Verdoejo,Desconhecido,42.0223828,-8.5934111,NC,546.0,2005-03-06T17:00,8.0,45,-3.1,3.4,0.0,0.0,0.0,0.0,0,1020.8,955.7,0,0,0,0,0.16,0.59,14.2,21.3,21,24,45.4,8.5,5.1,3.9,6.6,0.294,0.309,0.339,0.376,1,3600.0,253.0,201.9,51.1,763.5,253.0,367.7,332.0,265.0,67.0,763.5,332.0,482.5,Magnoliopsida; Vitis vinifera L.; Pinus pinaster Aiton; Tracheophyta; Eucalyptus L'Hér.; 
2005,2005-03-18,Viana do Castelo,Arcos de Valdevez,Arcos De Valdevez (são Paio),Santiago,41.8462827,-8.4181315,NC,47.0,2005-03-18T19:00,19.2,56,10.3,17.9,0.0,0.0,0.0,0.0,1,1018.6,1013.0,41,1,32,69,0.07,0.98,9.4,14.1,2,354,15.5,16.6,14.1,9.5,9.0,0.211,0.266,0.322,0.372,0,84.69,0.0,0.0,0.0,0.0,0.0,0.0,23.0,7.0,16.0,69.9,23.0,78.2,Tracheophyta; Eucalyptus L'Hér.
2005,2005-06-08,Viana do Castelo,Ponte da Barca,Vila Nova De Muía,S. Antonio Cutinho,41.80600765,-8.415000093962036,NC,38.0,2005-06-08T13:00,31.7,38,15.8,35.6,0.0,0.0,0.0,0.0,0,1017.4,1013.1,0,0,0,0,0.71,2.88,3.9,7.1,158,135,16.6,30.4,22.2,18.0,13.3,0.159,0.257,0.34,0.391,1,3600.0,943.4,816.8,126.7,867.6,943.4,1249.8,946.0,819.0,127.0,867.6,946.0,1253.2,Magnoliopsida; Tracheophyta; Vitis vinifera L.; Pinus pinaster Aiton
2005,2005-06-22,Viana do Castelo,Ponte de Lima,Arcozelo,ARCOZELO,41.6667104,-8.532488774139193,NC,176.0,2005-06-22T20:00,26.1,66,19.3,28.9,0.0,0.0,0.0,0.0,0,1013.8,993.7,18,0,9,43,0.05,1.15,5.0,9.5,291,307,13.0,26.7,24.6,19.3,13.8,0.142,0.228,0.306,0.381,1,2477.24,11.1,5.6,5.6,63.8,8.9,26.0,60.0,30.0,30.0,225.9,60.0,140.0,Pinus pinaster Aiton
2005,2005-06-22,Viana do Castelo,Ponte da Barca,Grovelas,São João Evangelista,41.8076477,-8.416428,NC,30.0,2005-06-22T14:00,34.0,32,15.2,36.6,0.0,0.0,0.0,0.0,0,1013.4,1010.0,3,0,5,0,0.75,3.6,9.0,9.4,323,337,17.3,33.0,24.3,20.1,14.7,0.147,0.23,0.307,0.381,1,3600.0,898.7,772.1,126.6,854.0,898.7,1197.2,923.0,793.0,130.0,854.0,923.0,1229.6,Magnoliopsida; Tracheophyta; Vitis vinifera L.; Pinus pinaster Aiton
2005,2005-06-09,Viana do Castelo,Viana do Castelo,Viana Do Castelo (monserrate),Santa Luzia,41.6968768,-8.8329607,NC,51.0,2005-06-09T01:00,21.1,69,15.1,21.3,0.0,0.0,0.0,0.0,0,1015.9,1009.9,1,0,2,0,0.03,0.78,9.8,15.1,73,90,23.8,20.7,22.6,18.0,13.8,0.136,0.258,0.341,0.377,0,0.0,0.0,0.0,0.0,0.0,0.0,0.0,0.0,0.0,0.0,0.0,0.0,0.0,Magnoliopsida; Tracheophyta; Pinales; Eucalyptus L'Hér.
2005,2005-03-19,Viana do Castelo,Ponte da Barca,Lindoso,Cruzeiro,41.8666101,-8.1997242,NC,454.0,2005-03-19T13:00,19.9,47,8.4,18.7,0.0,0.0,0.0,0.0,2,1015.3,963.2,72,39,31,60,0.43,1.22,11.3,15.0,197,190,43.9,17.6,11.0,7.7,6.8,0.243,0.28,0.328,0.376,1,3600.0,697.5,542.4,155.1,735.4,697.5,1018.3,697.0,542.0,155.0,735.4,697.0,1017.6,Magnoliopsida; Pinus pinaster Aiton; Vitis vinifera L.
2005,2005-06-26,Viana do Castelo,Viana do Castelo,Castelo do Neiva,Santiago,41.6223481,-8.7917159,NC,63.0,2005-06-26T11:00,22.8,71,17.3,25.2,0.0,0.0,0.0,0.0,2,1017.0,1009.6,62,68,0,3,0.47,0.8,9.2,10.7,259,258,21.2,25.8,20.8,20.1,15.3,0.152,0.213,0.288,0.336,1,3600.0,791.2,539.7,251.5,607.8,791.2,1175.4,752.0,513.0,239.0,607.8,752.0,1117.2,Tracheophyta; Pinus pinaster Aiton; Eucalyptus L'Hér.; Magnoliopsida
2005,2005-03-19,Viana do Castelo,Monção,Merufe,Chã,42.0297394,-8.3967117,NC,221.0,2005-03-19T20:00,13.7,88,11.8,12.2,0.8,0.8,0.0,0.0,53,1016.3,990.0,100,57,88,99,0.01,0.19,14.0,24.1,157,163,42.5,13.9,13.1,8.7,7.8,0.248,0.278,0.327,0.369,0,0.0,0.0,0.0,0.0,0.0,0.0,0.0,0.0,0.0,0.0,0.0,0.0,0.0,Pinus pinaster Aiton; Magnoliopsida; Tracheophyta; Eucalyptus L'Hér.; Vitis vinifera L.; Pinales; Quercus L.; 
2005,2005-06-23,Viana do Castelo,Ponte de Lima,Arcozelo,Senhora da Luz,41.7918096,-8.5927082,NC,35.0,2005-06-23T14:00,25.2,67,18.8,27.9,0.0,0.0,0.0,0.0,0,1017.3,1013.2,13,6,13,0,0.51,1.04,12.3,14.4,273,273,24.5,29.6,24.0,20.3,15.2,0.146,0.231,0.308,0.372,1,3600.0,751.9,596.0,155.8,658.8,751.9,1197.9,772.0,612.0,160.0,658.8,772.0,1230.0,Magnoliopsida; Vitis vinifera L.; Tracheophyta; Eucalyptus L'Hér.; Pinus pinaster Aiton; Olea europaea L.
2005,2005-03-20,Viana do Castelo,Ponte de Lima,Rebordões (santa Maria),Desconhecido,41.7353587,-8.5781207,NC,74.0,2005-03-20T03:00,13.2,89,11.3,11.2,0.0,0.0,0.0,0.0,3,1014.4,1005.5,99,57,29,100,0.01,0.17,16.8,28.5,157,171,26.6,12.7,13.6,10.9,10.1,0.209,0.244,0.308,0.354,0,0.0,0.0,0.0,0.0,0.0,0.0,0.0,0.0,0.0,0.0,0.0,0.0,0.0,Eucalyptus L'Hér.; Pinus pinaster Aiton; Tracheophyta; Magnoliopsida
2005,2005-06-26,Viana do Castelo,Arcos de Valdevez,Aboim das Choças,Vilar,41.9237483,-8.456035,NC,146.0,2005-06-26T15:00,24.4,69,18.4,26.0,0.0,0.0,0.0,0.0,1,1015.9,999.0,34,12,16,46,0.44,0.94,15.2,17.4,239,246,25.9,28.8,22.1,19.9,14.7,0.142,0.212,0.299,0.37,1,3600.0,635.7,429.2,206.5,523.6,635.7,1084.9,671.0,453.0,218.0,523.6,671.0,1145.2,Quercus L.; Magnoliopsida; Pinus pinaster Aiton; Acacia Mill.; Tracheophyta
2005,2005-02-02,Viana do Castelo,Valença,Cerdal,Gondemil,41.9789,-8.622752,NC,50.0,2005-02-02T18:00,12.4,70,7.1,10.1,0.0,0.0,0.0,0.0,0,1028.9,1022.8,0,0,0,0,0.04,0.44,10.5,14.0,356,12,14.8,10.5,8.6,8.4,11.6,0.323,0.339,0.368,0.375,0,1302.98,0.0,0.0,0.0,0.0,0.0,0.0,34.0,20.0,14.0,193.1,34.0,85.6,Magnoliopsida; Tracheophyta; Pinus pinaster Aiton; Eucalyptus L'Hér.; Vitis vinifera L.; 
2005,2005-04-12,Viana do Castelo,Monção,Valadares,Bemposta,42.07767675,-8.374620302382713,NC,57.0,2005-04-12T19:00,16.6,61,9.0,15.2,0.0,0.0,0.0,0.0,0,1018.5,1011.7,0,0,0,0,0.06,0.74,7.4,11.2,293,312,17.6,15.7,13.8,11.8,10.0,0.314,0.346,0.385,0.374,1,2675.43,15.8,9.9,5.9,113.1,13.1,32.0,80.0,50.0,30.0,347.5,80.0,162.4,Magnoliopsida; Vitis vinifera L.; Eucalyptus L'Hér.; Pinales; Pinus pinaster Aiton; Tracheophyta; 
2005,2005-06-22,Viana do Castelo,Viana do Castelo,Cardielos,SÃO SILVESTRE,41.7130468,-8.7391575,NC,34.0,2005-06-22T17:00,27.8,55,17.8,29.8,0.0,0.0,0.0,0.0,0,1013.5,1009.6,8,0,0,28,0.41,1.7,6.4,5.6,297,310,18.0,32.0,24.7,19.9,15.1,0.122,0.232,0.313,0.371,1,3600.0,506.8,425.4,81.4,777.5,506.8,724.4,579.0,486.0,93.0,777.5,579.0,827.7,Magnoliopsida; Eucalyptus L'Hér.; Tracheophyta
2005,2005-06-22,Viana do Castelo,Valença,Gandra,Valinha,42.0055903,-8.6164853,NC,96.0,2005-06-22T19:00,28.2,66,21.3,31.5,0.0,0.0,0.0,0.0,1,1013.9,1002.9,21,0,9,53,0.16,1.28,8.1,11.6,291,300,16.9,29.4,25.2,19.7,14.4,0.129,0.215,0.304,0.371,1,3600.0,135.2,79.3,55.9,400.3,135.2,262.4,196.0,115.0,81.0,400.3,196.0,380.3,Magnoliopsida; Eucalyptus L'Hér.; Tracheophyta; Vitis vinifera L.; Pinus pinaster Aiton; Acacia Mill.; 
2005,2005-06-22,Viana do Castelo,Ponte da Barca,Boivães,Monte de Bouças,41.7636212,-8.4518719,NC,400.0,2005-06-22T22:00,22.3,81,18.8,25.0,0.0,0.0,0.0,0.0,0,1015.9,970.2,1,0,0,3,0.0,0.52,3.9,4.2,202,239,14.8,23.0,23.7,18.4,12.9,0.139,0.223,0.307,0.381,0,0.0,0.0,0.0,0.0,0.0,0.0,0.0,0.0,0.0,0.0,0.0,0.0,0.0,Magnoliopsida; Eucalyptus L'Hér.; Pinus pinaster Aiton; Vitis vinifera L.
2005,2005-06-23,Viana do Castelo,Ponte de Lima,Arcozelo,Senhora da Luz,41.7918096,-8.5927082,NC,35.0,2005-06-23T09:00,23.4,78,19.4,25.1,0.0,0.0,0.0,0.0,2,1017.7,1013.6,79,18,98,12,0.28,0.63,12.7,17.3,227,222,25.9,24.8,23.1,20.2,15.2,0.151,0.233,0.309,0.373,1,3600.0,496.4,326.8,169.6,491.9,496.4,879.7,439.0,289.0,150.0,491.9,439.0,778.0,Magnoliopsida; Vitis vinifera L.; Tracheophyta; Eucalyptus L'Hér.; Pinus pinaster Aiton; Olea europaea L.
2005,2005-06-08,Viana do Castelo,Viana do Castelo,Viana Do Castelo (monserrate),Sta Luzia - Parque Eolico,41.68732935,-8.839732406681415,NC,0.0,2005-06-08T14:00,28.0,48,16.0,31.9,0.0,0.0,0.0,0.0,0,1017.2,1017.2,0,0,0,0,0.66,1.96,4.3,3.0,275,256,16.9,31.8,22.8,18.1,14.1,0.138,0.26,0.343,0.377,1,3600.0,904.5,790.7,113.8,879.5,904.5,1193.6,930.0,813.0,117.0,879.5,930.0,1227.3,Tracheophyta; Magnoliopsida; Pinus pinaster Aiton
2005,2005-06-26,Viana do Castelo,Ponte de Lima,Fornelos,Oliveira,41.7501969,-8.5733712,NC,111.0,2005-06-26T20:00,19.7,79,15.9,20.8,0.0,0.0,0.0,0.0,0,1016.4,1003.3,1,1,0,0,0.04,0.49,6.3,8.5,204,208,16.9,23.0,22.4,19.8,15.0,0.152,0.222,0.302,0.371,1,2547.78,12.0,6.1,5.9,69.8,9.7,30.3,57.0,29.0,28.0,215.5,57.0,144.5,Magnoliopsida; Tracheophyta; Pinus pinaster Aiton; Eucalyptus L'Hér.
2005,2005-06-27,Viana do Castelo,Viana do Castelo,Afife,Revolta,41.7864091,-8.854294634382779,NC,174.0,2005-06-27T12:00,19.8,74,15.0,19.9,0.0,0.0,0.0,0.0,0,1016.2,995.8,1,0,2,0,0.43,0.6,20.3,27.1,210,209,38.2,23.6,20.2,19.1,14.5,0.158,0.222,0.304,0.371,1,3600.0,850.3,682.3,168.0,726.6,850.3,1242.8,830.0,666.0,164.0,726.6,830.0,1213.1,Magnoliopsida; Eucalyptus L'Hér.; Tracheophyta; Pinus pinaster Aiton
2005,2005-06-14,Viana do Castelo,Viana do Castelo,Freixieiro de Soutelo,Sra Cabeça,41.7927507,-8.8056729,NC,91.0,2005-06-14T15:00,19.8,68,13.8,19.6,0.0,0.0,0.0,0.0,1,1018.9,1008.2,37,15,4,70,0.42,0.73,17.3,22.1,211,210,33.8,24.2,20.1,18.6,14.4,0.236,0.244,0.327,0.37,1,3600.0,723.2,541.4,181.7,662.6,723.2,1083.4,764.0,572.0,192.0,662.6,764.0,1144.6,Eucalyptus L'Hér.; Magnoliopsida; Pinus pinaster Aiton
2005,2005-06-11,Viana do Castelo,Caminha,Riba de Âncora,Pena,41.8112515,-8.8186725,NC,65.0,2005-06-11T18:00,19.3,75,14.8,19.9,0.0,0.0,0.0,0.0,1,1009.3,1001.7,36,40,0,0,0.21,0.56,7.3,9.0,237,233,23.4,25.6,22.1,18.8,14.3,0.116,0.243,0.332,0.37,1,3600.0,295.0,214.2,80.8,584.3,295.0,486.3,365.0,265.0,100.0,584.3,365.0,601.7,Pinus pinaster Aiton; Tracheophyta; Magnoliopsida; Eucalyptus L'Hér.
2005,2005-06-05,Viana do Castelo,Monção,Barroças e Taias,Quinta do Requezendo,42.0019339,-8.4977586,NC,102.0,2005-06-05T09:00,20.9,71,15.5,21.5,0.0,0.0,0.0,0.0,0,1019.7,1007.7,0,0,0,0,0.33,0.72,9.1,11.2,351,4,18.4,20.3,17.5,16.3,12.7,0.216,0.284,0.354,0.381,1,3600.0,634.5,526.1,108.4,788.4,634.5,886.7,562.0,466.0,96.0,788.4,562.0,785.4,Pinus pinaster Aiton; Tracheophyta; Eucalyptus L'Hér.; Magnoliopsida; 
2005,2005-06-04,Viana do Castelo,Caminha,Riba de Âncora,Cabanelas,41.8112515,-8.8186725,NC,65.0,2005-06-04T16:00,21.7,55,12.1,19.7,0.0,0.0,0.0,0.0,0,1018.5,1010.9,2,0,0,7,0.45,1.18,24.5,34.3,340,345,44.3,24.5,19.4,17.0,13.7,0.178,0.279,0.353,0.373,1,3600.0,680.0,581.4,98.6,851.0,680.0,908.0,745.0,637.0,108.0,851.0,745.0,994.9,Pinus pinaster Aiton; Tracheophyta; Magnoliopsida; Eucalyptus L'Hér.
2005,2005-06-26,Viana do Castelo,Ponte da Barca,Paço Vedro de Magalhães,Couto,41.7961954,-8.4069532,NC,81.0,2005-06-26T18:00,23.8,67,17.2,24.5,0.0,0.0,0.0,0.0,0,1016.1,1006.7,3,1,2,4,0.26,0.99,13.0,16.6,256,257,24.5,27.0,22.9,20.1,14.9,0.149,0.216,0.3,0.378,1,3600.0,309.2,211.8,97.4,567.4,309.2,494.1,381.0,261.0,120.0,567.4,381.0,608.8,Tracheophyta; Eucalyptus L'Hér.; Pinus pinaster Aiton; Vitis vinifera L.; Magnoliopsida
2005,2005-03-07,Viana do Castelo,Viana do Castelo,Barroselas,Fiopos,41.6471968,-8.7014513,NC,69.0,2005-03-07T13:00,12.1,42,-0.3,10.2,0.0,0.0,0.0,0.0,0,1026.0,1017.6,0,0,0,0,0.36,0.82,6.2,8.3,111,108,21.6,12.6,7.9,8.2,10.4,0.244,0.278,0.323,0.357,1,3600.0,743.7,648.3,95.3,948.2,743.7,950.0,741.0,646.0,95.0,948.2,741.0,946.6,Tracheophyta; Magnoliopsida; Quercus L.; Eucalyptus L'Hér.
2005,2005-06-15,Viana do Castelo,Viana do Castelo,Deocriste,Srª Crasto,41.6904909,-8.7043822,NC,42.0,2005-06-15T16:00,20.6,76,16.2,20.8,0.0,0.0,0.0,0.0,3,1023.6,1018.6,83,86,5,8,0.33,0.58,14.3,19.4,219,222,28.4,24.3,20.3,18.5,14.5,0.249,0.254,0.327,0.374,1,3600.0,527.1,373.4,153.7,537.4,527.1,921.0,576.0,408.0,168.0,537.4,576.0,1006.4,Magnoliopsida; Eucalyptus L'Hér.; Tracheophyta; Pinus pinaster Aiton
2005,2005-06-27,Viana do Castelo,Vila Nova de Cerveira,Gondar,Gandras,41.9122396,-8.6794927,NC,226.0,2005-06-27T18:00,19.8,62,12.2,18.4,0.0,0.0,0.0,0.0,1,1014.6,988.3,26,0,19,50,0.25,0.88,14.2,20.1,189,189,31.7,24.4,21.7,19.3,14.6,0.143,0.211,0.298,0.369,1,3600.0,326.0,243.9,82.1,649.0,326.0,497.4,401.0,300.0,101.0,649.0,401.0,611.8,Magnoliopsida; Eucalyptus L'Hér.; Pinus pinaster Aiton
2005,2005-06-05,Viana do Castelo,Valença,Gandra,Mondim Cima,42.0055903,-8.6164853,NC,96.0,2005-06-05T14:00,26.5,55,16.8,28.1,0.0,0.0,0.0,0.0,0,1019.2,1008.1,0,0,0,0,0.64,1.56,19.2,25.3,334,340,34.6,26.9,19.3,16.4,12.8,0.205,0.281,0.353,0.381,1,3600.0,922.6,808.8,113.7,903.8,922.6,1189.1,949.0,832.0,117.0,903.8,949.0,1223.1,Magnoliopsida; Eucalyptus L'Hér.; Tracheophyta; Vitis vinifera L.; Pinus pinaster Aiton; Acacia Mill.; 
2005,2005-04-12,Viana do Castelo,Ponte de Lima,Vilar do Monte,Costa,41.836137,-8.5495344,NC,544.0,2005-04-12T21:00,10.4,74,6.1,8.9,0.0,0.0,0.0,0.0,0,1019.0,954.8,0,0,0,0,0.0,0.32,4.1,5.3,15,332,10.8,10.5,11.7,9.5,7.5,0.33,0.355,0.393,0.391,0,0.0,0.0,0.0,0.0,0.0,0.0,0.0,0.0,0.0,0.0,0.0,0.0,0.0,Magnoliopsida; Pinus pinaster Aiton; Eucalyptus L'Hér.; Tracheophyta; Quercus L.
2005,2005-06-14,Viana do Castelo,Viana do Castelo,Geraz Do Lima (santa Maria),Regato,41.7071247,-8.680829,NC,35.0,2005-06-14T14:00,19.9,68,13.9,19.9,0.0,0.0,0.0,0.0,1,1018.9,1014.8,31,34,1,0,0.43,0.73,17.0,21.7,212,212,35.3,23.7,19.7,18.6,14.4,0.27,0.253,0.329,0.374,1,3600.0,764.0,574.2,189.8,636.0,764.0,1197.0,785.0,590.0,195.0,636.0,785.0,1229.9,Eucalyptus L'Hér.; Vitis vinifera L.; Pinus pinaster Aiton; Olea europaea L.; Tracheophyta
2005,2005-05-05,Viana do Castelo,Arcos de Valdevez,Prozelo,Costa Velha   P.N.P.G.,41.8659112,-8.4389934,NC,129.0,2005-05-05T12:00,19.0,57,10.2,19.6,0.0,0.0,0.0,0.0,0,1021.6,1006.3,0,0,0,0,0.52,0.96,11.2,14.0,21,29,24.5,19.2,14.3,13.4,10.7,0.373,0.388,0.393,0.381,1,3600.0,941.7,826.1,115.7,921.9,941.7,1205.3,920.0,807.0,113.0,921.9,920.0,1177.5,Eucalyptus L'Hér.; Magnoliopsida; Quercus L.
2005,2005-05-19,Viana do Castelo,Ponte de Lima,Estorãos,Cerquido,41.7858974,-8.6445599,NC,11.0,2005-05-19T21:00,13.6,93,12.5,13.4,0.0,0.0,0.0,0.0,0,1021.5,1020.2,1,0,0,4,0.0,0.11,7.0,11.3,305,307,14.4,15.9,17.1,14.8,12.8,0.36,0.38,0.406,0.384,0,0.0,0.0,0.0,0.0,0.0,0.0,0.0,0.0,0.0,0.0,0.0,0.0,0.0,Tracheophyta; Eucalyptus L'Hér.; Magnoliopsida; Vitis vinifera L.
2005,2005-06-05,Viana do Castelo,Arcos de Valdevez,Arcos De Valdevez (são Paio),Santiago,41.8462827,-8.4181315,NC,47.0,2005-06-05T12:00,27.4,46,14.8,29.2,0.0,0.0,0.0,0.0,0,1019.3,1013.9,0,0,0,0,0.67,1.96,13.6,16.3,343,354,25.6,26.7,19.5,17.0,13.0,0.206,0.281,0.353,0.393,1,3600.0,968.0,848.4,119.6,905.5,968.0,1245.1,947.0,830.0,117.0,905.5,947.0,1218.0,Tracheophyta; Eucalyptus L'Hér.
2005,2005-02-04,Viana do Castelo,Arcos de Valdevez,Rio Frio,Rodelas,41.8593809,-8.4742031,NC,187.0,2005-02-04T18:00,9.1,74,4.8,6.0,0.0,0.0,0.0,0.0,0,1024.7,1001.8,0,0,0,0,0.03,0.3,12.8,15.6,350,352,14.8,8.9,7.6,7.6,10.7,0.32,0.336,0.365,0.376,0,1452.49,0.0,0.0,0.0,0.0,0.0,0.0,40.0,23.0,17.0,214.1,40.0,91.0,Magnoliopsida; Quercus L.; Pinales
2005,2005-06-05,Viana do Castelo,Ponte de Lima,Arcos,Terra Feita,41.7634894,-8.6557934,NC,61.0,2005-06-05T20:00,20.8,67,14.5,19.3,0.0,0.0,0.0,0.0,0,1018.7,1011.5,0,0,0,0,0.1,0.8,20.6,36.4,354,2,39.2,21.6,20.4,16.9,13.5,0.177,0.277,0.352,0.378,1,2121.06,1.5,0.9,0.7,9.8,1.1,3.3,53.0,30.0,23.0,241.1,53.0,117.8,Eucalyptus L'Hér.; Pinus pinaster Aiton; Tracheophyta; Vitis vinifera L.
2005,2005-06-07,Viana do Castelo,Valença,Gondomil,Monte,42.0299181,-8.549773,NC,51.0,2005-06-07T01:00,17.6,78,13.8,16.9,0.0,0.0,0.0,0.0,1,1017.3,1011.2,22,0,0,74,0.02,0.43,12.5,23.0,39,58,31.0,18.6,20.6,17.1,13.2,0.186,0.271,0.347,0.38,0,0.0,0.0,0.0,0.0,0.0,0.0,0.0,0.0,0.0,0.0,0.0,0.0,0.0,Magnoliopsida; Tracheophyta; Pinus pinaster Aiton; Eucalyptus L'Hér.; Vitis vinifera L.; 
2005,2005-06-07,Viana do Castelo,Ponte de Lima,Refóios do Lima,Cedufeitas,41.7933146,-8.542976,NC,68.0,2005-06-07T19:00,30.6,41,15.9,30.5,0.0,0.0,0.0,0.0,0,1015.3,1007.6,12,0,0,41,0.26,2.6,14.4,22.7,1,4,22.0,27.7,22.9,17.6,13.0,0.163,0.261,0.343,0.391,1,3600.0,137.7,95.8,41.9,536.8,137.7,237.0,207.0,144.0,63.0,536.8,207.0,356.2,Magnoliopsida; Eucalyptus L'Hér.; Tracheophyta; Vitis vinifera L.
2005,2005-06-06,Viana do Castelo,Ponte de Lima,Arcos,Terrafeita,41.7634894,-8.6557934,NC,61.0,2005-06-06T11:00,23.8,58,14.9,25.4,0.0,0.0,0.0,0.0,0,1018.6,1011.5,0,0,0,0,0.55,1.25,12.6,15.6,355,7,23.8,24.6,19.1,17.0,13.5,0.177,0.275,0.35,0.378,1,3600.0,910.8,793.2,117.7,892.9,910.8,1180.0,867.0,755.0,112.0,892.9,867.0,1123.2,Eucalyptus L'Hér.; Pinus pinaster Aiton; Tracheophyta; Vitis vinifera L.
2005,2005-06-16,Viana do Castelo,Valença,Cerdal,Bade,41.9789,-8.622752,NC,50.0,2005-06-16T10:00,22.8,74,17.9,25.0,0.0,0.0,0.0,0.0,0,1025.0,1019.1,4,5,0,0,0.42,0.73,10.5,13.4,6,14,20.2,23.7,19.2,18.2,14.1,0.228,0.242,0.322,0.375,1,3600.0,751.4,624.6,126.9,784.8,751.4,1054.7,693.0,576.0,117.0,784.8,693.0,972.7,Magnoliopsida; Tracheophyta; Pinus pinaster Aiton; Eucalyptus L'Hér.; Vitis vinifera L.; 
