year,date,district,municipality,parish,local,latitude,longitude,cause,elevation,hourly.time,hourly.temperature_2m,hourly.relative_humidity_2m,hourly.dew_point_2m,hourly.apparent_temperature,hourly.precipitation,hourly.rain,hourly.snowfall,hourly.snow_depth,hourly.weather_code,hourly.pressure_msl,hourly.surface_pressure,hourly.cloud_cover,hourly.cloud_cover_low,hourly.cloud_cover_mid,hourly.cloud_cover_high,hourly.et0_fao_evapotranspiration,hourly.vapour_pressure_deficit,hourly.wind_speed_10m,hourly.wind_speed_100m,hourly.wind_direction_10m,hourly.wind_direction_100m,hourly.wind_gusts_10m,hourly.soil_temperature_0_to_7cm,hourly.soil_temperature_7_to_28cm,hourly.soil_temperature_28_to_100cm,hourly.soil_temperature_100_to_255cm,hourly.soil_moisture_0_to_7cm,hourly.soil_moisture_7_to_28cm,hourly.soil_moisture_28_to_100cm,hourly.soil_moisture_100_to_255cm,hourly.is_day,hourly.sunshine_duration,hourly.shortwave_radiation_instant,hourly.direct_radiation_instant,hourly.diffuse_radiation_instant,hourly.direct_normal_irradiance_instant,hourly.global_tilted_irradiance_instant,hourly.terrestrial_radiation_instant,hourly.shortwave_radiation,hourly.direct_radiation,hourly.diffuse_radiation,hourly.direct_normal_irradiance,hourly.global_tilted_irradiance,hourly.terrestrial_radiation,scientificNames
2005,2005-02-11,Portalegre,Campo Maior,São João Baptista,Enxara,39.08345205,-7.013586419736351,NC,206.0,2005-02-11T15:00,16.2,34,0.3,13.4,0.0,0.0,0.0,0.0,0,1035.8,1011.0,0,0,0,0,0.3,1.21,4.6,6.1,51,50,19.1,15.0,9.2,9.1,12.8,0.231,0.251,0.28,0.305,1,3600.0,488.8,416.3,72.5,883.4,488.8,661.7,539.0,459.0,80.0,883.4,539.0,729.6,Tracheophyta; Magnoliopsida; Olea europaea L.; Quercus L.; Eucalyptus L'Hér.; Quercus rotundifolia Lam.; Pinus pinaster Aiton; Quercus suber L.; Pinus pinea L.; 
2005,2005-07-11,Portalegre,Elvas,Terrugem,TERRUGEM/Monte do Outeiro,38.8450197,-7.3474078,NC,305.0,2005-07-11T16:00,33.7,30,13.8,34.5,0.0,0.0,0.0,0.0,0,1016.5,982.7,13,0,22,0,0.41,3.65,3.1,3.6,135,135,16.2,37.6,30.3,25.2,18.8,0.121,0.158,0.194,0.27,1,3600.0,464.0,346.6,117.4,504.4,464.0,909.5,510.0,381.0,129.0,504.4,510.0,999.6,Tracheophyta; Olea europaea L.
2005,2005-04-24,Portalegre,Ponte De Sor,Montargil,VALE AMIEIRA,39.077335,-8.1872968,NC,229.0,2005-04-24T16:00,18.0,42,5.0,14.2,0.0,0.0,0.0,0.0,1,1014.2,987.4,43,21,40,0,0.34,1.19,17.4,23.7,292,292,37.8,19.7,13.9,13.2,11.7,0.095,0.112,0.12,0.165,1,3600.0,450.6,272.1,178.5,451.2,450.6,815.9,505.0,305.0,200.0,451.2,505.0,914.4,Olea europaea L.; Quercus suber L.; Magnoliopsida; Tracheophyta; Pinus pinea L.
2005,2005-05-05,Portalegre,Arronches,Mosteiros,NAVE FRIA - VALE PALHEIROS,39.190205,-7.2853377,NC,338.0,2005-05-05T12:00,24.4,29,5.2,23.2,0.0,0.0,0.0,0.0,0,1017.6,979.0,13,1,0,39,0.66,2.17,14.7,19.5,59,60,28.8,26.9,19.0,16.0,12.2,0.129,0.195,0.23,0.276,1,3600.0,966.4,849.9,116.5,926.9,966.4,1233.4,946.0,832.0,114.0,926.9,946.0,1207.4,Quercus suber L.; Quercus rotundifolia Lam.; Tracheophyta; Magnoliopsida; Olea europaea L.; Pinus pinea L.; Pinus pinaster Aiton; 
2005,2005-01-01,Portalegre,Portalegre,Ribeira De Nisa,Ribeira de Nisa/Fonte Lobo,39.3272709,-7.4247381,NC,513.0,2005-01-01T01:00,8.8,80,5.5,6.9,0.0,0.0,0.0,0.0,0,1031.2,969.4,0,0,0,0,0.0,0.23,5.6,9.5,333,335,8.3,4.3,7.6,9.2,15.0,0.246,0.27,0.273,0.258,0,0.0,0.0,0.0,0.0,0.0,0.0,0.0,0.0,0.0,0.0,0.0,0.0,0.0,Tracheophyta; Quercus suber L.; Magnoliopsida; Olea europaea L.; Pinus pinaster Aiton
2005,2005-05-21,Portalegre,Nisa,Nossa Senhora da Graça,VALE CARDOSO,39.5402685,-7.640699357093895,NC,261.0,2005-05-21T18:00,19.6,46,7.7,16.1,0.0,0.0,0.0,0.0,0,1016.8,986.4,0,0,0,0,0.27,1.23,20.1,27.9,297,297,41.4,21.8,19.6,16.1,13.1,0.227,0.255,0.238,0.289,1,3600.0,265.7,205.8,59.9,672.4,265.7,408.7,346.0,268.0,78.0,672.4,346.0,532.3,Tracheophyta; Magnoliopsida; Olea europaea L.; Quercus suber L.; Quercus rotundifolia Lam.; Eucalyptus L'Hér.; Quercus L.; Pinus pinaster Aiton; Vitis vinifera L.; Castanea sativa Mill.; Pinus pinea L.; 
2005,2005-05-20,Portalegre,Gavião,Belver,ALVISQUER,39.4946508,-7.958696,NC,136.0,2005-05-20T13:00,25.2,42,11.2,25.9,0.0,0.0,0.0,0.0,0,1018.8,1003.1,4,0,0,15,0.66,1.87,13.4,16.5,290,290,36.0,27.9,19.5,16.8,14.0,0.16,0.193,0.201,0.251,1,3600.0,966.1,845.7,120.4,903.2,966.1,1250.9,971.0,850.0,121.0,903.2,971.0,1257.3,Olea europaea L.; Tracheophyta; Magnoliopsida; Eucalyptus L'Hér.; Pinus pinaster Aiton; Quercus suber L.; Pinales; 
2005,2005-07-21,Portalegre,Gavião,Belver,Torre Fundeira,39.49186,-7.99721,NC,148.0,2005-07-21T15:00,34.4,16,4.8,32.0,0.0,0.0,0.0,0.0,0,1016.9,1000.3,2,0,0,5,0.82,4.57,19.4,25.2,288,289,41.8,41.1,30.1,25.9,20.2,0.086,0.129,0.155,0.234,1,3600.0,839.4,740.3,99.1,913.0,839.4,1074.1,889.0,784.0,105.0,913.0,889.0,1137.6,Olea europaea L.; Tracheophyta; Magnoliopsida; Eucalyptus L'Hér.; Pinus pinaster Aiton; Quercus suber L.; Pinales; 
2005,2005-05-06,Portalegre,Ponte De Sor,Montargil,HORTA DAS VINHAS,39.077335,-8.1872968,NC,229.0,2005-05-06T19:00,26.6,21,2.7,24.5,0.0,0.0,0.0,0.0,1,1015.7,989.6,43,0,71,0,0.08,2.75,2.9,6.8,360,25,12.2,27.5,21.7,15.8,12.3,0.054,0.083,0.109,0.163,1,3600.0,42.0,22.2,19.9,254.2,42.0,107.7,93.0,49.0,44.0,276.6,93.0,238.1,Olea europaea L.; Quercus suber L.; Magnoliopsida; Tracheophyta; Pinus pinea L.
2005,2005-05-07,Portalegre,Elvas,Alcáçova,ELVAS,38.89506655,-7.179359015488503,NC,336.0,2005-05-07T18:00,26.2,29,6.7,23.1,0.0,0.0,0.0,0.0,2,1011.8,973.9,68,0,67,94,0.28,2.43,16.0,23.3,239,238,34.2,26.9,22.1,16.9,12.4,0.138,0.174,0.205,0.261,1,2696.94,144.9,39.7,105.2,149.9,144.9,355.9,197.0,54.0,143.0,149.9,197.0,484.0,Olea europaea L.; Quercus suber L.; Magnoliopsida
2005,2005-06-07,Portalegre,Gavião,Comenda,Colada,39.399583,-7.7833969,NC,258.0,2005-06-07T16:00,36.5,19,8.8,34.7,0.0,0.0,0.0,0.0,0,1014.1,985.7,0,0,0,0,0.7,4.97,15.9,20.9,86,87,33.1,42.7,28.5,21.2,14.8,0.062,0.113,0.146,0.202,1,3600.0,656.8,554.1,102.6,814.8,656.8,903.1,723.0,610.0,113.0,814.8,723.0,994.1,Tracheophyta; Olea europaea L.; Magnoliopsida; Pinus pinea L.; Quercus rotundifolia Lam.; Quercus suber L.; Pinus pinaster Aiton; Eucalyptus L'Hér.; 
2005,2005-06-19,Portalegre,Ponte De Sor,Longomel,VALE DO ARCO,39.3540037,-7.95155505,NC,200.0,2005-06-19T02:00,22.3,68,16.2,23.2,0.0,0.0,0.0,0.0,0,1014.1,991.0,8,0,0,25,0.03,0.85,8.2,16.7,322,346,10.1,23.6,29.8,23.3,16.7,0.044,0.069,0.108,0.168,0,0.0,0.0,0.0,0.0,0.0,0.0,0.0,0.0,0.0,0.0,0.0,0.0,0.0,Eucalyptus L'Hér.; Pinus pinaster Aiton; Olea europaea L.; Quercus suber L.; Tracheophyta; Magnoliopsida
2005,2005-06-17,Portalegre,Portalegre,Alegrete,Vale de Cavalos,39.225931,-7.3046317,NC,420.0,2005-06-17T02:00,23.5,38,8.2,22.0,0.0,0.0,0.0,0.0,0,1017.5,969.7,0,0,0,0,0.07,1.8,7.3,10.4,349,14,13.3,23.3,26.3,21.9,15.4,0.118,0.165,0.201,0.268,0,0.0,0.0,0.0,0.0,0.0,0.0,0.0,0.0,0.0,0.0,0.0,0.0,0.0,Olea europaea L.; Quercus rotundifolia Lam.; Tracheophyta; Magnoliopsida; Quercus suber L.
2005,2005-06-17,Portalegre,Crato,Monte da Pedra,MONTE DA PEDRA,39.4052174,-7.6956432,NC,279.0,2005-06-17T20:00,33.0,23,9.2,30.5,0.0,0.0,0.0,0.0,1,1015.4,984.4,27,0,1,87,0.23,3.85,15.5,26.5,298,304,27.0,33.2,29.1,22.1,15.8,0.116,0.165,0.201,0.269,1,1010.7,0.0,0.0,0.0,0.0,0.0,0.0,37.0,15.0,22.0,126.3,37.0,98.8,Tracheophyta; Pinus pinaster Aiton; Magnoliopsida
2005,2005-08-07,Portalegre,Marvão,São Salvador da Aramenha,Escusa,39.3927326,-7.4092403,NC,568.0,2005-08-07T16:00,38.0,13,5.1,35.5,0.0,0.0,0.0,0.0,0,1009.2,948.5,3,0,0,9,0.65,5.74,12.8,16.9,259,259,29.2,42.9,32.0,25.1,20.1,0.104,0.149,0.171,0.248,1,3600.0,596.0,464.4,131.6,723.1,596.0,854.1,661.0,515.0,146.0,723.1,661.0,947.2,Olea europaea L.; Pinus pinaster Aiton; Quercus L.; Magnoliopsida; Tracheophyta; Quercus rotundifolia Lam.; Quercus suber L.; Castanea sativa Mill.; Pinus pinea L.; Eucalyptus L'Hér.; Vitis vinifera L.; 
2005,2005-06-01,Portalegre,Gavião,Gavião,CADAFAZ,39.4756457,-7.9604186,NC,222.0,2005-06-01T19:00,29.4,30,9.8,28.9,0.0,0.0,0.0,0.0,1,1012.0,987.0,26,0,42,2,0.11,2.88,3.0,5.1,76,82,16.9,31.3,26.0,19.4,14.3,0.093,0.16,0.191,0.248,1,3600.0,79.2,42.0,37.2,289.1,79.2,193.4,130.0,69.0,61.0,289.1,130.0,317.5,Magnoliopsida; Pinus pinaster Aiton; Tracheophyta; Eucalyptus L'Hér.
2005,2005-06-10,Portalegre,Elvas,Santa Eulália,Casa das Vacas,39.03701465,-7.257562249810521,NC,270.0,2005-06-10T19:00,31.2,22,7.3,28.8,0.0,0.0,0.0,0.0,1,1008.5,978.5,31,0,4,94,0.24,3.53,12.0,19.6,263,264,31.3,31.5,28.5,22.4,15.4,0.156,0.197,0.217,0.288,1,798.23,70.8,12.9,57.9,86.6,70.8,198.0,115.0,21.0,94.0,86.6,115.0,321.7,Tracheophyta; Quercus rotundifolia Lam.
2005,2005-06-11,Portalegre,Ponte De Sor,Foros de Arrão,FOROS DO ARRÃO,39.1658807,-8.2604131,NC,171.0,2005-06-11T17:00,29.1,33,11.4,27.0,0.0,0.0,0.0,0.0,0,1007.7,988.4,0,0,0,0,0.51,2.69,18.2,23.7,262,261,37.4,36.7,27.1,22.0,15.6,0.046,0.077,0.099,0.153,1,3600.0,496.1,411.2,84.8,777.2,496.1,702.0,573.0,475.0,98.0,777.2,573.0,810.8,Tracheophyta; Quercus suber L.; Olea europaea L.; Pinus pinaster Aiton; Quercus rotundifolia Lam.; Eucalyptus L'Hér.
2005,2005-07-12,Portalegre,Ponte De Sor,Longomel,Tom,39.33654,-7.9765583,NC,166.0,2005-07-12T02:00,23.0,54,13.1,22.8,0.0,0.0,0.0,0.0,0,1017.8,998.5,0,0,0,0,0.05,1.31,8.7,17.4,277,292,14.8,24.7,30.1,24.0,18.1,0.048,0.06,0.075,0.152,0,0.0,0.0,0.0,0.0,0.0,0.0,0.0,0.0,0.0,0.0,0.0,0.0,0.0,Quercus suber L.; Pinus pinaster Aiton; Tracheophyta; Eucalyptus L'Hér.
2005,2005-07-12,Portalegre,Gavião,Margem,VALE DA MADEIRA,39.3677114,-7.8960019,NC,192.0,2005-07-12T19:00,32.1,32,13.4,30.7,0.0,0.0,0.0,0.0,1,1015.2,993.7,25,0,42,0,0.28,3.24,16.8,24.1,301,302,32.4,37.8,32.1,25.5,19.4,0.033,0.061,0.092,0.163,1,3600.0,85.7,48.6,37.1,292.5,85.7,219.9,134.0,76.0,58.0,292.5,134.0,343.8,Quercus suber L.; Magnoliopsida; Eucalyptus L'Hér.; Tracheophyta; Pinus pinea L.; Pinus pinaster Aiton; Quercus rotundifolia Lam.; Olea europaea L.; 
2005,2005-07-13,Portalegre,Crato,Monte da Pedra,SEPELHEIRA,39.3362464,-7.7915089,NC,237.0,2005-07-13T13:00,32.3,30,12.6,34.6,0.0,0.0,0.0,0.0,0,1015.6,989.1,0,0,0,0,0.77,3.39,7.8,9.5,236,233,27.0,36.9,28.7,24.9,18.7,0.125,0.155,0.189,0.268,1,3600.0,987.7,873.9,113.9,920.1,987.7,1257.0,989.0,875.0,114.0,920.1,989.0,1258.7,Quercus suber L.; Tracheophyta; Eucalyptus L'Hér.; Magnoliopsida
2005,2005-07-07,Portalegre,Portalegre,Reguengo,REGUENGO/Relva,39.298393,-7.3922062,NC,610.0,2005-07-07T05:00,17.9,66,11.6,17.5,0.0,0.0,0.0,0.0,0,1011.6,942.2,0,0,0,0,0.02,0.69,6.3,14.0,301,334,11.5,21.7,28.2,24.2,17.2,0.084,0.135,0.166,0.23,0,0.0,0.0,0.0,0.0,0.0,0.0,0.0,0.0,0.0,0.0,0.0,0.0,0.0,Vitis vinifera L.; Pinus pinaster Aiton; Magnoliopsida; Olea europaea L.; Castanea sativa Mill.
2005,2005-07-14,Portalegre,Ponte De Sor,Longomel,Tom,39.33654,-7.9765583,NC,166.0,2005-07-14T09:00,22.0,66,15.3,22.8,0.0,0.0,0.0,0.0,0,1017.0,997.7,0,0,0,0,0.33,0.91,6.9,8.7,264,265,20.9,27.1,27.9,24.3,18.3,0.047,0.06,0.075,0.152,1,3600.0,601.5,461.1,140.4,706.9,601.5,863.5,527.0,404.0,123.0,706.9,527.0,756.5,Quercus suber L.; Pinus pinaster Aiton; Tracheophyta; Eucalyptus L'Hér.
2005,2005-07-20,Portalegre,Portalegre,São Julião,SÃO JULIÃO- Teixinha,39.3103246,-7.3001792,NC,511.0,2005-07-20T14:00,37.1,10,0.3,36.3,0.0,0.0,0.0,0.0,0,1018.5,963.1,0,0,0,0,0.79,5.68,7.7,9.7,217,219,19.1,45.1,30.2,26.3,19.4,0.083,0.133,0.159,0.226,1,3600.0,929.8,816.2,113.7,908.6,929.8,1189.9,957.0,840.0,117.0,908.6,957.0,1224.6,Olea europaea L.; Magnoliopsida; Pinus pinaster Aiton
2005,2005-07-22,Portalegre,Portalegre,São Julião,Teixinha,39.2941329,-7.3252773,NC,683.0,2005-07-22T18:00,30.1,28,9.8,27.5,0.0,0.0,0.0,0.0,0,1010.7,936.4,0,0,0,0,0.4,3.05,17.7,25.1,282,283,36.7,36.3,29.5,25.4,18.5,0.083,0.133,0.158,0.226,1,3600.0,284.6,224.4,60.2,678.9,284.6,438.0,364.0,287.0,77.0,678.9,364.0,560.1,Magnoliopsida; Vitis vinifera L.; Pinus pinaster Aiton; Quercus rotundifolia Lam.; Tracheophyta; Quercus suber L.
2005,2005-02-14,Portalegre,Portalegre,Reguengo,Relvas,39.2983269,-7.3924451,NC,610.0,2005-02-14T04:00,6.0,61,-1.1,0.7,0.0,0.0,0.0,0.0,0,1021.2,948.2,0,0,0,0,0.05,0.37,20.6,36.6,27,29,44.3,6.1,8.6,7.8,11.1,0.136,0.202,0.247,0.249,0,0.0,0.0,0.0,0.0,0.0,0.0,0.0,0.0,0.0,0.0,0.0,0.0,0.0,Vitis vinifera L.; Pinus pinaster Aiton; Magnoliopsida; Olea europaea L.; Castanea sativa Mill.
2005,2005-08-05,Portalegre,Marvão,São Salvador da Aramenha,Ribeiro do Pinheiro,39.3760134,-7.4007928,NC,564.0,2005-08-05T15:00,37.7,12,3.5,37.7,0.0,0.0,0.0,0.0,0,1015.4,954.7,13,0,3,38,0.63,5.73,2.5,3.3,45,49,17.3,43.2,29.3,24.3,20.0,0.104,0.149,0.172,0.248,1,3600.0,790.6,684.4,106.2,875.4,790.6,1039.2,841.0,728.0,113.0,875.4,841.0,1105.4,Olea europaea L.; Pinus pinaster Aiton; Quercus L.; Magnoliopsida; Tracheophyta; Quercus rotundifolia Lam.; Quercus suber L.; Castanea sativa Mill.; Pinus pinea L.; Eucalyptus L'Hér.; Vitis vinifera L.; 
2005,2005-02-16,Portalegre,Fronteira,Fronteira,FRONTEIRA,39.0660898,-7.67036286827932,NC,165.0,2005-02-16T15:00,12.1,30,-5.0,7.8,0.0,0.0,0.0,0.0,0,1017.9,998.0,0,0,0,0,0.3,0.99,11.5,15.9,49,51,30.2,13.3,9.5,10.0,12.3,0.213,0.242,0.28,0.299,1,3600.0,534.6,459.8,74.8,923.2,534.6,698.1,586.0,504.0,82.0,923.2,586.0,765.2,Magnoliopsida; Quercus suber L.; Olea europaea L.; Tracheophyta; Quercus rotundifolia Lam.; Pinus pinea L.
2005,2005-07-25,Portalegre,Marvão,Beirã,Bica,39.48325115,-7.382989531725729,NC,314.0,2005-07-25T14:00,28.1,39,12.7,26.5,0.0,0.0,0.0,0.0,3,1013.2,977.9,100,94,75,73,0.5,2.33,17.2,23.0,260,261,38.9,31.2,26.0,25.2,19.8,0.124,0.154,0.197,0.277,1,3600.0,557.7,313.8,243.9,351.8,557.7,1182.8,574.0,323.0,251.0,351.8,574.0,1217.3,Magnoliopsida; Quercus L.; Tracheophyta; Quercus rotundifolia Lam.; Olea europaea L.; Vitis vinifera L.; Quercus suber L.; 
2005,2005-02-16,Portalegre,Portalegre,Ribeira De Nisa,Ribeira de Nisa,39.3235854,-7.4093914,NC,517.0,2005-02-16T13:00,8.8,34,-6.4,5.0,0.0,0.0,0.0,0.0,0,1019.3,957.8,0,0,0,0,0.3,0.75,10.7,14.1,48,50,29.5,11.7,7.3,8.2,11.0,0.149,0.209,0.256,0.257,1,3600.0,672.8,585.5,87.2,943.5,672.8,869.9,671.0,584.0,87.0,943.5,671.0,867.6,Magnoliopsida; Pinus pinaster Aiton; Tracheophyta; Quercus suber L.
2005,2005-08-03,Portalegre,Nisa,Amieira do Tejo,AMIEIRA SUL,39.509372,-7.8148909,NC,226.0,2005-08-03T13:00,33.5,18,5.8,32.7,0.0,0.0,0.0,0.0,0,1018.2,992.9,0,0,0,0,0.81,4.25,13.8,17.5,70,71,37.8,38.1,27.9,25.1,21.2,0.108,0.149,0.167,0.251,1,3600.0,961.9,849.0,112.9,920.1,961.9,1225.8,963.0,850.0,113.0,920.1,963.0,1227.2,Eucalyptus L'Hér.; Tracheophyta; Quercus rotundifolia Lam.; Olea europaea L.; Magnoliopsida; Quercus suber L.; Quercus L.; Pinus pinea L.; Castanea sativa Mill.; Pinus pinaster Aiton; 
2005,2005-09-03,Portalegre,Arronches,Mosteiros,MOSTEIROS,39.19131285,-7.284634053026316,NC,347.0,2005-09-03T10:00,30.9,17,2.9,29.2,0.0,0.0,0.0,0.0,0,1020.9,982.0,4,0,0,12,0.42,3.7,2.8,3.6,310,307,16.6,32.1,27.4,26.7,23.2,0.116,0.148,0.169,0.251,1,3600.0,670.0,565.9,104.1,814.8,670.0,933.8,605.0,511.0,94.0,814.8,605.0,843.2,Quercus suber L.; Quercus rotundifolia Lam.; Tracheophyta; Magnoliopsida; Olea europaea L.; Pinus pinea L.; Pinus pinaster Aiton; ; Eucalyptus L'Hér.
2005,2005-08-23,Portalegre,Ponte De Sor,Ponte de Sor,ERVIDEIRA,39.22009,-8.0094729,NC,168.0,2005-08-23T00:00,21.3,46,9.2,19.6,0.0,0.0,0.0,0.0,0,1017.8,998.2,0,0,0,0,0.08,1.37,10.4,22.8,346,354,16.6,22.8,28.2,25.4,21.2,0.049,0.059,0.073,0.15,0,0.0,0.0,0.0,0.0,0.0,0.0,0.0,0.0,0.0,0.0,0.0,0.0,0.0,Olea europaea L.; Tracheophyta; Quercus suber L.
2005,2005-02-17,Portalegre,Ponte De Sor,Montargil,Albufeira da Barragem de Montargil,39.077335,-8.1872968,NC,229.0,2005-02-17T19:00,9.9,33,-5.5,5.7,0.0,0.0,0.0,0.0,0,1017.8,990.1,0,0,0,0,0.07,0.81,9.2,21.1,39,43,18.0,10.2,9.2,9.3,11.2,0.062,0.11,0.156,0.17,0,0.0,0.0,0.0,0.0,0.0,0.0,0.0,1.0,0.0,1.0,0.0,1.0,6.4,Olea europaea L.; Quercus suber L.; Magnoliopsida; Tracheophyta; Pinus pinea L.
2005,2005-05-31,Portalegre,Marvão,Santa Maria de Marvão,Abegoa,39.3989047,-7.3693142,NC,613.0,2005-05-31T17:00,26.8,35,10.1,25.5,0.0,0.0,0.0,0.0,1,1016.5,948.4,39,0,50,29,0.35,2.29,9.1,11.7,108,108,25.2,30.0,23.7,18.6,13.1,0.135,0.162,0.193,0.239,1,3600.0,356.8,271.9,84.9,540.1,356.8,669.8,416.0,317.0,99.0,540.1,416.0,781.0,Magnoliopsida; Tracheophyta; Quercus L.; Castanea sativa Mill.
2005,2005-06-08,Portalegre,Portalegre,Reguengo,SÃO MAMEDE,39.3134716,-7.360082,NC,996.0,2005-06-08T14:00,30.3,23,7.1,30.2,0.0,0.0,0.0,0.0,0,1016.6,909.9,0,0,0,0,0.72,3.32,10.4,13.4,104,104,29.5,37.5,25.3,18.5,11.4,0.085,0.149,0.185,0.237,1,3600.0,900.4,784.1,116.3,868.5,900.4,1198.6,929.0,809.0,120.0,868.5,929.0,1236.6,Pinus pinaster Aiton; Magnoliopsida; Pinales
2005,2005-06-06,Portalegre,Arronches,Esperança,ESPERANÇA,39.158529,-7.1943475,NC,347.0,2005-06-06T15:00,36.2,17,7.2,36.4,0.0,0.0,0.0,0.0,0,1013.3,975.3,3,0,0,11,0.71,4.99,6.9,8.8,279,279,19.8,39.5,27.6,20.8,14.7,0.116,0.169,0.201,0.265,1,3600.0,815.3,706.2,109.1,876.2,815.3,1070.7,867.0,751.0,116.0,876.2,867.0,1138.6,Tracheophyta; Quercus rotundifolia Lam.; Magnoliopsida; Quercus suber L.; Olea europaea L.; Pinus pinaster Aiton; Eucalyptus L'Hér.; Pinus pinea L.; Acacia Mill.; 
2005,2005-06-21,Portalegre,Gavião,Belver,Torre Fundeira,39.49186,-7.99721,NC,148.0,2005-06-21T15:00,36.8,16,7.1,36.2,0.0,0.0,0.0,0.0,0,1014.1,997.7,7,0,0,23,0.77,5.21,11.7,14.6,281,279,30.2,43.4,29.9,24.1,17.0,0.087,0.136,0.173,0.242,1,3600.0,820.6,712.9,107.6,867.8,820.6,1088.0,869.0,755.0,114.0,867.8,869.0,1152.2,Olea europaea L.; Tracheophyta; Magnoliopsida; Eucalyptus L'Hér.; Pinus pinaster Aiton; Quercus suber L.; Pinales; 
2005,2005-06-16,Portalegre,Portalegre,Alegrete,Vale de Cavalos,39.225931,-7.3046317,NC,420.0,2005-06-16T16:00,33.4,18,5.9,33.0,0.0,0.0,0.0,0.0,0,1018.2,971.8,0,0,0,0,0.56,4.21,4.2,5.3,59,62,15.5,37.4,26.0,21.8,15.4,0.118,0.165,0.201,0.268,1,3600.0,670.8,572.6,98.2,837.5,670.8,906.1,738.0,630.0,108.0,837.5,738.0,997.0,Olea europaea L.; Quercus rotundifolia Lam.; Tracheophyta; Magnoliopsida; Quercus suber L.
2005,2005-03-15,Portalegre,Arronches,Esperança,RECANTO,39.1786618,-7.2193249,NC,414.0,2005-03-15T13:00,20.2,38,5.3,19.1,0.0,0.0,0.0,0.0,3,1020.2,972.4,94,47,86,0,0.48,1.48,8.7,11.2,97,96,19.8,19.9,11.5,9.6,10.3,0.187,0.205,0.247,0.276,1,3600.0,781.9,681.0,100.9,909.2,781.9,1036.4,783.0,682.0,101.0,909.2,783.0,1037.9,Tracheophyta; Quercus rotundifolia Lam.; Magnoliopsida; Quercus suber L.; Olea europaea L.; Pinus pinaster Aiton; Eucalyptus L'Hér.; Pinus pinea L.; Acacia Mill.; 
2005,2005-05-13,Portalegre,Ponte De Sor,Montargil,CARVALHOSO,39.0880206,-8.1634886,NC,88.0,2005-05-13T18:00,16.9,58,8.6,13.6,0.0,0.0,0.0,0.0,2,1017.3,1006.8,56,45,25,0,0.2,0.81,20.4,29.4,284,285,45.7,19.3,18.5,17.3,13.7,0.224,0.107,0.102,0.16,1,3600.0,213.6,137.1,76.5,467.5,213.6,392.9,282.0,181.0,101.0,467.5,282.0,518.7,Magnoliopsida; Tracheophyta; Quercus suber L.; Olea europaea L.; Pinus pinaster Aiton; Pinus pinea L.
2005,2005-02-11,Portalegre,Arronches,Esperança,Manguens,39.1588493,-7.1936526,NC,346.0,2005-02-11T15:00,15.5,35,-0.1,12.8,0.0,0.0,0.0,0.0,0,1035.9,994.5,0,0,0,0,0.29,1.15,3.9,4.9,34,36,16.2,15.1,8.4,8.5,12.2,0.184,0.224,0.261,0.278,1,3600.0,486.3,412.8,73.5,877.3,486.3,660.8,536.0,455.0,81.0,877.3,536.0,728.3,Tracheophyta; Quercus rotundifolia Lam.; Magnoliopsida; Quercus suber L.; Olea europaea L.; Pinus pinaster Aiton; Eucalyptus L'Hér.; Pinus pinea L.; Acacia Mill.; 
2005,2005-06-06,Portalegre,Avis,Valongo,VALONGO,39.1713539,-7.8707855,NC,190.0,2005-06-06T15:00,37.3,14,4.9,37.1,0.0,0.0,0.0,0.0,0,1013.2,992.3,5,0,0,18,0.72,5.52,6.7,8.6,286,285,22.0,43.1,26.9,20.4,14.8,0.066,0.11,0.133,0.194,1,3600.0,821.3,712.1,109.3,877.2,821.3,1078.2,872.0,756.0,116.0,877.2,872.0,1144.8,Tracheophyta; Quercus rotundifolia Lam.; Vitis vinifera L.; Quercus suber L.; Eucalyptus L'Hér.; Olea europaea L.; Pinus pinea L.; Magnoliopsida; 
2005,2005-07-13,Portalegre,Marvão,Beirã,Bica,39.48325115,-7.382989531725729,NC,314.0,2005-07-13T23:00,24.7,57,15.5,25.2,0.0,0.0,0.0,0.0,0,1015.6,979.8,0,0,0,0,0.06,1.35,9.8,16.9,262,272,19.8,28.1,30.5,25.4,18.6,0.124,0.159,0.203,0.28,0,0.0,0.0,0.0,0.0,0.0,0.0,0.0,0.0,0.0,0.0,0.0,0.0,0.0,Magnoliopsida; Quercus L.; Tracheophyta; Quercus rotundifolia Lam.; Olea europaea L.; Vitis vinifera L.; Quercus suber L.; 
2005,2005-06-18,Portalegre,Castelo de Vide,Santiago Maior,Limpas da Melriça,39.4182431,-7.458183938921951,NC,603.0,2005-06-18T18:00,32.1,25,9.3,31.2,0.0,0.0,0.0,0.0,1,1013.6,947.9,23,0,11,55,0.25,3.6,4.7,5.8,4,4,20.5,37.0,29.3,21.7,14.6,0.101,0.151,0.184,0.242,1,3600.0,235.6,133.2,102.3,384.5,235.6,459.1,297.0,168.0,129.0,384.5,297.0,578.8,Olea europaea L.; Magnoliopsida; Tracheophyta; Quercus rotundifolia Lam.; Quercus L.; Pinus pinea L.; Eucalyptus L'Hér.; Quercus suber L.; Vitis vinifera L.; Castanea sativa Mill.; 
2005,2005-01-03,Portalegre,Ponte De Sor,Galveias,Vale do Junco,39.1589758,-7.9977295,NC,232.0,2005-01-03T14:00,13.7,52,4.1,10.3,0.0,0.0,0.0,0.0,0,1033.0,1004.9,13,0,0,43,0.24,0.75,13.7,19.1,72,74,31.0,12.6,7.7,9.7,14.5,0.145,0.173,0.187,0.181,1,3600.0,423.6,350.0,73.6,826.2,423.6,599.3,449.0,371.0,78.0,826.2,449.0,635.2,Olea europaea L.; Tracheophyta; Pinus pinea L.; Quercus suber L.; Magnoliopsida
2005,2005-07-19,Portalegre,Gavião,Margem,Lamerancha,39.3906236,-7.9049314,NC,250.0,2005-07-19T20:00,32.3,24,8.9,29.7,0.0,0.0,0.0,0.0,0,1017.4,989.4,0,0,0,0,0.22,3.69,15.4,26.5,323,329,27.4,36.1,29.6,25.3,19.7,0.03,0.06,0.088,0.161,0,1595.12,0.0,0.0,0.0,0.0,0.0,0.0,38.0,21.0,17.0,184.3,38.0,92.3,Quercus suber L.; Magnoliopsida; Eucalyptus L'Hér.; Tracheophyta; Pinus pinea L.; Pinus pinaster Aiton; Quercus rotundifolia Lam.; Olea europaea L.; 
2005,2005-02-24,Portalegre,Ponte De Sor,Montargil,VALE BISPO FUNDEIRO,39.077335,-8.1872968,NC,229.0,2005-02-24T15:00,11.9,44,-0.1,8.4,0.0,0.0,0.0,0.0,2,1007.9,980.7,57,28,24,57,0.28,0.79,10.1,13.2,325,325,22.3,13.9,8.9,9.2,11.0,0.184,0.109,0.152,0.17,1,3600.0,518.5,393.7,124.8,734.4,518.5,748.9,565.0,429.0,136.0,734.4,565.0,816.0,Olea europaea L.; Quercus suber L.; Magnoliopsida; Tracheophyta; Pinus pinea L.
2005,2005-07-09,Portalegre,Ponte De Sor,Longomel,Vale de Arco,39.3566997,-7.9546387,NC,190.0,2005-07-09T14:00,33.6,27,12.0,35.0,0.0,0.0,0.0,0.0,0,1012.2,991.0,2,0,4,0,0.64,3.79,5.0,6.1,270,273,22.0,48.6,30.0,24.6,19.0,0.035,0.061,0.092,0.162,1,3600.0,783.2,622.6,160.5,684.4,783.2,1203.8,805.0,640.0,165.0,684.4,805.0,1237.3,Pinus pinaster Aiton; Olea europaea L.; Tracheophyta; Eucalyptus L'Hér.; Magnoliopsida; Quercus suber L.
2005,2005-10-03,Portalegre,Marvão,São Salvador da Aramenha,Portagem,39.3844706,-7.3785396,NC,521.0,2005-10-03T00:00,17.0,33,0.6,13.1,0.0,0.0,0.0,0.0,0,1020.1,959.7,0,0,0,0,0.1,1.3,12.9,27.1,30,36,26.3,19.2,24.0,23.3,22.9,0.105,0.145,0.162,0.238,0,0.0,0.0,0.0,0.0,0.0,0.0,0.0,0.0,0.0,0.0,0.0,0.0,0.0,Olea europaea L.; Pinus pinaster Aiton; Quercus L.; Magnoliopsida; Tracheophyta; Quercus rotundifolia Lam.; Quercus suber L.; Castanea sativa Mill.; Pinus pinea L.; Eucalyptus L'Hér.; Vitis vinifera L.; 
2005,2005-10-05,Portalegre,Portalegre,Reguengo,Alto dos Forninhos,39.298393,-7.3922062,NC,610.0,2005-10-05T14:00,25.8,15,-3.3,23.9,0.0,0.0,0.0,0.0,0,1017.4,949.3,0,0,0,0,0.47,2.84,2.5,3.3,352,347,16.6,32.6,21.5,23.2,23.0,0.084,0.129,0.144,0.213,1,3600.0,678.5,588.5,90.0,918.2,678.5,877.1,716.0,621.0,95.0,918.2,716.0,925.5,Vitis vinifera L.; Pinus pinaster Aiton; Magnoliopsida; Olea europaea L.; Castanea sativa Mill.
2005,2005-08-07,Portalegre,Nisa,Montalvão,VALE DE FIGUEIRA,39.5514329,-7.499610747461169,NC,286.0,2005-08-07T14:00,39.0,14,6.4,38.3,0.0,0.0,0.0,0.0,0,1010.5,979.4,15,0,3,44,0.76,6.02,10.0,12.7,255,255,31.3,42.1,31.3,25.5,20.8,0.12,0.152,0.179,0.261,1,3600.0,820.7,678.1,142.6,780.1,820.7,1156.0,846.0,699.0,147.0,780.1,846.0,1191.7,Tracheophyta; Quercus suber L.; Eucalyptus L'Hér.; Olea europaea L.; Magnoliopsida; Quercus rotundifolia Lam.; Pinales; 
2005,2005-10-09,Portalegre,Marvão,São Salvador da Aramenha,Escusa,39.3927326,-7.4092403,NC,568.0,2005-10-09T19:00,16.9,90,15.2,17.9,0.8,0.8,0.0,0.0,53,1018.2,952.7,46,0,35,85,0.0,0.19,4.7,12.5,122,139,16.2,19.3,21.3,22.1,22.6,0.158,0.145,0.162,0.237,0,0.0,0.0,0.0,0.0,0.0,0.0,0.0,0.0,0.0,0.0,0.0,0.0,0.0,Olea europaea L.; Pinus pinaster Aiton; Quercus L.; Magnoliopsida; Tracheophyta; Quercus rotundifolia Lam.; Quercus suber L.; Castanea sativa Mill.; Pinus pinea L.; Eucalyptus L'Hér.; Vitis vinifera L.; 
2005,2005-09-29,Portalegre,Ponte De Sor,Montargil,Beirãozinho,39.077335,-8.1872968,NC,229.0,2005-09-29T16:00,31.9,18,4.5,29.2,0.0,0.0,0.0,0.0,1,1020.3,994.5,28,0,0,94,0.42,3.88,9.4,12.5,47,49,23.0,36.8,24.3,22.7,21.7,0.052,0.059,0.064,0.135,1,3600.0,401.0,328.2,72.7,776.7,401.0,576.3,474.0,388.0,86.0,776.7,474.0,681.3,Olea europaea L.; Quercus suber L.; Magnoliopsida; Tracheophyta; Pinus pinea L.
2005,2005-09-16,Portalegre,Ponte De Sor,Ponte de Sor,Vale da Bica,39.282057,-8.002174135232755,NC,138.0,2005-09-16T15:00,30.3,33,12.1,28.9,0.0,0.0,0.0,0.0,0,1012.2,996.6,10,0,16,0,0.51,2.91,14.8,19.5,276,275,32.4,36.2,26.0,24.0,22.3,0.054,0.059,0.064,0.138,1,3600.0,515.0,396.4,118.6,624.7,515.0,859.1,560.0,431.0,129.0,624.7,560.0,934.1,Quercus suber L.; Tracheophyta; Olea europaea L.
2005,2005-08-24,Portalegre,Nisa,São Matias,Velada,39.5725194,-7.6956357,NC,255.0,2005-08-24T16:00,33.5,19,6.4,31.0,0.0,0.0,0.0,0.0,0,1013.1,984.8,0,0,0,0,0.61,4.2,14.8,19.1,274,274,33.5,38.1,29.5,26.6,22.1,0.123,0.149,0.159,0.247,1,3600.0,586.4,502.7,83.8,852.1,586.4,789.6,658.0,564.0,94.0,852.1,658.0,886.0,Eucalyptus L'Hér.; Magnoliopsida; Olea europaea L.; Tracheophyta; Quercus suber L.; Vitis vinifera L.; Pinus pinea L.; Pinus pinaster Aiton; Quercus rotundifolia Lam.; 
2005,2005-03-04,Portalegre,Gavião,Belver,DOMINGOS DA VINHA,39.5166945,-7.9511751,NC,214.0,2005-03-04T16:00,11.5,21,-10.3,4.2,0.0,0.0,0.0,0.0,0,1015.6,989.9,0,0,0,0,0.32,1.08,28.0,38.8,35,34,55.8,13.1,8.4,8.8,11.1,0.143,0.189,0.243,0.259,1,3600.0,453.9,385.8,68.0,891.6,453.9,602.2,527.0,448.0,79.0,891.6,527.0,699.2,Olea europaea L.; Tracheophyta; Magnoliopsida; Eucalyptus L'Hér.; Pinus pinaster Aiton; Quercus suber L.; Pinales; 
2005,2005-08-03,Portalegre,Crato,Monte da Pedra,MONTE DA PEDRA,39.4052174,-7.6956432,NC,279.0,2005-08-03T11:00,30.2,25,8.1,28.7,0.0,0.0,0.0,0.0,0,1019.3,987.9,0,0,0,0,0.69,3.23,17.3,23.0,78,80,43.2,31.6,26.1,24.1,20.5,0.116,0.151,0.177,0.258,1,3600.0,881.1,769.0,112.1,891.7,881.1,1145.5,833.0,727.0,106.0,891.7,833.0,1083.0,Tracheophyta; Pinus pinaster Aiton; Magnoliopsida
2005,2005-09-04,Portalegre,Nisa,Santana,E. N. 18,39.6122917,-7.6942944,NC,131.0,2005-09-04T07:00,19.9,56,10.9,19.9,0.0,0.0,0.0,0.0,0,1021.3,1005.8,0,0,0,0,0.02,1.02,2.1,5.0,239,300,4.7,21.3,27.7,27.2,23.6,0.123,0.148,0.158,0.245,1,1915.14,102.3,60.9,41.4,340.8,66.8,240.6,47.0,28.0,19.0,222.5,47.0,110.5,Magnoliopsida; Eucalyptus L'Hér.; Olea europaea L.; Quercus suber L.; Quercus rotundifolia Lam.; Pinus pinaster Aiton; Tracheophyta; 
2005,2005-03-03,Portalegre,Gavião,Belver,ARRIACHA CIMEIRA,39.5139574,-7.9554004,NC,201.0,2005-03-03T23:00,5.8,44,-5.4,0.2,0.0,0.0,0.0,0.0,0,1011.3,986.8,4,0,5,3,0.07,0.52,19.2,36.0,28,34,34.9,5.7,8.3,8.9,11.2,0.151,0.19,0.243,0.259,0,0.0,0.0,0.0,0.0,0.0,0.0,0.0,0.0,0.0,0.0,0.0,0.0,0.0,Olea europaea L.; Tracheophyta; Magnoliopsida; Eucalyptus L'Hér.; Pinus pinaster Aiton; Quercus suber L.; Pinales; 
2005,2005-03-05,Portalegre,Nisa,Espírito Santo,Mato da Póvoa,39.49679695,-7.635985051352641,NC,295.0,2005-03-05T13:00,12.7,37,-1.7,10.1,0.0,0.0,0.0,0.0,0,1021.6,986.3,1,0,1,0,0.38,0.93,9.4,12.0,317,319,27.0,12.3,6.5,7.8,10.4,0.227,0.247,0.275,0.298,1,3600.0,751.8,658.7,93.1,940.6,751.8,974.1,751.0,658.0,93.0,940.6,751.0,973.0,Tracheophyta; Magnoliopsida; Olea europaea L.; Eucalyptus L'Hér.; Quercus suber L.; Quercus rotundifolia Lam.; Pinus pinaster Aiton; Quercus L.; Vitis vinifera L.; 
2005,2005-08-21,Portalegre,Nisa,São Simão,SÃO MIGUEL,39.5913504,-7.644091090794821,NC,314.0,2005-08-21T02:00,21.9,31,3.9,18.1,0.0,0.0,0.0,0.0,0,1018.8,982.6,0,0,0,0,0.16,1.83,16.4,30.6,40,44,27.4,23.6,28.7,26.5,21.8,0.105,0.149,0.172,0.255,0,0.0,0.0,0.0,0.0,0.0,0.0,0.0,0.0,0.0,0.0,0.0,0.0,0.0,Tracheophyta; Magnoliopsida; Olea europaea L.; Eucalyptus L'Hér.; Quercus suber L.; Quercus rotundifolia Lam.; Pinus pinaster Aiton; Quercus L.; Vitis vinifera L.; 
2005,2005-03-04,Portalegre,Castelo de Vide,São João Baptista,E.N. 246,39.43127855,-7.563237182815644,NC,346.0,2005-03-04T14:00,9.9,24,-9.9,3.3,0.0,0.0,0.0,0.0,0,1014.9,973.6,0,0,0,0,0.36,0.93,29.1,41.4,34,34,59.8,10.6,6.6,7.7,10.4,0.214,0.232,0.267,0.287,1,3600.0,724.2,637.5,86.7,973.5,724.2,911.3,752.0,662.0,90.0,973.5,752.0,946.3,Tracheophyta; Magnoliopsida; Olea europaea L.; Quercus L.; Eucalyptus L'Hér.; Quercus rotundifolia Lam.; Pinus pinaster Aiton; Quercus suber L.; Pinus pinea L.; 
2005,2005-08-26,Portalegre,Gavião,Belver,BELVER,39.4919932,-7.9586977,NC,85.0,2005-08-26T20:00,22.4,53,12.2,20.5,0.0,0.0,0.0,0.0,0,1018.3,1008.4,0,0,0,0,0.13,1.28,17.7,28.1,322,327,36.4,27.3,29.0,26.6,22.6,0.039,0.06,0.071,0.148,0,0.0,0.0,0.0,0.0,0.0,0.0,0.0,1.0,0.0,1.0,0.0,1.0,7.9,Olea europaea L.; Tracheophyta; Magnoliopsida; Eucalyptus L'Hér.; Pinus pinaster Aiton; Quercus suber L.; Pinales; 
2005,2005-03-09,Portalegre,Arronches,Esperança,HORTAS CIMA,39.1685978,-7.1960382,NC,356.0,2005-03-09T13:00,14.6,21,-7.7,11.3,0.0,0.0,0.0,0.0,1,1025.7,983.4,29,0,0,97,0.42,1.32,9.9,12.8,80,80,32.0,14.0,7.7,8.5,10.9,0.172,0.21,0.25,0.276,1,3600.0,754.6,585.7,168.9,811.1,754.6,1002.3,755.0,586.0,169.0,811.1,755.0,1002.8,Tracheophyta; Quercus rotundifolia Lam.; Magnoliopsida; Quercus suber L.; Olea europaea L.; Pinus pinaster Aiton; Eucalyptus L'Hér.; Pinus pinea L.; Acacia Mill.; 
2005,2005-08-30,Portalegre,Marvão,São Salvador da Aramenha,Alvarrões,39.3482229,-7.4069011,NC,665.0,2005-08-30T20:00,28.5,35,11.6,27.3,0.0,0.0,0.0,0.0,0,1013.4,940.4,0,0,0,0,0.12,2.53,11.5,21.6,270,274,22.7,32.5,30.5,26.1,21.7,0.083,0.131,0.148,0.217,0,0.0,0.0,0.0,0.0,0.0,0.0,0.0,0.0,0.0,0.0,0.0,0.0,0.0,Olea europaea L.; Pinus pinaster Aiton; Quercus L.; Magnoliopsida; Tracheophyta; Quercus rotundifolia Lam.; Quercus suber L.; Castanea sativa Mill.; Pinus pinea L.; Eucalyptus L'Hér.; Vitis vinifera L.; 
2005,2005-08-31,Portalegre,Marvão,São Salvador da Aramenha,Alvarrões,39.3482229,-7.4069011,NC,665.0,2005-08-31T13:00,27.0,32,8.8,26.5,0.0,0.0,0.0,0.0,0,1015.3,941.8,0,0,0,0,0.66,2.43,13.9,18.0,253,254,37.1,35.6,28.4,26.2,21.8,0.083,0.131,0.148,0.217,1,3600.0,882.3,772.8,109.4,907.4,882.3,1143.7,887.0,777.0,110.0,907.4,887.0,1149.8,Olea europaea L.; Pinus pinaster Aiton; Quercus L.; Magnoliopsida; Tracheophyta; Quercus rotundifolia Lam.; Quercus suber L.; Castanea sativa Mill.; Pinus pinea L.; Eucalyptus L'Hér.; Vitis vinifera L.; 
2005,2005-03-09,Portalegre,Elvas,Caia e São Pedro,MONTE DAS CALDEIRAS,38.9265472,-7.103979221649986,NC,206.0,2005-03-09T21:00,10.9,32,-5.1,6.8,0.0,0.0,0.0,0.0,1,1023.5,998.5,28,0,0,93,0.06,0.88,8.9,21.4,32,48,14.0,10.8,10.7,9.6,11.7,0.162,0.177,0.207,0.23,0,0.0,0.0,0.0,0.0,0.0,0.0,0.0,0.0,0.0,0.0,0.0,0.0,0.0,Tracheophyta
2005,2005-03-09,Portalegre,Arronches,Esperança,RECANTO,39.1786618,-7.2193249,NC,414.0,2005-03-09T12:00,13.0,22,-8.0,9.2,0.0,0.0,0.0,0.0,1,1026.3,977.0,28,0,0,93,0.38,1.16,10.8,14.4,94,94,32.0,12.0,7.0,8.2,10.5,0.173,0.21,0.25,0.276,1,3600.0,730.4,540.5,189.9,757.3,730.4,990.8,704.0,521.0,183.0,757.3,704.0,955.0,Tracheophyta; Quercus rotundifolia Lam.; Magnoliopsida; Quercus suber L.; Olea europaea L.; Pinus pinaster Aiton; Eucalyptus L'Hér.; Pinus pinea L.; Acacia Mill.; 
2005,2005-03-09,Portalegre,Campo Maior,Nossa Senhora da Expectação,AMOREIRINHA,38.9348852,-7.0244340408515225,NC,200.0,2005-03-09T14:00,16.7,19,-7.3,13.3,0.0,0.0,0.0,0.0,1,1024.3,1000.5,29,0,0,97,0.43,1.55,9.6,12.5,70,72,27.4,16.8,9.3,9.7,12.0,0.168,0.188,0.214,0.23,1,3600.0,696.5,507.0,189.5,745.2,696.5,944.3,724.0,527.0,197.0,745.2,724.0,981.6,Magnoliopsida
2005,2005-01-09,Portalegre,Nisa,Alpalhão,ALPALHÃO/Pedreiras,39.4175854,-7.6195614,NC,319.0,2005-01-09T16:00,12.2,52,2.6,9.8,0.0,0.0,0.0,0.0,0,1028.9,990.5,0,0,0,0,0.13,0.69,5.2,7.3,115,123,14.8,10.7,6.9,9.2,14.2,0.255,0.276,0.293,0.29,1,3600.0,201.8,157.5,44.3,726.0,201.8,306.8,264.0,206.0,58.0,726.0,264.0,401.3,Tracheophyta; Magnoliopsida; Olea europaea L.; Eucalyptus L'Hér.; Quercus suber L.; Quercus rotundifolia Lam.; Pinus pinea L.; Vitis vinifera L.; 
2005,2005-01-22,Portalegre,Ponte De Sor,Montargil,Montinho,39.077335,-8.1872968,NC,229.0,2005-01-22T08:00,0.4,97,0.0,-2.3,0.0,0.0,0.0,0.0,0,1022.1,993.4,0,0,0,0,0.01,0.02,4.1,3.2,135,180,6.5,1.7,7.1,9.8,12.9,0.115,0.145,0.17,0.171,1,0.0,4.2,0.0,4.2,0.0,0.6,39.2,1.0,0.0,1.0,0.0,1.0,9.4,Olea europaea L.; Quercus suber L.; Magnoliopsida; Tracheophyta; Pinus pinea L.
2005,2005-04-27,Portalegre,Fronteira,São Saturnino,COURELA DAS PEDRAS V.MACEIRAS,39.0348637,-7.551134,NC,233.0,2005-04-27T18:00,23.7,31,5.3,20.8,0.0,0.0,0.0,0.0,0,1014.9,988.1,0,0,0,0,0.26,2.03,11.8,18.4,301,301,25.2,23.1,18.0,13.7,12.1,0.2,0.233,0.252,0.298,1,3600.0,211.4,163.4,48.0,670.7,211.4,329.0,295.0,228.0,67.0,670.7,295.0,459.1,Tracheophyta; Olea europaea L.; Quercus rotundifolia Lam.
2005,2005-05-30,Portalegre,Portalegre,Carreiras,Tapada Grande,39.3720006,-7.4322306,NC,602.0,2005-05-30T11:00,24.6,46,12.1,24.5,0.0,0.0,0.0,0.0,2,1018.7,951.1,71,0,77,84,0.52,1.68,12.0,15.8,46,47,28.8,29.1,22.1,18.4,13.1,0.088,0.164,0.194,0.239,1,3600.0,767.9,563.3,204.6,624.2,767.9,1201.2,732.0,537.0,195.0,624.2,732.0,1145.2,Quercus suber L.; Olea europaea L.; Tracheophyta; Magnoliopsida; Quercus rotundifolia Lam.
2005,2005-07-06,Portalegre,Marvão,São Salvador da Aramenha,Apartadura,39.3757057,-7.3895614,NC,525.0,2005-07-06T11:00,30.2,27,9.2,30.9,0.0,0.0,0.0,0.0,0,1014.4,956.5,0,0,0,0,0.65,3.12,7.0,8.9,12,14,22.3,34.9,26.9,23.5,17.2,0.105,0.153,0.185,0.256,1,3600.0,902.7,782.8,119.9,871.4,902.7,1188.5,858.0,744.0,114.0,871.4,858.0,1129.6,Olea europaea L.; Pinus pinaster Aiton; Quercus L.; Magnoliopsida; Tracheophyta; Quercus rotundifolia Lam.; Quercus suber L.; Castanea sativa Mill.; Pinus pinea L.; Eucalyptus L'Hér.; Vitis vinifera L.; 
2005,2005-08-05,Portalegre,Marvão,Santo António das Areias,SANTO ANTÓNIO DAS AREIAS,39.4003085,-7.3522311,NC,547.0,2005-08-05T16:00,38.0,12,3.2,37.3,0.0,0.0,0.0,0.0,0,1015.0,956.2,10,0,0,34,0.51,5.86,1.3,1.6,34,27,12.2,43.1,29.9,24.5,20.1,0.104,0.149,0.172,0.248,1,3600.0,637.3,548.0,89.4,846.5,637.3,860.5,706.0,607.0,99.0,846.5,706.0,953.2,Tracheophyta; Quercus suber L.; Magnoliopsida; Olea europaea L.; Quercus rotundifolia Lam.; Quercus L.; 
2005,2005-08-07,Portalegre,Marvão,São Salvador da Aramenha,Serra da Defesa,39.3757057,-7.3895614,NC,525.0,2005-08-07T22:00,27.5,42,13.6,27.2,0.0,0.0,0.0,0.0,0,1010.0,951.8,15,0,8,35,0.1,2.12,10.5,19.5,276,286,23.0,30.5,32.4,25.5,20.4,0.104,0.149,0.171,0.248,0,0.0,0.0,0.0,0.0,0.0,0.0,0.0,0.0,0.0,0.0,0.0,0.0,0.0,Olea europaea L.; Pinus pinaster Aiton; Quercus L.; Magnoliopsida; Tracheophyta; Quercus rotundifolia Lam.; Quercus suber L.; Castanea sativa Mill.; Pinus pinea L.; Eucalyptus L'Hér.; Vitis vinifera L.; 
2005,2005-09-05,Portalegre,Ponte De Sor,Longomel,Tom,39.33654,-7.9765583,NC,166.0,2005-09-05T21:00,19.4,67,13.2,18.1,0.0,0.0,0.0,0.0,1,1019.0,999.5,23,0,0,78,0.06,0.74,15.7,26.1,302,305,31.3,22.3,26.7,25.3,21.8,0.047,0.059,0.065,0.14,0,0.0,0.0,0.0,0.0,0.0,0.0,0.0,0.0,0.0,0.0,0.0,0.0,0.0,Quercus suber L.; Pinus pinaster Aiton; Tracheophyta; Eucalyptus L'Hér.
2005,2005-09-21,Portalegre,Sousel,Santo Amaro,Santo Amaro,38.9981376,-7.6156395,NC,239.0,2005-09-21T18:00,28.7,17,1.2,25.6,0.0,0.0,0.0,0.0,0,1014.0,987.0,0,0,0,0,0.17,3.28,8.0,16.4,297,299,23.4,28.6,24.0,23.3,23.1,0.135,0.147,0.188,0.273,1,3600.0,64.6,44.5,20.2,510.1,64.6,114.6,141.0,97.0,44.0,526.8,141.0,250.0,Olea europaea L.
2005,2005-03-01,Portalegre,Ponte De Sor,Ponte de Sor,DOMINGÄO,39.2554825,-8.016119189860428,NC,113.0,2005-03-01T17:00,10.6,36,-3.9,6.4,0.0,0.0,0.0,0.0,1,1005.0,991.4,32,3,49,0,0.16,0.82,10.9,15.2,82,83,28.8,11.7,8.0,9.3,11.4,0.121,0.114,0.158,0.173,1,3600.0,182.1,112.4,69.7,437.5,182.1,358.1,243.0,150.0,93.0,437.5,243.0,477.8,Tracheophyta; Olea europaea L.; Quercus suber L.; Magnoliopsida
2005,2005-07-05,Beja,Odemira,São Luís,Quintas,37.6759526,-8.6812512,Desconhecida,147.0,2005-07-05T00:00,16.6,67,10.5,12.7,0.0,0.0,0.0,0.0,0,1017.4,999.9,1,1,0,0,0.08,0.62,27.8,39.8,350,351,46.1,19.8,25.6,23.4,18.7,0.07,0.123,0.152,0.196,0,0.0,0.0,0.0,0.0,0.0,0.0,0.0,0.0,0.0,0.0,0.0,0.0,0.0,Magnoliopsida; Quercus suber L.; Tracheophyta
2005,2005-07-21,Beja,Mértola,Mértola,PERNILHAS,37.70710295,-7.660300813626556,Desconhecida,109.0,2005-07-21T13:00,37.0,10,0.9,35.7,0.0,0.0,0.0,0.0,0,1017.6,1005.5,0,0,0,0,0.88,5.63,12.5,15.9,303,303,31.7,40.6,30.8,26.7,20.7,0.111,0.135,0.143,0.189,1,3600.0,1002.7,885.9,116.9,931.6,1002.7,1259.7,1004.0,887.0,117.0,931.6,1004.0,1261.3,Quercus rotundifolia Lam.; Tracheophyta; Magnoliopsida; Pinus pinea L.
2005,2005-07-25,Beja,Mértola,Mértola,MÉRTOLA - Serrinho das Neves,37.70710295,-7.660300813626556,NC,109.0,2005-07-25T08:00,20.6,78,16.7,21.2,0.0,0.0,0.0,0.0,1,1014.9,1002.1,34,38,0,0,0.16,0.53,12.0,15.8,311,311,28.1,23.9,26.9,26.7,21.0,0.111,0.135,0.143,0.189,1,3600.0,312.6,182.5,130.0,389.7,312.6,620.9,250.0,146.0,104.0,389.7,250.0,496.6,Quercus rotundifolia Lam.; Tracheophyta; Magnoliopsida; Pinus pinea L.
2005,2005-08-24,Beja,Serpa,Vila Verde de Ficalho,Monte da  Parreirinha,37.8639773,-7.3608268,NC,209.0,2005-08-24T14:00,35.7,18,7.4,35.8,0.0,0.0,0.0,0.0,0,1013.0,989.9,0,0,0,0,0.74,4.8,8.2,10.2,218,219,22.3,38.4,29.0,27.0,23.1,0.127,0.14,0.164,0.252,1,3600.0,862.3,756.1,106.2,905.5,862.3,1117.6,893.0,783.0,110.0,905.5,893.0,1157.4,Quercus rotundifolia Lam.; Magnoliopsida; Tracheophyta; Olea europaea L.; Quercus suber L.; Eucalyptus L'Hér.; Pinus pinea L.; 
2005,2005-09-21,Beja,Mértola,São João dos Caldeireiros,Horta da Ribeira,37.6135101,-7.7906655,NC,149.0,2005-09-21T00:00,18.5,54,9.0,17.0,0.0,0.0,0.0,0.0,0,1017.5,999.9,0,0,0,0,0.04,0.98,8.4,18.9,290,310,13.7,21.0,24.9,24.8,24.0,0.139,0.148,0.152,0.194,0,0.0,0.0,0.0,0.0,0.0,0.0,0.0,0.0,0.0,0.0,0.0,0.0,0.0,Magnoliopsida; Pinus pinea L.; Tracheophyta
2005,2005-01-02,Beja,Mértola,Mértola,MÉRTOLA,37.70710295,-7.660300813626556,NC,109.0,2005-01-02T15:00,14.7,60,7.0,12.7,0.0,0.0,0.0,0.0,0,1032.8,1019.5,0,0,0,0,0.2,0.67,8.7,11.5,355,356,21.2,14.4,10.6,12.3,18.3,0.216,0.238,0.182,0.199,1,3600.0,341.8,281.3,60.5,803.2,341.8,495.4,390.0,321.0,69.0,803.2,390.0,565.3,Quercus rotundifolia Lam.; Tracheophyta; Magnoliopsida; Pinus pinea L.
2005,2005-01-20,Beja,Odemira,Colos,COLOS,37.732958,-8.4651476,NC,133.0,2005-01-20T14:00,17.6,47,6.1,14.9,0.0,0.0,0.0,0.0,0,1026.7,1010.8,0,0,0,0,0.31,1.07,12.2,16.3,45,47,28.8,16.4,10.6,11.8,15.8,0.189,0.235,0.228,0.216,1,3600.0,509.1,432.7,76.4,875.6,509.1,698.0,533.0,453.0,80.0,875.6,533.0,730.8,Quercus suber L.; Tracheophyta; Quercus rotundifolia Lam.; Magnoliopsida
2005,2005-01-16,Beja,Mértola,Mértola,MÉRTOLA,37.70710295,-7.660300813626556,NC,109.0,2005-01-16T15:00,18.1,38,3.7,15.6,0.0,0.0,0.0,0.0,1,1022.4,1009.4,30,0,0,99,0.25,1.28,7.4,9.7,43,45,18.7,16.5,11.3,11.6,17.0,0.186,0.214,0.181,0.199,1,3600.0,364.9,249.2,115.7,640.6,364.9,549.9,410.0,280.0,130.0,640.6,410.0,617.8,Quercus rotundifolia Lam.; Tracheophyta; Magnoliopsida; Pinus pinea L.
2005,2005-02-11,Beja,Ourique,Santana da Serra,SANTANA DA SERRA,37.50022,-8.301801384808916,NC,175.0,2005-02-11T16:00,17.1,30,-0.7,13.1,0.0,0.0,0.0,0.0,0,1034.4,1013.4,0,0,0,0,0.29,1.37,12.3,16.2,52,53,29.5,16.5,11.0,10.4,14.3,0.217,0.197,0.205,0.205,1,3600.0,370.6,308.3,62.3,837.9,370.6,516.7,440.0,366.0,74.0,837.9,440.0,613.4,Tracheophyta; Magnoliopsida; Quercus suber L.; Olea europaea L.; Pinus pinea L.
2005,2005-03-15,Beja,Ourique,Santa Luzia,SANTA LUZIA,37.73312915,-8.404162678472684,NC,186.0,2005-03-15T11:00,16.4,68,10.5,16.1,0.0,0.0,0.0,0.0,0,1020.6,998.5,20,22,0,0,0.32,0.6,4.7,6.2,99,100,19.4,16.8,12.4,11.3,12.3,0.207,0.213,0.219,0.232,1,3600.0,637.6,461.1,176.4,667.2,637.6,956.3,589.0,426.0,163.0,667.2,589.0,883.4,Quercus suber L.; Tracheophyta; Olea europaea L.; Magnoliopsida
2005,2005-03-18,Beja,Odemira,São Luís,SÃO LUÍS,37.70882595,-8.665052175887514,NC,173.0,2005-03-18T00:00,13.5,68,7.7,10.4,0.0,0.0,0.0,0.0,0,1022.0,1001.2,0,0,0,0,0.05,0.49,16.9,30.5,119,123,23.0,12.6,15.5,12.3,12.3,0.114,0.173,0.204,0.207,0,0.0,0.0,0.0,0.0,0.0,0.0,0.0,0.0,0.0,0.0,0.0,0.0,0.0,Tracheophyta; Quercus suber L.; Magnoliopsida; Eucalyptus L'Hér.
2005,2005-04-27,Beja,Odemira,São Teotónio,FONTE DA TELHA,37.5029065,-8.684824094236095,Desconhecida,182.0,2005-04-27T14:00,23.0,33,5.8,21.3,0.0,0.0,0.0,0.0,0,1015.9,994.8,0,0,0,0,0.63,1.89,17.9,21.4,322,327,40.0,32.1,18.7,15.9,13.6,0.064,0.133,0.17,0.186,1,3600.0,907.1,797.8,109.3,926.6,907.1,1162.8,938.0,825.0,113.0,926.6,938.0,1202.4,Tracheophyta; Eucalyptus L'Hér.; Magnoliopsida; Quercus suber L.
2005,2005-05-19,Beja,Mértola,Mértola,Ribeira do Vascão,37.52692805,-7.515480515836756,NC,6.0,2005-05-19T12:00,28.5,21,3.8,27.5,0.0,0.0,0.0,0.0,0,1019.1,1018.4,0,0,0,0,0.74,3.09,12.8,16.2,106,102,20.9,29.4,22.0,19.5,16.5,0.211,0.182,0.206,0.266,1,3600.0,996.7,876.2,120.5,924.5,996.7,1266.8,976.0,858.0,118.0,924.5,976.0,1240.5,Quercus rotundifolia Lam.
2005,2005-06-08,Beja,Odemira,São Teotónio,DERROCA,37.5348873,-8.6875279,NC,160.0,2005-06-08T07:00,21.6,55,12.3,19.2,0.0,0.0,0.0,0.0,0,1016.1,997.5,0,0,0,0,0.18,1.16,21.7,31.7,114,116,34.9,22.4,25.3,21.2,16.2,0.062,0.11,0.147,0.182,1,3600.0,222.1,143.8,78.3,448.3,222.1,425.9,156.0,101.0,55.0,448.3,156.0,299.1,Magnoliopsida; Eucalyptus L'Hér.; Pinus pinea L.; Quercus suber L.; Tracheophyta
2005,2005-07-11,Beja,Ourique,Santa Luzia,Abutreita-Casa Velha,37.7323486,-8.4051592,Desconhecida,180.0,2005-07-11T16:00,32.7,32,14.0,33.7,0.0,0.0,0.0,0.0,0,1017.4,997.2,13,0,21,0,0.59,3.34,9.0,12.1,196,190,33.1,37.4,28.5,24.1,19.0,0.116,0.15,0.172,0.221,1,3600.0,657.1,537.7,119.4,769.4,657.1,924.9,721.0,590.0,131.0,769.4,721.0,1014.8,Quercus suber L.; Tracheophyta; Olea europaea L.; Magnoliopsida
2005,2005-07-01,Beja,Ourique,Ourique,CERRO DA QUEBRADA/Marchigão,37.6481733,-8.250687892271344,Desconhecida,169.0,2005-07-01T15:00,31.6,23,7.9,31.6,0.0,0.0,0.0,0.0,0,1015.8,996.8,0,0,0,0,0.7,3.58,9.6,12.1,347,350,27.7,35.4,24.9,23.2,18.3,0.122,0.15,0.167,0.211,1,3600.0,841.7,730.2,111.5,879.2,841.7,1099.0,891.0,773.0,118.0,879.2,891.0,1163.4,Tracheophyta; Quercus suber L.; Magnoliopsida; Quercus rotundifolia Lam.
2005,2005-02-14,Beja,Odemira,São Martinho das Amoreiras,Ratinhos de Baixo,37.651431,-8.4035724,NC,212.0,2005-02-14T16:00,15.9,23,-5.2,10.4,0.0,0.0,0.0,0.0,0,1019.3,994.1,0,0,0,0,0.32,1.39,18.0,24.9,37,39,35.3,16.4,11.1,10.4,13.4,0.179,0.21,0.228,0.233,1,3600.0,392.0,328.5,63.5,863.4,392.0,533.7,463.0,388.0,75.0,863.4,463.0,630.3,Quercus suber L.; Tracheophyta; Eucalyptus L'Hér.; Quercus rotundifolia Lam.; Magnoliopsida
2005,2005-02-18,Beja,Ferreira do Alentejo,Alfundão,Monte dos Patos,38.1193469,-8.062587,NC,114.0,2005-02-18T16:00,14.2,21,-7.7,10.1,0.0,0.0,0.0,0.0,0,1017.9,1004.2,0,0,0,0,0.26,1.28,7.7,9.7,41,42,20.5,16.1,9.9,11.0,14.1,0.144,0.189,0.21,0.228,1,3600.0,398.8,334.3,64.5,861.0,398.8,543.7,470.0,394.0,76.0,861.0,470.0,640.9,Olea europaea L.; Tracheophyta
2005,2005-01-30,Beja,Odemira,São Teotónio,Carvalhal do Sarilho,37.5029065,-8.684824094236095,NC,182.0,2005-01-30T05:00,2.3,93,1.2,-1.2,0.0,0.0,0.0,0.0,0,1020.9,998.2,0,0,0,0,0.0,0.05,10.7,15.5,48,25,12.6,1.2,6.3,10.2,14.4,0.103,0.178,0.205,0.19,0,0.0,0.0,0.0,0.0,0.0,0.0,0.0,0.0,0.0,0.0,0.0,0.0,0.0,Tracheophyta; Eucalyptus L'Hér.; Magnoliopsida; Quercus suber L.
2005,2005-03-08,Beja,Aljustrel,Aljustrel,ALJUSTREL,37.8770563,-8.164752,NC,181.0,2005-03-08T13:00,15.6,36,0.5,12.9,0.0,0.0,0.0,0.0,0,1023.8,1002.2,6,0,8,3,0.43,1.14,13.6,17.8,107,108,34.9,15.1,9.4,10.1,12.9,0.206,0.193,0.193,0.207,1,3600.0,792.7,693.5,99.2,944.2,792.7,1020.0,791.0,692.0,99.0,944.2,791.0,1017.8,Tracheophyta
2005,2005-02-03,Beja,Aljustrel,São João de Negrilhos,SÃO JOÃO DE NEGRILHOS,37.9460096,-8.182852,NC,89.0,2005-02-03T20:00,9.8,64,3.4,6.9,0.0,0.0,0.0,0.0,0,1024.9,1014.0,0,0,0,0,0.02,0.44,9.2,13.8,291,311,14.0,10.1,9.9,10.1,15.2,0.176,0.205,0.202,0.208,0,0.0,0.0,0.0,0.0,0.0,0.0,0.0,0.0,0.0,0.0,0.0,0.0,0.0,Olea europaea L.; Tracheophyta; Magnoliopsida; Quercus suber L.; Quercus rotundifolia Lam.; Vitis vinifera L.; Pinus pinea L.; Pinales; 
2005,2005-01-07,Beja,Mértola,Espírito Santo,Ribeira do Vascão,37.5437989,-7.6478732,NC,174.0,2005-01-07T16:00,14.7,46,3.1,12.3,0.0,0.0,0.0,0.0,0,1032.1,1011.0,0,0,0,0,0.15,0.91,5.7,8.0,145,144,17.3,13.5,9.6,11.7,16.9,0.263,0.275,0.254,0.285,1,3600.0,219.5,170.8,48.7,732.3,219.5,329.9,284.0,221.0,63.0,732.3,284.0,426.9,Tracheophyta; Magnoliopsida
2005,2005-07-24,Beja,Mértola,Mértola,MÉRTOLA -Cerro das Neves,37.70710295,-7.660300813626556,Desconhecida,109.0,2005-07-24T15:00,31.5,30,11.7,31.6,0.0,0.0,0.0,0.0,1,1011.5,999.2,27,0,0,89,0.69,3.26,13.6,17.7,302,303,34.2,36.4,28.5,26.7,21.0,0.111,0.135,0.143,0.189,1,3600.0,792.5,632.3,160.2,779.3,792.5,1075.5,841.0,671.0,170.0,779.3,841.0,1141.3,Quercus rotundifolia Lam.; Tracheophyta; Magnoliopsida; Pinus pinea L.
2005,2005-01-01,Beja,Odemira,Vila Nova de Milfontes,Foros do Galeado,37.7388357,-8.750062888101874,NC,50.0,2005-01-01T00:00,7.8,94,6.9,5.6,0.0,0.0,0.0,0.0,0,1031.8,1025.6,0,0,0,0,0.0,0.06,9.8,15.3,36,27,13.3,8.3,11.1,12.3,16.5,0.19,0.209,0.224,0.206,0,0.0,0.0,0.0,0.0,0.0,0.0,0.0,0.0,0.0,0.0,0.0,0.0,0.0,Magnoliopsida; Tracheophyta; Pinus pinea L.; Quercus suber L.; Pinus pinaster Aiton
2005,2005-08-07,Beja,Odemira,São Teotónio,Urgueirinhas,37.5029065,-8.684824094236095,Desconhecida,182.0,2005-08-07T20:00,21.1,71,15.7,21.1,0.0,0.0,0.0,0.0,0,1011.8,990.7,11,0,6,26,0.07,0.73,13.5,16.9,318,320,28.8,28.0,29.6,24.5,20.5,0.063,0.098,0.122,0.173,0,0.0,0.0,0.0,0.0,0.0,0.0,0.0,12.0,4.0,8.0,45.2,12.0,59.3,Tracheophyta; Eucalyptus L'Hér.; Magnoliopsida; Quercus suber L.
2005,2005-02-16,Beja,Odemira,Saboia,SABÓIA,37.4949545,-8.498302,NC,72.0,2005-02-16T17:00,14.1,17,-10.3,7.8,0.0,0.0,0.0,0.0,0,1015.7,1007.0,0,0,0,0,0.26,1.33,20.9,29.3,42,44,38.9,15.5,11.5,11.6,14.6,0.155,0.177,0.2,0.192,1,3600.0,218.4,173.6,44.8,773.0,218.4,314.7,302.0,240.0,62.0,773.0,302.0,435.1,Tracheophyta; Quercus suber L.; Eucalyptus L'Hér.; Magnoliopsida
2005,2005-09-19,Beja,Odemira,Zambujeira do Mar,Sardanito,37.54085845,-8.767856620550152,NC,61.0,2005-09-19T17:00,24.0,34,7.0,20.3,0.0,0.0,0.0,0.0,0,1019.7,1012.6,0,0,0,0,0.35,1.98,19.9,25.5,305,306,32.0,32.3,23.7,23.4,22.3,0.048,0.059,0.078,0.149,1,3600.0,291.1,234.0,57.1,749.3,291.1,423.5,377.0,303.0,74.0,749.3,377.0,548.4,Pinus pinaster Aiton; Tracheophyta; Eucalyptus L'Hér.
2005,2005-03-08,Beja,Ourique,Panóias,PANÓIAS,37.74653355,-8.292624498327847,NC,132.0,2005-03-08T18:00,15.1,40,1.6,12.4,0.0,0.0,0.0,0.0,0,1023.4,1007.5,14,0,0,48,0.09,1.03,5.4,11.6,110,112,25.2,14.6,11.2,10.2,12.7,0.225,0.226,0.218,0.236,1,3600.0,80.6,54.9,25.7,546.0,80.6,139.7,160.0,109.0,51.0,546.0,160.0,277.2,Tracheophyta; Quercus rotundifolia Lam.
2005,2005-07-06,Beja,Odemira,São Teotónio,MTE SOBREIRO,37.5029065,-8.684824094236095,Desconhecida,182.0,2005-07-06T14:00,29.3,39,13.9,29.6,0.0,0.0,0.0,0.0,0,1014.2,993.6,0,0,0,0,0.73,2.49,20.8,26.1,326,332,44.6,39.2,25.6,22.8,18.5,0.062,0.102,0.133,0.178,1,3600.0,928.8,811.0,117.8,880.0,928.8,1219.3,954.0,833.0,121.0,880.0,954.0,1252.5,Tracheophyta; Eucalyptus L'Hér.; Magnoliopsida; Quercus suber L.
2005,2005-02-14,Beja,Odemira,São Luís,SÃO LUÍS,37.70882595,-8.665052175887514,NC,173.0,2005-02-14T15:00,16.3,26,-3.4,11.2,0.0,0.0,0.0,0.0,0,1020.1,999.5,0,0,0,0,0.38,1.38,18.9,24.2,40,43,33.8,18.5,11.3,10.8,13.4,0.108,0.177,0.215,0.208,1,3600.0,545.9,469.0,76.9,915.3,545.9,718.8,596.0,512.0,84.0,915.3,596.0,784.7,Tracheophyta; Quercus suber L.; Magnoliopsida; Eucalyptus L'Hér.
2005,2005-02-14,Beja,Serpa,Serpa (salvador),Salvador,37.9436517,-7.5966902,NC,217.0,2005-02-14T15:00,16.3,19,-7.6,11.4,0.0,0.0,0.0,0.0,0,1019.9,994.2,0,0,0,0,0.37,1.51,14.4,20.0,37,39,33.5,16.0,11.0,10.6,14.2,0.274,0.272,0.274,0.297,1,3600.0,538.0,463.3,74.8,922.6,538.0,704.4,590.0,508.0,82.0,922.6,590.0,772.4,Magnoliopsida; Olea europaea L.; Tracheophyta; Quercus suber L.
2005,2005-02-22,Beja,Mértola,São Sebastião dos Carros,VIA GLÓRIA,37.5774187,-7.869858672234397,NC,208.0,2005-02-22T15:00,11.9,59,4.2,7.6,0.0,0.0,0.0,0.0,3,1011.0,986.2,98,82,41,0,0.18,0.57,19.4,27.7,288,288,45.0,13.1,9.2,10.5,13.6,0.152,0.173,0.183,0.194,1,3600.0,289.9,111.9,178.0,206.0,289.9,759.4,316.0,122.0,194.0,206.0,316.0,827.9,Magnoliopsida; Pinus pinea L.; Tracheophyta
2005,2005-03-06,Beja,Almodôvar,São Barnabé,Corgo das Fonte das Pereiras,37.3576114,-8.1646094,NC,250.0,2005-03-06T16:00,13.3,45,1.5,8.3,0.0,0.0,0.0,0.0,0,1018.3,988.5,2,2,1,0,0.24,0.84,21.1,28.4,337,338,41.4,14.7,10.2,10.4,13.7,0.21,0.197,0.189,0.193,1,3600.0,314.2,126.4,187.8,273.6,314.2,642.1,363.0,146.0,217.0,273.6,363.0,741.9,Magnoliopsida; Tracheophyta; Eucalyptus L'Hér.; Quercus rotundifolia Lam.; Quercus suber L.; Pinus pinea L.; Vitis vinifera L.; Olea europaea L.; 
2005,2005-02-21,Beja,Odemira,Zambujeira do Mar,Entrada da Barca,37.54085845,-8.767856620550152,NC,61.0,2005-02-21T18:00,10.7,54,1.8,4.1,0.0,0.0,0.0,0.0,1,1011.9,1004.5,22,20,7,0,0.13,0.59,32.2,43.8,331,330,58.7,13.1,11.7,11.5,13.2,0.049,0.123,0.17,0.174,1,3276.93,41.4,27.0,14.4,310.0,39.2,76.6,115.0,75.0,40.0,466.3,115.0,212.8,Pinus pinaster Aiton; Tracheophyta; Eucalyptus L'Hér.
2005,2005-02-19,Beja,Beja,Quintos,Monte de Santo Isidro,37.87747195,-7.67822175,NC,143.0,2005-02-19T16:00,15.6,22,-6.2,11.5,0.0,0.0,0.0,0.0,0,1020.3,1003.2,0,0,0,0,0.27,1.38,7.6,10.2,8,8,21.6,16.2,10.3,11.1,14.5,0.248,0.26,0.267,0.277,1,3600.0,403.0,338.5,64.5,863.0,403.0,549.1,475.0,399.0,76.0,863.0,475.0,647.2,Quercus rotundifolia Lam.; Tracheophyta
2005,2005-03-15,Beja,Odemira,São Teotónio,SÃO TEOTÓNIO,37.5090941,-8.7042785,NC,148.0,2005-03-15T18:00,16.0,75,11.5,14.8,0.0,0.0,0.0,0.0,0,1021.3,1003.6,0,0,0,0,0.1,0.46,11.6,14.3,254,252,23.4,18.7,15.2,11.9,12.5,0.131,0.167,0.189,0.189,1,3600.0,94.7,63.5,31.2,486.5,94.7,180.7,167.0,112.0,55.0,486.5,167.0,318.5,Tracheophyta; Pinus pinaster Aiton; Quercus suber L.; Eucalyptus L'Hér.; Quercus rotundifolia Lam.
2005,2005-07-02,Beja,Moura,Póvoa de São Miguel,Monte da Defesa,38.2054563,-7.323703,NC,179.0,2005-07-02T14:00,36.0,17,6.8,36.6,0.0,0.0,0.0,0.0,0,1014.8,995.0,0,0,0,0,0.79,4.94,7.4,9.5,219,217,24.1,38.2,27.6,24.1,18.9,0.135,0.162,0.194,0.277,1,3600.0,942.0,825.5,116.5,903.4,942.0,1208.9,970.0,850.0,120.0,903.4,970.0,1244.9,Tracheophyta; Quercus rotundifolia Lam.; Olea europaea L.; Magnoliopsida; Pinus pinea L.; Eucalyptus L'Hér.; Vitis vinifera L.; Quercus suber L.; 
2005,2005-04-15,Beja,Barrancos,Barrancos,BARRANCOS,38.1544546,-7.052727940498544,NC,210.0,2005-04-15T18:00,14.8,36,-0.2,9.3,0.0,0.0,0.0,0.0,1,1016.0,991.1,30,5,42,0,0.22,1.08,22.7,33.7,318,318,51.1,17.3,15.7,15.0,13.1,0.161,0.19,0.19,0.255,1,3600.0,162.4,110.0,52.3,545.1,162.4,274.4,242.0,164.0,78.0,545.1,242.0,409.0,Quercus rotundifolia Lam.
2005,2005-04-05,Beja,Mértola,Corte do Pinto,Mina de São Domingos,37.6713472,-7.4982628,NC,146.0,2005-04-05T23:00,14.5,75,10.0,13.8,0.0,0.0,0.0,0.0,1,1023.4,1005.8,30,0,0,100,0.0,0.42,5.2,11.3,196,211,11.5,15.4,17.4,15.1,13.2,0.211,0.196,0.188,0.226,0,0.0,0.0,0.0,0.0,0.0,0.0,0.0,0.0,0.0,0.0,0.0,0.0,0.0,Eucalyptus L'Hér.; Olea europaea L.; Quercus rotundifolia Lam.; Tracheophyta
2005,2005-08-22,Beja,Odemira,Relíquias,Montinho,37.7019746,-8.4852729,NC,250.0,2005-08-22T17:00,31.8,14,1.3,28.0,0.0,0.0,0.0,0.0,0,1016.0,988.0,0,0,0,0,0.47,4.04,12.8,16.7,350,353,32.8,37.1,29.2,25.6,21.5,0.104,0.145,0.16,0.201,1,3600.0,418.2,346.6,71.6,785.7,418.2,589.9,502.0,416.0,86.0,785.7,502.0,708.1,Tracheophyta; Quercus rotundifolia Lam.; Magnoliopsida; Quercus suber L.; Pinus pinaster Aiton; Olea europaea L.; Eucalyptus L'Hér.
2005,2005-08-23,Beja,Odemira,Odemira (são Salvador),Herdade da Cuba,37.63774595,-8.596658769890816,NC,135.0,2005-08-23T12:00,32.4,17,4.1,32.2,0.0,0.0,0.0,0.0,0,1016.2,1001.0,0,0,0,0,0.68,4.03,6.0,7.6,25,31,23.0,39.4,28.3,26.7,22.5,0.086,0.141,0.157,0.193,1,3600.0,922.1,809.9,112.2,914.0,922.1,1185.5,896.0,787.0,109.0,914.0,896.0,1152.0,Quercus suber L.; Eucalyptus L'Hér.; Magnoliopsida
2005,2005-10-06,Beja,Aljustrel,Ervidel,E. N. 2 /JUNTO CAMPO FUTEBOL,37.9638957,-8.0871834,NC,176.0,2005-10-06T14:00,30.0,11,-4.0,28.4,0.0,0.0,0.0,0.0,0,1013.9,994.0,0,0,0,0,0.48,3.79,1.1,1.1,162,162,13.7,33.1,23.6,24.4,23.6,0.215,0.27,0.278,0.3,1,3600.0,697.9,605.8,92.1,924.6,697.9,897.0,735.0,638.0,97.0,924.6,735.0,944.8,Quercus suber L.; Pinus pinea L.; Tracheophyta; Quercus rotundifolia Lam.; Vitis vinifera L.; Olea europaea L.; Magnoliopsida; Acacia Mill.; 
2005,2005-02-14,Beja,Odemira,São Teotónio,Serro da Bica,37.5029065,-8.684824094236095,NC,182.0,2005-02-14T15:00,16.6,25,-3.4,11.5,0.0,0.0,0.0,0.0,0,1019.6,998.0,0,0,0,0,0.38,1.42,19.0,23.9,33,37,31.3,19.3,11.4,10.8,13.3,0.087,0.16,0.199,0.19,1,3600.0,550.5,473.6,76.9,920.2,550.5,721.9,601.0,517.0,84.0,920.2,601.0,788.1,Tracheophyta; Eucalyptus L'Hér.; Magnoliopsida; Quercus suber L.
2005,2005-03-07,Beja,Almodôvar,Santa Clara-a-Nova,Monte das Pereiras,37.4889038,-8.1447145,NC,311.0,2005-03-07T15:00,15.4,32,-1.1,12.0,0.0,0.0,0.0,0.0,0,1021.0,984.2,0,0,0,0,0.39,1.18,13.0,16.9,92,92,35.3,16.0,9.5,9.3,12.5,0.224,0.211,0.187,0.197,1,3600.0,636.7,550.9,85.8,917.5,636.7,834.2,690.0,597.0,93.0,917.5,690.0,904.0,Quercus rotundifolia Lam.; Quercus suber L.; Tracheophyta; Magnoliopsida; Pinus pinea L.; Eucalyptus L'Hér.; Pinus pinaster Aiton; Olea europaea L.; 
2005,2005-04-23,Beja,Ourique,Garvão,GARVÃO,37.7104632,-8.3483323,NC,113.0,2005-04-23T23:00,12.9,92,11.7,12.1,0.0,0.0,0.0,0.0,2,1013.9,1000.3,63,41,0,87,0.0,0.12,9.2,18.4,291,296,17.3,14.9,16.8,15.3,13.7,0.155,0.188,0.202,0.233,0,0.0,0.0,0.0,0.0,0.0,0.0,0.0,0.0,0.0,0.0,0.0,0.0,0.0,Tracheophyta; Magnoliopsida; Quercus suber L.; Olea europaea L.
2005,2005-01-26,Beja,Beja,Nossa Senhora das Neves,Vila Azeda,38.0207642,-7.81023,NC,162.0,2005-01-26T19:00,6.3,41,-6.1,2.0,0.0,0.0,0.0,0.0,0,1016.2,996.3,0,0,0,0,0.04,0.57,9.2,21.4,21,25,17.3,8.1,8.9,11.7,16.0,0.234,0.266,0.258,0.264,0,0.0,0.0,0.0,0.0,0.0,0.0,0.0,0.0,0.0,0.0,0.0,0.0,0.0,Tracheophyta; Quercus suber L.; Pinus pinea L.; Olea europaea L.
2005,2005-02-25,Beja,Cuba,Vila Alva,VILA ALVA,38.25004265,-7.900910020797278,NC,230.0,2005-02-25T17:00,11.9,26,-6.9,6.6,0.0,0.0,0.0,0.0,0,1010.1,982.7,0,0,0,0,0.21,1.03,15.6,23.0,326,328,36.4,12.9,10.2,10.2,12.5,0.253,0.25,0.287,0.31,1,3600.0,238.2,190.8,47.3,774.7,238.2,343.9,322.0,258.0,64.0,774.7,322.0,464.9,Tracheophyta; Quercus rotundifolia Lam.; Olea europaea L.; Quercus suber L.; Vitis vinifera L.
2005,2005-06-08,Beja,Odemira,São Luís,Vale de Beja,37.6962983,-8.705634665202707,Desconhecida,76.0,2005-06-08T14:00,33.2,23,9.2,33.1,0.0,0.0,0.0,0.0,0,1015.4,1006.8,0,0,0,0,0.81,3.93,14.8,19.8,177,168,36.4,41.2,27.9,22.1,16.8,0.07,0.13,0.164,0.2,1,3600.0,929.4,815.8,113.6,891.0,929.4,1215.6,957.0,840.0,117.0,891.0,957.0,1251.6,Tracheophyta; Eucalyptus L'Hér.
2005,2005-07-01,Beja,Mértola,Santana de Cambas,Cerro Redondo/H.Esteira.Aguia,37.642043,-7.6606447,Desconhecida,70.0,2005-07-01T15:00,33.5,21,8.2,34.3,0.0,0.0,0.0,0.0,0,1015.2,1007.3,0,0,0,0,0.69,4.09,5.9,7.3,349,351,24.1,36.9,26.6,24.8,19.5,0.124,0.153,0.174,0.231,1,3600.0,835.0,724.6,110.4,877.1,835.0,1093.0,885.0,768.0,117.0,877.1,885.0,1158.6,Magnoliopsida; Tracheophyta; Pinus pinea L.; Quercus rotundifolia Lam.
2005,2005-03-09,Beja,Alvito,Alvito,ALVITO,38.2342773,-7.988937271313924,NC,147.0,2005-03-09T11:00,12.6,37,-1.8,9.1,0.0,0.0,0.0,0.0,0,1025.8,1008.0,18,0,0,60,0.3,0.92,8.4,11.4,100,103,25.2,12.1,9.9,10.5,12.5,0.23,0.249,0.275,0.305,1,3600.0,624.4,417.0,207.4,632.3,624.4,915.4,575.0,384.0,191.0,632.3,575.0,843.0,Tracheophyta; Olea europaea L.; Vitis vinifera L.
2005,2005-05-18,Beja,Mértola,Mértola,Corvos,37.6535829,-7.5970253,NC,151.0,2005-05-18T14:00,25.9,25,4.6,26.3,0.0,0.0,0.0,0.0,0,1020.3,1002.9,0,0,0,0,0.67,2.5,6.1,8.0,3,8,19.4,29.0,19.7,18.3,15.2,0.197,0.159,0.165,0.2,1,3600.0,931.0,815.0,116.0,915.6,931.0,1190.2,963.0,843.0,120.0,915.6,963.0,1231.1,Tracheophyta; Quercus rotundifolia Lam.; Pinus pinea L.
2005,2005-08-05,Beja,Mértola,Mértola,Monte de Pias,37.81166605,-7.647898664321608,NC,140.0,2005-08-05T22:00,28.3,36,11.9,27.8,0.0,0.0,0.0,0.0,0,1016.4,1000.4,0,0,0,0,0.08,2.45,7.3,16.3,213,215,18.0,30.9,32.2,26.8,22.2,0.135,0.149,0.152,0.187,0,0.0,0.0,0.0,0.0,0.0,0.0,0.0,0.0,0.0,0.0,0.0,0.0,0.0,Magnoliopsida; Quercus suber L.; Pinus pinea L.; Quercus rotundifolia Lam.
2005,2005-08-24,Beja,Mértola,Mértola,Neves,37.70710295,-7.660300813626556,NC,109.0,2005-08-24T18:00,33.8,22,9.0,31.1,0.0,0.0,0.0,0.0,0,1012.8,1000.6,0,0,0,0,0.38,4.12,16.7,24.3,295,297,33.5,37.1,31.3,27.6,23.1,0.111,0.134,0.141,0.187,1,3600.0,191.7,145.7,46.0,641.0,191.7,304.2,275.0,209.0,66.0,641.0,275.0,436.5,Quercus rotundifolia Lam.; Tracheophyta; Magnoliopsida; Pinus pinea L.
2005,2005-03-08,Beja,Odemira,Odemira (são Salvador),ODEMIRA,37.63774595,-8.596658769890816,NC,135.0,2005-03-08T13:00,15.5,43,2.9,12.9,0.0,0.0,0.0,0.0,0,1023.4,1007.2,10,4,0,23,0.41,1.01,14.5,18.7,109,109,36.4,17.2,10.1,10.4,13.1,0.168,0.2,0.217,0.207,1,3600.0,771.5,669.2,102.3,907.5,771.5,1024.1,769.0,667.0,102.0,907.5,769.0,1020.7,Quercus suber L.; Eucalyptus L'Hér.; Magnoliopsida
2005,2005-06-10,Beja,Odemira,Saboia,Nave Redonda,37.4036646,-8.4846155,NC,148.0,2005-06-10T16:00,29.9,32,11.3,28.7,0.0,0.0,0.0,0.0,1,1011.1,994.4,31,0,5,94,0.6,2.88,16.6,20.6,269,266,30.6,37.8,28.0,23.0,17.0,0.121,0.15,0.157,0.176,1,3600.0,651.6,508.0,143.6,734.7,651.6,917.6,717.0,559.0,158.0,734.7,717.0,1009.7,Quercus suber L.; Magnoliopsida; Tracheophyta; Pinus pinaster Aiton; Eucalyptus L'Hér.
2005,2005-06-22,Beja,Ferreira do Alentejo,Odivelas,Monte das Faias,38.1651005,-8.173829676999862,NC,36.0,2005-06-22T14:00,36.3,20,10.0,35.8,0.0,0.0,0.0,0.0,1,1014.5,1010.5,23,0,1,73,0.79,4.83,14.8,19.8,180,178,33.8,37.1,29.0,23.7,17.6,0.135,0.152,0.191,0.267,1,3600.0,832.9,609.3,223.5,664.1,832.9,1215.0,857.0,627.0,230.0,664.1,857.0,1250.2,Quercus suber L.; Magnoliopsida; Tracheophyta
2005,2005-03-09,Beja,Beja,Cabeça Gorda,Perímetro Florestal,37.926537,-7.7922005,NC,182.0,2005-03-09T22:00,8.3,59,0.8,5.2,0.0,0.0,0.0,0.0,1,1024.5,1002.2,29,0,0,98,0.02,0.45,7.5,20.2,197,202,10.8,9.4,11.1,10.5,13.4,0.236,0.225,0.223,0.234,0,0.0,0.0,0.0,0.0,0.0,0.0,0.0,0.0,0.0,0.0,0.0,0.0,0.0,Olea europaea L.; Tracheophyta
2005,2005-07-01,Beja,Odemira,São Luís,Barqueiros de Baixo,37.7163978,-8.6639367,NC,150.0,2005-07-01T18:00,25.1,48,13.3,22.3,0.0,0.0,0.0,0.0,0,1016.7,999.4,0,0,0,0,0.36,1.66,26.6,36.4,324,327,48.2,32.3,25.9,23.2,18.5,0.07,0.123,0.153,0.196,1,3600.0,319.6,253.5,66.2,701.4,319.6,478.2,401.0,318.0,83.0,701.4,401.0,599.9,Magnoliopsida; Tracheophyta; Eucalyptus L'Hér.
2005,2005-05-19,Beja,Odemira,São Teotónio,Monte da Tranca,37.5029065,-8.684824094236095,NC,182.0,2005-05-19T17:00,22.6,45,10.2,19.1,0.0,0.0,0.0,0.0,0,1017.7,996.6,0,0,0,0,0.41,1.5,24.8,33.2,320,323,43.2,28.9,21.1,17.5,14.9,0.087,0.121,0.159,0.184,1,3600.0,473.6,393.5,80.1,794.0,473.6,662.3,556.0,462.0,94.0,794.0,556.0,777.6,Tracheophyta; Eucalyptus L'Hér.; Magnoliopsida; Quercus suber L.
2005,2005-06-22,Beja,Odemira,Vila Nova de Milfontes,MILFONTES,37.7771111,-8.747451151666667,NC,81.0,2005-06-22T04:00,23.1,57,14.0,22.9,0.0,0.0,0.0,0.0,1,1013.9,1004.5,27,0,14,63,0.06,1.23,9.9,21.5,136,140,15.1,22.4,27.1,22.9,17.5,0.071,0.117,0.146,0.19,0,0.0,0.0,0.0,0.0,0.0,0.0,0.0,0.0,0.0,0.0,0.0,0.0,0.0,Eucalyptus L'Hér.; Tracheophyta
2005,2005-01-15,Beja,Mértola,Mértola,Tamejoso,37.70710295,-7.660300813626556,NC,109.0,2005-01-15T16:00,14.4,64,7.7,11.8,0.0,0.0,0.0,0.0,2,1020.1,1007.0,77,53,0,98,0.11,0.58,13.3,21.5,161,162,30.6,13.3,11.0,11.5,17.1,0.188,0.216,0.181,0.199,1,0.0,92.4,3.9,88.4,15.4,92.4,361.6,117.0,5.0,112.0,15.4,117.0,457.9,Quercus rotundifolia Lam.; Tracheophyta; Magnoliopsida; Pinus pinea L.
2005,2005-09-14,Beja,Ourique,Santana da Serra,Portela do Lobo,37.5382184,-8.2715496,NC,244.0,2005-09-14T13:00,30.3,27,9.1,29.4,0.0,0.0,0.0,0.0,0,1020.0,992.4,4,0,6,1,0.65,3.15,13.6,17.7,58,61,35.3,33.0,24.6,24.1,22.8,0.142,0.148,0.151,0.189,1,3600.0,789.0,670.8,118.3,818.8,789.0,1107.8,794.0,675.0,119.0,818.8,794.0,1114.8,Tracheophyta; Quercus suber L.; Quercus rotundifolia Lam.; Magnoliopsida
2005,2005-01-16,Beja,Ourique,Santana da Serra,SANTANA DA SERRA,37.50022,-8.301801384808916,NC,175.0,2005-01-16T18:00,13.7,56,5.2,11.4,0.0,0.0,0.0,0.0,1,1022.9,1001.8,29,0,0,96,0.05,0.69,7.5,18.9,35,42,14.0,13.3,12.0,11.5,16.2,0.218,0.235,0.213,0.205,0,0.0,0.0,0.0,0.0,0.0,0.0,0.0,13.0,2.0,11.0,22.4,13.0,65.2,Tracheophyta; Magnoliopsida; Quercus suber L.; Olea europaea L.; Pinus pinea L.
2005,2005-03-31,Beja,Odemira,Vila Nova de Milfontes,Alpendurada,37.7252803,-8.7822865,Desconhecida,28.0,2005-03-31T21:00,18.8,47,7.1,13.9,0.0,0.0,0.0,0.0,0,1009.0,1005.7,1,0,0,3,0.16,1.16,28.3,46.2,130,132,47.2,17.4,18.2,14.9,12.9,0.158,0.177,0.183,0.204,0,0.0,0.0,0.0,0.0,0.0,0.0,0.0,0.0,0.0,0.0,0.0,0.0,0.0,Tracheophyta; Magnoliopsida; Pinus pinaster Aiton
2005,2005-04-08,Beja,Ourique,Santana da Serra,Casa Nova do Pinho,37.5051535,-8.340935467204968,NC,250.0,2005-04-08T18:00,18.1,53,8.4,14.7,0.0,0.0,0.0,0.0,0,1011.2,982.1,8,0,13,0,0.19,0.97,20.0,28.7,308,309,43.9,19.7,17.7,15.0,12.7,0.188,0.197,0.187,0.203,1,3600.0,143.3,88.0,55.3,441.0,143.3,272.3,215.0,132.0,83.0,441.0,215.0,408.5,Magnoliopsida; Quercus suber L.; Tracheophyta
2005,2005-03-05,Beja,Ourique,Santana da Serra,SANTANA DA SERRA,37.50022,-8.301801384808916,NC,175.0,2005-03-05T18:00,12.1,39,-1.6,8.1,0.0,0.0,0.0,0.0,0,1020.7,999.6,0,0,0,0,0.11,0.87,10.9,21.7,316,320,29.9,12.5,9.8,10.0,13.2,0.249,0.221,0.198,0.204,1,3600.0,73.6,52.1,21.5,574.7,73.6,126.0,154.0,109.0,45.0,574.7,154.0,263.8,Tracheophyta; Magnoliopsida; Quercus suber L.; Olea europaea L.; Pinus pinea L.
2005,2005-03-31,Beja,Odemira,São Teotónio,SÃO TEOTÓNIO,37.5090941,-8.7042785,Desconhecida,148.0,2005-03-31T14:00,24.0,37,8.5,20.2,0.0,0.0,0.0,0.0,1,1012.4,995.3,30,0,0,100,0.59,1.87,30.6,41.4,127,127,44.6,24.5,17.0,14.5,12.8,0.164,0.168,0.184,0.188,1,3600.0,792.7,578.1,214.6,733.3,792.7,1080.9,820.0,598.0,222.0,733.3,820.0,1118.2,Tracheophyta; Pinus pinaster Aiton; Quercus suber L.; Eucalyptus L'Hér.; Quercus rotundifolia Lam.
2005,2005-06-22,Beja,Ferreira do Alentejo,Odivelas,Monte das Faias,38.1651005,-8.173829676999862,NC,36.0,2005-06-22T17:00,34.8,25,11.9,33.2,0.0,0.0,0.0,0.0,0,1013.8,1009.8,5,0,0,17,0.57,4.16,16.1,21.6,243,242,31.0,37.1,29.8,23.8,17.6,0.134,0.151,0.19,0.267,1,3600.0,497.9,410.5,87.5,767.5,497.9,708.2,575.0,474.0,101.0,767.5,575.0,817.7,Quercus suber L.; Magnoliopsida; Tracheophyta
2005,2005-04-23,Beja,Mértola,Corte do Pinto,Mina de São Domingos,37.6713472,-7.4982628,NC,146.0,2005-04-23T16:00,19.4,44,6.9,15.7,0.0,0.0,0.0,0.0,3,1011.4,994.3,100,50,66,100,0.24,1.26,19.8,28.5,299,299,39.6,21.6,17.8,15.7,13.8,0.137,0.172,0.182,0.224,1,0.0,186.7,2.7,184.0,4.4,186.7,811.2,210.0,3.0,207.0,4.4,210.0,912.7,Eucalyptus L'Hér.; Olea europaea L.; Quercus rotundifolia Lam.; Tracheophyta
2005,2005-06-08,Beja,Odemira,Saboia,Escondido,37.4949545,-8.498302,Desconhecida,72.0,2005-06-08T15:00,32.4,26,10.5,30.8,0.0,0.0,0.0,0.0,0,1015.2,1007.1,5,0,8,0,0.78,3.6,22.6,29.4,143,140,52.9,38.0,28.6,22.8,16.9,0.123,0.15,0.156,0.187,1,3600.0,824.6,716.3,108.4,870.8,824.6,1092.0,875.0,760.0,115.0,870.8,875.0,1158.7,Tracheophyta; Quercus suber L.; Eucalyptus L'Hér.; Magnoliopsida
2005,2005-05-22,Beja,Aljustrel,Ervidel,Monte Pegas,37.9638957,-8.0871834,NC,176.0,2005-05-22T19:00,19.2,39,4.8,15.2,0.0,0.0,0.0,0.0,0,1017.9,997.2,0,0,0,0,0.19,1.37,18.6,28.1,317,319,41.0,23.1,21.4,18.6,15.1,0.238,0.279,0.285,0.308,1,3600.0,85.4,57.0,28.5,488.4,85.4,155.6,156.0,104.0,52.0,488.4,156.0,284.2,Quercus suber L.; Pinus pinea L.; Tracheophyta; Quercus rotundifolia Lam.; Vitis vinifera L.; Olea europaea L.; Magnoliopsida; Acacia Mill.; 
2005,2005-01-16,Beja,Mértola,Mértola,MÉRTOLA,37.70710295,-7.660300813626556,NC,109.0,2005-01-16T15:00,18.1,38,3.7,15.6,0.0,0.0,0.0,0.0,1,1022.4,1009.4,30,0,0,99,0.25,1.28,7.4,9.7,43,45,18.7,16.5,11.3,11.6,17.0,0.186,0.214,0.181,0.199,1,3600.0,364.9,249.2,115.7,640.6,364.9,549.9,410.0,280.0,130.0,640.6,410.0,617.8,Quercus rotundifolia Lam.; Tracheophyta; Magnoliopsida; Pinus pinea L.
2005,2005-06-14,Beja,Moura,Santo Aleixo da Restauração,CONTENDA N,38.0325052,-7.0177746,NC,437.0,2005-06-14T15:00,26.5,28,6.6,25.6,0.0,0.0,0.0,0.0,0,1017.2,968.0,3,0,5,0,0.63,2.48,12.0,15.2,277,277,32.8,33.8,24.6,22.6,16.3,0.097,0.143,0.163,0.236,1,3600.0,816.3,706.3,110.0,868.2,816.3,1078.6,868.0,751.0,117.0,868.2,868.0,1146.8,Quercus rotundifolia Lam.; Tracheophyta; Magnoliopsida; Pinus pinaster Aiton; Olea europaea L.; Pinus pinea L.; Quercus suber L.; Eucalyptus L'Hér.; 
2005,2005-05-17,Beja,Odemira,Vila Nova de Milfontes,MILFONTES,37.7771111,-8.747451151666667,NC,81.0,2005-05-17T06:00,13.8,83,10.9,10.8,0.0,0.0,0.0,0.0,1,1018.7,1008.9,25,28,0,0,0.04,0.27,22.7,32.4,342,343,34.9,14.0,16.7,17.7,15.0,0.16,0.135,0.165,0.195,1,0.0,25.9,7.1,18.8,70.2,12.8,134.6,11.0,3.0,8.0,34.6,11.0,57.1,Eucalyptus L'Hér.; Tracheophyta
2005,2005-06-06,Beja,Mértola,Mértola,Corte de Gafo de Baixo,37.7203374,-7.6846464,NC,146.0,2005-06-06T01:00,23.8,42,10.1,23.2,0.0,0.0,0.0,0.0,0,1015.6,998.7,10,0,0,35,0.03,1.71,4.0,7.8,297,338,12.2,25.4,27.9,21.9,16.4,0.123,0.139,0.151,0.193,0,0.0,0.0,0.0,0.0,0.0,0.0,0.0,0.0,0.0,0.0,0.0,0.0,0.0,Quercus rotundifolia Lam.; Tracheophyta; Pinus pinea L.; Magnoliopsida
2005,2005-06-20,Beja,Castro Verde,Entradas,Monte do Seixo,37.7782319,-8.0106351,NC,183.0,2005-06-20T16:00,34.4,28,13.1,34.0,0.0,0.0,0.0,0.0,1,1012.3,992.0,39,0,20,89,0.54,3.95,11.0,13.3,281,283,31.7,38.5,30.2,24.1,17.4,0.128,0.14,0.145,0.178,1,3600.0,524.9,280.2,244.7,403.9,524.9,918.7,577.0,308.0,269.0,403.9,577.0,1009.9,Tracheophyta
2005,2005-07-02,Beja,Odemira,Relíquias,Salto do Meio,37.7019746,-8.4852729,NC,250.0,2005-07-02T18:00,27.6,39,12.4,25.8,0.0,0.0,0.0,0.0,0,1015.7,987.3,0,0,0,0,0.37,2.24,17.2,23.1,281,281,35.3,33.8,27.3,22.8,17.9,0.105,0.15,0.17,0.206,1,3600.0,311.3,245.2,66.1,681.5,311.3,476.1,391.0,308.0,83.0,681.5,391.0,598.0,Tracheophyta; Quercus rotundifolia Lam.; Magnoliopsida; Quercus suber L.; Pinus pinaster Aiton; Olea europaea L.; Eucalyptus L'Hér.
2005,2005-01-25,Beja,Odemira,Relíquias,Vale Pepino,37.7019746,-8.4852729,NC,250.0,2005-01-25T16:00,11.2,29,-6.3,6.7,0.0,0.0,0.0,0.0,0,1019.6,989.5,0,0,0,0,0.2,0.95,10.6,14.2,28,30,30.2,13.1,9.7,11.2,14.7,0.173,0.226,0.227,0.216,1,3600.0,298.3,243.5,54.8,811.0,298.3,423.7,365.0,298.0,67.0,811.0,365.0,518.5,Tracheophyta; Quercus rotundifolia Lam.; Magnoliopsida; Quercus suber L.; Pinus pinaster Aiton; Olea europaea L.; Eucalyptus L'Hér.
2005,2005-07-07,Beja,Odemira,Santa Clara-a-Velha,Bilharda,37.5126218,-8.4753579,Desconhecida,52.0,2005-07-07T18:00,23.8,52,13.4,22.1,0.0,0.0,0.0,0.0,0,1011.7,1005.7,0,0,0,0,0.31,1.41,19.0,25.0,307,310,37.4,33.0,28.3,24.7,19.8,0.086,0.147,0.167,0.198,1,3600.0,324.3,257.6,66.8,717.9,324.3,474.7,408.0,324.0,84.0,717.9,408.0,597.1,Quercus suber L.; Tracheophyta; Eucalyptus L'Hér.; Magnoliopsida
2005,2005-07-05,Beja,Odemira,São Luís,HERDADE DAS QUINTAS,37.6759526,-8.6812512,NC,147.0,2005-07-05T00:00,16.6,67,10.5,12.7,0.0,0.0,0.0,0.0,0,1017.4,999.9,1,1,0,0,0.08,0.62,27.8,39.8,350,351,46.1,19.8,25.6,23.4,18.7,0.07,0.123,0.152,0.196,0,0.0,0.0,0.0,0.0,0.0,0.0,0.0,0.0,0.0,0.0,0.0,0.0,0.0,Magnoliopsida; Quercus suber L.; Tracheophyta
2005,2005-02-14,Beja,Almodôvar,Santa Clara-a-Nova,Gabriéis de Cima,37.4802316,-8.163767,NC,267.0,2005-02-14T16:00,16.0,21,-6.6,10.4,0.0,0.0,0.0,0.0,0,1018.6,987.1,0,0,0,0,0.32,1.45,18.5,25.2,33,34,36.4,16.1,10.9,10.2,13.6,0.188,0.188,0.198,0.2,1,3600.0,394.0,331.4,62.6,873.8,394.0,532.0,466.0,392.0,74.0,873.8,466.0,629.3,Quercus rotundifolia Lam.; Quercus suber L.; Tracheophyta; Magnoliopsida; Pinus pinea L.; Eucalyptus L'Hér.; Pinus pinaster Aiton; Olea europaea L.; 
2005,2005-02-15,Beja,Ourique,Garvão,Garvão,37.7104632,-8.3483323,NC,113.0,2005-02-15T17:00,15.7,31,-1.3,11.8,0.0,0.0,0.0,0.0,0,1012.4,999.0,0,0,0,0,0.19,1.22,10.8,16.1,15,16,26.3,15.4,11.2,11.0,13.9,0.199,0.212,0.224,0.236,1,3600.0,201.3,158.3,43.0,731.1,201.3,303.6,281.0,221.0,60.0,731.1,281.0,423.8,Tracheophyta; Magnoliopsida; Quercus suber L.; Olea europaea L.
2005,2005-03-31,Beja,Ourique,Garvão,Monte Coito,37.7078197,-8.3404978,NC,124.0,2005-03-31T16:00,25.0,32,7.0,20.9,0.0,0.0,0.0,0.0,1,1011.7,997.4,30,0,0,100,0.48,2.16,23.0,33.0,130,130,42.8,23.9,17.8,14.5,12.8,0.243,0.229,0.211,0.235,1,3600.0,500.5,312.8,187.7,572.5,500.5,749.2,568.0,355.0,213.0,572.5,568.0,850.3,Tracheophyta; Quercus suber L.; Magnoliopsida; Olea europaea L.
2005,2005-04-04,Beja,Mértola,Corte do Pinto,Mina de São Domingos,37.6713472,-7.4982628,NC,146.0,2005-04-04T19:00,17.5,61,9.9,16.9,0.0,0.0,0.0,0.0,2,1023.4,1006.0,70,63,23,0,0.04,0.78,4.1,9.2,308,309,9.4,17.6,16.4,15.0,13.1,0.226,0.197,0.188,0.226,0,550.56,0.0,0.0,0.0,0.0,0.0,0.0,29.0,12.0,17.0,96.8,29.0,110.0,Eucalyptus L'Hér.; Olea europaea L.; Quercus rotundifolia Lam.; Tracheophyta
2005,2005-05-18,Beja,Mértola,Mértola,MÉRTOLA,37.70710295,-7.660300813626556,NC,109.0,2005-05-18T14:00,26.1,26,4.9,26.4,0.0,0.0,0.0,0.0,0,1020.5,1007.9,0,0,0,0,0.67,2.52,6.9,8.5,9,12,20.9,29.0,19.8,18.5,15.5,0.18,0.145,0.156,0.195,1,3600.0,931.2,815.2,116.0,915.5,931.2,1190.6,963.0,843.0,120.0,915.5,963.0,1231.3,Quercus rotundifolia Lam.; Tracheophyta; Magnoliopsida; Pinus pinea L.
2005,2005-05-20,Beja,Odemira,São Teotónio,Quinta Paraíso,37.5029065,-8.684824094236095,NC,182.0,2005-05-20T20:00,16.8,82,13.7,14.7,0.0,0.0,0.0,0.0,0,1020.6,999.0,6,0,0,20,0.05,0.35,22.7,34.7,335,336,40.3,21.0,21.4,17.7,14.9,0.075,0.12,0.158,0.184,0,96.2,0.0,0.0,0.0,0.0,0.0,0.0,18.0,7.0,11.0,74.4,18.0,67.0,Tracheophyta; Eucalyptus L'Hér.; Magnoliopsida; Quercus suber L.
2005,2005-06-11,Beja,Ferreira do Alentejo,Odivelas,Monte das Faias,38.1651005,-8.173829676999862,NC,36.0,2005-06-11T11:00,25.3,47,13.0,27.0,0.0,0.0,0.0,0.0,0,1011.2,1007.0,2,2,0,0,0.59,1.72,8.0,9.8,278,276,23.8,28.6,24.4,22.4,16.6,0.137,0.162,0.197,0.269,1,3600.0,915.8,787.5,128.3,867.3,915.8,1204.7,871.0,749.0,122.0,867.3,871.0,1145.8,Quercus suber L.; Magnoliopsida; Tracheophyta
2005,2005-07-14,Beja,Odemira,Saboia,Taliscas,37.4949545,-8.498302,NC,72.0,2005-07-14T13:00,29.9,40,14.9,32.7,0.0,0.0,0.0,0.0,0,1016.3,1008.1,0,0,0,0,0.74,2.53,9.6,11.0,283,281,25.6,38.7,28.1,25.7,20.1,0.122,0.148,0.152,0.184,1,3600.0,987.9,863.9,124.0,900.9,987.9,1269.3,988.0,864.0,124.0,900.9,988.0,1269.4,Tracheophyta; Quercus suber L.; Eucalyptus L'Hér.; Magnoliopsida
2005,2005-08-17,Beja,Odemira,São Teotónio,Urgueiras,37.5029065,-8.684824094236095,Desconhecida,182.0,2005-08-17T22:00,19.2,87,16.9,20.2,0.0,0.0,0.0,0.0,0,1014.4,993.1,14,15,0,0,0.0,0.29,10.2,13.5,328,331,18.7,22.8,27.8,25.0,21.1,0.062,0.097,0.119,0.172,0,0.0,0.0,0.0,0.0,0.0,0.0,0.0,0.0,0.0,0.0,0.0,0.0,0.0,Tracheophyta; Eucalyptus L'Hér.; Magnoliopsida; Quercus suber L.
2005,2005-09-14,Beja,Odemira,Zambujeira do Mar,Sardanito,37.54085845,-8.767856620550152,NC,61.0,2005-09-14T13:00,28.2,36,11.9,28.8,0.0,0.0,0.0,0.0,0,1020.5,1013.5,9,0,14,1,0.6,2.43,10.3,11.0,335,341,26.3,39.6,24.3,23.5,22.2,0.045,0.059,0.079,0.149,1,3600.0,803.8,689.4,114.4,841.3,803.8,1108.1,808.0,693.0,115.0,841.3,808.0,1113.9,Pinus pinaster Aiton; Tracheophyta; Eucalyptus L'Hér.
2005,2005-10-02,Beja,Beja,Salvada,Monte da Giralda,37.9355252,-7.7743781,NC,184.0,2005-10-02T11:00,27.7,30,8.8,26.4,0.0,0.0,0.0,0.0,0,1016.6,995.6,0,0,0,0,0.51,2.58,10.9,14.5,63,63,29.5,29.0,25.2,24.8,23.8,0.172,0.189,0.192,0.223,1,3600.0,711.3,610.0,101.3,871.7,711.3,955.9,667.0,572.0,95.0,871.7,667.0,896.4,Olea europaea L.
2005,2005-01-16,Beja,Odemira,Vale de Santiago,Vale Ferro,37.7513827,-8.4134756,NC,158.0,2005-01-16T23:00,9.3,76,5.3,6.6,0.0,0.0,0.0,0.0,1,1025.0,1005.6,27,0,3,85,0.01,0.28,10.7,24.9,48,51,19.4,9.5,11.2,11.0,14.8,0.182,0.198,0.198,0.209,0,0.0,0.0,0.0,0.0,0.0,0.0,0.0,0.0,0.0,0.0,0.0,0.0,0.0,Tracheophyta; Quercus suber L.; Pinus pinaster Aiton; Quercus rotundifolia Lam.; Olea europaea L.; Magnoliopsida
2005,2005-02-19,Beja,Mértola,Mértola,MÉRTOLA,37.70710295,-7.660300813626556,NC,109.0,2005-02-19T17:00,15.4,22,-6.1,11.3,0.0,0.0,0.0,0.0,0,1020.0,1006.9,0,0,0,0,0.19,1.36,8.4,11.2,353,354,21.6,15.9,10.7,11.2,14.6,0.147,0.175,0.176,0.198,1,3600.0,213.5,168.8,44.7,750.9,213.5,314.7,296.0,234.0,62.0,750.9,296.0,436.2,Quercus rotundifolia Lam.; Tracheophyta; Magnoliopsida; Pinus pinea L.
2005,2005-04-11,Beja,Ferreira do Alentejo,Figueira dos Cavaleiros,FIGUEIRA,38.1173878,-8.283465156343713,NC,66.0,2005-04-11T17:00,21.9,27,2.2,18.1,0.0,0.0,0.0,0.0,0,1020.7,1012.9,0,0,0,0,0.36,1.91,14.2,19.3,324,327,31.7,22.1,16.7,15.1,12.9,0.194,0.222,0.221,0.263,1,3600.0,395.1,327.2,67.9,814.7,395.1,547.2,483.0,400.0,83.0,814.7,483.0,668.9,Magnoliopsida; Olea europaea L.; Quercus suber L.
2005,2005-04-18,Beja,Mértola,Santana de Cambas,Formoa,37.5543729,-7.5402563,NC,43.0,2005-04-18T16:00,18.1,40,4.4,14.3,0.0,0.0,0.0,0.0,2,1012.7,1007.6,73,22,40,98,0.36,1.24,16.8,21.7,260,263,32.4,20.1,16.8,16.0,14.2,0.178,0.212,0.22,0.271,1,3600.0,486.0,307.8,178.3,522.7,486.0,799.1,548.0,347.0,201.0,522.7,548.0,901.0,Magnoliopsida; Tracheophyta; Quercus rotundifolia Lam.
2005,2005-06-07,Beja,Odemira,Colos,João Pais de Cima,37.7968822,-8.5212131,Desconhecida,101.0,2005-06-07T19:00,29.8,35,12.7,28.6,0.0,0.0,0.0,0.0,0,1015.2,1003.7,0,0,0,0,0.24,2.72,13.8,20.1,173,170,32.8,34.0,27.4,20.4,15.6,0.054,0.066,0.089,0.138,1,3600.0,104.0,65.2,38.8,428.6,104.0,202.1,169.0,106.0,63.0,428.6,169.0,328.4,Quercus suber L.; Eucalyptus L'Hér.; Pinus pinea L.
2005,2005-06-23,Beja,Castro Verde,Entradas,Monte do Seixo,37.7782319,-8.0106351,NC,183.0,2005-06-23T14:00,31.8,27,10.7,31.9,0.0,0.0,0.0,0.0,0,1016.3,995.7,11,0,0,36,0.78,3.41,15.5,19.3,257,256,35.6,37.6,29.2,24.9,17.7,0.128,0.14,0.144,0.178,1,3600.0,923.9,804.4,119.5,876.0,923.9,1215.8,951.0,828.0,123.0,876.0,951.0,1251.4,Tracheophyta
2005,2005-06-17,Beja,Odemira,São Luís,Vale Beijinha,37.7163978,-8.6639367,NC,150.0,2005-06-17T00:00,22.2,69,16.2,22.6,0.0,0.0,0.0,0.0,0,1018.5,1001.0,0,0,0,0,0.05,0.84,12.1,23.4,350,1,22.7,23.5,26.5,22.4,17.1,0.071,0.127,0.16,0.198,0,0.0,0.0,0.0,0.0,0.0,0.0,0.0,0.0,0.0,0.0,0.0,0.0,0.0,Magnoliopsida; Tracheophyta; Eucalyptus L'Hér.
2005,2005-08-03,Beja,Vidigueira,Selmes,Gago,38.14746475,-7.764496177239026,Desconhecida,141.0,2005-08-03T23:00,27.9,29,8.4,26.6,0.0,0.0,0.0,0.0,0,1016.6,1000.5,0,0,0,0,0.07,2.66,5.9,13.5,101,106,25.9,29.0,29.4,25.1,21.3,0.191,0.219,0.251,0.33,0,0.0,0.0,0.0,0.0,0.0,0.0,0.0,0.0,0.0,0.0,0.0,0.0,0.0,Tracheophyta; Pinus pinea L.; Olea europaea L.; Vitis vinifera L.
2005,2005-07-19,Beja,Alvito,Vila Nova da Baronia,SÃO BRISSOS,38.323827,-8.1514049,NC,160.0,2005-07-19T14:00,35.2,18,7.2,37.1,0.0,0.0,0.0,0.0,0,1017.2,999.4,0,0,0,0,0.71,4.66,1.1,1.5,288,284,16.2,37.2,26.0,23.8,19.3,0.121,0.154,0.204,0.282,1,3600.0,939.9,826.0,113.8,909.9,939.9,1202.3,966.0,849.0,117.0,909.9,966.0,1235.7,Tracheophyta; Quercus rotundifolia Lam.; Olea europaea L.; Quercus suber L.; Vitis vinifera L.; Magnoliopsida; Pinus pinaster Aiton; Pinus pinea L.; 
2005,2005-09-16,Beja,Odemira,Zambujeira do Mar,Sardanito,37.54085845,-8.767856620550152,NC,61.0,2005-09-16T13:00,25.1,60,16.8,27.1,0.0,0.0,0.0,0.0,2,1015.1,1008.0,68,75,0,0,0.53,1.27,12.4,13.6,306,307,23.4,34.5,24.9,23.6,22.2,0.068,0.059,0.079,0.149,1,3600.0,807.4,692.1,115.3,852.9,807.4,1098.4,812.0,696.0,116.0,852.9,812.0,1104.7,Pinus pinaster Aiton; Tracheophyta; Eucalyptus L'Hér.
2005,2005-09-20,Beja,Odemira,Zambujeira do Mar,Sardanito,37.54085845,-8.767856620550152,NC,61.0,2005-09-20T12:00,25.6,32,7.9,26.1,0.0,0.0,0.0,0.0,0,1018.9,1011.8,0,0,0,0,0.55,2.21,4.0,2.5,297,315,18.0,34.9,22.1,23.4,22.3,0.047,0.059,0.078,0.149,1,3600.0,834.7,729.9,104.9,916.5,834.7,1080.5,812.0,710.0,102.0,916.5,812.0,1051.0,Pinus pinaster Aiton; Tracheophyta; Eucalyptus L'Hér.
2005,2005-03-06,Beja,Vidigueira,Vidigueira,MENDRO,38.2462246,-7.7838607,NC,406.0,2005-03-06T14:00,13.4,35,-1.7,9.7,0.0,0.0,0.0,0.0,0,1018.6,970.7,8,3,8,0,0.37,0.99,14.7,19.8,343,344,37.4,14.9,8.4,8.8,11.4,0.164,0.198,0.241,0.27,1,3600.0,681.4,529.1,152.3,780.6,681.4,942.4,707.0,549.0,158.0,780.6,707.0,977.7,Pinus pinea L.; Magnoliopsida; Quercus rotundifolia Lam.; Quercus suber L.; Tracheophyta
2005,2005-03-25,Beja,Ferreira do Alentejo,Ferreira do Alentejo,FERREIRA DO ALENTEJO,38.0624114,-8.1198717,NC,124.0,2005-03-25T19:00,16.6,60,8.9,14.0,0.0,0.0,0.0,0.0,1,1011.2,996.5,20,13,14,0,0.08,0.75,15.6,26.4,195,197,34.6,17.5,16.1,14.1,13.1,0.227,0.177,0.199,0.227,0,754.81,0.0,0.0,0.0,0.0,0.0,0.0,28.0,14.0,14.0,123.9,28.0,95.6,Tracheophyta; Olea europaea L.; Magnoliopsida
2005,2005-04-09,Beja,Odemira,Vila Nova de Milfontes,Brunheiras,37.7252803,-8.7822865,NC,28.0,2005-04-09T14:00,18.1,28,-0.6,14.3,0.0,0.0,0.0,0.0,0,1022.9,1019.5,0,0,0,0,0.54,1.5,22.7,27.6,4,7,43.2,23.0,16.5,15.6,13.3,0.102,0.163,0.18,0.204,1,3600.0,882.7,779.3,103.5,956.2,882.7,1111.8,913.0,806.0,107.0,956.2,913.0,1149.9,Tracheophyta; Magnoliopsida; Pinus pinaster Aiton
2005,2005-05-14,Beja,Odemira,Zambujeira do Mar,Zambujeira do Mar,37.522074450000005,-8.780857348948032,NC,16.0,2005-05-14T13:00,19.1,54,9.5,19.8,0.0,0.0,0.0,0.0,0,1022.2,1020.3,4,0,0,12,0.56,1.03,11.5,12.4,302,306,28.8,26.3,18.8,18.2,15.2,0.149,0.095,0.134,0.169,1,3600.0,982.1,828.7,153.4,880.8,982.1,1260.2,986.0,832.0,154.0,880.8,986.0,1265.2,Magnoliopsida; Tracheophyta; Eucalyptus L'Hér.
2005,2005-06-10,Beja,Ferreira do Alentejo,Odivelas,Monte das Faias,38.1651005,-8.173829676999862,NC,36.0,2005-06-10T16:00,30.4,35,13.2,29.5,0.0,0.0,0.0,0.0,1,1010.1,1006.0,34,0,9,96,0.58,2.82,17.6,23.8,271,271,33.8,33.7,26.9,22.4,16.5,0.138,0.162,0.197,0.269,1,3600.0,610.6,411.6,199.0,598.8,610.6,912.0,672.0,453.0,219.0,598.8,672.0,1003.8,Quercus suber L.; Magnoliopsida; Tracheophyta
2005,2005-02-03,Guarda,Gouveia,Gouveia (são Pedro),GOUVEIA,40.4704494,-7.543894347021443,NC,1530.0,2005-02-03T18:00,3.7,53,-5.0,-0.5,0.0,0.0,0.0,0.0,0,1025.8,852.1,0,0,0,0,0.04,0.37,9.3,14.7,16,28,20.2,3.4,1.8,1.1,5.0,0.277,0.291,0.311,0.309,0,1317.41,0.0,0.0,0.0,0.0,0.0,0.0,34.0,21.0,13.0,200.0,34.0,87.6,Magnoliopsida; Pinales; Tracheophyta
2005,2005-08-10,Guarda,Trancoso,Torre do Terrenho,TORRE DO TERRANHO,40.8828643,-7.3566209,NC,825.0,2005-08-10T22:00,15.5,90,13.8,15.5,0.0,0.0,0.0,0.0,1,1014.9,921.3,28,0,46,0,0.0,0.18,8.3,18.7,268,272,17.6,19.9,23.8,22.4,17.2,0.194,0.133,0.144,0.253,0,0.0,0.0,0.0,0.0,0.0,0.0,0.0,0.0,0.0,0.0,0.0,0.0,0.0,Magnoliopsida; Castanea sativa Mill.; Tracheophyta; Pinus pinaster Aiton; Acacia Mill.; Quercus L.; 
2005,2005-08-11,Guarda,Seia,Santa Marinha,SANTA MARINHA,40.44580325,-7.655544957893172,NC,616.0,2005-08-11T21:00,22.7,63,15.4,23.8,0.0,0.0,0.0,0.0,0,1015.2,945.9,16,0,1,53,0.02,1.01,5.0,7.0,339,348,15.1,24.2,25.1,23.2,18.7,0.098,0.141,0.204,0.292,0,0.0,0.0,0.0,0.0,0.0,0.0,0.0,0.0,0.0,0.0,0.0,0.0,0.0,Magnoliopsida; Vitis vinifera L.; Pinus pinaster Aiton; Tracheophyta
2005,2005-08-12,Guarda,Gouveia,Vila Nova de Tazem,Tazem,40.5015775,-7.7026312,NC,452.0,2005-08-12T13:00,30.4,21,5.7,30.9,0.0,0.0,0.0,0.0,0,1015.0,964.9,0,0,0,0,0.71,3.42,6.0,7.7,57,62,26.6,34.6,24.7,23.7,19.3,0.092,0.138,0.194,0.281,1,3600.0,944.2,837.4,106.8,933.5,944.2,1195.1,946.0,839.0,107.0,933.5,946.0,1197.4,Tracheophyta; Magnoliopsida; Olea europaea L.; Pinus pinaster Aiton
2005,2005-08-17,Guarda,Guarda,Sobral da Serra,SOBRAL DA SERRA,40.6196567,-7.281308613184388,NC,537.0,2005-08-17T09:00,25.6,40,10.9,25.2,0.0,0.0,0.0,0.0,0,1012.1,952.2,0,0,0,0,0.33,1.99,5.1,6.6,45,49,15.5,27.3,26.4,24.3,19.6,0.081,0.135,0.176,0.264,1,3600.0,564.6,470.5,94.1,796.5,564.6,788.3,486.0,405.0,81.0,796.5,486.0,678.6,Pinus pinaster Aiton; Olea europaea L.; Tracheophyta; Magnoliopsida
2005,2005-02-05,Guarda,Gouveia,Vila Nova de Tazem,VILA NOVA DE TAZEM,40.50839125,-7.7046441176663,NC,485.0,2005-02-05T11:00,7.3,65,1.0,4.7,0.0,0.0,0.0,0.0,0,1022.7,964.3,1,0,0,2,0.17,0.36,4.5,5.6,256,255,15.8,3.0,3.3,5.7,9.9,0.265,0.292,0.322,0.319,1,3600.0,476.3,388.2,88.1,811.2,476.3,673.4,427.0,348.0,79.0,811.2,427.0,603.7,Magnoliopsida; Tracheophyta; Pinus pinaster Aiton
2005,2005-08-19,Guarda,Trancoso,Tamanhos,Quinta do Prado,40.7615925,-7.3156289,Desconhecida,768.0,2005-08-19T11:00,24.4,40,9.9,22.5,0.0,0.0,0.0,0.0,1,1019.5,934.1,22,0,0,75,0.55,1.84,20.6,27.5,46,47,51.1,28.6,25.0,23.3,18.2,0.125,0.133,0.143,0.251,1,3600.0,821.5,677.5,144.0,823.6,821.5,1098.8,776.0,640.0,136.0,823.6,776.0,1037.9,Quercus L.; Magnoliopsida; Tracheophyta; Castanea sativa Mill.; Acacia Mill.; Pinus pinaster Aiton; 
2005,2005-08-20,Guarda,Trancoso,Terrenho,TERRENHO,40.8667196,-7.3548371,NC,760.0,2005-08-20T21:00,20.6,37,5.2,18.1,0.0,0.0,0.0,0.0,0,1020.8,935.1,0,0,0,0,0.08,1.55,9.0,21.3,23,26,22.7,24.3,25.9,23.3,18.4,0.123,0.133,0.142,0.25,0,0.0,0.0,0.0,0.0,0.0,0.0,0.0,0.0,0.0,0.0,0.0,0.0,0.0,Magnoliopsida; Castanea sativa Mill.; Tracheophyta; Pinus pinaster Aiton; Acacia Mill.; Quercus L.; 
2005,2005-08-20,Guarda,Almeida,Nave de Haver,NAVE DE HAVER,40.526992,-6.8498427,NC,814.0,2005-08-20T21:00,21.0,30,2.9,17.9,0.0,0.0,0.0,0.0,0,1020.9,929.6,0,0,0,0,0.1,1.74,10.2,22.2,39,42,23.8,23.7,25.5,23.2,18.4,0.125,0.141,0.152,0.257,0,0.0,0.0,0.0,0.0,0.0,0.0,0.0,0.0,0.0,0.0,0.0,0.0,0.0,Quercus suber L.; Tracheophyta; Magnoliopsida; Pinales
2005,2005-08-22,Guarda,Gouveia,Vila Nova de Tazem,VILA NOVA DE TAZEM,40.50839125,-7.7046441176663,NC,485.0,2005-08-22T12:00,25.9,23,2.9,25.0,0.0,0.0,0.0,0.0,0,1021.7,966.9,0,0,0,0,0.63,2.58,8.6,10.7,57,57,32.0,32.6,24.9,24.8,20.4,0.075,0.138,0.196,0.288,1,3600.0,919.0,813.2,105.8,937.3,919.0,1160.3,895.0,792.0,103.0,937.3,895.0,1130.0,Magnoliopsida; Tracheophyta; Pinus pinaster Aiton
2005,2005-08-26,Guarda,Mêda,Fonte Longa,FONTE LONGA,41.0103897,-7.2289729,NC,507.0,2005-08-26T14:00,29.1,36,12.5,29.7,0.0,0.0,0.0,0.0,0,1016.1,959.8,5,6,0,0,0.63,2.57,11.5,14.8,274,273,31.7,34.4,25.7,23.8,19.8,0.123,0.147,0.155,0.242,1,3600.0,798.2,679.5,118.7,845.8,798.2,1076.3,827.0,704.0,123.0,845.8,827.0,1115.1,Magnoliopsida; Quercus L.; Pinus pinaster Aiton; Olea europaea L.; Tracheophyta; Vitis vinifera L.
2005,2005-02-05,Guarda,Seia,Pinhanços,PINHANÇOS,40.4716275,-7.715875,NC,421.0,2005-02-05T17:00,8.5,56,0.2,5.1,0.0,0.0,0.0,0.0,2,1019.2,968.7,59,61,7,0,0.09,0.49,8.8,13.4,305,306,22.0,7.9,5.0,5.9,10.0,0.244,0.279,0.31,0.31,1,3600.0,102.3,64.4,38.0,435.8,102.3,207.8,159.0,100.0,59.0,435.8,159.0,322.9,Pinus pinaster Aiton; Magnoliopsida; Olea europaea L.; Tracheophyta
2005,2005-08-29,Guarda,Mêda,Fonte Longa,FONTE LONGA,41.0103897,-7.2289729,NC,507.0,2005-08-29T21:00,27.2,48,15.2,28.0,0.0,0.0,0.0,0.0,0,1016.4,959.7,0,0,0,0,0.05,1.89,6.5,12.0,270,291,15.1,28.6,28.1,23.9,20.0,0.123,0.146,0.155,0.241,0,0.0,0.0,0.0,0.0,0.0,0.0,0.0,0.0,0.0,0.0,0.0,0.0,0.0,Magnoliopsida; Quercus L.; Pinus pinaster Aiton; Olea europaea L.; Tracheophyta; Vitis vinifera L.
2005,2005-08-12,Guarda,Vila Nova de Foz Côa,Castelo Melhor,Orgal,41.0805042,-7.1059854,NC,191.0,2005-08-12T19:00,32.1,21,7.0,30.1,0.0,0.0,0.0,0.0,0,1013.6,992.2,9,0,0,30,0.17,3.77,8.0,13.0,350,358,18.7,32.6,28.1,25.4,21.1,0.112,0.152,0.192,0.276,1,3600.0,59.8,39.9,19.9,457.6,59.8,109.7,129.0,86.0,43.0,484.5,129.0,236.5,Tracheophyta; Magnoliopsida; Vitis vinifera L.
2005,2005-08-13,Guarda,Guarda,Vila Fernando,VILA FERNANDO,40.4979057,-7.147965770152091,NC,763.0,2005-08-13T23:00,25.4,33,8.0,24.1,0.0,0.0,0.0,0.0,0,1017.2,932.8,19,0,5,52,0.05,2.18,5.1,5.4,309,318,6.1,24.6,26.8,23.1,18.3,0.134,0.133,0.146,0.263,0,0.0,0.0,0.0,0.0,0.0,0.0,0.0,0.0,0.0,0.0,0.0,0.0,0.0,Quercus L.; Tracheophyta; Pinales; Magnoliopsida; Pinus pinaster Aiton
