year,date,district,municipality,parish,local,latitude,longitude,cause,elevation,hourly.time,hourly.temperature_2m,hourly.relative_humidity_2m,hourly.dew_point_2m,hourly.apparent_temperature,hourly.precipitation,hourly.rain,hourly.snowfall,hourly.snow_depth,hourly.weather_code,hourly.pressure_msl,hourly.surface_pressure,hourly.cloud_cover,hourly.cloud_cover_low,hourly.cloud_cover_mid,hourly.cloud_cover_high,hourly.et0_fao_evapotranspiration,hourly.vapour_pressure_deficit,hourly.wind_speed_10m,hourly.wind_speed_100m,hourly.wind_direction_10m,hourly.wind_direction_100m,hourly.wind_gusts_10m,hourly.soil_temperature_0_to_7cm,hourly.soil_temperature_7_to_28cm,hourly.soil_temperature_28_to_100cm,hourly.soil_temperature_100_to_255cm,hourly.soil_moisture_0_to_7cm,hourly.soil_moisture_7_to_28cm,hourly.soil_moisture_28_to_100cm,hourly.soil_moisture_100_to_255cm,hourly.is_day,hourly.sunshine_duration,hourly.shortwave_radiation_instant,hourly.direct_radiation_instant,hourly.diffuse_radiation_instant,hourly.direct_normal_irradiance_instant,hourly.global_tilted_irradiance_instant,hourly.terrestrial_radiation_instant,hourly.shortwave_radiation,hourly.direct_radiation,hourly.diffuse_radiation,hourly.direct_normal_irradiance,hourly.global_tilted_irradiance,hourly.terrestrial_radiation,scientificNames
2005,2005-10-19,Guarda,Sabugal,Malcata,MALCATA,40.3015869,-7.0610144,NC,846.0,2005-10-19T12:00,14.6,55,5.5,11.3,0.0,0.0,0.0,0.0,1,1016.7,920.4,22,0,11,51,0.24,0.76,14.8,19.5,183,183,32.0,14.6,12.7,16.5,19.8,0.304,0.293,0.165,0.248,1,3600.0,397.9,211.7,186.2,333.0,397.9,876.9,389.0,207.0,182.0,333.0,389.0,857.3,Pinus pinaster Aiton; Pinales; Magnoliopsida; Tracheophyta; Eucalyptus L'Hér.; Quercus L.; Olea europaea L.; 
2005,2005-02-20,Guarda,Seia,Seia,Vales,40.4247171,-7.692449054394194,NC,545.0,2005-02-20T17:00,10.3,44,-1.4,6.1,0.0,0.0,0.0,0.0,3,1015.2,951.0,84,59,52,0,0.13,0.7,12.6,18.0,357,358,34.6,9.3,5.5,5.8,8.5,0.212,0.258,0.303,0.303,1,3600.0,122.2,47.2,75.0,225.4,122.2,292.7,171.0,66.0,105.0,225.4,171.0,409.7,Olea europaea L.; Magnoliopsida; Tracheophyta; Pinus pinaster Aiton; Vitis vinifera L.
2005,2005-02-20,Guarda,Seia,Seia,Vales,40.4247171,-7.692449054394194,NC,545.0,2005-02-20T21:00,4.7,69,-0.5,1.3,0.0,0.0,0.0,0.0,0,1015.7,950.3,0,0,0,0,0.01,0.26,8.0,19.1,355,357,24.8,4.9,5.7,5.8,8.5,0.212,0.258,0.303,0.303,0,0.0,0.0,0.0,0.0,0.0,0.0,0.0,0.0,0.0,0.0,0.0,0.0,0.0,Olea europaea L.; Magnoliopsida; Tracheophyta; Pinus pinaster Aiton; Vitis vinifera L.
2005,2005-12-22,Guarda,Guarda,Guarda (sé),Tintinolho,40.52226085,-7.251911838739265,NC,839.0,2005-12-22T17:00,6.3,67,0.7,3.2,0.0,0.0,0.0,0.0,0,1026.6,927.4,0,0,0,0,0.03,0.31,7.3,10.1,79,90,15.5,4.0,2.8,6.3,13.8,0.369,0.381,0.401,0.329,1,2059.13,1.4,0.9,0.5,10.7,1.0,2.7,61.0,40.0,21.0,341.0,61.0,117.6,Tracheophyta; Magnoliopsida
2005,2005-02-20,Guarda,Seia,São Romão,Catraia da Assamaça,40.400208,-7.7134162,NC,597.0,2005-02-20T23:00,1.6,85,-0.7,-1.9,0.0,0.0,0.0,0.0,0,1016.1,943.9,0,0,0,0,0.0,0.11,8.7,15.6,353,353,22.7,2.1,4.8,5.3,8.1,0.22,0.269,0.312,0.318,0,0.0,0.0,0.0,0.0,0.0,0.0,0.0,0.0,0.0,0.0,0.0,0.0,0.0,Eucalyptus L'Hér.; Tracheophyta; Pinus pinaster Aiton; Magnoliopsida; Olea europaea L.
2005,2005-02-21,Guarda,Celorico da Beira,Mesquitela,Vale da Ribeira,40.5809861,-7.4733045,NC,469.0,2005-02-21T13:00,7.5,42,-4.5,3.3,0.0,0.0,0.0,0.0,2,1012.5,956.6,64,36,53,0,0.23,0.6,10.1,13.0,356,355,35.3,7.4,3.9,5.9,8.9,0.191,0.248,0.29,0.304,1,3600.0,512.4,332.9,179.5,530.6,512.4,877.7,511.0,332.0,179.0,530.6,511.0,875.2,Olea europaea L.; Magnoliopsida; Pinus pinaster Aiton
2005,2005-02-18,Guarda,Seia,Santiago,SANTIAGO,40.4312691,-7.7186675,NC,406.0,2005-02-18T18:00,7.1,46,-3.7,3.1,0.0,0.0,0.0,0.0,0,1020.6,971.5,0,0,0,0,0.06,0.54,8.9,18.4,47,51,26.6,7.4,5.4,6.1,8.8,0.218,0.271,0.316,0.32,1,2540.94,12.8,8.4,4.4,96.0,10.2,23.5,84.0,55.0,29.0,399.4,84.0,154.6,Tracheophyta; Olea europaea L.; Magnoliopsida; Pinus pinaster Aiton
2005,2005-02-21,Guarda,Manteigas,Manteigas (são Pedro),Covais,40.3880812,-7.5445312749356,NC,788.0,2005-02-21T20:00,0.9,71,-3.7,-3.0,0.0,0.0,0.0,0.0,0,1011.9,918.1,4,5,0,0,0.01,0.19,8.7,13.7,312,325,22.7,1.8,3.6,4.9,7.7,0.221,0.267,0.309,0.316,0,0.0,0.0,0.0,0.0,0.0,0.0,0.0,0.0,0.0,0.0,0.0,0.0,0.0,Pinus pinaster Aiton; Magnoliopsida; Tracheophyta; Pinales
2005,2005-02-15,Guarda,Celorico da Beira,Vila Boa do Mondego,VILA BOA DO MONDEGO,40.63703025,-7.392167306184211,NC,530.0,2005-02-15T14:00,9.6,52,0.3,5.6,0.0,0.0,0.0,0.0,1,1015.8,953.2,43,48,0,0,0.25,0.57,13.6,18.7,11,11,38.2,10.6,4.9,5.9,9.0,0.197,0.243,0.273,0.297,1,3600.0,537.3,401.1,136.3,717.9,537.3,783.5,560.0,418.0,142.0,717.9,560.0,816.5,Tracheophyta; Olea europaea L.; Pinus pinaster Aiton; Magnoliopsida
2005,2005-02-24,Guarda,Guarda,Guarda (sé),GUARDA,40.52226085,-7.251911838739265,NC,839.0,2005-02-24T19:00,2.6,66,-3.2,-1.2,0.0,0.0,0.0,0.0,0,1011.2,912.3,8,0,12,2,0.03,0.25,8.4,19.8,7,12,22.3,4.9,5.4,4.7,7.8,0.374,0.326,0.337,0.347,0,0.0,0.0,0.0,0.0,0.0,0.0,0.0,1.0,0.0,1.0,0.0,1.0,13.0,Tracheophyta; Magnoliopsida
2005,2005-11-06,Guarda,Sabugal,Sabugal,SABUGAL,40.3518321,-7.0896479,NC,752.0,2005-11-06T21:00,10.1,62,3.3,8.3,0.0,0.0,0.0,0.0,0,1026.0,937.8,9,0,0,29,0.0,0.47,2.2,1.5,351,256,4.0,7.6,11.2,14.6,19.4,0.363,0.371,0.331,0.269,0,0.0,0.0,0.0,0.0,0.0,0.0,0.0,0.0,0.0,0.0,0.0,0.0,0.0,Tracheophyta; Magnoliopsida
2005,2005-11-11,Guarda,Guarda,Vila Soeiro,VILA SOEIRO,40.53725115,-7.355189846044105,NC,834.0,2005-11-11T18:00,9.4,75,5.2,7.2,0.0,0.0,0.0,0.0,0,1025.8,928.3,0,0,0,0,0.03,0.3,7.2,11.2,360,6,14.0,9.7,10.1,13.0,18.7,0.352,0.364,0.33,0.274,0,0.0,0.0,0.0,0.0,0.0,0.0,0.0,1.0,0.0,1.0,0.0,1.0,12.6,Tracheophyta; Olea europaea L.; Quercus L.; Magnoliopsida; Pinus pinaster Aiton; Vitis vinifera L.; Eucalyptus L'Hér.; Acacia Mill.; 
2005,2005-10-15,Guarda,Guarda,Maçainhas,Chãos,40.5427332,-7.3209763,NC,804.0,2005-10-15T15:00,16.9,49,6.1,14.0,0.0,0.0,0.0,0.0,1,1017.7,926.5,36,37,3,2,0.31,0.99,13.3,17.3,177,176,25.6,20.1,15.6,18.8,20.9,0.316,0.283,0.218,0.306,1,3600.0,463.4,390.5,72.9,836.6,463.4,642.4,521.0,439.0,82.0,836.6,521.0,722.2,Magnoliopsida; Olea europaea L.; Tracheophyta
2005,2005-10-16,Guarda,Mêda,Longroiva,Relva,40.968814,-7.1860491,NC,409.0,2005-10-16T17:00,20.1,42,6.7,18.5,0.0,0.0,0.0,0.0,1,1016.2,969.1,29,0,0,98,0.11,1.37,5.4,11.6,180,187,17.3,19.4,17.4,18.8,21.2,0.275,0.236,0.154,0.236,1,1432.86,75.5,14.4,61.1,107.8,75.5,183.7,126.0,24.0,102.0,107.8,126.0,306.7,Quercus L.; Vitis vinifera L.; Tracheophyta; Olea europaea L.; Magnoliopsida; Pinus pinaster Aiton; Pinales; Eucalyptus L'Hér.; 
2005,2005-10-25,Guarda,Figueira de Castelo Rodrigo,Mata de Lobos,MATA DE LOBOS,40.9056991,-6.9017467,NC,606.0,2005-10-25T19:00,15.5,70,9.9,14.6,0.0,0.0,0.0,0.0,1,1019.1,949.0,33,0,48,14,0.01,0.54,5.8,10.7,176,194,12.6,15.2,15.5,16.2,19.6,0.292,0.274,0.188,0.27,0,0.0,0.0,0.0,0.0,0.0,0.0,0.0,0.0,0.0,0.0,0.0,0.0,0.0,Magnoliopsida; Olea europaea L.; Tracheophyta
2005,2005-12-11,Guarda,Seia,Sabugueiro,SABUGUEIRO,40.3803602,-7.6455592,NC,1464.0,2005-12-11T13:00,5.9,52,-3.3,2.0,0.0,0.0,0.0,0.0,0,1028.5,862.3,0,0,0,0,0.19,0.45,8.7,11.2,45,48,27.0,3.7,1.8,5.5,11.0,0.372,0.379,0.386,0.287,1,3600.0,469.1,398.1,71.0,907.3,469.1,619.1,476.0,404.0,72.0,907.3,476.0,628.2,Magnoliopsida
2005,2005-10-26,Guarda,Fornos de Algodres,Figueiró da Granja,FIGUEIRÓ DA GRANJA,40.6303344,-7.496661450153217,NC,484.0,2005-10-26T22:00,16.2,68,10.3,13.7,0.0,0.0,0.0,0.0,0,1010.2,954.4,0,0,0,0,0.06,0.59,18.0,35.3,160,162,52.9,14.7,16.3,17.6,21.3,0.258,0.273,0.17,0.257,0,0.0,0.0,0.0,0.0,0.0,0.0,0.0,0.0,0.0,0.0,0.0,0.0,0.0,Tracheophyta; Magnoliopsida; Pinus pinaster Aiton; Olea europaea L.; 
2005,2005-12-12,Guarda,Gouveia,Arcozelo,ARCOZELO,40.5550912,-7.604262034159131,NC,358.0,2005-12-12T17:00,8.2,60,0.9,5.0,0.0,0.0,0.0,0.0,0,1024.9,981.5,3,3,0,0,0.04,0.44,8.4,16.8,40,47,25.2,7.6,6.8,10.1,16.4,0.361,0.374,0.384,0.288,1,1987.96,0.0,0.0,0.0,0.0,0.0,0.0,54.0,35.0,19.0,301.5,54.0,113.0,Magnoliopsida; Tracheophyta; Olea europaea L.; Pinus pinaster Aiton; Pinales; Vitis vinifera L.; 
2005,2005-12-17,Guarda,Gouveia,Vila Nova de Tazem,VILA NOVA DE TAZEM,40.5015775,-7.7026312,NC,452.0,2005-12-17T17:00,7.7,78,4.0,4.8,0.0,0.0,0.0,0.0,0,1021.0,966.7,7,4,6,0,0.02,0.23,9.7,17.2,42,53,17.6,6.7,5.2,8.4,15.1,0.347,0.359,0.375,0.292,1,2053.03,1.1,0.7,0.4,8.3,0.8,2.2,60.0,38.0,22.0,324.2,60.0,117.1,Tracheophyta; Magnoliopsida; Olea europaea L.; Pinus pinaster Aiton
2005,2005-02-16,Guarda,Guarda,Guarda (são Vicente),GUARDA,40.5378408,-7.2662964,NC,1018.0,2005-02-16T22:00,0.5,54,-7.8,-5.2,0.0,0.0,0.0,0.0,0,1022.9,902.2,0,0,0,0,0.04,0.3,18.3,33.5,47,50,41.4,0.3,3.0,4.0,7.0,0.238,0.279,0.311,0.318,0,0.0,0.0,0.0,0.0,0.0,0.0,0.0,0.0,0.0,0.0,0.0,0.0,0.0,Pinus pinaster Aiton; Tracheophyta; Magnoliopsida
2005,2005-11-07,Guarda,Almeida,Almeida,ALMEIDA,40.73018195,-6.899702067493429,NC,718.0,2005-11-07T15:00,16.3,46,4.6,14.6,0.0,0.0,0.0,0.0,0,1023.4,940.9,1,0,0,4,0.22,1.0,2.7,3.9,203,202,16.6,14.8,10.7,13.8,18.3,0.36,0.368,0.306,0.27,1,3600.0,347.6,280.5,67.1,792.5,347.6,493.2,404.0,326.0,78.0,792.5,404.0,573.2,Tracheophyta; Olea europaea L.; Magnoliopsida
2005,2005-11-07,Guarda,Gouveia,Vila Nova de Tazem,VILA NOVA DE TAZEM,40.5015775,-7.7026312,NC,452.0,2005-11-07T17:00,14.8,61,7.3,13.2,0.0,0.0,0.0,0.0,0,1023.3,970.1,0,0,0,0,0.06,0.66,5.8,7.2,277,276,10.8,13.9,12.3,15.1,19.9,0.353,0.365,0.332,0.267,1,3135.48,38.7,25.7,13.0,294.8,35.8,68.9,107.0,71.0,36.0,480.1,107.0,190.4,Tracheophyta; Magnoliopsida; Olea europaea L.; Pinus pinaster Aiton
2005,2005-12-16,Guarda,Seia,Santiago,SANTIAGO,40.4312691,-7.7186675,NC,406.0,2005-12-16T14:00,7.3,59,-0.3,3.6,0.0,0.0,0.0,0.0,0,1024.5,975.3,0,0,0,0,0.17,0.42,10.6,14.5,66,67,27.7,7.7,4.6,8.7,15.3,0.353,0.365,0.383,0.312,1,3600.0,392.7,327.6,65.1,851.8,392.7,543.1,422.0,352.0,70.0,851.8,422.0,583.6,Tracheophyta; Olea europaea L.; Magnoliopsida; Pinus pinaster Aiton
2005,2005-03-15,Viseu,Cinfães,Tarouquela,OUTEIRO DE LOBOS,41.070446,-8.1883932,NC,378.0,2005-03-15T19:00,14.9,72,9.8,13.7,0.0,0.0,0.0,0.0,0,1021.3,976.7,0,0,0,0,0.03,0.48,8.0,9.8,280,276,17.3,13.2,10.4,6.5,6.9,0.235,0.273,0.317,0.345,0,297.06,0.0,0.0,0.0,0.0,0.0,0.0,20.0,10.0,10.0,107.6,20.0,68.5,Magnoliopsida; Pinus pinaster Aiton; Quercus L.; Vitis vinifera L.; Tracheophyta; Eucalyptus L'Hér.; 
2005,2005-03-13,Viseu,Castro Daire,Pinheiro,PORTELA,40.9281201,-7.9822769,NC,506.0,2005-03-13T22:00,10.0,83,7.2,8.6,0.0,0.0,0.0,0.0,2,1012.2,952.6,55,56,5,7,0.0,0.21,5.0,6.8,210,238,11.5,8.0,8.5,6.1,7.3,0.239,0.268,0.306,0.323,0,0.0,0.0,0.0,0.0,0.0,0.0,0.0,0.0,0.0,0.0,0.0,0.0,0.0,Magnoliopsida; Pinus pinaster Aiton; Pinales
2005,2005-03-17,Viseu,Viseu,Calde,Póvoa,40.7618304,-7.9134135,NC,529.0,2005-03-17T15:00,21.6,39,7.0,19.7,0.0,0.0,0.0,0.0,1,1024.0,963.4,25,0,30,22,0.41,1.58,10.0,13.1,120,122,27.7,19.1,10.9,7.2,7.1,0.217,0.259,0.303,0.322,1,3600.0,559.4,428.1,131.3,704.9,559.4,839.3,605.0,463.0,142.0,704.9,605.0,907.7,Tracheophyta; Pinus pinaster Aiton; Magnoliopsida
2005,2005-03-17,Viseu,Lamego,Bigorne,BIGORNE KM 104 A24,41.00695425,-7.874142328049125,NC,951.0,2005-03-17T20:00,12.9,54,3.7,10.1,0.0,0.0,0.0,0.0,2,1024.2,915.3,52,0,61,51,0.04,0.69,8.9,13.9,104,115,18.0,11.0,9.6,5.0,4.9,0.238,0.268,0.307,0.326,0,0.0,0.0,0.0,0.0,0.0,0.0,0.0,0.0,0.0,0.0,0.0,0.0,0.0,Tracheophyta; Magnoliopsida; Pinus pinaster Aiton; Pinales; Castanea sativa Mill.; 
2005,2005-03-15,Viseu,Penedono,Granja,GRANJA,41.01139545,-7.4010556327941615,NC,774.0,2005-03-15T16:00,17.2,37,2.4,14.3,0.0,0.0,0.0,0.0,1,1019.8,931.8,44,0,73,0,0.31,1.24,7.9,10.1,183,180,27.0,17.2,8.8,5.1,6.1,0.183,0.208,0.234,0.28,1,3600.0,459.0,380.9,78.1,829.4,459.0,635.3,529.0,439.0,90.0,829.4,529.0,732.3,Magnoliopsida; Castanea sativa Mill.; Quercus L.; Pinus pinaster Aiton; Tracheophyta; ; Olea europaea L.
2005,2005-03-18,Viseu,Vila Nova de Paiva,Touro,Senhora da Profadeira,40.8953121,-7.7478521,NC,790.0,2005-03-18T17:00,18.8,34,2.8,14.4,0.0,0.0,0.0,0.0,1,1019.2,930.0,46,0,31,93,0.27,1.43,19.1,28.5,148,148,44.3,16.7,10.9,6.5,6.1,0.219,0.244,0.28,0.303,1,3600.0,234.1,126.8,107.2,410.5,234.1,426.7,299.0,162.0,137.0,410.5,299.0,545.1,Magnoliopsida; Pinus pinaster Aiton; Tracheophyta; Eucalyptus L'Hér.; Quercus L.; 
2005,2005-03-18,Viseu,Resende,Felgueiras,Beirós,41.0656257,-7.9423604,NC,800.0,2005-03-18T14:00,20.0,34,3.5,16.4,0.0,0.0,0.0,0.0,0,1019.1,929.1,4,0,1,11,0.47,1.55,19.9,27.5,135,135,49.0,17.5,9.9,6.3,5.8,0.222,0.268,0.314,0.338,1,3600.0,688.9,567.3,121.6,811.4,688.9,965.7,714.0,588.0,126.0,811.4,714.0,1001.0,Magnoliopsida; Pinales; Vitis vinifera L.; Pinus pinaster Aiton; Tracheophyta; 
2005,2005-01-27,Viseu,Lamego,Bigorne,BIGORNE,41.0143628,-7.879923964542126,NC,980.0,2005-01-27T17:00,1.4,39,-11.2,-3.6,0.0,0.0,0.0,0.0,1,1018.8,903.1,28,11,30,0,0.08,0.42,11.6,20.7,30,31,45.7,-0.5,0.2,3.9,7.6,0.317,0.327,0.34,0.328,1,3600.0,83.3,51.5,31.8,468.4,83.3,155.1,144.0,89.0,55.0,468.4,144.0,268.0,Tracheophyta; Magnoliopsida; Pinus pinaster Aiton; Pinales; Castanea sativa Mill.; 
2005,2005-03-15,Viseu,Cinfães,Santiago de Piães,VILAR DE ARCA,41.0325415,-8.1770795,NC,685.0,2005-03-15T18:00,15.2,52,5.4,13.2,0.0,0.0,0.0,0.0,0,1020.3,941.4,0,0,0,0,0.1,0.83,6.3,10.7,246,237,23.4,13.8,9.4,5.7,6.3,0.238,0.274,0.316,0.344,1,3600.0,87.5,58.7,28.8,518.9,87.5,156.5,161.0,108.0,53.0,518.9,161.0,288.0,Magnoliopsida; Pinus pinaster Aiton; Quercus L.; Tracheophyta; Eucalyptus L'Hér.; Castanea sativa Mill.; 
2005,2005-03-15,Viseu,Viseu,Cota,COTA,40.7687173,-7.8243382,NC,524.0,2005-03-15T19:00,15.9,53,6.3,13.4,0.0,0.0,0.0,0.0,0,1020.9,959.9,0,0,0,0,0.07,0.86,10.7,15.6,200,203,17.6,13.7,10.9,7.0,7.5,0.204,0.257,0.299,0.313,0,220.26,0.0,0.0,0.0,0.0,0.0,0.0,17.0,9.0,8.0,98.5,17.0,66.3,Pinus pinaster Aiton
2005,2005-03-16,Viseu,Resende,Felgueiras,FELGUEIRAS,41.0655845,-7.9333174,NC,796.0,2005-03-16T17:00,15.1,58,7.0,14.2,0.0,0.0,0.0,0.0,3,1025.5,933.9,100,36,71,91,0.11,0.71,0.8,1.1,207,198,20.9,13.3,8.9,5.6,5.9,0.238,0.274,0.316,0.338,1,2845.08,157.6,46.8,110.8,154.8,157.6,418.1,202.0,60.0,142.0,154.8,202.0,535.8,Magnoliopsida; Pinales; Vitis vinifera L.; Pinus pinaster Aiton; Tracheophyta; 
2005,2005-03-14,Viseu,Moimenta da Beira,Ariz,ARIZ,40.9073535,-7.6559543,NC,812.0,2005-03-14T15:00,12.9,50,2.7,10.6,0.0,0.0,0.0,0.0,3,1012.9,920.1,100,90,56,40,0.16,0.75,4.9,5.9,234,232,17.3,11.7,7.0,4.7,6.0,0.244,0.255,0.284,0.304,1,211.54,230.7,39.7,191.1,67.1,230.7,819.4,250.0,43.0,207.0,67.1,250.0,887.8,Magnoliopsida; Pinus pinaster Aiton; Tracheophyta; Eucalyptus L'Hér.
2005,2005-03-18,Viseu,Lamego,Penajóia,PORTELA,41.1456323,-7.8517173,NC,322.0,2005-03-18T14:00,23.0,34,6.1,20.4,0.0,0.0,0.0,0.0,0,1018.6,981.6,1,0,0,4,0.51,1.86,16.9,23.5,130,130,45.7,19.7,11.6,7.9,7.3,0.216,0.264,0.312,0.33,1,3600.0,701.0,585.3,115.7,839.4,701.0,963.1,727.0,607.0,120.0,839.4,727.0,998.9,Tracheophyta; Magnoliopsida; Vitis vinifera L.; Pinales
2005,2005-03-15,Viseu,Tabuaço,Granjinha,GRANJINHA,41.07108655,-7.516097666705839,NC,355.0,2005-03-15T13:00,18.7,43,5.9,18.0,0.0,0.0,0.0,0.0,3,1020.2,978.8,88,46,78,0,0.42,1.22,4.3,5.8,180,180,25.6,16.9,8.8,6.3,7.1,0.216,0.236,0.272,0.297,1,3600.0,703.7,515.8,187.9,709.0,703.7,1006.5,704.0,516.0,188.0,709.0,704.0,1006.9,Magnoliopsida; Pinus pinaster Aiton; Olea europaea L.; Tracheophyta
2005,2005-03-14,Viseu,Resende,Cárquere,BARRO,41.0861903,-7.9636451,NC,523.0,2005-03-14T18:00,13.3,67,7.3,12.3,0.0,0.0,0.0,0.0,1,1014.2,953.2,39,16,41,0,0.05,0.51,1.9,3.8,248,253,11.9,11.3,8.1,5.0,6.0,0.259,0.279,0.311,0.324,1,1136.75,37.5,10.7,26.8,97.9,37.5,151.5,70.0,20.0,50.0,97.9,70.0,282.8,Pinus pinaster Aiton; Tracheophyta; Magnoliopsida; Pinales; Eucalyptus L'Hér.; 
2005,2005-03-14,Viseu,Viseu,Lordosa,Galifonge,40.7457236,-7.9315441,NC,493.0,2005-03-14T14:00,14.8,51,4.6,12.5,0.0,0.0,0.0,0.0,3,1013.4,956.1,100,86,52,34,0.21,0.83,6.5,8.1,251,249,18.0,14.0,8.8,6.7,7.6,0.219,0.264,0.306,0.324,1,99.38,308.6,43.4,265.2,63.3,308.6,949.0,320.0,45.0,275.0,63.3,320.0,984.0,Magnoliopsida; Pinus pinaster Aiton; Tracheophyta
2005,2005-03-14,Viseu,Penalva do Castelo,Esmolfe,ESMOLFE,40.6795232,-7.6836313,NC,555.0,2005-03-14T19:00,12.1,78,8.4,10.8,0.0,0.0,0.0,0.0,2,1015.0,950.1,56,39,35,0,0.02,0.31,5.6,6.8,230,238,8.3,10.9,9.2,6.3,7.2,0.214,0.26,0.296,0.312,0,0.0,0.0,0.0,0.0,0.0,0.0,0.0,10.0,3.0,7.0,33.8,10.0,62.7,Magnoliopsida; Tracheophyta; Pinus pinaster Aiton; Olea europaea L.; Quercus L.; Acacia Mill.
2005,2005-03-14,Viseu,Viseu,Ranhados,RANHADOS,40.6404554,-7.9065153,NC,449.0,2005-03-14T19:00,12.6,75,8.3,11.2,0.0,0.0,0.0,0.0,1,1015.1,962.3,35,19,30,0,0.03,0.37,6.3,7.4,239,247,10.1,11.4,9.8,7.3,8.0,0.226,0.267,0.303,0.321,0,0.0,0.0,0.0,0.0,0.0,0.0,0.0,12.0,4.0,8.0,44.2,12.0,65.0,Tracheophyta; Pinus pinaster Aiton; Magnoliopsida; Vitis vinifera L.
2005,2005-03-17,Viseu,Moimenta da Beira,Rua,São Francisco,40.9473561,-7.571722,NC,600.0,2005-03-17T10:00,15.5,57,6.9,13.7,0.0,0.0,0.0,0.0,1,1028.4,958.4,34,0,49,16,0.23,0.77,7.2,9.7,90,92,19.8,12.7,8.9,7.1,7.3,0.209,0.246,0.283,0.297,1,3600.0,469.1,357.5,111.6,629.3,469.1,785.4,412.0,314.0,98.0,629.3,412.0,689.7,Tracheophyta; Vitis vinifera L.; Magnoliopsida; Castanea sativa Mill.
2005,2005-03-19,Viseu,Oliveira de Frades,São João da Serra,CERCAL,40.798529,-8.2492378,NC,362.0,2005-03-19T10:00,17.4,47,6.0,14.9,0.0,0.0,0.0,0.0,2,1017.8,975.6,80,7,92,60,0.23,1.05,10.7,14.0,130,132,36.4,15.0,12.3,9.8,8.8,0.177,0.243,0.301,0.339,1,3600.0,375.2,169.9,205.3,297.4,375.2,788.9,329.0,149.0,180.0,297.4,329.0,691.7,Eucalyptus L'Hér.; Pinus pinaster Aiton; Magnoliopsida; Tracheophyta; Quercus L.; Olea europaea L.
2005,2005-03-18,Viseu,Castro Daire,Gosende,Rossão,41.0083477,-7.9058671,NC,1004.0,2005-03-18T19:00,14.9,29,-3.0,10.8,0.0,0.0,0.0,0.0,1,1019.7,906.4,46,0,64,27,0.11,1.21,11.2,21.4,147,151,33.5,12.7,9.8,5.1,4.6,0.228,0.264,0.306,0.326,0,11.34,0.0,0.0,0.0,0.0,0.0,0.0,17.0,6.0,11.0,61.5,17.0,74.7,Tracheophyta; Magnoliopsida; Pinales
2005,2005-03-17,Viseu,Vila Nova de Paiva,Pendilhe,Senhora da Piedade,40.9063698,-7.8366812,NC,746.0,2005-03-17T20:00,14.1,55,5.2,11.7,0.0,0.0,0.0,0.0,2,1024.2,938.0,52,0,61,51,0.04,0.73,8.9,13.9,104,115,18.0,12.5,10.8,6.2,6.2,0.235,0.265,0.303,0.321,0,0.0,0.0,0.0,0.0,0.0,0.0,0.0,0.0,0.0,0.0,0.0,0.0,0.0,Magnoliopsida; Tracheophyta; Pinus pinaster Aiton; 
2005,2005-03-17,Viseu,Cinfães,São Cristovão De Nogueira,SAMPAIO,41.0736335,-8.1294062,NC,269.0,2005-03-17T22:00,12.5,60,4.9,9.9,0.0,0.0,0.0,0.0,0,1023.4,991.1,4,0,0,15,0.03,0.59,9.4,12.7,88,83,19.1,10.9,11.9,7.7,7.3,0.225,0.267,0.314,0.342,0,0.0,0.0,0.0,0.0,0.0,0.0,0.0,0.0,0.0,0.0,0.0,0.0,0.0,Magnoliopsida; Pinus pinaster Aiton; Tracheophyta; Quercus L.; Vitis vinifera L.
2005,2005-03-19,Viseu,Cinfães,Nespereira,CALHAU DO SEIXO,41.0012055,-8.1765373,NC,300.0,2005-03-19T12:00,20.4,46,8.3,19.2,0.0,0.0,0.0,0.0,3,1016.7,981.9,100,27,91,69,0.41,1.3,9.4,12.7,148,145,33.5,17.6,11.5,8.5,7.4,0.212,0.262,0.313,0.345,1,3600.0,681.0,503.7,177.2,683.0,681.0,1018.3,657.0,486.0,171.0,683.0,657.0,982.4,Tracheophyta; Magnoliopsida; Eucalyptus L'Hér.
2005,2005-01-27,Viseu,Penedono,Souto,SOUTO,41.0223663,-7.359912599999999,NC,798.0,2005-01-27T18:00,0.3,43,-10.8,-4.2,0.0,0.0,0.0,0.0,0,1019.0,923.2,0,0,0,0,0.03,0.35,8.4,22.1,25,30,33.1,-0.1,0.7,4.5,8.9,0.25,0.261,0.246,0.282,0,419.48,0.0,0.0,0.0,0.0,0.0,0.0,21.0,12.0,9.0,135.5,21.0,64.2,Pinales; Magnoliopsida; Tracheophyta; Pinus pinaster Aiton; Castanea sativa Mill.; Eucalyptus L'Hér.; ; Vitis vinifera L.; Olea europaea L.
2005,2005-03-18,Viseu,Armamar,Santiago,SANTIAGO,41.0785273,-7.690629,NC,677.0,2005-03-18T12:00,18.8,37,3.6,15.6,0.0,0.0,0.0,0.0,0,1021.2,944.0,1,0,2,0,0.44,1.38,16.9,22.9,119,120,47.9,15.8,9.1,6.1,5.6,0.225,0.25,0.291,0.311,1,3600.0,718.8,612.1,106.7,834.9,718.8,1012.8,694.0,591.0,103.0,834.9,694.0,977.9,Magnoliopsida; Pinus pinaster Aiton; Quercus L.; Tracheophyta; Eucalyptus L'Hér.; Castanea sativa Mill.; ; Pinales
2005,2005-03-18,Viseu,Cinfães,Santiago de Piães,CASAL,41.0351001,-8.1673574,NC,692.0,2005-03-18T15:00,21.3,32,4.0,17.7,0.0,0.0,0.0,0.0,1,1018.0,940.0,28,0,0,93,0.46,1.72,18.3,26.0,144,143,45.7,18.4,10.8,6.8,6.2,0.216,0.265,0.313,0.343,1,3600.0,604.3,500.7,103.6,820.8,604.3,842.5,653.0,541.0,112.0,820.8,653.0,910.4,Magnoliopsida; Pinus pinaster Aiton; Quercus L.; Tracheophyta; Eucalyptus L'Hér.; Castanea sativa Mill.; 
2005,2005-03-18,Viseu,Castro Daire,Almofala,ALMOFALA,40.95422045,-7.795488588674065,NC,860.0,2005-03-18T16:00,19.5,32,2.3,14.5,0.0,0.0,0.0,0.0,1,1019.0,922.5,32,0,5,98,0.38,1.55,22.3,31.1,146,145,45.7,17.1,10.2,5.9,5.5,0.236,0.259,0.297,0.317,1,3600.0,437.6,307.7,129.9,647.6,437.6,656.3,502.0,353.0,149.0,647.6,502.0,753.0,Tracheophyta; Castanea sativa Mill.; Magnoliopsida; Pinus pinaster Aiton
2005,2005-03-18,Viseu,Lamego,Pretarouca,PRETAROUCA,41.02849325,-7.894000321516179,NC,951.0,2005-03-18T19:00,15.3,29,-2.7,11.1,0.0,0.0,0.0,0.0,1,1019.7,912.2,46,0,64,27,0.11,1.23,11.2,21.4,147,151,33.5,13.0,10.2,5.4,4.9,0.228,0.264,0.306,0.326,0,14.88,0.0,0.0,0.0,0.0,0.0,0.0,17.0,6.0,11.0,62.0,17.0,73.6,Tracheophyta; Magnoliopsida; Pinus pinaster Aiton; Pinales; Castanea sativa Mill.; 
2005,2005-03-18,Viseu,Cinfães,São Cristovão De Nogueira,Temporão,41.0736335,-8.1294062,NC,269.0,2005-03-18T18:00,21.5,41,7.7,20.0,0.0,0.0,0.0,0.0,1,1018.3,987.1,31,0,16,72,0.12,1.52,6.1,7.9,242,223,19.8,17.7,12.8,8.0,7.3,0.214,0.263,0.312,0.342,1,3503.32,72.9,22.2,50.7,176.8,72.9,173.5,128.0,39.0,89.0,176.8,128.0,304.7,Magnoliopsida; Pinus pinaster Aiton; Tracheophyta; Quercus L.; Vitis vinifera L.
2005,2005-03-19,Viseu,Moimenta da Beira,Peva,São Martinho,40.8861707,-7.6948785,NC,831.0,2005-03-19T15:00,18.0,44,5.6,14.2,0.0,0.0,0.0,0.0,2,1014.9,921.4,69,0,66,99,0.34,1.15,18.5,24.6,147,148,43.2,16.8,10.6,6.6,5.9,0.215,0.241,0.279,0.303,1,3600.0,468.7,224.7,244.1,367.0,468.7,845.2,507.0,243.0,264.0,367.0,507.0,914.2,Eucalyptus L'Hér.; Pinus pinaster Aiton; Quercus L.; Magnoliopsida; Tracheophyta; Castanea sativa Mill.
2005,2005-03-16,Viseu,Sátão,Águas Boas,ÁGUAS BOAS,40.8545902,-7.630350977918264,NC,823.0,2005-03-16T15:00,16.7,45,4.6,14.6,0.0,0.0,0.0,0.0,3,1025.4,931.4,100,42,73,96,0.2,1.05,4.9,6.3,197,193,28.4,14.3,8.8,5.6,6.3,0.215,0.229,0.254,0.29,1,0.0,268.8,27.7,241.1,46.2,268.8,829.9,291.0,30.0,261.0,46.2,291.0,898.5,Pinus pinaster Aiton; Magnoliopsida; Tracheophyta; Pinales
2005,2005-03-15,Viseu,Vila Nova de Paiva,Pendilhe,PENDILHE,40.9063698,-7.8366812,NC,746.0,2005-03-15T18:00,15.4,47,4.2,12.9,0.0,0.0,0.0,0.0,0,1020.3,934.7,0,0,0,0,0.1,0.92,7.3,16.2,191,193,23.4,13.5,9.1,5.4,6.2,0.247,0.27,0.305,0.321,1,3600.0,82.4,53.0,29.4,482.5,82.4,152.0,154.0,99.0,55.0,482.5,154.0,283.9,Magnoliopsida; Tracheophyta; Pinus pinaster Aiton; 
2005,2005-03-17,Viseu,São João da Pesqueira,Várzea de Trevões,VÁRZEA DE TREVÕES,41.0989983,-7.4592578,NC,465.0,2005-03-17T21:00,17.7,38,3.4,15.7,0.0,0.0,0.0,0.0,1,1024.2,970.0,28,0,12,68,0.02,1.25,3.1,6.1,54,62,13.3,12.7,12.6,7.4,7.2,0.162,0.202,0.242,0.285,0,0.0,0.0,0.0,0.0,0.0,0.0,0.0,0.0,0.0,0.0,0.0,0.0,0.0,Eucalyptus L'Hér.; Pinus pinaster Aiton; Olea europaea L.; Vitis vinifera L.; Magnoliopsida; Tracheophyta
2005,2005-01-28,Viseu,Lamego,Lazarim,LAZARIM,41.0320092,-7.8448406,NC,592.0,2005-01-28T14:00,6.9,50,-2.8,3.5,0.0,0.0,0.0,0.0,0,1021.7,951.0,1,0,2,0,0.22,0.5,5.9,7.4,322,321,20.5,0.7,1.1,4.8,9.0,0.307,0.314,0.322,0.312,1,3600.0,491.4,417.0,74.4,878.7,491.4,669.3,515.0,437.0,78.0,878.7,515.0,701.4,Tracheophyta; Magnoliopsida; Pinales; Eucalyptus L'Hér.
2005,2005-03-18,Viseu,Cinfães,Fornelos,CUNHA,41.0393549,-8.2054299,NC,428.0,2005-03-18T20:00,16.4,48,5.4,14.1,0.0,0.0,0.0,0.0,0,1018.9,969.0,10,0,5,24,0.04,0.97,7.9,12.5,120,131,21.6,14.1,13.0,8.3,7.5,0.211,0.263,0.313,0.35,0,0.0,0.0,0.0,0.0,0.0,0.0,0.0,0.0,0.0,0.0,0.0,0.0,0.0,Quercus L.; Eucalyptus L'Hér.; Magnoliopsida; Vitis vinifera L.; Tracheophyta; Pinales; 
2005,2005-03-19,Viseu,Viseu,Barreiros,CASAL,40.7489598,-7.7909051,NC,582.0,2005-03-19T13:00,18.5,48,7.1,16.0,0.0,0.0,0.0,0.0,2,1016.7,950.1,51,3,35,90,0.39,1.12,15.1,19.7,147,149,39.6,18.1,11.1,8.1,7.1,0.175,0.246,0.296,0.312,1,3600.0,637.6,416.7,220.9,555.7,637.6,1035.3,638.0,417.0,221.0,555.7,638.0,1036.0,Magnoliopsida; Pinus pinaster Aiton; Olea europaea L.
2005,2005-03-18,Viseu,Vila Nova de Paiva,Pendilhe,PENDILHE,40.9063698,-7.8366812,NC,746.0,2005-03-18T17:00,19.0,36,3.5,14.7,0.0,0.0,0.0,0.0,1,1019.2,934.7,46,0,31,93,0.27,1.41,19.1,28.5,148,148,44.3,16.7,11.1,6.6,6.2,0.227,0.262,0.302,0.321,1,3600.0,234.1,126.8,107.2,410.5,234.1,426.7,299.0,162.0,137.0,410.5,299.0,545.1,Magnoliopsida; Tracheophyta; Pinus pinaster Aiton; 
2005,2005-03-19,Viseu,Tarouca,Mondim da Beira,Quinta do Granjal,40.99439925,-7.746044561251945,NC,546.0,2005-03-19T13:00,19.9,44,7.2,18.0,0.0,0.0,0.0,0.0,2,1016.6,954.3,64,9,51,86,0.45,1.31,14.4,18.9,148,149,41.8,18.7,10.9,7.3,6.1,0.198,0.231,0.277,0.303,1,3600.0,718.2,559.4,158.8,749.4,718.2,1030.5,719.0,560.0,159.0,749.4,719.0,1031.7,Tracheophyta; Magnoliopsida; Pinus pinaster Aiton; Pinales; Castanea sativa Mill.; Vitis vinifera L.
2005,2005-03-19,Viseu,São João da Pesqueira,Ervedosa do Douro,Senhora do Vencimento,41.15919255,-7.444216241333938,NC,760.0,2005-03-19T08:00,9.1,59,1.5,6.2,0.0,0.0,0.0,0.0,3,1018.8,930.0,86,0,95,95,0.06,0.48,7.0,10.4,78,104,19.1,7.3,9.1,6.2,5.3,0.151,0.202,0.243,0.287,1,517.88,120.9,20.4,100.5,78.3,119.7,359.9,77.0,13.0,64.0,77.6,77.0,229.1,Magnoliopsida; Vitis vinifera L.; Pinus pinaster Aiton
2005,2005-03-19,Viseu,Cinfães,Nespereira,CADAFAS,41.0012055,-8.1765373,NC,300.0,2005-03-19T10:00,17.3,51,7.0,15.5,0.0,0.0,0.0,0.0,2,1017.6,982.4,80,5,97,56,0.22,0.97,7.0,9.6,125,124,20.5,13.8,10.9,8.5,7.4,0.214,0.262,0.313,0.345,1,3600.0,389.9,180.1,209.8,315.8,389.9,787.4,342.0,158.0,184.0,315.8,342.0,690.7,Tracheophyta; Magnoliopsida; Eucalyptus L'Hér.
2005,2005-03-19,Viseu,Tarouca,Mondim da Beira,ALMODAFA,40.99439925,-7.746044561251945,NC,546.0,2005-03-19T12:00,18.8,44,6.3,16.7,0.0,0.0,0.0,0.0,3,1017.7,955.1,91,23,97,40,0.42,1.21,13.2,17.3,137,138,40.0,17.3,10.6,7.3,6.1,0.199,0.231,0.277,0.303,1,3600.0,709.7,547.3,162.4,740.3,709.7,1020.7,686.0,529.0,157.0,740.3,686.0,986.6,Tracheophyta; Magnoliopsida; Pinus pinaster Aiton; Pinales; Castanea sativa Mill.; Vitis vinifera L.
2005,2005-03-18,Viseu,Moimenta da Beira,Ariz,ARIZ,40.9073535,-7.6559543,NC,812.0,2005-03-18T20:00,13.9,35,-1.4,10.5,0.0,0.0,0.0,0.0,0,1020.2,927.1,2,0,0,7,0.06,1.04,7.9,18.3,129,144,26.6,12.8,11.1,6.4,6.0,0.219,0.243,0.28,0.303,0,0.0,0.0,0.0,0.0,0.0,0.0,0.0,0.0,0.0,0.0,0.0,0.0,0.0,Magnoliopsida; Pinus pinaster Aiton; Tracheophyta; Eucalyptus L'Hér.
2005,2005-03-19,Viseu,Oliveira de Frades,Reigoso,Entre Águas,40.6919897,-8.2621508,NC,452.0,2005-03-19T16:00,19.8,45,7.4,16.7,0.0,0.0,0.0,0.0,3,1014.9,963.0,89,0,99,100,0.2,1.28,17.0,24.2,175,175,41.4,17.8,13.2,9.4,8.3,0.171,0.241,0.301,0.339,1,0.0,120.7,1.7,118.9,3.6,120.7,670.6,138.0,2.0,136.0,3.6,138.0,767.0,Eucalyptus L'Hér.; Pinus pinaster Aiton; Magnoliopsida; Tracheophyta; Quercus L.; Olea europaea L.
2005,2005-03-19,Viseu,Moimenta da Beira,Castelo,CASTELO,41.0352174,-7.619930717017676,NC,715.0,2005-03-19T17:00,17.9,45,5.9,14.8,0.0,0.0,0.0,0.0,3,1016.2,935.0,87,0,96,98,0.17,1.12,14.4,23.4,180,180,36.7,16.5,11.9,7.3,6.6,0.199,0.225,0.261,0.295,1,0.0,111.1,11.7,99.4,38.0,111.1,426.7,142.0,15.0,127.0,38.0,142.0,545.1,Tracheophyta; Olea europaea L.; Pinus pinaster Aiton; Castanea sativa Mill.; Magnoliopsida
2005,2005-03-14,Viseu,Sernancelhe,Granjal,GRANJAL,40.8880426,-7.5303027,NC,686.0,2005-03-14T14:00,13.8,48,3.0,11.5,0.0,0.0,0.0,0.0,3,1013.4,934.5,100,89,91,43,0.21,0.82,5.1,6.2,262,260,17.6,13.1,7.9,5.6,7.2,0.205,0.219,0.229,0.276,1,0.0,321.0,23.1,297.8,33.9,321.0,945.3,333.0,24.0,309.0,33.9,333.0,980.8,Magnoliopsida; Quercus L.; Castanea sativa Mill.; Pinus pinaster Aiton; Tracheophyta; 
2005,2005-03-19,Viseu,Viseu,Lordosa,BIGAS,40.7457777,-7.9052905,NC,538.0,2005-03-19T18:00,17.2,54,7.8,15.6,0.4,0.4,0.0,0.0,51,1016.9,954.9,100,63,100,100,0.08,0.91,7.3,15.9,213,208,36.4,15.6,12.4,8.4,7.3,0.179,0.249,0.301,0.323,1,0.0,33.5,2.3,31.2,18.1,33.5,173.7,59.0,4.0,55.0,18.1,59.0,305.8,Pinus pinaster Aiton; Magnoliopsida; Tracheophyta
2005,2005-03-19,Viseu,Santa Comba Dão,São Joaninho,SÃO JOANINHO,40.45075455,-8.130012150133478,NC,321.0,2005-03-19T19:00,14.6,79,10.9,14.7,1.4,1.4,0.0,0.0,61,1017.3,979.4,85,5,93,81,0.02,0.35,1.5,2.4,45,207,28.4,15.6,13.8,9.8,8.7,0.172,0.228,0.283,0.299,0,0.0,0.0,0.0,0.0,0.0,0.0,0.0,4.0,0.0,4.0,0.0,4.0,79.5,Vitis vinifera L.; Tracheophyta; Eucalyptus L'Hér.; Pinus pinaster Aiton; Magnoliopsida
2005,2005-04-01,Viseu,Castro Daire,Almofala,ALMOFALA,40.95422045,-7.795488588674065,NC,860.0,2005-04-01T18:00,11.1,81,8.1,9.5,1.0,1.0,0.0,0.0,55,1010.2,911.9,73,3,76,82,0.05,0.25,7.9,16.6,183,176,40.3,13.0,11.9,8.3,6.0,0.392,0.361,0.328,0.316,1,352.9,50.5,12.1,38.4,71.8,50.5,231.9,79.0,19.0,60.0,71.8,79.0,362.8,Tracheophyta; Castanea sativa Mill.; Magnoliopsida; Pinus pinaster Aiton
2005,2005-03-17,Viseu,Vila Nova de Paiva,Alhais,ALHAIS,40.8692442,-7.713586,NC,799.0,2005-03-17T12:00,17.5,47,6.1,16.4,0.0,0.0,0.0,0.0,1,1026.6,935.4,39,0,49,31,0.42,1.06,8.2,10.5,119,121,30.2,15.2,8.4,5.9,6.1,0.231,0.249,0.282,0.303,1,3600.0,757.1,631.8,125.3,864.1,757.1,1010.6,731.0,610.0,121.0,864.1,731.0,975.8,Magnoliopsida; Eucalyptus L'Hér.; Pinus pinaster Aiton; Tracheophyta; Quercus L.; Acacia Mill.; Olea europaea L.; Quercus suber L.; 
2005,2005-04-07,Viseu,Nelas,Nelas,NELAS,40.51924,-7.859607564669652,NC,422.0,2005-04-07T18:00,16.3,66,10.0,15.1,0.0,0.0,0.0,0.0,2,1008.5,959.7,51,24,49,0,0.11,0.62,8.4,13.6,317,320,30.2,15.9,14.1,11.3,8.9,0.359,0.365,0.343,0.32,1,3600.0,112.0,73.5,38.4,390.5,112.0,257.1,169.0,111.0,58.0,390.5,169.0,388.1,Pinus pinaster Aiton; Magnoliopsida; Vitis vinifera L.; Tracheophyta
2005,2005-03-22,Viseu,São Pedro do Sul,São Martinho das Moitas,DRAVE,40.8834837,-8.0312983,NC,663.0,2005-03-22T16:00,14.3,47,3.1,10.5,0.0,0.0,0.0,0.0,3,1011.8,935.7,98,39,58,95,0.27,0.87,15.3,21.9,207,205,37.4,14.8,11.1,8.4,6.6,0.353,0.327,0.308,0.337,1,3600.0,406.2,246.9,159.3,500.6,406.2,679.7,464.0,282.0,182.0,500.6,464.0,776.4,Magnoliopsida; Vitis vinifera L.; Pinus pinaster Aiton; Eucalyptus L'Hér.; Tracheophyta; Pinales; 
2005,2005-04-09,Viseu,Viseu,São Cipriano,SOUTULHO,41.0626879,-7.9934147,NC,585.0,2005-04-09T11:00,9.0,53,0.1,6.7,0.0,0.0,0.0,0.0,0,1027.1,957.3,0,0,0,0,0.33,0.54,10.5,13.8,38,39,41.0,11.8,8.9,10.2,7.4,0.353,0.365,0.367,0.329,1,3600.0,818.3,708.7,109.6,916.8,818.3,1054.5,769.0,666.0,103.0,916.8,769.0,991.0,Pinus pinaster Aiton; Pinales; Magnoliopsida; Olea europaea L.; Tracheophyta; Eucalyptus L'Hér.; 
2005,2005-03-18,Viseu,Cinfães,Santiago de Piães,MOGUS,41.0701644,-8.1554173,NC,342.0,2005-03-18T22:00,13.3,55,4.5,10.4,0.0,0.0,0.0,0.0,1,1019.0,978.4,25,0,11,61,0.05,0.68,11.2,16.0,94,99,23.0,11.2,12.4,8.0,7.1,0.212,0.263,0.313,0.345,0,0.0,0.0,0.0,0.0,0.0,0.0,0.0,0.0,0.0,0.0,0.0,0.0,0.0,Magnoliopsida; Pinus pinaster Aiton; Quercus L.; Tracheophyta; Eucalyptus L'Hér.; Castanea sativa Mill.; 
2005,2005-03-22,Viseu,Lamego,Lamego (sé),ESTRADA DOS REMEDIOS,41.093051200000005,-7.798001084780305,NC,520.0,2005-03-22T21:00,11.3,59,3.6,8.8,0.0,0.0,0.0,0.0,1,1012.0,951.1,32,2,0,99,0.02,0.54,6.6,7.8,139,146,15.8,10.2,11.8,8.6,6.4,0.324,0.256,0.275,0.303,0,0.0,0.0,0.0,0.0,0.0,0.0,0.0,0.0,0.0,0.0,0.0,0.0,0.0,Magnoliopsida; Olea europaea L.; Tracheophyta; Vitis vinifera L.; Pinales
2005,2005-03-19,Viseu,Tondela,Lobão da Beira,TAIPAS,40.5223677,-8.0327034,NC,321.0,2005-03-19T13:00,19.6,46,7.6,16.8,0.0,0.0,0.0,0.0,1,1016.3,979.1,33,2,2,100,0.35,1.24,15.1,20.0,140,141,40.0,18.5,12.3,9.3,8.4,0.164,0.232,0.283,0.297,1,3600.0,512.9,216.0,297.0,287.0,512.9,1039.0,513.0,216.0,297.0,287.0,513.0,1039.2,Tracheophyta; Eucalyptus L'Hér.; Vitis vinifera L.; Pinales; Magnoliopsida
2005,2005-03-20,Viseu,Lamego,Figueira,FIGUEIRA,41.1024727,-7.7607833,NC,485.0,2005-03-20T03:00,8.9,96,8.3,7.7,0.0,0.0,0.0,0.0,3,1015.2,957.6,92,17,77,100,0.0,0.05,5.3,7.8,118,167,20.2,8.8,11.0,7.5,6.1,0.255,0.252,0.295,0.315,0,0.0,0.0,0.0,0.0,0.0,0.0,0.0,0.0,0.0,0.0,0.0,0.0,0.0,Vitis vinifera L.; Magnoliopsida; Tracheophyta; Olea europaea L.; Pinales; 
2005,2005-03-19,Viseu,Tondela,Guardão,Laceiras,40.546842,-8.1855782,NC,862.0,2005-03-19T01:00,7.7,53,-1.2,4.4,0.0,0.0,0.0,0.0,2,1018.5,918.1,68,0,65,97,0.02,0.49,7.2,17.8,93,126,20.2,8.3,10.3,6.6,5.9,0.165,0.234,0.29,0.31,0,0.0,0.0,0.0,0.0,0.0,0.0,0.0,0.0,0.0,0.0,0.0,0.0,0.0,Magnoliopsida; Pinus pinaster Aiton; Eucalyptus L'Hér.
2005,2005-03-14,Viseu,Viseu,Cota,Vouguinha,40.7721907,-7.7985545,NC,493.0,2005-03-14T23:00,11.0,75,6.8,9.4,0.0,0.0,0.0,0.0,1,1017.0,958.8,40,40,7,0,0.0,0.32,5.2,7.6,214,225,6.1,7.7,9.0,6.5,7.3,0.237,0.266,0.305,0.323,0,0.0,0.0,0.0,0.0,0.0,0.0,0.0,0.0,0.0,0.0,0.0,0.0,0.0,Pinus pinaster Aiton; Olea europaea L.
2005,2005-03-15,Viseu,Lamego,Bigorne,BIGORNE,41.0143628,-7.879923964542126,NC,980.0,2005-03-15T16:00,15.3,42,2.5,12.6,0.0,0.0,0.0,0.0,1,1019.8,909.2,43,0,72,0,0.3,1.01,7.2,9.4,186,184,26.3,14.2,7.2,3.9,4.7,0.251,0.274,0.309,0.326,1,3600.0,458.4,376.7,81.8,811.1,458.4,642.5,527.0,433.0,94.0,811.1,527.0,738.6,Tracheophyta; Magnoliopsida; Pinus pinaster Aiton; Pinales; Castanea sativa Mill.; 
2005,2005-03-15,Viseu,Cinfães,Fornelos,FURNAS,41.03267975,-8.108007450852401,NC,963.0,2005-03-15T19:00,12.1,64,5.6,9.9,0.0,0.0,0.0,0.0,0,1020.9,910.8,0,0,0,0,0.04,0.51,8.2,12.0,221,219,18.0,10.5,7.9,4.1,4.8,0.242,0.276,0.317,0.338,0,225.48,0.0,0.0,0.0,0.0,0.0,0.0,17.0,9.0,8.0,97.7,17.0,67.4,Quercus L.; Eucalyptus L'Hér.; Magnoliopsida; Vitis vinifera L.; Tracheophyta; Pinales; 
2005,2005-01-27,Viseu,Vila Nova de Paiva,Touro,Quinta do Viduinho,40.9279182,-7.7232702,NC,908.0,2005-01-27T18:00,0.3,43,-10.8,-4.3,0.0,0.0,0.0,0.0,0,1019.0,910.8,0,0,0,0,0.04,0.35,8.4,22.1,25,30,33.1,-0.1,0.7,4.3,8.1,0.313,0.32,0.329,0.318,0,448.51,0.0,0.0,0.0,0.0,0.0,0.0,21.0,12.0,9.0,133.0,21.0,66.7,Magnoliopsida; Pinus pinaster Aiton; Tracheophyta; Eucalyptus L'Hér.; Quercus L.; 
2005,2005-03-24,Viseu,Cinfães,São Cristovão De Nogueira,CARVALHAIS,41.0736335,-8.1294062,NC,269.0,2005-03-24T23:00,10.1,81,7.0,7.8,0.0,0.0,0.0,0.0,1,1010.5,978.3,48,11,14,98,0.01,0.23,10.5,16.2,98,122,22.3,10.2,11.9,9.7,7.5,0.344,0.339,0.31,0.341,0,0.0,0.0,0.0,0.0,0.0,0.0,0.0,0.0,0.0,0.0,0.0,0.0,0.0,Magnoliopsida; Pinus pinaster Aiton; Tracheophyta; Quercus L.; Vitis vinifera L.
2005,2005-03-31,Viseu,Carregal do Sal,Currelos,LUGAR DE SÃO DOMINGOS,40.4221509,-8.0017875,NC,288.0,2005-03-31T17:00,22.4,49,11.0,20.9,0.0,0.0,0.0,0.0,1,1012.2,979.2,30,0,0,100,0.27,1.39,11.8,22.4,113,116,23.0,18.6,13.6,10.7,8.7,0.343,0.357,0.288,0.29,1,3600.0,285.8,153.0,132.9,427.0,285.8,491.3,355.0,190.0,165.0,427.0,355.0,610.1,Magnoliopsida; Tracheophyta; Vitis vinifera L.; Olea europaea L.; Pinus pinaster Aiton
2005,2005-04-10,Viseu,São João da Pesqueira,Castanheiro do Sul,CASTANHEIRO SUL,41.1311593,-7.4950235,NC,342.0,2005-04-10T11:00,9.2,50,-0.6,7.0,0.0,0.0,0.0,0.0,0,1032.2,990.5,0,0,0,0,0.34,0.58,9.1,12.0,81,81,29.9,12.6,9.6,11.1,8.2,0.326,0.336,0.294,0.296,1,3600.0,831.7,726.5,105.2,932.8,831.7,1062.0,783.0,684.0,99.0,932.8,783.0,999.8,Tracheophyta; Magnoliopsida; Vitis vinifera L.; Pinales; Olea europaea L.
2005,2005-03-17,Viseu,Moimenta da Beira,Castelo,CASTELO,41.0352174,-7.619930717017676,NC,715.0,2005-03-17T12:00,17.9,46,6.1,16.8,0.0,0.0,0.0,0.0,1,1026.7,944.7,49,0,58,48,0.42,1.11,7.8,9.8,112,114,29.2,16.2,8.9,6.3,6.5,0.214,0.233,0.263,0.295,1,3600.0,749.6,610.9,138.7,837.1,749.6,1008.6,724.0,590.0,134.0,837.1,724.0,974.2,Tracheophyta; Olea europaea L.; Pinus pinaster Aiton; Castanea sativa Mill.; Magnoliopsida
2005,2005-04-05,Viseu,Cinfães,Fornelos,SEQUEIROS,40.9094367,-8.0574794,NC,462.0,2005-04-05T20:00,14.7,79,11.1,14.3,0.0,0.0,0.0,0.0,2,1023.8,969.4,65,23,24,99,0.0,0.35,4.8,5.7,283,288,11.9,13.0,13.1,10.8,8.2,0.388,0.394,0.38,0.334,0,0.0,0.0,0.0,0.0,0.0,0.0,0.0,0.0,0.0,0.0,0.0,0.0,0.0,Quercus L.; Eucalyptus L'Hér.; Magnoliopsida; Vitis vinifera L.; Tracheophyta; Pinales; 
2005,2005-04-27,Viseu,Tondela,Vilar de Besteiros,TABUACA,40.5781355,-8.0785334,NC,353.0,2005-04-27T15:00,20.1,50,9.4,19.8,0.0,0.0,0.0,0.0,0,1016.1,975.3,3,0,0,11,0.49,1.18,11.9,14.8,268,267,27.0,21.0,14.0,11.2,9.8,0.302,0.327,0.316,0.298,1,3600.0,767.1,669.9,97.2,905.0,767.1,999.7,821.0,717.0,104.0,905.0,821.0,1070.0,Eucalyptus L'Hér.; Tracheophyta; Pinus pinaster Aiton; Magnoliopsida; Vitis vinifera L.
2005,2005-03-17,Viseu,Castro Daire,Mezio,MÉZIO,40.9796891,-7.8866874,NC,898.0,2005-03-17T19:00,15.6,45,3.6,12.7,0.0,0.0,0.0,0.0,1,1024.0,921.8,22,0,15,45,0.08,0.99,10.0,14.8,77,87,22.7,13.0,9.9,5.3,5.3,0.237,0.268,0.307,0.326,0,240.54,0.0,0.0,0.0,0.0,0.0,0.0,19.0,9.0,10.0,94.0,19.0,72.3,Magnoliopsida; Tracheophyta
2005,2005-03-19,Viseu,São João da Pesqueira,São João da Pesqueira,Quinta do Fairrão,41.14216785,-7.413788551003492,NC,649.0,2005-03-19T17:00,18.7,43,5.7,15.9,0.0,0.0,0.0,0.0,3,1015.2,941.4,88,0,98,98,0.16,1.23,11.9,19.8,177,177,36.7,17.9,12.2,7.1,6.1,0.147,0.201,0.242,0.287,1,0.0,93.7,3.9,89.8,12.8,93.7,421.8,120.0,5.0,115.0,12.8,120.0,540.3,Magnoliopsida; Vitis vinifera L.; Olea europaea L.; Tracheophyta
2005,2005-03-16,Viseu,Carregal do Sal,Oliveira do Conde,Travanca de São Tomé,40.4605808,-7.9907626,NC,287.0,2005-03-16T16:00,19.3,48,7.9,18.0,0.0,0.0,0.0,0.0,3,1025.0,991.3,86,7,85,97,0.15,1.17,5.4,6.4,307,308,22.7,16.7,11.6,8.5,8.6,0.186,0.241,0.286,0.298,1,0.0,159.4,27.0,132.4,57.1,159.4,654.1,183.0,31.0,152.0,57.1,183.0,751.0,Tracheophyta; Magnoliopsida; Pinus pinaster Aiton; Vitis vinifera L.
2005,2005-03-16,Viseu,Castro Daire,São Joaninho,SÃO JOANINHO,40.91729505,-7.859615402566296,NC,751.0,2005-03-16T23:00,9.3,86,7.0,7.2,0.0,0.0,0.0,0.0,1,1027.2,938.7,41,1,64,4,0.0,0.17,9.5,14.5,53,63,10.8,7.6,8.9,5.7,5.8,0.239,0.269,0.309,0.333,0,0.0,0.0,0.0,0.0,0.0,0.0,0.0,0.0,0.0,0.0,0.0,0.0,0.0,Magnoliopsida; Pinus pinaster Aiton
2005,2005-03-17,Viseu,São João da Pesqueira,Pereiros,PEREIROS,41.07055835,-7.351793047507868,NC,716.0,2005-03-17T19:00,17.3,40,3.5,14.4,0.0,0.0,0.0,0.0,1,1024.1,942.0,35,0,37,43,0.08,1.19,9.4,14.3,90,102,18.7,15.4,11.5,6.4,6.4,0.172,0.203,0.232,0.28,0,161.07,0.0,0.0,0.0,0.0,0.0,0.0,18.0,8.0,10.0,86.5,18.0,67.7,Vitis vinifera L.; Tracheophyta; Eucalyptus L'Hér.; Magnoliopsida; Olea europaea L.
2005,2005-04-06,Viseu,Carregal do Sal,Currelos,CARREGAL,40.43322495,-8.007506106349345,NC,304.0,2005-04-06T15:00,19.9,47,8.4,18.5,0.0,0.0,0.0,0.0,1,1017.6,982.3,30,1,0,97,0.31,1.23,7.1,9.5,156,155,18.7,18.8,13.8,11.6,9.0,0.354,0.366,0.315,0.297,1,2610.26,432.4,100.4,332.0,147.0,432.4,933.6,465.0,108.0,357.0,147.0,465.0,1003.9,Tracheophyta; Olea europaea L.; Magnoliopsida; Pinales
2005,2005-03-19,Viseu,Cinfães,Cinfães,Vila Viçosa,41.0441012,-8.0770884,NC,666.0,2005-03-19T21:00,11.3,92,10.1,10.7,0.2,0.2,0.0,0.0,51,1016.8,939.2,18,5,5,35,0.0,0.1,4.8,8.1,117,135,17.3,11.9,11.7,7.5,6.4,0.248,0.261,0.311,0.343,0,0.0,0.0,0.0,0.0,0.0,0.0,0.0,0.0,0.0,0.0,0.0,0.0,0.0,Magnoliopsida; Tracheophyta
2005,2005-04-09,Viseu,Vila Nova de Paiva,Touro,TOURO,40.9401466,-7.7762141,NC,825.0,2005-04-09T17:00,11.3,41,-1.6,6.7,0.0,0.0,0.0,0.0,0,1024.2,928.4,0,0,0,0,0.24,0.8,15.3,20.5,24,24,39.6,12.6,9.6,9.1,6.5,0.352,0.367,0.358,0.321,1,3600.0,366.6,296.4,70.2,772.7,366.6,523.2,449.0,363.0,86.0,772.7,449.0,640.8,Magnoliopsida; Pinus pinaster Aiton; Tracheophyta; Eucalyptus L'Hér.; Quercus L.; 
2005,2005-03-17,Viseu,Tarouca,Tarouca,TEIXELO,41.006715,-7.784047207595763,NC,732.0,2005-03-17T14:00,19.9,41,6.2,18.8,0.0,0.0,0.0,0.0,2,1025.2,942.0,55,1,58,65,0.46,1.37,8.4,10.5,110,112,29.9,17.8,9.6,6.2,6.3,0.246,0.264,0.298,0.317,1,3600.0,715.4,594.8,120.5,856.6,715.4,959.7,742.0,617.0,125.0,856.6,742.0,995.5,Tracheophyta; Magnoliopsida; Pinus pinaster Aiton; Pinales; Castanea sativa Mill.; 
2005,2005-04-10,Viseu,Cinfães,Souselo,OLIVEIRA DOURO,41.0697904,-8.231169,NC,187.0,2005-04-10T11:00,12.1,47,1.1,10.3,0.0,0.0,0.0,0.0,0,1030.9,1008.1,0,0,0,0,0.37,0.75,8.4,10.8,83,86,26.6,13.4,10.4,11.8,9.3,0.337,0.356,0.369,0.343,1,3600.0,821.3,717.0,104.3,923.7,821.3,1058.4,772.0,674.0,98.0,923.7,772.0,994.9,Tracheophyta; Vitis vinifera L.; Magnoliopsida; Eucalyptus L'Hér.; Pinus pinaster Aiton
2005,2005-04-28,Viseu,Tondela,Canas de Santa Maria,AMIEIRA,40.5537284,-8.0610565,NC,343.0,2005-04-28T17:00,20.0,49,9.1,18.2,0.0,0.0,0.0,0.0,0,1019.1,979.3,7,0,0,23,0.3,1.18,10.3,13.6,306,307,28.1,20.3,15.4,11.6,10.0,0.278,0.316,0.314,0.298,1,3600.0,396.3,286.5,109.7,649.4,396.3,595.5,473.0,342.0,131.0,649.4,473.0,710.8,Vitis vinifera L.; Eucalyptus L'Hér.; Acacia Mill.; Tracheophyta
2005,2005-04-11,Viseu,Cinfães,Oliveira Do Douro,Montão,41.0810992,-8.0489872,NC,356.0,2005-04-11T20:00,14.1,55,5.3,12.1,0.0,0.0,0.0,0.0,0,1022.7,980.5,0,0,0,0,0.02,0.72,6.2,8.3,353,355,16.2,11.8,11.9,10.3,8.0,0.313,0.342,0.365,0.338,0,0.0,0.0,0.0,0.0,0.0,0.0,0.0,0.0,0.0,0.0,0.0,0.0,0.0,Pinus pinaster Aiton; Magnoliopsida; Quercus L.; Tracheophyta; 
2005,2005-04-11,Viseu,Resende,Felgueiras,PIMEIRAL,41.0758008,-7.9399513,NC,603.0,2005-04-11T20:00,13.3,50,3.2,11.3,0.0,0.0,0.0,0.0,0,1022.8,952.3,0,0,0,0,0.0,0.76,2.7,5.4,67,70,15.8,11.2,11.3,9.8,7.4,0.319,0.34,0.351,0.321,0,0.0,0.0,0.0,0.0,0.0,0.0,0.0,0.0,0.0,0.0,0.0,0.0,0.0,Magnoliopsida; Pinales; Vitis vinifera L.; Pinus pinaster Aiton; Tracheophyta; ; Eucalyptus L'Hér.
2005,2005-03-18,Viseu,Viseu,São João de Lourosa,Oliveira de Barreiros,40.5960955,-7.9247902,NC,408.0,2005-03-18T15:00,21.9,33,4.9,18.0,0.0,0.0,0.0,0.0,1,1018.1,971.3,29,0,0,98,0.46,1.76,20.9,28.8,136,137,39.2,20.2,12.8,8.9,8.3,0.197,0.256,0.299,0.321,1,3600.0,582.7,427.3,155.4,697.6,582.7,846.0,630.0,462.0,168.0,697.6,630.0,914.8,Olea europaea L.; Vitis vinifera L.; Pinus pinaster Aiton; Tracheophyta; Magnoliopsida
2005,2005-04-16,Viseu,São Pedro do Sul,Várzea,DRIZES,40.74920385,-8.081602319173324,NC,165.0,2005-04-16T15:00,13.9,53,4.5,10.2,0.0,0.0,0.0,0.0,3,1020.3,1000.5,100,100,56,0,0.27,0.75,16.6,22.4,312,314,44.6,14.7,11.9,12.5,11.0,0.29,0.311,0.343,0.315,1,3600.0,422.4,142.7,279.7,200.4,422.4,967.3,453.0,153.0,300.0,200.4,453.0,1037.5,Magnoliopsida; Eucalyptus L'Hér.; Tracheophyta; Castanea sativa Mill.; Pinus pinaster Aiton; Acacia Mill.; Pinales; Olea europaea L.; Vitis vinifera L.; ; Quercus L.
2005,2005-04-25,Viseu,Nelas,Vilar Seco,Quinta do Fatão,40.5585471,-7.8645908,NC,384.0,2005-04-25T17:00,15.5,60,7.7,13.1,0.0,0.0,0.0,0.0,3,1017.9,972.9,88,98,0,0,0.18,0.71,12.6,17.0,290,291,24.8,16.0,12.8,10.8,9.7,0.345,0.35,0.332,0.32,1,3600.0,230.1,107.5,122.5,250.0,230.1,581.5,276.0,129.0,147.0,250.0,276.0,697.6,Magnoliopsida; Tracheophyta; Vitis vinifera L.; Olea europaea L.; Pinus pinaster Aiton
2005,2005-04-28,Viseu,Nelas,Canas de Senhorim,CANAS DE SENHORIM,40.4985075,-7.904444069997543,NC,354.0,2005-04-28T14:00,22.9,37,7.2,22.8,0.0,0.0,0.0,0.0,1,1019.0,978.4,22,0,0,74,0.6,1.77,10.1,12.3,266,265,25.9,22.7,14.8,11.6,9.8,0.279,0.317,0.321,0.314,1,3600.0,880.2,751.7,128.5,895.3,880.2,1133.4,911.0,778.0,133.0,895.3,911.0,1173.0,Tracheophyta; Castanea sativa Mill.; Magnoliopsida; Olea europaea L.; Vitis vinifera L.; Pinus pinaster Aiton
2005,2005-03-19,Viseu,Moimenta da Beira,Peva,SOUTOSA,40.8725994,-7.6913165,NC,798.0,2005-03-19T21:00,10.8,92,9.6,9.9,0.1,0.1,0.0,0.0,51,1017.2,924.9,39,0,50,30,0.0,0.1,5.5,8.0,148,170,16.9,11.6,11.2,7.0,6.1,0.234,0.241,0.279,0.303,0,0.0,0.0,0.0,0.0,0.0,0.0,0.0,0.0,0.0,0.0,0.0,0.0,0.0,Pinus pinaster Aiton; Tracheophyta; Magnoliopsida; Quercus L.
2005,2005-05-05,Viseu,Sernancelhe,Carregal,CARREGAL,40.909932,-7.5880944,NC,721.0,2005-05-05T15:00,20.3,27,0.8,17.0,0.0,0.0,0.0,0.0,0,1019.2,937.8,0,0,0,0,0.56,1.74,19.1,24.7,58,59,44.3,21.3,14.8,11.9,8.6,0.223,0.236,0.255,0.287,1,3600.0,797.1,700.7,96.4,929.0,797.1,1014.5,852.0,749.0,103.0,929.0,852.0,1084.4,Pinus pinaster Aiton; Vitis vinifera L.; Magnoliopsida; Tracheophyta; Quercus L.; Castanea sativa Mill.; Acacia Mill.; Pinales; 
2005,2005-04-29,Viseu,Sátão,Sátão,Muxos,40.74564085,-7.749994771738869,NC,613.0,2005-04-29T19:00,20.8,62,13.2,20.8,0.0,0.0,0.0,0.0,1,1013.5,944.3,34,0,21,70,0.08,0.93,6.9,10.9,279,287,13.0,18.7,15.6,10.8,8.4,0.233,0.292,0.31,0.31,1,3449.26,34.3,15.7,18.6,180.5,33.5,87.3,85.0,39.0,46.0,237.3,85.0,216.3,Pinus pinaster Aiton; Magnoliopsida; Pinales; Tracheophyta
2005,2005-03-19,Viseu,Tarouca,Várzea da Serra,VÁRZEA DA SERRA,40.997211,-7.82774,NC,899.0,2005-03-19T16:00,16.8,47,5.4,13.0,0.0,0.0,0.0,0.0,3,1015.2,914.1,89,0,100,98,0.2,1.01,18.1,24.7,159,159,42.5,15.3,10.4,6.1,5.3,0.231,0.256,0.295,0.317,1,0.0,167.5,24.4,143.1,51.0,167.5,660.6,192.0,28.0,164.0,51.0,192.0,757.3,Magnoliopsida; Eucalyptus L'Hér.; Tracheophyta; Castanea sativa Mill.; Pinus pinaster Aiton; Pinales
2005,2005-05-10,Viseu,Sernancelhe,Ferreirim,FERREIRIM,40.9402039,-7.5038174196179455,NC,584.0,2005-05-10T15:00,18.3,52,8.1,15.7,0.3,0.3,0.0,0.0,51,1012.3,945.7,46,33,24,6,0.35,1.02,14.5,19.0,251,251,44.6,21.0,16.6,14.0,9.8,0.188,0.184,0.212,0.271,1,3600.0,510.3,288.4,221.9,378.0,510.3,1023.9,545.0,308.0,237.0,378.0,545.0,1093.4,Magnoliopsida; Pinales; Vitis vinifera L.; Castanea sativa Mill.; Tracheophyta; Quercus L.; Pinus pinaster Aiton; Olea europaea L.; 
2005,2005-01-29,Viseu,Mangualde,Espinho,ESPINHO,40.55994625,-7.792263216980475,NC,411.0,2005-01-29T14:00,9.8,56,1.4,6.6,0.0,0.0,0.0,0.0,0,1019.0,969.9,0,0,0,0,0.24,0.53,8.4,11.2,40,40,24.1,6.3,2.4,6.1,10.6,0.283,0.303,0.324,0.318,1,3600.0,508.2,437.5,70.7,900.2,508.2,685.2,532.0,458.0,74.0,900.2,532.0,717.3,Eucalyptus L'Hér.; Tracheophyta; Magnoliopsida; Pinus pinaster Aiton; Olea europaea L.
2005,2005-03-31,Viseu,Oliveira de Frades,Arca,GANDARA,40.6054449,-8.2174316,NC,659.0,2005-03-31T21:00,13.9,62,6.8,11.9,0.0,0.0,0.0,0.0,1,1012.0,936.2,30,0,0,99,0.03,0.6,8.3,20.5,85,108,23.8,12.5,12.4,9.4,7.6,0.357,0.37,0.328,0.309,0,0.0,0.0,0.0,0.0,0.0,0.0,0.0,0.0,0.0,0.0,0.0,0.0,0.0,Magnoliopsida; Pinus pinaster Aiton; Tracheophyta; Pinales; Castanea sativa Mill.; Olea europaea L.; Quercus L.; Vitis vinifera L.; Eucalyptus L'Hér.
2005,2005-04-11,Viseu,Resende,São Romão de Aregos,PAREDES,40.4659709,-8.2843401,NC,404.0,2005-04-11T16:00,17.5,43,4.7,15.3,0.0,0.0,0.0,0.0,0,1022.6,975.4,0,0,0,0,0.37,1.14,9.8,12.9,24,27,26.6,17.9,12.1,11.1,9.2,0.281,0.321,0.331,0.307,1,3600.0,573.5,494.5,79.0,876.1,573.5,769.1,646.0,557.0,89.0,876.1,646.0,866.3,Eucalyptus L'Hér.
2005,2005-03-19,Viseu,Tarouca,Dálvares,Senhora da Guia,41.0368862,-7.7617456,NC,563.0,2005-03-19T18:00,17.8,49,7.0,15.9,0.0,0.0,0.0,0.0,3,1016.5,951.9,100,56,100,100,0.1,1.04,7.9,17.3,204,203,34.6,15.9,12.2,7.3,6.0,0.196,0.23,0.277,0.303,1,0.0,35.8,2.8,33.0,23.1,35.8,166.9,64.0,5.0,59.0,23.1,64.0,298.6,Tracheophyta; Magnoliopsida; Pinus pinaster Aiton; Pinales; Castanea sativa Mill.; Vitis vinifera L.
2005,2005-05-08,Viseu,Sernancelhe,Freixinho,FREIXINHO,40.93840805,-7.522686053474748,NC,629.0,2005-05-08T08:00,13.7,80,10.2,13.2,0.0,0.0,0.0,0.0,1,1014.2,941.5,26,0,0,85,0.12,0.32,4.0,5.1,275,278,14.8,15.6,16.0,13.2,9.3,0.152,0.191,0.214,0.271,1,3600.0,283.8,129.0,154.8,268.5,283.8,645.4,231.0,105.0,126.0,268.5,231.0,525.2,Pinus pinaster Aiton; Tracheophyta; Magnoliopsida; Castanea sativa Mill.; Vitis vinifera L.; Quercus L.; Olea europaea L.; 
2005,2005-05-08,Viseu,Mangualde,Santiago de Cassurrães,Contenças,40.5788253,-7.7039594,NC,519.0,2005-05-08T21:00,13.3,82,10.3,12.7,0.0,0.0,0.0,0.0,1,1013.8,953.3,32,7,0,85,0.0,0.27,5.1,10.3,278,282,22.7,16.3,17.4,13.3,9.6,0.17,0.258,0.311,0.311,0,0.0,0.0,0.0,0.0,0.0,0.0,0.0,0.0,0.0,0.0,0.0,0.0,0.0,Magnoliopsida; Olea europaea L.; Eucalyptus L'Hér.; Tracheophyta; Pinus pinaster Aiton
2005,2005-03-15,Viseu,Armamar,Aldeias,PEVA,41.1124752,-7.718589,NC,630.0,2005-03-15T11:00,13.6,62,6.5,12.3,0.0,0.0,0.0,0.0,2,1021.0,947.7,57,63,0,0,0.22,0.59,3.3,4.5,167,166,20.5,11.3,6.6,5.1,5.9,0.243,0.26,0.294,0.311,1,3600.0,438.7,228.0,210.7,345.5,438.7,913.0,406.0,211.0,195.0,345.5,406.0,845.0,Magnoliopsida; Vitis vinifera L.; Olea europaea L.; Castanea sativa Mill.; Tracheophyta
2005,2005-01-27,Viseu,Vila Nova de Paiva,Fráguas,TREMOLHA,40.8384326,-7.7700275,NC,695.0,2005-01-27T21:00,-2.8,70,-7.6,-7.4,0.0,0.0,0.0,0.0,0,1020.9,935.7,0,0,0,0,0.01,0.15,10.7,19.9,33,35,28.4,-0.3,1.5,5.3,9.2,0.295,0.311,0.327,0.31,0,0.0,0.0,0.0,0.0,0.0,0.0,0.0,0.0,0.0,0.0,0.0,0.0,0.0,Magnoliopsida; Pinus pinaster Aiton; Tracheophyta; Quercus L.
2005,2005-04-11,Viseu,Cinfães,Santiago de Piães,SEIXEDO,41.0701644,-8.1554173,NC,342.0,2005-04-11T17:00,17.2,46,5.4,14.8,0.0,0.0,0.0,0.0,0,1022.7,982.5,0,0,0,0,0.26,1.06,8.5,11.0,12,19,24.5,16.7,11.9,10.6,8.3,0.32,0.348,0.372,0.346,1,3600.0,364.8,292.5,72.3,741.7,364.8,537.3,444.0,356.0,88.0,741.7,444.0,653.9,Magnoliopsida; Pinus pinaster Aiton; Quercus L.; Tracheophyta; Eucalyptus L'Hér.; Castanea sativa Mill.; 
2005,2005-05-21,Viseu,Penedono,Souto,SOUTO,41.0223663,-7.359912599999999,NC,798.0,2005-05-21T14:00,18.2,43,5.2,16.1,0.0,0.0,0.0,0.0,3,1016.9,926.8,99,65,59,18,0.47,1.2,14.8,18.8,266,266,40.3,21.1,15.6,12.3,8.9,0.195,0.203,0.211,0.274,1,3600.0,751.0,441.3,309.7,503.2,751.0,1171.1,776.0,456.0,320.0,503.2,776.0,1210.1,Pinales; Magnoliopsida; Tracheophyta; Pinus pinaster Aiton; Castanea sativa Mill.; Eucalyptus L'Hér.; ; Vitis vinifera L.; Olea europaea L.
2005,2005-04-12,Viseu,São Pedro do Sul,Figueiredo de Alva,LADREDA,40.83534,-7.993894,NC,486.0,2005-04-12T16:00,17.5,43,4.9,15.0,0.0,0.0,0.0,0.0,0,1018.9,962.6,0,0,0,0,0.38,1.14,12.6,16.6,63,63,29.9,17.4,11.9,10.4,8.4,0.313,0.344,0.37,0.336,1,3600.0,574.5,496.3,78.1,880.5,574.5,767.6,647.0,559.0,88.0,880.5,647.0,864.6,Eucalyptus L'Hér.; Magnoliopsida; Tracheophyta; Pinus pinaster Aiton; Vitis vinifera L.; 
2005,2005-01-28,Viseu,Vouzela,Carvalhal de Vermilhas,CARVALHAL DE VERMILHAS,40.6523247,-8.144778747357723,NC,808.0,2005-01-28T17:00,5.0,56,-3.0,1.5,0.0,0.0,0.0,0.0,0,1020.8,925.2,11,12,0,0,0.06,0.38,6.3,14.5,301,305,22.0,2.3,0.6,4.5,8.4,0.315,0.329,0.351,0.354,1,3600.0,68.7,26.3,42.4,220.4,68.7,168.1,115.0,44.0,71.0,220.4,115.0,281.5,Eucalyptus L'Hér.; Magnoliopsida; Tracheophyta; Pinus pinaster Aiton; Quercus L.; Olea europaea L.; 
2005,2005-03-19,Viseu,São João da Pesqueira,Trevões,TREVÕES,41.081614,-7.435458,NC,580.0,2005-03-19T20:00,13.4,80,10.1,12.7,0.6,0.6,0.0,0.0,53,1017.3,949.8,97,12,97,94,0.0,0.3,5.5,9.7,212,219,19.4,14.3,12.8,7.7,6.5,0.161,0.2,0.242,0.287,0,0.0,0.0,0.0,0.0,0.0,0.0,0.0,0.0,0.0,0.0,0.0,0.0,0.0,Olea europaea L.; Castanea sativa Mill.; Vitis vinifera L.; Magnoliopsida; Tracheophyta
2005,2005-03-19,Viseu,Tarouca,Tarouca,SANTA HELENA,41.0015859,-7.7952714,NC,1092.0,2005-03-19T16:00,15.4,47,4.2,11.3,0.0,0.0,0.0,0.0,3,1015.2,893.5,89,0,100,98,0.19,0.92,18.1,24.7,159,159,42.5,13.9,9.1,4.9,4.0,0.223,0.261,0.305,0.326,1,0.0,167.6,24.4,143.2,50.9,167.6,662.4,192.0,28.0,164.0,50.9,192.0,758.8,Tracheophyta; Magnoliopsida; Pinus pinaster Aiton; Pinales; Castanea sativa Mill.; 
2005,2005-04-01,Viseu,São Pedro do Sul,São Pedro do Sul,Cotens,40.7613249,-8.057453059592005,NC,174.0,2005-04-01T14:00,20.1,55,10.6,19.2,0.1,0.1,0.0,0.0,51,1009.4,989.2,28,4,31,18,0.38,1.07,9.5,11.8,205,203,41.8,20.2,15.5,12.4,10.3,0.35,0.364,0.336,0.314,1,3600.0,576.3,360.1,216.2,474.6,576.3,1039.7,597.0,373.0,224.0,474.6,597.0,1077.0,Olea europaea L.; Magnoliopsida; Tracheophyta; Acacia Mill.; Vitis vinifera L.; Pinus pinaster Aiton
2005,2005-05-22,Viseu,Castro Daire,Mões,Casais de Dona Inês,40.8802017,-7.9212634,NC,564.0,2005-05-22T21:00,10.2,82,7.3,8.7,0.0,0.0,0.0,0.0,1,1021.5,954.8,21,16,0,21,0.0,0.22,5.5,11.8,302,310,20.9,12.5,14.2,12.7,9.9,0.309,0.332,0.338,0.323,0,0.0,0.0,0.0,0.0,0.0,0.0,0.0,0.0,0.0,0.0,0.0,0.0,0.0,Magnoliopsida; Pinus pinaster Aiton; Tracheophyta
2005,2005-03-19,Viseu,Lamego,Bigorne,BIGORNE,41.0143628,-7.879923964542126,NC,980.0,2005-03-19T18:00,14.3,53,5.0,12.0,0.0,0.0,0.0,0.0,3,1016.5,905.9,100,56,100,100,0.08,0.76,7.9,17.3,204,203,34.6,13.1,10.0,5.7,4.7,0.224,0.261,0.305,0.326,1,0.0,36.4,2.8,33.6,22.6,36.4,173.8,64.0,5.0,59.0,22.6,64.0,305.3,Tracheophyta; Magnoliopsida; Pinus pinaster Aiton; Pinales; Castanea sativa Mill.; 
2005,2005-03-19,Viseu,Armamar,Santa Cruz,VILA NOVA,41.05199795,-7.677612439680218,NC,834.0,2005-03-19T19:00,11.9,84,9.3,10.9,0.5,0.5,0.0,0.0,53,1017.5,921.6,100,22,99,98,0.03,0.22,5.4,13.9,217,211,24.5,13.0,11.1,6.6,5.7,0.242,0.255,0.295,0.317,0,0.0,0.0,0.0,0.0,0.0,0.0,0.0,4.0,0.0,4.0,0.0,4.0,76.0,Magnoliopsida; Pinus pinaster Aiton; Quercus L.; Vitis vinifera L.; Eucalyptus L'Hér.; Acacia Mill.; Tracheophyta; Castanea sativa Mill.; Quercus suber L.; 
2005,2005-03-17,Viseu,Lamego,Vila Nova De Souto D' El-rei,JUVANDES,41.0630216,-7.8352759,NC,810.0,2005-03-17T19:00,16.2,44,3.8,13.4,0.0,0.0,0.0,0.0,1,1024.1,931.5,35,0,37,43,0.08,1.04,9.4,14.3,90,102,18.7,13.7,10.5,5.8,5.8,0.243,0.262,0.298,0.317,0,166.94,0.0,0.0,0.0,0.0,0.0,0.0,18.0,8.0,10.0,83.5,18.0,72.3,Tracheophyta; Magnoliopsida
2005,2005-04-27,Viseu,Moimenta da Beira,Castelo,CASTELO,41.0352174,-7.619930717017676,NC,715.0,2005-04-27T16:00,20.3,42,7.1,18.4,0.0,0.0,0.0,0.0,0,1015.5,935.0,10,0,0,33,0.43,1.38,12.8,16.2,259,257,25.6,20.8,13.6,9.9,8.0,0.274,0.282,0.276,0.293,1,3600.0,606.1,521.2,84.9,869.8,606.1,809.1,678.0,583.0,95.0,869.8,678.0,905.2,Tracheophyta; Olea europaea L.; Pinus pinaster Aiton; Castanea sativa Mill.; Magnoliopsida
2005,2005-04-07,Viseu,Oliveira de Frades,Arcozelo das Maias,ARCOZELO DAS MAIAS,40.735324,-8.27226669989817,NC,341.0,2005-04-07T16:00,17.5,64,10.6,16.2,0.0,0.0,0.0,0.0,1,1009.0,969.5,40,22,34,0,0.24,0.72,10.7,14.5,312,316,37.1,18.2,15.0,12.3,9.7,0.377,0.377,0.377,0.34,1,3600.0,340.4,223.4,117.0,404.3,340.4,754.5,384.0,252.0,132.0,404.3,384.0,851.1,Eucalyptus L'Hér.; Pinus pinaster Aiton; Magnoliopsida; Tracheophyta; Quercus L.; Olea europaea L.
2005,2005-03-18,Viseu,Nelas,Nelas,NELAS,40.51924,-7.859607564669652,NC,422.0,2005-03-18T12:00,20.2,36,4.6,16.7,0.0,0.0,0.0,0.0,0,1020.9,972.2,1,0,1,0,0.47,1.52,20.8,28.2,118,118,51.1,17.8,11.7,8.7,8.2,0.202,0.257,0.3,0.321,1,3600.0,744.5,640.9,103.5,866.4,744.5,1021.9,719.0,619.0,100.0,866.4,719.0,987.0,Pinus pinaster Aiton; Magnoliopsida; Vitis vinifera L.; Tracheophyta
2005,2005-05-24,Viseu,Castro Daire,Castro Daire,Vila Pouca,40.9104893,-7.921968687542738,NC,690.0,2005-05-24T16:00,24.4,40,9.9,24.4,0.0,0.0,0.0,0.0,0,1017.2,940.3,3,0,0,9,0.49,1.84,7.2,8.8,252,251,23.0,22.9,15.8,12.3,9.4,0.287,0.324,0.351,0.337,1,3600.0,650.5,551.8,98.8,836.2,650.5,880.2,718.0,609.0,109.0,836.2,718.0,971.4,Pinus pinaster Aiton; Olea europaea L.; Tracheophyta; Magnoliopsida
2005,2005-05-25,Viseu,Mangualde,Mesquitela,MESQUITELA,40.58571205,-7.740977071282554,NC,502.0,2005-05-25T11:00,25.7,37,10.1,27.3,0.0,0.0,0.0,0.0,0,1019.2,962.7,5,0,0,16,0.59,2.07,3.5,4.5,156,151,20.9,25.8,17.2,13.8,10.5,0.164,0.253,0.284,0.304,1,3600.0,906.6,789.1,117.5,885.5,906.6,1188.3,864.0,752.0,112.0,885.5,864.0,1132.5,Vitis vinifera L.; Tracheophyta; Magnoliopsida; Pinus pinaster Aiton; Eucalyptus L'Hér.; Olea europaea L.
2005,2005-03-18,Viseu,Cinfães,Travanca,BERTELO,41.0411838,-8.2145226,NC,332.0,2005-03-18T13:00,22.9,34,6.0,20.6,0.0,0.0,0.0,0.0,0,1018.9,980.7,0,0,0,1,0.53,1.86,16.7,22.9,127,127,47.5,19.5,12.0,8.8,8.1,0.207,0.258,0.311,0.349,1,3600.0,769.4,668.4,101.1,899.9,769.4,1025.9,769.0,668.0,101.0,899.9,769.0,1025.4,Pinus pinaster Aiton; Magnoliopsida; Tracheophyta; Eucalyptus L'Hér.; Vitis vinifera L.; Quercus L.; ; Castanea sativa Mill.
2005,2005-03-20,Viseu,Lamego,Figueira,FIGUEIRA,41.1024727,-7.7607833,NC,485.0,2005-03-20T02:00,8.7,97,8.2,7.2,0.0,0.0,0.0,0.0,1,1014.6,957.0,46,9,14,99,0.0,0.04,7.0,9.7,111,121,20.9,8.9,11.2,7.5,6.1,0.255,0.252,0.295,0.315,0,0.0,0.0,0.0,0.0,0.0,0.0,0.0,0.0,0.0,0.0,0.0,0.0,0.0,Vitis vinifera L.; Magnoliopsida; Tracheophyta; Olea europaea L.; Pinales; 
2005,2005-05-25,Viseu,Vila Nova de Paiva,Touro,TOURO,40.9401466,-7.7762141,NC,825.0,2005-05-25T21:00,16.8,79,13.0,16.9,0.0,0.0,0.0,0.0,0,1019.1,925.5,11,0,0,37,0.0,0.41,5.8,10.7,270,282,15.8,17.7,17.5,12.1,8.8,0.264,0.303,0.327,0.321,0,0.0,0.0,0.0,0.0,0.0,0.0,0.0,0.0,0.0,0.0,0.0,0.0,0.0,Magnoliopsida; Pinus pinaster Aiton; Tracheophyta; Eucalyptus L'Hér.; Quercus L.; 
2005,2005-03-18,Viseu,Cinfães,Cinfães,JOAZIM,41.0721651,-8.0894728,NC,400.0,2005-03-18T10:00,17.2,46,5.6,13.8,0.0,0.0,0.0,0.0,0,1021.6,974.8,2,0,0,5,0.3,1.06,15.9,22.3,103,104,43.6,13.7,10.1,7.8,7.3,0.241,0.267,0.309,0.336,1,3600.0,553.1,463.0,90.1,817.3,553.1,782.7,485.0,406.0,79.0,817.3,485.0,686.3,Eucalyptus L'Hér.; Tracheophyta; Pinus pinaster Aiton; Quercus L.; Magnoliopsida
2005,2005-03-18,Viseu,Cinfães,Nespereira,CADAFAS,41.0012055,-8.1765373,NC,300.0,2005-03-18T18:00,21.6,39,7.1,20.0,0.0,0.0,0.0,0.0,1,1018.3,983.6,31,0,16,72,0.12,1.57,6.1,7.9,242,223,19.8,17.7,13.0,8.2,7.4,0.212,0.263,0.313,0.345,1,3462.42,73.3,22.3,50.9,175.4,73.3,175.8,128.0,39.0,89.0,175.4,128.0,307.1,Tracheophyta; Magnoliopsida; Eucalyptus L'Hér.
2005,2005-03-20,Viseu,Tondela,Guardão,CARAMULINHO,40.57191,-8.167630636623684,NC,805.0,2005-03-20T09:00,11.5,83,8.8,10.3,0.0,0.0,0.0,0.0,2,1015.2,922.5,67,2,58,100,0.09,0.22,5.9,10.3,133,144,18.7,10.2,9.6,7.5,6.3,0.186,0.231,0.288,0.31,1,0.0,208.2,24.9,183.2,57.4,208.2,599.6,167.0,20.0,147.0,57.4,167.0,481.0,Tracheophyta; Eucalyptus L'Hér.; Magnoliopsida; Pinus pinaster Aiton
2005,2005-03-20,Viseu,Moimenta da Beira,Castelo,CASTELO,41.0352174,-7.619930717017676,NC,715.0,2005-03-20T08:00,8.8,96,8.2,7.3,0.0,0.0,0.0,0.0,1,1015.1,931.5,44,6,15,100,0.03,0.04,7.1,12.3,150,165,17.3,8.8,10.1,7.6,6.6,0.22,0.225,0.261,0.295,1,0.0,112.5,12.5,100.0,47.4,112.3,364.1,72.0,8.0,64.0,47.3,72.0,233.0,Tracheophyta; Olea europaea L.; Pinus pinaster Aiton; Castanea sativa Mill.; Magnoliopsida
2005,2005-04-30,Viseu,Castro Daire,Castro Daire,FAREGINHAS,40.91465745,-7.920020147736607,NC,660.0,2005-04-30T00:00,14.7,86,12.4,15.2,0.0,0.0,0.0,0.0,0,1013.8,938.0,1,0,0,2,0.0,0.24,1.9,3.1,112,225,14.4,12.3,14.2,10.5,8.1,0.313,0.337,0.353,0.338,0,0.0,0.0,0.0,0.0,0.0,0.0,0.0,0.0,0.0,0.0,0.0,0.0,0.0,Pinus pinaster Aiton; Magnoliopsida; Pinales; Eucalyptus L'Hér.; Tracheophyta
2005,2005-04-01,Viseu,Nelas,Nelas,ZONA INDUSTRIAL NELAS,40.51924,-7.859607564669652,NC,422.0,2005-04-01T15:00,18.5,50,8.0,17.0,1.4,1.4,0.0,0.0,61,1009.1,960.7,69,9,59,85,0.31,1.06,6.9,9.4,174,173,43.6,18.3,14.0,10.6,8.6,0.344,0.362,0.326,0.32,1,3600.0,457.6,301.6,155.9,454.2,457.6,910.2,493.0,325.0,168.0,454.2,493.0,980.6,Pinus pinaster Aiton; Magnoliopsida; Vitis vinifera L.; Tracheophyta
2005,2005-03-18,Viseu,Resende,São Cipriano,MACEIRAS,41.0626879,-7.9934147,NC,585.0,2005-03-18T10:00,15.6,47,4.3,12.3,0.0,0.0,0.0,0.0,0,1022.3,954.4,2,0,4,0,0.28,0.95,13.4,18.5,96,98,38.9,12.7,9.2,6.9,6.4,0.227,0.265,0.31,0.328,1,3600.0,557.7,467.6,90.1,825.3,557.7,782.7,489.0,410.0,79.0,825.3,489.0,686.3,Pinus pinaster Aiton; Pinales; Magnoliopsida; Olea europaea L.; Tracheophyta; Eucalyptus L'Hér.; 
2005,2005-04-08,Viseu,Sernancelhe,Quintela,QUINTELA,40.8609743,-7.5824518,NC,856.0,2005-04-08T17:00,10.2,41,-2.4,4.2,0.0,0.0,0.0,0.0,0,1013.0,914.6,0,0,0,0,0.24,0.73,24.1,33.5,359,1,54.0,13.3,11.2,9.3,6.7,0.347,0.339,0.269,0.289,1,3600.0,370.2,307.5,62.6,814.8,370.2,515.1,455.0,378.0,77.0,814.8,455.0,633.2,Tracheophyta; Magnoliopsida; Pinus pinaster Aiton; Castanea sativa Mill.; Pinales; 
2005,2005-04-08,Viseu,Cinfães,Souselo,SOUZELO,41.0697904,-8.231169,NC,187.0,2005-04-08T23:00,6.2,55,-2.2,1.0,0.0,0.0,0.0,0.0,0,1022.4,999.3,0,0,0,0,0.06,0.43,19.3,33.0,21,25,45.0,9.3,12.9,12.2,9.3,0.352,0.368,0.371,0.343,0,0.0,0.0,0.0,0.0,0.0,0.0,0.0,0.0,0.0,0.0,0.0,0.0,0.0,Tracheophyta; Vitis vinifera L.; Magnoliopsida; Eucalyptus L'Hér.; Pinus pinaster Aiton
2005,2005-05-26,Viseu,Armamar,Armamar,Travanca,41.0929508,-7.683652927137922,NC,603.0,2005-05-26T22:00,18.4,65,11.6,18.3,0.0,0.0,0.0,0.0,0,1014.8,946.0,0,0,0,0,0.01,0.75,3.9,5.8,236,240,15.1,17.7,19.4,13.5,9.5,0.21,0.255,0.271,0.3,0,0.0,0.0,0.0,0.0,0.0,0.0,0.0,0.0,0.0,0.0,0.0,0.0,0.0,Magnoliopsida; Tracheophyta; Vitis vinifera L.
2005,2005-01-29,Viseu,Vila Nova de Paiva,Touro,CERDEIRA,40.8994282,-7.7327045,NC,808.0,2005-01-29T15:00,7.4,56,-0.8,3.3,0.0,0.0,0.0,0.0,1,1019.5,924.8,26,29,0,0,0.17,0.45,13.2,17.6,43,43,31.3,2.7,1.3,4.4,8.7,0.292,0.3,0.308,0.305,1,3600.0,348.0,249.3,98.7,628.3,348.0,559.5,388.0,278.0,110.0,628.3,388.0,623.9,Magnoliopsida; Pinus pinaster Aiton; Tracheophyta; Eucalyptus L'Hér.; Quercus L.; 
2005,2005-05-29,Viseu,Santa Comba Dão,Santa Comba Dão,Cabril,40.399988750000006,-8.131110454043977,NC,193.0,2005-05-29T08:00,14.8,92,13.5,15.3,0.0,0.0,0.0,0.0,3,1016.6,993.6,100,83,0,87,0.09,0.14,4.0,5.2,275,282,14.0,17.1,17.7,15.7,12.0,0.175,0.244,0.276,0.288,1,1112.62,206.7,49.6,157.1,97.1,206.7,679.8,171.0,41.0,130.0,97.1,171.0,562.4,Tracheophyta; Magnoliopsida; Quercus suber L.; Pinus pinaster Aiton
2005,2005-03-18,Viseu,Armamar,Queimada,QUEIMADA,41.0994162,-7.7367631,NC,649.0,2005-03-18T12:00,19.0,37,3.8,15.8,0.0,0.0,0.0,0.0,0,1021.2,947.1,1,0,2,0,0.44,1.39,16.9,22.9,119,120,47.9,16.0,9.3,6.3,5.8,0.225,0.25,0.291,0.311,1,3600.0,718.8,612.1,106.7,834.9,718.8,1012.8,694.0,591.0,103.0,834.9,694.0,977.9,Tracheophyta; Magnoliopsida; Vitis vinifera L.
2005,2005-03-20,Viseu,Lamego,Figueira,FIGUEIRA,41.1024727,-7.7607833,NC,485.0,2005-03-20T12:00,16.6,65,10.1,15.7,0.0,0.0,0.0,0.0,3,1013.3,957.3,100,51,85,100,0.25,0.66,6.5,8.8,174,171,25.2,14.5,10.5,7.6,6.1,0.254,0.252,0.294,0.315,1,1291.22,430.4,76.6,353.8,103.0,430.4,1025.2,416.0,74.0,342.0,103.0,416.0,991.0,Vitis vinifera L.; Magnoliopsida; Tracheophyta; Olea europaea L.; Pinales; 
2005,2005-03-20,Viseu,Lamego,Avões,AVÕES,41.108631,-7.826622,NC,811.0,2005-03-20T17:00,14.3,72,9.4,13.0,0.1,0.1,0.0,0.0,51,1011.9,919.7,100,17,96,99,0.08,0.45,7.4,15.7,194,196,34.6,13.5,10.7,7.1,5.9,0.263,0.255,0.295,0.317,1,0.0,65.4,4.7,60.7,14.9,65.4,437.5,83.0,6.0,77.0,14.9,83.0,555.4,Magnoliopsida; Vitis vinifera L.; Tracheophyta; Eucalyptus L'Hér.; Pinales; 
2005,2005-01-29,Viseu,Mangualde,Mangualde,SENHORA DO CASTELO,40.6126192,-7.7434653,NC,597.0,2005-01-29T15:00,8.5,56,0.1,4.8,0.0,0.0,0.0,0.0,1,1019.1,948.4,25,28,0,0,0.18,0.5,10.9,14.5,44,44,29.5,3.8,1.1,4.9,9.7,0.285,0.305,0.325,0.319,1,3600.0,348.1,253.9,94.2,634.4,348.1,564.3,388.0,283.0,105.0,634.4,388.0,629.0,Magnoliopsida; Tracheophyta; Eucalyptus L'Hér.; Pinus pinea L.; Pinus pinaster Aiton; Olea europaea L.; Pinales
2005,2005-01-05,Viseu,Tondela,Parada de Gonta,PARADA DE GONTA,40.5850464,-7.997527947395453,NC,379.0,2005-01-05T14:00,11.4,67,5.5,10.1,0.0,0.0,0.0,0.0,0,1036.5,990.6,0,0,0,1,0.2,0.45,1.6,1.6,297,297,13.0,10.8,6.2,8.5,13.1,0.304,0.317,0.337,0.31,1,3600.0,407.4,334.7,72.6,822.5,407.4,575.7,432.0,355.0,77.0,822.5,432.0,610.6,Pinus pinaster Aiton; Olea europaea L.; Tracheophyta; Magnoliopsida; Eucalyptus L'Hér.
2005,2005-04-09,Viseu,Nelas,Santar,SANTAR,40.5651813,-7.898559741459397,NC,392.0,2005-04-09T14:00,13.3,43,1.0,11.3,0.0,0.0,0.0,0.0,0,1025.3,978.7,0,0,0,0,0.43,0.87,12.4,16.0,30,31,36.7,15.6,11.3,11.5,9.2,0.33,0.352,0.343,0.32,1,3600.0,842.7,742.3,100.4,943.7,842.7,1073.1,873.0,769.0,104.0,943.7,873.0,1111.6,Olea europaea L.; Pinus pinaster Aiton; Vitis vinifera L.; Tracheophyta; Magnoliopsida
2005,2005-04-08,Viseu,Viseu,Lordosa,FOLGOSA,40.7342034,-7.891398505604081,NC,598.0,2005-04-08T19:00,8.9,45,-2.4,3.7,0.0,0.0,0.0,0.0,0,1016.8,946.2,0,0,0,0,0.09,0.62,18.7,32.7,19,21,45.4,11.7,12.4,10.6,7.9,0.355,0.365,0.343,0.308,1,2192.88,0.0,0.0,0.0,0.0,0.0,0.0,67.0,43.0,24.0,324.6,67.0,128.4,Pinus pinaster Aiton; Tracheophyta; Magnoliopsida
2005,2005-04-10,Viseu,Castro Daire,Castro Daire,ALTO DE FAREJINHAS,40.91465745,-7.920020147736607,NC,660.0,2005-04-10T15:00,13.4,44,1.4,11.8,0.0,0.0,0.0,0.0,0,1027.7,950.5,0,0,0,0,0.41,0.87,8.2,10.7,41,42,26.6,15.1,9.8,9.8,7.4,0.346,0.365,0.374,0.335,1,3600.0,735.6,644.4,91.3,930.0,735.6,944.6,790.0,692.0,98.0,930.0,790.0,1014.4,Pinus pinaster Aiton; Magnoliopsida; Pinales; Eucalyptus L'Hér.; Tracheophyta
2005,2005-03-18,Viseu,Castro Daire,Castro Daire,CASTRO DAIRE,40.91465745,-7.920020147736607,NC,660.0,2005-03-18T11:00,17.6,40,3.7,14.4,0.0,0.0,0.0,0.0,0,1021.8,946.1,1,0,1,1,0.39,1.22,15.1,20.7,108,110,46.1,14.7,9.5,6.9,6.4,0.229,0.265,0.308,0.333,1,3600.0,689.6,595.7,93.9,883.3,689.6,931.7,639.0,552.0,87.0,883.3,639.0,863.3,Pinus pinaster Aiton; Magnoliopsida; Pinales; Eucalyptus L'Hér.; Tracheophyta
2005,2005-03-18,Viseu,Mortágua,Espinho,ÁGUA LEVADA,40.4195854,-8.2996387,NC,191.0,2005-03-18T14:00,23.9,30,5.1,20.4,0.0,0.0,0.0,0.0,1,1018.4,996.3,25,0,0,83,0.55,2.1,22.5,30.1,131,131,45.7,22.1,13.8,10.2,9.5,0.145,0.215,0.27,0.286,1,3600.0,710.6,570.6,140.0,805.9,710.6,978.0,736.0,591.0,145.0,805.9,736.0,1013.0,Eucalyptus L'Hér.; Magnoliopsida; Tracheophyta
2005,2005-06-02,Viseu,Cinfães,Travanca,Travanca,41.04154195,-8.223751669837242,NC,210.0,2005-06-02T19:00,20.3,76,15.9,20.3,0.0,0.0,0.0,0.0,0,1013.6,989.2,12,0,0,41,0.12,0.58,14.5,19.8,330,333,34.9,22.9,20.8,16.2,12.0,0.194,0.273,0.342,0.344,1,3600.0,116.4,72.3,44.1,446.9,116.4,215.0,182.0,113.0,69.0,446.9,182.0,336.3,Pinus pinaster Aiton; Magnoliopsida; Tracheophyta; Eucalyptus L'Hér.; Vitis vinifera L.; Quercus L.; 
2005,2005-01-28,Viseu,Carregal do Sal,Sobral De Papízios,SOBRAL,40.4583712,-8.0264833,NC,252.0,2005-01-28T15:00,8.5,47,-2.1,4.5,0.0,0.0,0.0,0.0,0,1021.4,990.7,0,0,0,0,0.2,0.59,10.8,14.2,323,324,27.4,5.6,2.8,7.2,11.3,0.278,0.299,0.319,0.3,1,3600.0,406.8,340.4,66.5,849.9,406.8,564.8,453.0,379.0,74.0,849.9,453.0,628.9,Tracheophyta; Eucalyptus L'Hér.; Quercus L.; Acacia Mill.; Pinus pinaster Aiton
2005,2005-04-09,Viseu,Nelas,Nelas,FOLHADAL,40.5129595,-7.8533986,NC,422.0,2005-04-09T19:00,12.3,52,2.7,9.4,0.0,0.0,0.0,0.0,0,1024.8,974.6,0,0,0,0,0.05,0.69,8.3,12.3,342,357,19.4,12.5,12.0,11.3,9.0,0.324,0.35,0.342,0.32,1,2237.99,0.0,0.0,0.0,0.0,0.0,0.0,67.0,43.0,24.0,321.2,67.0,131.8,Olea europaea L.; Magnoliopsida; Pinus pinaster Aiton; Tracheophyta
2005,2005-03-18,Viseu,Armamar,Santiago,SANTIAGO,41.0785273,-7.690629,NC,677.0,2005-03-18T15:00,21.3,31,3.4,17.3,0.0,0.0,0.0,0.0,1,1018.3,941.9,26,0,1,86,0.46,1.75,20.0,27.5,142,143,46.1,18.2,10.3,6.1,5.6,0.221,0.249,0.29,0.311,1,3600.0,596.4,500.3,96.2,823.6,596.4,839.1,645.0,541.0,104.0,823.6,645.0,907.4,Magnoliopsida; Pinus pinaster Aiton; Quercus L.; Tracheophyta; Eucalyptus L'Hér.; Castanea sativa Mill.; ; Pinales
2005,2005-04-10,Viseu,Armamar,São Romão,São Romão,41.08897115,-7.709246935953078,NC,688.0,2005-04-10T22:00,6.7,73,2.2,4.3,0.0,0.0,0.0,0.0,0,1027.6,945.5,0,0,0,0,0.0,0.27,4.7,8.1,328,347,16.6,8.2,10.7,10.0,7.6,0.318,0.328,0.282,0.294,0,0.0,0.0,0.0,0.0,0.0,0.0,0.0,0.0,0.0,0.0,0.0,0.0,0.0,Magnoliopsida; Quercus L.; Pinus pinaster Aiton; Tracheophyta; Olea europaea L.; Eucalyptus L'Hér.; Pinales; Vitis vinifera L.; 
2005,2005-04-30,Viseu,Penedono,Penela da Beira,PENELA DA BEIRA,41.0372786,-7.4327058,NC,970.0,2005-04-30T18:00,18.4,46,6.6,14.9,0.0,0.0,0.0,0.0,1,1010.4,902.9,28,0,0,93,0.22,1.14,17.8,24.9,256,256,40.0,19.5,15.2,9.7,6.9,0.202,0.228,0.23,0.277,1,3600.0,188.9,98.9,90.1,387.6,188.9,343.9,258.0,135.0,123.0,387.6,258.0,469.6,Magnoliopsida; Olea europaea L.
2005,2005-01-28,Viseu,Vouzela,Alcofra,ABELHEIRA,40.6407418,-8.1585967,NC,836.0,2005-01-28T17:00,4.5,52,-4.5,0.8,0.0,0.0,0.0,0.0,0,1020.8,921.9,11,12,0,0,0.06,0.4,6.3,14.5,301,305,22.0,2.8,0.8,4.6,8.6,0.288,0.308,0.328,0.313,1,3600.0,68.7,26.3,42.4,220.4,68.7,168.1,115.0,44.0,71.0,220.4,115.0,281.5,Magnoliopsida; Pinus pinaster Aiton; Tracheophyta; Eucalyptus L'Hér.; Vitis vinifera L.; Quercus L.; 
2005,2005-01-28,Viseu,Mangualde,Fornos de Maceira Dão,OUTEIRO,40.6086698,-7.8185976,NC,418.0,2005-01-28T15:00,7.8,49,-2.3,4.0,0.0,0.0,0.0,0.0,0,1021.1,970.7,0,0,0,0,0.19,0.54,9.5,12.2,323,326,27.0,5.5,2.3,6.3,10.6,0.283,0.305,0.325,0.318,1,3600.0,406.2,340.8,65.5,858.3,406.2,559.9,453.0,380.0,73.0,858.3,453.0,624.4,Pinus pinaster Aiton; Tracheophyta; Pinales; Magnoliopsida; Vitis vinifera L.
2005,2005-03-18,Viseu,Resende,São Cipriano,São Cipriano,41.06005785,-7.990159695397713,NC,594.0,2005-03-18T17:00,20.8,34,4.3,17.7,0.0,0.0,0.0,0.0,2,1018.4,950.9,55,0,43,96,0.25,1.62,12.1,20.9,153,153,42.8,17.8,11.6,7.0,6.4,0.215,0.262,0.309,0.328,1,3600.0,229.4,111.2,118.2,360.7,229.4,425.8,293.0,142.0,151.0,360.7,293.0,543.7,Pinus pinaster Aiton; Pinales; Magnoliopsida; Olea europaea L.; Tracheophyta; Eucalyptus L'Hér.; 
2005,2005-05-30,Viseu,Viseu,Abraveses,Póvoa de Abraveses,40.6781295,-7.916572,NC,478.0,2005-05-30T13:00,24.9,41,10.7,25.8,0.0,0.0,0.0,0.0,1,1019.5,965.4,22,4,0,60,0.66,1.87,11.5,15.1,49,52,37.4,26.0,18.5,15.3,11.1,0.174,0.261,0.312,0.32,1,3600.0,959.6,831.2,128.4,884.1,959.6,1251.4,964.0,835.0,129.0,884.1,964.0,1257.2,Tracheophyta; Magnoliopsida
2005,2005-06-06,Viseu,Nelas,Vilar Seco,Vilar Seco,40.5530097,-7.8705196,NC,360.0,2005-06-06T18:00,32.3,19,5.5,29.3,0.0,0.0,0.0,0.0,0,1014.7,974.8,0,0,0,0,0.4,3.94,12.9,17.6,333,337,22.3,32.0,24.2,17.9,12.4,0.109,0.219,0.287,0.315,1,3600.0,308.1,246.1,61.9,714.4,308.1,457.6,388.0,310.0,78.0,714.4,388.0,576.3,Magnoliopsida; Pinus pinaster Aiton; Vitis vinifera L.; Tracheophyta; Olea europaea L.
2005,2005-01-28,Viseu,Vila Nova de Paiva,Touro,TOURO,40.9401466,-7.7762141,NC,825.0,2005-01-28T18:00,2.6,66,-3.0,-1.4,0.0,0.0,0.0,0.0,0,1020.3,922.1,11,12,0,0,0.03,0.25,10.0,14.1,291,302,14.4,0.7,1.0,4.4,8.4,0.31,0.321,0.335,0.323,0,412.48,0.0,0.0,0.0,0.0,0.0,0.0,21.0,11.0,10.0,118.4,21.0,70.5,Magnoliopsida; Pinus pinaster Aiton; Tracheophyta; Eucalyptus L'Hér.; Quercus L.; 
2005,2005-04-11,Viseu,Tondela,São Miguel do Outeiro,SÃO MIGUEL DO OUTEIRO,40.5879008,-8.028281559729932,NC,358.0,2005-04-11T05:00,5.2,69,-0.1,1.2,0.0,0.0,0.0,0.0,0,1026.2,982.3,0,0,0,0,0.02,0.28,12.7,27.1,65,68,28.4,6.8,10.4,11.7,9.8,0.305,0.332,0.335,0.307,0,0.0,0.0,0.0,0.0,0.0,0.0,0.0,0.0,0.0,0.0,0.0,0.0,0.0,Pinus pinaster Aiton; Magnoliopsida; Olea europaea L.; Tracheophyta; Vitis vinifera L.
2005,2005-06-01,Viseu,Sernancelhe,Macieira,Macieira,40.989796,-7.4854129,NC,796.0,2005-06-01T08:00,14.4,46,2.8,10.2,0.0,0.0,0.0,0.0,0,1019.6,928.4,0,0,0,0,0.24,0.9,18.2,24.3,51,52,40.3,17.0,18.3,15.2,9.7,0.148,0.179,0.214,0.28,1,3600.0,471.6,373.2,98.4,716.0,471.6,693.3,393.0,311.0,82.0,716.0,393.0,577.8,Magnoliopsida; Pinales; Vitis vinifera L.; Castanea sativa Mill.; Tracheophyta; Quercus L.; Pinus pinaster Aiton; Olea europaea L.; 
2005,2005-03-15,Viseu,Sátão,Mioma,Tremoa,40.7498415,-7.7226843,NC,614.0,2005-03-15T20:00,14.0,55,5.2,11.6,0.0,0.0,0.0,0.0,0,1021.5,950.0,0,0,0,0,0.03,0.71,8.2,12.6,195,204,15.1,11.3,10.3,6.3,6.8,0.204,0.257,0.295,0.312,0,0.0,0.0,0.0,0.0,0.0,0.0,0.0,0.0,0.0,0.0,0.0,0.0,0.0,Pinus pinaster Aiton; Tracheophyta; Magnoliopsida; Pinales
2005,2005-03-17,Viseu,Vouzela,Queirã,MINAS DA BEJANCA,40.6549464,-8.074003291969433,NC,472.0,2005-03-17T10:00,17.5,52,7.6,15.5,0.0,0.0,0.0,0.0,0,1027.4,972.2,17,0,28,0,0.28,0.96,10.1,13.7,92,95,25.9,13.8,9.8,8.1,8.0,0.207,0.254,0.303,0.329,1,3600.0,548.0,460.1,87.9,813.4,548.0,781.9,480.0,403.0,77.0,813.4,480.0,684.9,Magnoliopsida; Pinus pinaster Aiton; Pinales; Tracheophyta; Quercus L.; Eucalyptus L'Hér.; Olea europaea L.; 
2005,2005-05-06,Viseu,Resende,Barrô,VILAR,41.1369549,-7.8744989,NC,318.0,2005-05-06T18:00,22.8,37,7.5,21.6,0.0,0.0,0.0,0.0,0,1018.0,981.4,6,0,0,20,0.21,1.75,3.7,4.9,349,17,16.9,20.4,16.1,12.8,9.6,0.279,0.323,0.349,0.333,1,3600.0,251.0,197.1,54.0,715.0,251.0,370.6,335.0,263.0,72.0,715.0,335.0,494.5,Magnoliopsida; Pinus pinaster Aiton; Pinales; Vitis vinifera L.; Tracheophyta; Eucalyptus L'Hér.; Olea europaea L.; ; Quercus L.
2005,2005-01-29,Viseu,Vila Nova de Paiva,Touro,PÓVOA,40.8953121,-7.7478521,NC,790.0,2005-01-29T16:00,7.2,56,-1.0,3.2,0.0,0.0,0.0,0.0,1,1019.3,926.6,38,42,0,0,0.12,0.45,12.2,17.1,43,44,33.1,3.5,1.6,4.5,8.8,0.292,0.3,0.308,0.305,1,3600.0,178.5,83.2,95.3,304.0,178.5,385.8,221.0,103.0,118.0,304.0,221.0,477.8,Magnoliopsida; Pinus pinaster Aiton; Tracheophyta; Eucalyptus L'Hér.; Quercus L.; 
2005,2005-05-22,Viseu,Mortágua,Marmeleira,Ferradosa,40.3558011,-8.2618865,NC,158.0,2005-05-22T14:00,17.5,52,7.4,14.9,0.0,0.0,0.0,0.0,2,1019.7,1001.0,61,42,39,0,0.41,0.96,19.1,24.7,316,317,42.5,20.2,16.4,15.0,12.4,0.243,0.284,0.269,0.28,1,3600.0,710.4,556.3,154.1,628.3,710.4,1182.0,733.0,574.0,159.0,628.3,733.0,1219.7,Magnoliopsida; Tracheophyta; Eucalyptus L'Hér.
2005,2005-04-11,Viseu,Tarouca,Vila Chã da Beira,Vila Chã da Beira,41.0258316,-7.6875348474997,NC,811.0,2005-04-11T15:00,14.4,46,2.9,11.8,0.0,0.0,0.0,0.0,0,1023.0,929.8,0,0,0,0,0.4,0.89,14.8,19.1,43,44,32.8,15.6,9.6,9.0,6.7,0.32,0.334,0.317,0.303,1,3600.0,713.7,618.8,94.9,893.5,713.7,943.7,767.0,665.0,102.0,893.5,767.0,1014.2,Magnoliopsida; Castanea sativa Mill.; Pinus pinaster Aiton; Tracheophyta; Pinales
2005,2005-05-26,Viseu,Viseu,São João de Lourosa,Baiúca,40.6190443,-7.9039998,NC,465.0,2005-05-26T14:00,27.1,36,10.6,27.4,0.0,0.0,0.0,0.0,0,1014.8,962.8,0,0,0,0,0.69,2.31,14.3,18.0,252,250,33.8,26.7,18.8,14.0,10.7,0.216,0.282,0.306,0.317,1,3600.0,911.9,801.4,110.5,902.7,911.9,1183.4,941.0,827.0,114.0,902.7,941.0,1221.1,Tracheophyta; Pinus pinaster Aiton; Magnoliopsida; Vitis vinifera L.
2005,2005-06-01,Viseu,Mortágua,Marmeleira,Vale de Borregão,40.355777200000006,-8.260083333098834,NC,146.0,2005-06-01T14:00,28.9,27,8.3,29.3,0.0,0.0,0.0,0.0,0,1014.2,997.6,0,0,0,0,0.72,2.89,10.4,13.0,358,2,27.7,31.0,21.6,17.2,13.0,0.123,0.209,0.254,0.278,1,3600.0,934.4,821.9,112.6,916.5,934.4,1192.9,963.0,847.0,116.0,916.5,963.0,1229.4,Magnoliopsida; Tracheophyta; Eucalyptus L'Hér.
2005,2005-05-26,Viseu,Resende,Barrô,LUGAR DE AREGOS,41.1369549,-7.8744989,NC,318.0,2005-05-26T22:00,19.5,63,12.4,20.1,0.0,0.0,0.0,0.0,0,1014.6,977.8,0,0,0,0,0.0,0.83,1.5,1.3,76,146,15.8,17.7,19.6,14.5,10.9,0.256,0.309,0.352,0.333,0,0.0,0.0,0.0,0.0,0.0,0.0,0.0,0.0,0.0,0.0,0.0,0.0,0.0,Magnoliopsida; Pinus pinaster Aiton; Pinales; Vitis vinifera L.; Tracheophyta; Eucalyptus L'Hér.; Olea europaea L.; ; Quercus L.
2005,2005-06-07,Viseu,Castro Daire,Castro Daire,Baltar de Cima,40.9123518,-7.9141166,NC,649.0,2005-06-07T16:00,29.9,23,6.8,27.5,0.0,0.0,0.0,0.0,0,1016.9,945.6,16,0,0,53,0.47,3.23,10.8,14.8,88,89,32.0,28.7,21.5,16.4,11.0,0.139,0.227,0.311,0.334,1,3600.0,478.8,392.3,86.5,577.5,478.8,902.2,526.0,431.0,95.0,577.5,526.0,991.1,Pinus pinaster Aiton; Olea europaea L.; Tracheophyta; Magnoliopsida; Eucalyptus L'Hér.
2005,2005-03-17,Viseu,Lamego,Bigorne,BIGORNE,41.0143628,-7.879923964542126,NC,980.0,2005-03-17T11:00,14.7,52,4.9,12.6,0.0,0.0,0.0,0.0,0,1027.5,915.8,12,0,19,2,0.33,0.81,8.8,11.4,99,101,28.1,12.4,6.7,4.6,4.7,0.246,0.271,0.308,0.326,1,3600.0,672.6,561.4,111.2,838.8,672.6,925.1,623.0,520.0,103.0,838.8,623.0,856.9,Tracheophyta; Magnoliopsida; Pinus pinaster Aiton; Pinales; Castanea sativa Mill.; 
2005,2005-06-04,Viseu,Cinfães,Souselo,Granja,41.06606665,-8.253507349992368,NC,80.0,2005-06-04T22:00,18.6,76,14.2,18.6,0.0,0.0,0.0,0.0,0,1018.9,1009.4,2,0,0,5,0.02,0.52,9.8,18.6,336,350,23.0,19.7,21.1,17.5,13.3,0.176,0.246,0.317,0.332,0,0.0,0.0,0.0,0.0,0.0,0.0,0.0,0.0,0.0,0.0,0.0,0.0,0.0,Tracheophyta; Magnoliopsida; Eucalyptus L'Hér.; Pinus pinaster Aiton
2005,2005-03-19,Viseu,Viseu,Ribafeita,TRAVASSOS,40.7442343,-7.9927486,NC,480.0,2005-03-19T12:00,18.9,47,7.4,17.1,0.0,0.0,0.0,0.0,3,1017.4,962.1,100,29,98,82,0.42,1.16,13.2,17.3,137,138,41.0,17.7,11.6,8.8,7.9,0.182,0.242,0.295,0.315,1,3600.0,714.7,546.9,167.8,737.6,714.7,1023.7,690.0,528.0,162.0,737.6,690.0,988.4,Pinus pinaster Aiton; Magnoliopsida
2005,2005-03-18,Viseu,São Pedro do Sul,Valadares,BOAVISTA,40.7567749,-8.2009287,NC,312.0,2005-03-18T16:00,23.4,31,5.4,19.5,0.0,0.0,0.0,0.0,1,1017.9,982.1,32,0,5,96,0.39,1.97,18.9,26.7,145,145,45.0,20.9,14.0,9.9,9.1,0.178,0.244,0.302,0.339,1,3600.0,396.2,219.0,177.1,457.3,396.2,661.6,454.0,251.0,203.0,457.3,454.0,758.2,Pinus pinaster Aiton; Eucalyptus L'Hér.; Magnoliopsida; Tracheophyta; Quercus L.; Olea europaea L.; 
2005,2005-03-19,Viseu,Resende,São João de Fontoura,QUINTA DO BAIRRO,41.1069315,-7.9181849,NC,232.0,2005-03-19T15:00,22.0,43,8.8,20.0,0.0,0.0,0.0,0.0,2,1013.6,986.8,77,0,79,98,0.35,1.51,11.9,16.3,145,145,35.6,20.2,13.0,8.9,7.9,0.205,0.26,0.31,0.33,1,3600.0,435.1,185.2,250.0,301.8,435.1,846.8,470.0,200.0,270.0,301.8,470.0,914.7,Magnoliopsida; Olea europaea L.; Pinales; Vitis vinifera L.; ; Pinus pinaster Aiton
2005,2005-05-27,Viseu,Viseu,São João de Lourosa,Baiúca,40.6190443,-7.9039998,NC,465.0,2005-05-27T14:00,20.3,65,13.6,19.3,0.0,0.0,0.0,0.0,3,1015.9,962.6,82,91,0,0,0.32,0.83,15.3,19.4,236,235,37.8,22.4,17.9,14.4,10.8,0.206,0.275,0.305,0.317,1,3600.0,481.7,242.3,239.4,272.6,481.7,1184.5,497.0,250.0,247.0,272.6,497.0,1222.2,Tracheophyta; Pinus pinaster Aiton; Magnoliopsida; Vitis vinifera L.
2005,2005-05-30,Viseu,Viseu,Campo,Crasto,40.7092874,-7.9234277,NC,559.0,2005-05-30T16:00,25.9,36,9.8,24.3,0.0,0.0,0.0,0.0,2,1017.7,955.1,51,0,80,10,0.46,2.14,12.5,17.1,33,35,31.3,25.8,19.0,14.8,10.6,0.167,0.26,0.311,0.32,1,3600.0,539.0,389.3,149.7,582.9,539.0,889.0,594.0,429.0,165.0,582.9,594.0,979.6,Tracheophyta; Pinus pinaster Aiton
2005,2005-06-05,Viseu,Lamego,Lamego (sé),Balsemão,41.093051200000005,-7.798001084780305,NC,520.0,2005-06-05T15:00,29.2,29,9.2,29.7,0.0,0.0,0.0,0.0,0,1017.4,959.6,0,0,0,0,0.65,2.88,8.2,10.5,337,338,22.3,31.3,21.4,16.6,11.0,0.148,0.191,0.249,0.298,1,3600.0,821.8,717.2,104.6,892.8,821.8,1067.3,872.0,761.0,111.0,892.8,872.0,1132.5,Magnoliopsida; Olea europaea L.; Tracheophyta; Vitis vinifera L.; Pinales
2005,2005-04-12,Viseu,Vila Nova de Paiva,Touro,TOURO,40.9401466,-7.7762141,NC,825.0,2005-04-12T14:00,15.0,45,3.2,13.1,0.0,0.0,0.0,0.0,0,1021.2,926.9,2,1,1,0,0.46,0.93,14.3,18.2,56,56,37.1,15.4,9.6,8.7,6.7,0.324,0.344,0.354,0.322,1,3600.0,848.5,750.0,98.5,946.0,848.5,1079.7,879.0,777.0,102.0,946.0,879.0,1118.5,Magnoliopsida; Pinus pinaster Aiton; Tracheophyta; Eucalyptus L'Hér.; Quercus L.; 
2005,2005-06-02,Viseu,Santa Comba Dão,Santa Comba Dão,Cabril,40.399988750000006,-8.131110454043977,NC,193.0,2005-06-02T15:00,29.2,35,12.0,29.0,0.0,0.0,0.0,0.0,1,1012.1,990.3,24,0,4,71,0.65,2.65,15.9,20.7,308,310,35.6,30.9,21.9,16.9,12.3,0.126,0.212,0.266,0.286,1,3600.0,784.9,677.5,107.4,841.2,784.9,1071.0,833.0,719.0,114.0,841.2,833.0,1136.7,Tracheophyta; Magnoliopsida; Quercus suber L.; Pinus pinaster Aiton
2005,2005-06-05,Viseu,Lamego,Sande,Sande,41.12778435,-7.780245334076483,NC,300.0,2005-06-05T20:00,26.0,47,13.7,26.1,0.0,0.0,0.0,0.0,0,1017.7,983.5,0,0,0,0,0.07,1.8,7.7,10.6,319,336,17.3,25.9,23.3,17.6,12.0,0.152,0.194,0.256,0.3,0,1744.68,0.0,0.0,0.0,0.0,0.0,0.0,44.0,24.0,20.0,207.5,44.0,94.6,Vitis vinifera L.; Tracheophyta; Magnoliopsida; 
2005,2005-06-06,Viseu,Nelas,Nelas,Zona Industrial,40.51924,-7.859607564669652,NC,422.0,2005-06-06T19:00,29.9,27,8.7,27.8,0.0,0.0,0.0,0.0,0,1014.9,968.0,0,0,0,0,0.24,3.09,12.0,22.0,321,325,32.0,29.6,23.9,17.5,12.0,0.109,0.219,0.287,0.315,1,3600.0,123.0,86.8,36.1,548.0,123.0,210.5,194.0,137.0,57.0,548.0,194.0,332.0,Pinus pinaster Aiton; Magnoliopsida; Vitis vinifera L.; Tracheophyta
2005,2005-03-18,Viseu,Resende,São João de Fontoura,Nadais de Baixo,41.1069315,-7.9181849,NC,232.0,2005-03-18T16:00,23.9,31,6.0,21.0,0.0,0.0,0.0,0.0,2,1017.4,990.7,61,0,53,98,0.39,2.04,13.1,19.5,159,157,33.5,20.5,12.9,8.5,7.9,0.212,0.263,0.311,0.33,1,3600.0,445.1,320.3,124.8,671.7,445.1,658.7,510.0,367.0,143.0,671.7,510.0,754.7,Magnoliopsida; Olea europaea L.; Pinales; Vitis vinifera L.; ; Pinus pinaster Aiton
2005,2005-04-15,Viseu,Penedono,Souto,SOUTO,41.0223663,-7.359912599999999,NC,798.0,2005-04-15T15:00,9.5,47,-1.2,4.0,0.0,0.0,0.0,0.0,2,1015.4,922.9,54,29,47,0,0.28,0.63,24.4,33.2,301,302,57.2,12.7,9.4,9.1,7.0,0.243,0.266,0.232,0.278,1,3600.0,580.8,390.0,190.8,555.1,580.8,955.1,624.0,419.0,205.0,555.1,624.0,1026.1,Pinales; Magnoliopsida; Tracheophyta; Pinus pinaster Aiton; Castanea sativa Mill.; Eucalyptus L'Hér.; ; Vitis vinifera L.; Olea europaea L.
2005,2005-04-22,Viseu,São João da Pesqueira,Paredes da Beira,PAREDES DA BEIRA,41.064976,-7.4765,NC,767.0,2005-04-22T21:00,9.0,84,6.4,6.7,0.0,0.0,0.0,0.0,1,1015.2,925.9,36,40,0,0,0.0,0.18,9.3,17.4,254,257,24.5,10.3,10.9,9.1,7.5,0.28,0.273,0.251,0.285,0,0.0,0.0,0.0,0.0,0.0,0.0,0.0,0.0,0.0,0.0,0.0,0.0,0.0,Magnoliopsida; Olea europaea L.; Tracheophyta; Castanea sativa Mill.; Pinus pinaster Aiton
