year,date,district,municipality,parish,local,latitude,longitude,cause,elevation,hourly.time,hourly.temperature_2m,hourly.relative_humidity_2m,hourly.dew_point_2m,hourly.apparent_temperature,hourly.precipitation,hourly.rain,hourly.snowfall,hourly.snow_depth,hourly.weather_code,hourly.pressure_msl,hourly.surface_pressure,hourly.cloud_cover,hourly.cloud_cover_low,hourly.cloud_cover_mid,hourly.cloud_cover_high,hourly.et0_fao_evapotranspiration,hourly.vapour_pressure_deficit,hourly.wind_speed_10m,hourly.wind_speed_100m,hourly.wind_direction_10m,hourly.wind_direction_100m,hourly.wind_gusts_10m,hourly.soil_temperature_0_to_7cm,hourly.soil_temperature_7_to_28cm,hourly.soil_temperature_28_to_100cm,hourly.soil_temperature_100_to_255cm,hourly.soil_moisture_0_to_7cm,hourly.soil_moisture_7_to_28cm,hourly.soil_moisture_28_to_100cm,hourly.soil_moisture_100_to_255cm,hourly.is_day,hourly.sunshine_duration,hourly.shortwave_radiation_instant,hourly.direct_radiation_instant,hourly.diffuse_radiation_instant,hourly.direct_normal_irradiance_instant,hourly.global_tilted_irradiance_instant,hourly.terrestrial_radiation_instant,hourly.shortwave_radiation,hourly.direct_radiation,hourly.diffuse_radiation,hourly.direct_normal_irradiance,hourly.global_tilted_irradiance,hourly.terrestrial_radiation,scientificNames
2006,2006-05-27,Viana do Castelo,Viana do Castelo,Meixedo,Balteiro,41.7562475,-8.7011547,NC,59.0,2006-05-27T16:00,26.3,59,17.6,27.6,0.0,0.0,0.0,0.0,0,1020.2,1013.4,2,0,4,0,0.47,1.41,14.5,20.1,330,336,29.5,27.9,21.6,16.4,13.7,0.19,0.273,0.324,0.393,1,3600.0,617.8,517.7,100.1,772.3,617.8,893.3,679.0,569.0,110.0,772.3,679.0,981.8,Eucalyptus L'Hér.; Magnoliopsida; Pinales; Pinus pinaster Aiton
2006,2006-02-09,Viana do Castelo,Ponte de Lima,Calheiros,Arcela,41.7675021,-8.5830992,NC,19.0,2006-02-09T15:00,15.5,52,5.8,13.8,0.0,0.0,0.0,0.0,1,1015.3,1013.0,29,0,20,56,0.26,0.84,4.6,5.1,231,219,13.0,13.9,8.5,8.8,11.7,0.33,0.346,0.374,0.401,1,3600.0,444.6,363.7,80.9,827.8,444.6,617.5,489.0,400.0,89.0,827.8,489.0,679.1,Tracheophyta; Magnoliopsida
2006,2006-08-24,Viana do Castelo,Valença,Boivão,ROSÁRIOS (Rossários),42.0103856,-8.5360974,NC,178.0,2006-08-24T21:00,18.2,82,15.0,17.7,0.0,0.0,0.0,0.0,0,1020.3,999.3,0,0,0,0,0.02,0.38,14.5,25.3,346,349,29.9,20.6,22.3,21.2,19.6,0.211,0.267,0.207,0.326,0,0.0,0.0,0.0,0.0,0.0,0.0,0.0,0.0,0.0,0.0,0.0,0.0,0.0,Magnoliopsida; Pinus pinaster Aiton; 
2006,2006-02-07,Viana do Castelo,Paredes de Coura,Agualonga,Cerdeira,41.881299,-8.6193203,NC,252.0,2006-02-07T09:00,2.1,87,0.2,-1.4,0.0,0.0,0.0,0.0,0,1025.8,994.3,0,0,0,0,0.02,0.09,9.7,10.8,75,86,21.2,2.7,4.7,7.0,10.3,0.342,0.352,0.378,0.401,1,3025.92,145.5,76.8,68.6,359.3,131.7,300.7,89.0,47.0,42.0,325.2,89.0,184.0,Pinus pinaster Aiton; Magnoliopsida; Eucalyptus L'Hér.; Tracheophyta; 
2006,2006-05-15,Viana do Castelo,Arcos de Valdevez,Guilhadeses,Cadorcas,41.8311552,-8.4254376,NC,47.0,2006-05-15T14:00,22.6,56,13.2,23.5,0.0,0.0,0.0,0.0,1,1016.5,1011.0,30,1,0,98,0.52,1.22,11.2,14.3,230,227,25.2,23.9,17.5,15.4,12.5,0.202,0.271,0.342,0.402,1,3600.0,793.0,526.4,266.6,606.3,793.0,1162.5,818.0,543.0,275.0,606.3,818.0,1199.1,Tracheophyta; Magnoliopsida; Vitis vinifera L.
2006,2006-05-16,Viana do Castelo,Viana do Castelo,Meixedo,Vilela,41.7446249,-8.7108467,NC,30.0,2006-05-16T14:00,22.1,70,16.4,24.4,0.0,0.0,0.0,0.0,1,1017.0,1013.5,22,1,0,71,0.49,0.79,9.2,11.6,249,240,26.3,25.5,19.0,15.9,13.2,0.178,0.267,0.341,0.401,1,3600.0,774.0,473.3,300.7,542.9,774.0,1166.8,798.0,488.0,310.0,542.9,798.0,1203.0,Tracheophyta; Magnoliopsida; Eucalyptus L'Hér.; Pinales
2006,2006-05-12,Viana do Castelo,Viana do Castelo,Montaria,MEDROS (MONTARIA),41.7913586,-8.728729045056994,NC,291.0,2006-05-12T17:00,15.7,75,11.3,14.6,0.0,0.0,0.0,0.0,2,1017.9,983.6,73,6,66,94,0.17,0.44,10.5,13.8,301,303,26.6,19.0,16.5,13.8,11.4,0.227,0.285,0.348,0.404,1,755.32,256.4,41.0,215.4,85.2,256.4,645.7,300.0,48.0,252.0,85.2,300.0,755.5,Tracheophyta; Magnoliopsida
2006,2006-06-05,Viana do Castelo,Ponte de Lima,Rendufe,BOA MORTE (RENDUFE),41.8597764,-8.564048195152429,NC,438.0,2006-06-05T19:00,25.0,46,12.6,25.2,0.0,0.0,0.0,0.0,0,1014.2,964.8,0,0,0,0,0.15,1.71,4.6,8.8,321,325,18.4,25.4,21.4,16.4,11.9,0.123,0.22,0.303,0.385,1,3600.0,139.2,100.3,38.9,576.2,139.2,231.2,211.0,152.0,59.0,576.2,211.0,350.5,Magnoliopsida; Pinus pinaster Aiton; Tracheophyta; Eucalyptus L'Hér.
2006,2006-05-26,Viana do Castelo,Ponte de Lima,Arcozelo,Vilar,41.7691704,-8.5863312,NC,2.0,2006-05-26T23:00,21.2,75,16.5,21.6,0.0,0.0,0.0,0.0,0,1021.2,1021.0,0,0,0,0,0.03,0.64,12.6,20.0,20,39,24.1,20.6,20.9,16.4,13.9,0.238,0.287,0.324,0.393,0,0.0,0.0,0.0,0.0,0.0,0.0,0.0,0.0,0.0,0.0,0.0,0.0,0.0,Tracheophyta; Magnoliopsida
2006,2006-02-07,Viana do Castelo,Paredes de Coura,Insalde,Casalteiro,41.9485994,-8.5329017,NC,509.0,2006-02-07T21:00,6.5,69,1.2,4.1,0.0,0.0,0.0,0.0,0,1021.4,960.2,0,0,0,0,0.0,0.3,3.3,1.9,131,202,7.6,2.7,4.9,5.2,8.7,0.342,0.354,0.379,0.402,0,0.0,0.0,0.0,0.0,0.0,0.0,0.0,0.0,0.0,0.0,0.0,0.0,0.0,Quercus L.; Magnoliopsida; Eucalyptus L'Hér.; Pinus pinaster Aiton; Tracheophyta; 
2006,2006-02-08,Viana do Castelo,Arcos de Valdevez,Vale,Eirinhas,41.8384985,-8.3696615,NC,185.0,2006-02-08T17:00,13.1,56,4.5,11.0,0.0,0.0,0.0,0.0,0,1017.9,995.7,8,0,0,26,0.1,0.66,5.5,7.4,293,309,10.1,11.0,7.1,6.8,10.0,0.333,0.348,0.375,0.402,1,3600.0,142.9,107.1,35.7,687.9,142.9,219.0,216.0,162.0,54.0,687.9,216.0,331.1,Vitis vinifera L.; Pinus pinaster Aiton; Tracheophyta; Magnoliopsida; Quercus L.; Eucalyptus L'Hér.; Acacia Mill.; 
2006,2006-06-19,Viana do Castelo,Viana do Castelo,Montaria,MONTE (MONTARIA),41.7913586,-8.728729045056994,NC,291.0,2006-06-19T14:00,21.3,62,13.8,22.7,0.0,0.0,0.0,0.0,0,1016.4,982.8,1,1,0,0,0.55,0.96,13.0,16.8,321,325,33.8,25.5,20.0,18.2,14.2,0.182,0.201,0.282,0.374,1,3600.0,909.1,772.8,136.3,855.6,909.1,1196.6,934.0,794.0,140.0,855.6,934.0,1229.4,Tracheophyta; Magnoliopsida
2006,2006-05-30,Viana do Castelo,Melgaço,Paderne,Sainde,42.0763429,-8.2853811,NC,411.0,2006-05-30T14:00,24.0,46,11.8,24.2,0.0,0.0,0.0,0.0,0,1012.3,965.8,0,0,0,0,0.62,1.6,16.8,22.4,42,44,45.0,25.9,19.4,15.7,11.5,0.219,0.291,0.343,0.423,1,3600.0,925.2,813.5,111.6,917.4,925.2,1180.5,953.0,838.0,115.0,917.4,953.0,1216.0,Quercus L.; Vitis vinifera L.; Eucalyptus L'Hér.; Pinus pinaster Aiton; Magnoliopsida
2006,2006-02-09,Viana do Castelo,Monção,Bela,Marco,42.0631472,-8.4294748,NC,76.0,2006-02-09T00:00,2.0,89,0.3,-0.9,0.0,0.0,0.0,0.0,1,1018.4,1008.8,29,0,0,95,0.0,0.08,5.6,8.4,63,59,13.3,3.2,6.6,7.2,10.5,0.338,0.35,0.377,0.395,0,0.0,0.0,0.0,0.0,0.0,0.0,0.0,0.0,0.0,0.0,0.0,0.0,0.0,Magnoliopsida; Eucalyptus L'Hér.; Tracheophyta; Pinus pinaster Aiton; Vitis vinifera L.; ; Acacia Mill.
2006,2006-05-28,Viana do Castelo,Viana do Castelo,Torre,TORRE,41.7210814,-8.715555675892642,NC,31.0,2006-05-28T12:00,27.2,57,18.0,31.1,0.0,0.0,0.0,0.0,0,1020.0,1016.4,0,0,0,0,0.63,1.54,8.3,10.7,252,230,18.4,29.7,21.8,16.9,13.9,0.181,0.269,0.323,0.393,1,3600.0,936.8,820.2,116.6,880.8,936.8,1240.5,916.0,802.0,114.0,880.8,916.0,1213.0,Pinus pinaster Aiton; Tracheophyta; Eucalyptus L'Hér.; Magnoliopsida; ; Quercus L.
2006,2006-05-28,Viana do Castelo,Viana do Castelo,Montaria,JTO PRAIA DE PAÇO (MONTARIA),41.7913586,-8.728729045056994,NC,291.0,2006-05-28T16:00,27.0,60,18.7,29.1,0.0,0.0,0.0,0.0,0,1018.8,985.7,4,0,4,5,0.42,1.42,8.6,10.5,303,308,19.8,27.9,21.7,15.6,12.3,0.209,0.276,0.321,0.392,1,3600.0,522.3,417.7,104.6,622.8,522.3,893.3,574.0,459.0,115.0,622.8,574.0,981.7,Tracheophyta; Magnoliopsida
2006,2006-02-10,Viana do Castelo,Monção,Tangil,Armada,42.022956,-8.364877,NC,134.0,2006-02-10T15:00,15.6,52,5.7,14.1,0.0,0.0,0.0,0.0,1,1014.9,999.0,27,0,45,1,0.18,0.85,2.9,3.2,300,297,11.5,12.6,7.3,6.9,10.0,0.332,0.346,0.375,0.395,1,3600.0,279.0,174.5,104.5,396.8,279.0,617.8,307.0,192.0,115.0,396.8,307.0,679.8,Magnoliopsida; Pinus pinaster Aiton; Vitis vinifera L.; Tracheophyta; Quercus L.; 
2006,2006-05-31,Viana do Castelo,Viana do Castelo,Carreço,MONTEDOR,41.7504624,-8.8634244,NC,45.0,2006-05-31T08:00,17.3,54,7.8,15.4,0.0,0.0,0.0,0.0,0,1014.3,1008.9,0,0,0,0,0.22,0.91,8.7,11.3,60,68,19.4,19.2,20.0,18.0,14.0,0.143,0.251,0.318,0.391,1,3600.0,458.7,363.4,95.4,719.8,458.7,671.8,380.0,301.0,79.0,719.8,380.0,556.5,Tracheophyta; Eucalyptus L'Hér.; Magnoliopsida
2006,2006-09-05,Viana do Castelo,Caminha,Seixas,Coura,41.8964324,-8.8187697,NC,6.0,2006-09-05T11:00,29.2,44,15.5,31.8,0.0,0.0,0.0,0.0,0,1018.1,1017.4,2,0,0,8,0.51,2.28,2.4,0.5,297,45,10.8,31.4,24.1,22.5,21.0,0.096,0.199,0.227,0.333,1,3600.0,762.3,656.9,105.4,867.5,762.3,1019.1,716.0,617.0,99.0,867.5,716.0,957.2,Tracheophyta; Magnoliopsida
2006,2006-05-29,Viana do Castelo,Viana do Castelo,Montaria,São Mamede,41.8047539,-8.743520565842598,NC,291.0,2006-05-29T06:00,17.4,89,15.7,18.3,0.0,0.0,0.0,0.0,0,1015.4,981.4,4,0,0,12,0.01,0.21,6.9,12.0,47,51,22.3,18.0,20.0,15.9,12.4,0.211,0.274,0.32,0.391,1,1441.97,78.6,42.7,35.9,285.3,47.2,199.2,35.0,19.0,16.0,171.2,35.0,88.7,Eucalyptus L'Hér.; Magnoliopsida; Pinus pinaster Aiton
2006,2006-09-05,Viana do Castelo,Valença,Cerdal,Vilar,41.9684787,-8.6276448,NC,54.0,2006-09-05T19:00,26.6,75,21.7,29.8,0.0,0.0,0.0,0.0,0,1015.9,1009.7,0,0,0,1,0.07,0.88,10.9,15.5,352,3,18.0,29.1,26.2,22.1,20.3,0.111,0.187,0.199,0.319,1,2117.79,0.0,0.0,0.0,0.0,0.0,0.0,57.0,34.0,23.0,262.7,57.0,120.7,Magnoliopsida; Tracheophyta; Pinus pinaster Aiton; Eucalyptus L'Hér.; Vitis vinifera L.; 
2006,2006-05-31,Viana do Castelo,Monção,Mazedo,Cruzeiro,42.0641886,-8.4902944,NC,82.0,2006-05-31T13:00,23.4,36,7.4,24.4,0.0,0.0,0.0,0.0,0,1014.4,1004.9,0,0,0,0,0.65,1.84,7.0,9.7,35,51,25.9,24.5,19.0,17.2,13.1,0.191,0.267,0.319,0.39,1,3600.0,986.6,871.0,115.6,932.9,986.6,1242.5,990.0,874.0,116.0,932.9,990.0,1246.8,Tracheophyta; Vitis vinifera L.; Magnoliopsida; Pinus pinaster Aiton; Eucalyptus L'Hér.; 
2006,2006-06-06,Viana do Castelo,Ponte da Barca,Boivães,BOIVIVO (BOIVÃES),41.758442,-8.4549611,NC,329.0,2006-06-06T14:00,31.2,24,8.2,31.3,0.0,0.0,0.0,0.0,1,1013.6,977.0,30,0,0,99,0.7,3.46,9.5,12.9,151,144,31.0,30.2,21.2,17.2,12.6,0.118,0.214,0.299,0.384,1,3600.0,862.9,633.6,229.3,707.6,862.9,1189.5,888.0,652.0,236.0,707.6,888.0,1224.1,Pinus pinaster Aiton; Magnoliopsida; Vitis vinifera L.
2006,2006-06-01,Viana do Castelo,Viana do Castelo,Vila Mou,Rasas,41.73567,-8.7006476,NC,54.0,2006-06-01T11:00,22.5,36,6.8,21.8,0.0,0.0,0.0,0.0,0,1018.6,1012.3,0,0,0,0,0.57,1.75,11.8,17.2,102,106,37.1,23.4,19.7,18.2,14.0,0.153,0.244,0.313,0.389,1,3600.0,917.4,800.8,116.6,904.5,917.4,1177.8,873.0,762.0,111.0,904.5,873.0,1120.8,Tracheophyta; Vitis vinifera L.; Magnoliopsida; Eucalyptus L'Hér.; Pinus pinaster Aiton
2006,2006-05-25,Viana do Castelo,Viana do Castelo,Montaria,PAÇÔ (MONTARIA),41.7913586,-8.728729045056994,NC,291.0,2006-05-25T17:00,20.8,74,16.1,20.5,0.0,0.0,0.0,0.0,0,1024.8,990.8,0,0,0,0,0.31,0.63,16.3,23.1,342,346,42.5,21.5,16.7,14.3,12.2,0.268,0.302,0.326,0.394,1,3600.0,473.3,391.2,82.0,768.3,473.3,679.0,548.0,453.0,95.0,768.3,548.0,786.2,Tracheophyta; Magnoliopsida
2006,2006-06-04,Viana do Castelo,Caminha,Argela,VALE DOS ESQUILOS (Chã do Vale Dianteira),41.8671641,-8.7916363,NC,31.0,2006-06-04T16:00,25.2,41,11.1,25.5,0.0,0.0,0.0,0.0,0,1017.9,1014.3,0,0,0,0,0.52,1.88,8.7,9.4,322,317,19.8,31.9,23.0,19.0,14.7,0.098,0.224,0.308,0.387,1,3600.0,690.7,595.8,94.9,873.9,690.7,906.3,757.0,653.0,104.0,873.9,757.0,993.2,Tracheophyta; Magnoliopsida; Pinus pinaster Aiton; Eucalyptus L'Hér.
2006,2006-05-29,Viana do Castelo,Viana do Castelo,Carreço,MONTEDOR,41.7504624,-8.8634244,NC,45.0,2006-05-29T05:00,18.6,90,16.8,19.3,0.0,0.0,0.0,0.0,0,1015.1,1009.8,10,0,0,32,0.0,0.22,11.5,16.3,20,25,22.0,19.3,21.6,17.3,13.8,0.173,0.264,0.322,0.392,0,0.0,0.0,0.0,0.0,0.0,0.0,0.0,0.0,0.0,0.0,0.0,0.0,0.0,Tracheophyta; Eucalyptus L'Hér.; Magnoliopsida
2006,2006-06-07,Viana do Castelo,Vila Nova de Cerveira,Lovelhe,Picouto,41.9546211,-8.7319668,NC,50.0,2006-06-07T11:00,25.2,52,14.7,26.4,0.0,0.0,0.0,0.0,0,1016.2,1010.4,0,0,0,0,0.56,1.53,13.2,17.1,209,205,32.0,27.6,21.8,18.7,14.1,0.124,0.219,0.301,0.383,1,3600.0,878.3,758.5,119.8,854.5,878.3,1179.0,836.0,722.0,114.0,854.5,836.0,1122.2,Eucalyptus L'Hér.; Magnoliopsida; Pinus pinaster Aiton; Tracheophyta
2006,2006-06-07,Viana do Castelo,Caminha,Dem,Pedras Frias,41.8408718,-8.7699022,NC,253.0,2006-06-07T14:00,22.8,69,16.7,25.4,0.0,0.0,0.0,0.0,0,1015.6,986.4,0,0,0,0,0.55,0.87,12.6,15.6,246,244,37.8,28.6,21.7,17.9,13.4,0.119,0.214,0.299,0.383,1,3600.0,896.5,775.9,120.6,864.9,896.5,1191.4,922.0,798.0,124.0,864.9,922.0,1225.3,Pinus pinaster Aiton; Eucalyptus L'Hér.; Magnoliopsida; Tracheophyta; Quercus L.
2006,2006-05-29,Viana do Castelo,Ponte da Barca,Lindoso,EIRÔ (LINDOSO),41.8638761,-8.2185888,NC,349.0,2006-05-29T18:00,26.2,48,14.3,25.3,0.0,0.0,0.0,0.0,0,1013.1,973.7,0,0,0,0,0.32,1.76,16.0,25.1,23,25,40.3,26.4,22.4,16.1,12.1,0.212,0.27,0.318,0.392,1,3600.0,307.9,245.2,62.7,722.9,307.9,451.7,388.0,309.0,79.0,722.9,388.0,569.2,Magnoliopsida; Eucalyptus L'Hér.; Vitis vinifera L.; Tracheophyta
2006,2006-06-08,Viana do Castelo,Melgaço,Paderne,Estivadas,42.0782284,-8.2886346,NC,413.0,2006-06-08T01:00,17.6,84,15.0,18.5,0.0,0.0,0.0,0.0,0,1015.4,967.5,2,1,0,5,0.0,0.31,5.6,9.0,50,53,13.0,19.1,22.2,17.4,12.2,0.145,0.244,0.322,0.415,0,0.0,0.0,0.0,0.0,0.0,0.0,0.0,0.0,0.0,0.0,0.0,0.0,0.0,Quercus L.; Vitis vinifera L.; Eucalyptus L'Hér.; Magnoliopsida; Pinus pinaster Aiton
2006,2006-02-12,Viana do Castelo,Paredes de Coura,Bico,Cascalha A.P.C.B. (Cascalha),41.8980454,-8.5317,NC,421.0,2006-02-12T15:00,15.2,53,5.6,13.8,0.0,0.0,0.0,0.0,1,1022.5,973.0,23,0,0,77,0.26,0.81,2.3,2.2,288,279,14.4,13.1,6.7,6.1,8.7,0.326,0.341,0.371,0.4,1,3600.0,452.5,370.5,81.9,822.4,452.5,632.6,497.0,407.0,90.0,822.4,497.0,694.8,Magnoliopsida; Tracheophyta; Quercus L.; Pinales; Eucalyptus L'Hér.; ; Pinus pinaster Aiton
2006,2006-08-26,Viana do Castelo,Ponte da Barca,Ruivos,STA EULALIA (RUIVOS),41.7686197,-8.4386156,NC,183.0,2006-08-26T22:00,17.7,81,14.4,17.2,0.0,0.0,0.0,0.0,0,1022.1,1000.4,5,0,0,18,0.02,0.38,13.4,24.5,354,360,28.4,19.5,21.5,21.0,19.6,0.204,0.262,0.204,0.32,0,0.0,0.0,0.0,0.0,0.0,0.0,0.0,0.0,0.0,0.0,0.0,0.0,0.0,Eucalyptus L'Hér.; Vitis vinifera L.; Tracheophyta; Magnoliopsida; Castanea sativa Mill.; Pinus pinaster Aiton; Quercus L.
2006,2006-06-04,Viana do Castelo,Ponte da Barca,Lavradas,S. MAMEDE (São Mamede),41.7762726,-8.4656096,NC,312.0,2006-06-04T20:00,22.2,60,14.1,22.5,0.0,0.0,0.0,0.0,0,1017.0,981.1,0,0,0,0,0.06,1.07,7.5,10.0,343,347,16.2,23.1,21.3,17.0,12.5,0.128,0.224,0.304,0.386,1,2015.85,0.0,0.0,0.0,0.0,0.0,0.0,51.0,29.0,22.0,237.9,51.0,111.1,Quercus L.; Magnoliopsida; Eucalyptus L'Hér.; Pinus pinaster Aiton; Vitis vinifera L.
2006,2006-08-30,Viana do Castelo,Valença,Fontoura,SÃO GABRIÃO (São Gabriel),41.956145,-8.6328706,NC,68.0,2006-08-30T09:00,21.1,75,16.4,21.3,0.0,0.0,0.0,0.0,0,1019.4,1011.4,0,0,0,0,0.24,0.64,14.4,19.2,22,30,29.2,21.7,21.2,21.3,20.0,0.156,0.224,0.203,0.322,1,3600.0,486.5,387.3,99.2,721.3,486.5,720.5,412.0,328.0,84.0,721.3,412.0,610.2,Pinus pinaster Aiton; Tracheophyta; Vitis vinifera L.; Eucalyptus L'Hér.; Magnoliopsida
2006,2006-06-03,Viana do Castelo,Viana do Castelo,Meixedo,Balteiro,41.7562475,-8.7011547,NC,59.0,2006-06-03T13:00,25.1,45,12.4,27.0,0.0,0.0,0.0,0.0,0,1020.9,1014.0,0,0,0,0,0.66,1.75,9.3,8.9,332,339,18.7,30.6,21.1,18.4,14.2,0.112,0.232,0.311,0.388,1,3600.0,973.2,857.5,115.7,913.7,973.2,1247.8,976.0,860.0,116.0,913.7,976.0,1251.4,Eucalyptus L'Hér.; Magnoliopsida; Pinales; Pinus pinaster Aiton
2006,2006-06-08,Viana do Castelo,Viana do Castelo,Castelo do Neiva,Santiago,41.6223481,-8.7917159,NC,63.0,2006-06-08T20:00,20.4,66,13.8,21.3,0.0,0.0,0.0,0.0,0,1014.2,1006.8,1,0,0,2,0.02,0.81,2.3,2.8,342,320,12.2,23.7,23.3,19.6,14.7,0.111,0.198,0.289,0.38,1,2196.69,3.4,1.8,1.6,21.2,2.5,8.1,52.0,28.0,24.0,221.7,52.0,122.6,Tracheophyta; Pinus pinaster Aiton; Eucalyptus L'Hér.; Magnoliopsida
2006,2006-08-30,Viana do Castelo,Valença,Boivão,FURNAS (BOIVÃO),41.9903491,-8.5496843,NC,591.0,2006-08-30T14:00,27.6,41,13.3,29.7,0.0,0.0,0.0,0.0,0,1018.4,952.7,0,0,0,0,0.6,2.16,5.5,6.9,58,62,23.0,28.1,20.5,19.2,17.8,0.165,0.236,0.213,0.326,1,3600.0,811.0,711.4,99.6,904.2,811.0,1055.8,839.0,736.0,103.0,904.2,839.0,1092.3,Magnoliopsida; Pinus pinaster Aiton; 
2006,2006-06-01,Viana do Castelo,Valença,Verdoejo,CELHÃES (VERDOEJO),42.0223828,-8.5934111,NC,546.0,2006-06-01T00:00,12.8,46,1.3,8.6,0.0,0.0,0.0,0.0,0,1017.0,953.2,0,0,0,0,0.08,0.8,15.5,31.7,87,91,49.0,13.9,17.7,15.1,10.8,0.169,0.255,0.316,0.39,0,0.0,0.0,0.0,0.0,0.0,0.0,0.0,0.0,0.0,0.0,0.0,0.0,0.0,Magnoliopsida; Vitis vinifera L.; Pinus pinaster Aiton; Tracheophyta; Eucalyptus L'Hér.; 
2006,2006-06-03,Viana do Castelo,Viana do Castelo,Vila de Punhe,Milhões,41.6569172,-8.7352724,NC,109.0,2006-06-03T17:00,24.5,51,13.6,23.7,0.0,0.0,0.0,0.0,0,1019.3,1006.6,0,0,0,0,0.41,1.52,14.5,20.0,325,326,32.0,27.8,21.9,18.1,13.8,0.132,0.228,0.306,0.387,1,3600.0,501.2,418.6,82.5,796.6,501.2,698.7,577.0,482.0,95.0,796.6,577.0,804.4,Pinus pinaster Aiton; Tracheophyta; Magnoliopsida; Eucalyptus L'Hér.; Vitis vinifera L.
2006,2006-06-11,Viana do Castelo,Viana do Castelo,Geraz Do Lima (santa Leocádia),Agros,41.7030034,-8.6674105,NC,38.0,2006-06-11T16:00,22.0,68,15.8,22.8,0.0,0.0,0.0,0.0,1,1017.0,1012.5,28,0,0,93,0.42,0.85,14.3,17.1,317,319,26.6,27.7,21.7,19.5,15.0,0.146,0.208,0.297,0.382,1,3600.0,651.0,494.7,156.4,715.7,651.0,917.0,712.0,541.0,171.0,715.7,712.0,1002.9,Tracheophyta; Pinus pinaster Aiton; Vitis vinifera L.; Magnoliopsida; Olea europaea L.; Eucalyptus L'Hér.
2006,2006-02-10,Viana do Castelo,Monção,Lapela,Fonte,42.0527672,-8.536860082544466,NC,13.0,2006-02-10T14:00,16.3,52,6.4,15.2,0.0,0.0,0.0,0.0,1,1015.4,1013.8,47,0,74,8,0.15,0.89,1.1,2.7,90,113,10.4,13.6,8.4,8.3,11.2,0.331,0.345,0.374,0.396,1,3085.13,237.4,84.6,152.8,162.8,237.4,729.7,247.0,88.0,159.0,162.8,247.0,759.3,Pinus pinaster Aiton; Tracheophyta; Vitis vinifera L.; Magnoliopsida; Eucalyptus L'Hér.; 
2006,2006-02-13,Viana do Castelo,Caminha,Gondar,Casal,41.8206808,-8.7773041,NC,104.0,2006-02-13T21:00,9.0,87,7.0,7.4,0.0,0.0,0.0,0.0,3,1022.8,1010.0,93,61,41,45,0.0,0.15,5.2,6.2,245,249,10.8,9.5,10.2,9.6,11.5,0.311,0.332,0.366,0.4,0,0.0,0.0,0.0,0.0,0.0,0.0,0.0,0.0,0.0,0.0,0.0,0.0,0.0,Eucalyptus L'Hér.; Magnoliopsida; Pinus pinaster Aiton; Tracheophyta
2006,2006-06-02,Viana do Castelo,Vila Nova de Cerveira,Covas,Vilares,41.8725151,-8.7058574,NC,195.0,2006-06-02T13:00,23.6,48,11.8,25.7,0.0,0.0,0.0,0.0,0,1022.6,1000.0,0,0,0,0,0.65,1.53,7.8,7.8,304,304,19.8,27.0,19.7,17.3,13.3,0.153,0.244,0.312,0.388,1,3600.0,986.1,869.4,116.7,928.0,986.1,1246.1,989.0,872.0,117.0,928.0,989.0,1249.7,Magnoliopsida; Eucalyptus L'Hér.; Pinus pinaster Aiton
2006,2006-05-30,Viana do Castelo,Viana do Castelo,Montaria,ALCAZAR (MONTARIA),41.7913586,-8.728729045056994,NC,291.0,2006-05-30T13:00,24.6,46,12.3,27.1,0.0,0.0,0.0,0.0,0,1011.0,977.9,0,0,0,0,0.65,1.67,6.0,8.0,57,63,25.6,26.2,19.9,16.4,12.5,0.184,0.262,0.317,0.39,1,3600.0,968.7,851.1,117.6,910.8,968.7,1244.0,972.0,854.0,118.0,910.8,972.0,1248.3,Tracheophyta; Magnoliopsida
2006,2006-06-04,Viana do Castelo,Arcos de Valdevez,São Jorge,Cimo de Vila,41.822374,-8.3769036,NC,77.0,2006-06-04T22:00,20.2,63,13.0,19.5,0.0,0.0,0.0,0.0,0,1017.2,1008.1,2,0,0,5,0.05,0.88,11.2,16.9,21,20,18.0,20.7,22.4,18.3,13.8,0.121,0.218,0.301,0.385,0,0.0,0.0,0.0,0.0,0.0,0.0,0.0,0.0,0.0,0.0,0.0,0.0,0.0,Tracheophyta; Pinus pinaster Aiton; Vitis vinifera L.; Magnoliopsida
2006,2006-03-16,Viana do Castelo,Arcos de Valdevez,Rio Frio,Aveleiras,41.8481559,-8.4748761,NC,427.0,2006-03-16T18:00,12.6,86,10.4,12.1,0.0,0.0,0.0,0.0,3,1010.5,960.4,100,99,92,100,0.04,0.2,4.7,6.6,261,261,13.0,13.9,12.6,9.2,8.0,0.363,0.375,0.399,0.419,1,0.0,36.4,3.9,32.5,32.9,36.4,164.5,65.0,7.0,58.0,32.9,65.0,294.0,Eucalyptus L'Hér.; Tracheophyta; Quercus L.; Magnoliopsida; Pinales
2006,2006-06-06,Viana do Castelo,Viana do Castelo,Alvarães,Costeira,41.6272244,-8.7482233,NC,43.0,2006-06-06T05:00,21.1,40,6.9,18.5,0.0,0.0,0.0,0.0,1,1012.2,1007.2,29,0,0,98,0.1,1.5,12.4,25.6,82,90,26.6,20.2,22.5,19.2,14.5,0.112,0.207,0.296,0.383,0,0.0,0.0,0.0,0.0,0.0,0.0,0.0,0.0,0.0,0.0,0.0,0.0,0.0,Tracheophyta; Eucalyptus L'Hér.; Pinus pinaster Aiton
2006,2006-06-06,Viana do Castelo,Monção,Mazedo,Cruzeiro,42.0641886,-8.4902944,NC,82.0,2006-06-06T08:00,25.3,50,14.2,24.6,0.0,0.0,0.0,0.0,1,1013.1,1003.6,30,0,0,99,0.27,1.61,14.7,24.6,101,102,28.1,21.7,20.6,18.1,13.6,0.132,0.225,0.304,0.385,1,3600.0,369.8,177.7,192.1,346.7,369.8,680.9,308.0,148.0,160.0,346.7,308.0,567.1,Tracheophyta; Vitis vinifera L.; Magnoliopsida; Pinus pinaster Aiton; Eucalyptus L'Hér.; 
2006,2006-03-01,Viana do Castelo,Valença,Taião,Monte de Faro (Chão do Monte),41.990382,-8.5846855,NC,320.0,2006-03-01T19:00,7.7,70,2.6,4.5,0.0,0.0,0.0,0.0,1,1015.7,977.1,34,5,1,95,0.04,0.31,10.0,19.6,339,343,29.9,7.7,7.1,6.6,8.7,0.378,0.39,0.412,0.412,0,0.0,0.0,0.0,0.0,0.0,0.0,0.0,4.0,0.0,4.0,0.0,4.0,34.1,Magnoliopsida; Eucalyptus L'Hér.; Tracheophyta; Vitis vinifera L.; Pinus pinaster Aiton; Acacia Mill.; 
2006,2006-06-27,Viana do Castelo,Viana do Castelo,Geraz Do Lima (santa Leocádia),Areosa,41.7030034,-8.6674105,NC,38.0,2006-06-27T20:00,18.2,71,12.9,16.7,0.0,0.0,0.0,0.0,0,1016.6,1012.1,0,0,0,0,0.08,0.6,16.4,26.7,327,333,32.8,21.8,21.6,19.7,16.3,0.095,0.189,0.279,0.371,1,2584.58,14.4,8.0,6.4,91.5,11.8,32.5,65.0,36.0,29.0,265.7,65.0,146.8,Tracheophyta; Pinus pinaster Aiton; Vitis vinifera L.; Magnoliopsida; Olea europaea L.; Eucalyptus L'Hér.
2006,2006-05-29,Viana do Castelo,Viana do Castelo,Montaria,S.MAMEDE (São Mamede),41.8047539,-8.743520565842598,NC,291.0,2006-05-29T08:00,21.7,76,17.4,23.0,0.0,0.0,0.0,0.0,0,1015.5,981.9,0,0,0,0,0.22,0.62,9.1,14.3,34,41,23.8,20.8,19.9,15.9,12.4,0.21,0.274,0.32,0.391,1,3600.0,439.2,343.9,95.3,679.9,439.2,673.6,364.0,285.0,79.0,679.9,364.0,558.3,Eucalyptus L'Hér.; Magnoliopsida; Pinus pinaster Aiton
2006,2006-06-18,Viana do Castelo,Monção,Barbeita,Tarendo,42.0610037,-8.4003326,NC,120.0,2006-06-18T12:00,24.3,68,18.0,27.5,0.0,0.0,0.0,0.0,0,1016.3,1002.4,2,2,0,0,0.56,0.97,10.5,11.1,297,299,23.4,26.2,20.4,18.7,14.5,0.281,0.246,0.288,0.376,1,3600.0,897.3,769.4,127.9,819.0,897.3,1244.7,877.0,752.0,125.0,819.0,877.0,1216.6,Tracheophyta; Vitis vinifera L.; Eucalyptus L'Hér.; Magnoliopsida; Pinus pinaster Aiton; 
2006,2006-05-31,Viana do Castelo,Valença,Verdoejo,Bouço,42.0223828,-8.5934111,NC,546.0,2006-05-31T13:00,21.2,31,3.5,20.1,0.0,0.0,0.0,0.0,0,1014.5,952.6,0,0,0,0,0.64,1.74,14.1,18.8,96,93,44.3,23.0,17.4,15.0,10.8,0.177,0.259,0.317,0.391,1,3600.0,1001.5,887.9,113.6,950.6,1001.5,1243.0,1005.0,891.0,114.0,950.6,1005.0,1247.3,Magnoliopsida; Vitis vinifera L.; Pinus pinaster Aiton; Tracheophyta; Eucalyptus L'Hér.; 
2006,2006-06-23,Viana do Castelo,Viana do Castelo,Darque,CURVA PINHEIRO MANSO (DARQUE),41.68023,-8.7819539,NC,25.0,2006-06-23T18:00,20.4,70,14.8,18.8,0.0,0.0,0.0,0.0,0,1013.7,1010.8,0,0,0,0,0.24,0.72,22.2,30.3,324,328,43.2,26.3,23.3,19.9,16.1,0.101,0.194,0.283,0.374,1,3600.0,324.7,253.3,71.4,676.3,324.7,495.8,400.0,312.0,88.0,676.3,400.0,610.8,Magnoliopsida; Tracheophyta; Eucalyptus L'Hér.; Pinus pinaster Aiton; Pinales
2006,2006-07-03,Viana do Castelo,Ponte da Barca,Paço Vedro de Magalhães,Fonte Cova,41.800879,-8.4090042,NC,86.0,2006-07-03T19:00,20.9,63,13.7,20.0,0.0,0.0,0.0,0.0,0,1015.9,1005.8,10,2,13,0,0.15,0.91,14.7,19.8,329,333,27.4,25.6,22.9,20.0,16.2,0.105,0.171,0.258,0.362,1,3600.0,127.3,78.7,48.6,404.8,127.3,257.2,186.0,115.0,71.0,404.8,186.0,375.9,Magnoliopsida; Tracheophyta; Eucalyptus L'Hér.; Pinus pinaster Aiton; Vitis vinifera L.
2006,2006-06-05,Viana do Castelo,Monção,Mazedo,Cruzeiro,42.0641886,-8.4902944,NC,82.0,2006-06-05T15:00,30.6,30,11.3,31.3,0.0,0.0,0.0,0.0,0,1014.4,1005.1,0,0,0,0,0.69,3.06,11.2,13.5,303,299,24.8,31.1,22.2,17.9,13.5,0.132,0.227,0.305,0.385,1,3600.0,833.1,728.3,104.9,903.9,833.1,1070.6,882.0,771.0,111.0,903.9,882.0,1133.4,Tracheophyta; Vitis vinifera L.; Magnoliopsida; Pinus pinaster Aiton; Eucalyptus L'Hér.; 
2006,2006-07-06,Viana do Castelo,Arcos de Valdevez,Carralcova,Arrochela,41.8906905,-8.3592674,NC,461.0,2006-07-06T14:00,25.2,39,10.2,25.6,0.0,0.0,0.0,0.0,0,1023.1,970.7,0,0,0,0,0.65,1.96,12.6,16.4,27,29,33.5,27.5,19.4,18.2,14.7,0.145,0.191,0.267,0.364,1,3600.0,914.7,805.6,109.1,894.1,914.7,1192.2,939.0,827.0,112.0,894.1,939.0,1223.9,Magnoliopsida; Eucalyptus L'Hér.
2006,2006-06-11,Viana do Castelo,Vila Nova de Cerveira,Covas,Vilares,41.8725151,-8.7058574,NC,195.0,2006-06-11T19:00,19.0,76,14.6,17.9,0.0,0.0,0.0,0.0,0,1017.7,994.8,4,0,0,13,0.13,0.54,17.9,23.1,335,337,34.6,22.9,21.0,18.5,14.1,0.169,0.206,0.293,0.38,1,3600.0,138.6,90.6,48.0,485.4,138.6,247.6,205.0,134.0,71.0,485.4,205.0,366.3,Magnoliopsida; Eucalyptus L'Hér.; Pinus pinaster Aiton
2006,2006-06-07,Viana do Castelo,Ponte de Lima,Calvelo,S. VERISSIMO (São Veríssimo),41.6824982,-8.5451768,NC,197.0,2006-06-07T18:00,22.8,58,14.1,23.4,0.0,0.0,0.0,0.0,0,1016.0,993.2,1,0,1,0,0.24,1.17,5.5,6.2,302,306,16.2,27.5,23.1,18.2,13.3,0.108,0.203,0.293,0.382,1,3600.0,305.9,236.9,69.1,663.6,305.9,474.1,381.0,295.0,86.0,663.6,381.0,590.4,Acacia Mill.; Magnoliopsida; Eucalyptus L'Hér.; Tracheophyta
2006,2006-07-01,Viana do Castelo,Viana do Castelo,Perre,PAREDES (Paredelhas),41.7226783,-8.7785788,NC,63.0,2006-07-01T22:00,17.2,89,15.5,18.4,0.0,0.0,0.0,0.0,1,1018.5,1011.0,23,9,0,50,0.0,0.21,5.1,9.2,315,321,9.7,20.8,23.1,19.8,16.4,0.088,0.183,0.274,0.369,0,0.0,0.0,0.0,0.0,0.0,0.0,0.0,0.0,0.0,0.0,0.0,0.0,0.0,Tracheophyta; Eucalyptus L'Hér.; Vitis vinifera L.; Magnoliopsida
2006,2006-06-07,Viana do Castelo,Viana do Castelo,Vila Franca,Figueiredo,41.6845345,-8.7416926,NC,17.0,2006-06-07T20:00,20.1,71,14.7,20.7,0.0,0.0,0.0,0.0,0,1015.7,1013.7,0,0,0,0,0.04,0.68,6.2,10.7,339,348,15.5,24.5,24.0,19.6,14.8,0.095,0.213,0.301,0.384,1,2162.01,2.4,1.3,1.1,15.0,1.7,5.8,49.0,27.0,22.0,215.2,49.0,120.4,Eucalyptus L'Hér.; Magnoliopsida; Tracheophyta
2006,2006-09-10,Viana do Castelo,Viana do Castelo,Chafé,CHAO (CHAFÉ),41.64555,-8.800074682123679,NC,46.0,2006-09-10T10:00,20.5,72,15.2,21.7,0.0,0.0,0.0,0.0,1,1021.1,1015.7,45,34,0,49,0.32,0.68,3.3,3.9,319,326,13.7,23.8,22.6,22.8,20.8,0.108,0.17,0.198,0.318,1,3600.0,590.9,461.5,129.3,716.9,590.9,868.6,530.0,414.0,116.0,716.9,530.0,779.1,Tracheophyta; Magnoliopsida; Pinus pinaster Aiton; Eucalyptus L'Hér.
2006,2006-06-09,Viana do Castelo,Ponte da Barca,Boivães,BOIVIVO (BOIVÃES),41.758442,-8.4549611,NC,329.0,2006-06-09T11:00,20.6,60,12.6,19.6,0.3,0.3,0.0,0.0,51,1013.7,975.8,60,27,41,37,0.4,0.97,16.1,20.9,200,199,41.4,23.5,19.9,17.8,12.9,0.118,0.203,0.293,0.382,1,3600.0,677.3,465.2,212.1,522.5,677.3,1181.9,645.0,443.0,202.0,522.5,645.0,1125.5,Pinus pinaster Aiton; Magnoliopsida; Vitis vinifera L.
2006,2006-06-13,Viana do Castelo,Arcos de Valdevez,Soajo,COUTO VELHO / P.N.P. GERES (Couto),41.8745404,-8.262651,NC,309.0,2006-06-13T02:00,17.5,89,15.7,18.3,0.5,0.5,0.0,0.0,53,1013.4,977.4,22,0,20,32,0.0,0.22,7.7,15.5,62,78,22.7,18.5,20.7,18.1,13.4,0.184,0.199,0.289,0.379,0,0.0,0.0,0.0,0.0,0.0,0.0,0.0,0.0,0.0,0.0,0.0,0.0,0.0,Eucalyptus L'Hér.; Magnoliopsida; Pinus pinaster Aiton; Tracheophyta
2006,2006-05-28,Viana do Castelo,Monção,Messegães,DESCONHECIDO (MESSEGÃES),42.08023465,-8.368870307577891,NC,84.0,2006-05-28T15:00,29.7,60,21.0,34.0,0.0,0.0,0.0,0.0,0,1019.3,1009.7,6,0,6,7,0.54,1.68,7.4,9.1,299,304,18.7,29.4,22.3,16.2,12.9,0.238,0.293,0.324,0.393,1,3600.0,680.0,543.2,136.7,682.5,680.0,1060.3,721.0,576.0,145.0,682.5,721.0,1124.3,Magnoliopsida; Vitis vinifera L.; Eucalyptus L'Hér.; Pinales; Pinus pinaster Aiton; Tracheophyta; 
2006,2006-09-01,Viana do Castelo,Ponte de Lima,Beiral do Lima,Vinha Nova,41.7637598,-8.4841489,NC,282.0,2006-09-01T20:00,19.5,80,15.9,20.6,0.0,0.0,0.0,0.0,1,1018.4,985.5,30,0,0,99,0.0,0.46,6.1,11.0,320,337,16.9,22.5,23.3,20.9,19.4,0.138,0.217,0.204,0.32,0,0.0,0.0,0.0,0.0,0.0,0.0,0.0,0.0,0.0,0.0,0.0,0.0,0.0,Magnoliopsida; Pinus pinaster Aiton; Eucalyptus L'Hér.; Tracheophyta
2006,2006-06-01,Viana do Castelo,Viana do Castelo,Barroselas,PAÇÔ (Paço),41.6471968,-8.7014513,NC,69.0,2006-06-01T11:00,22.2,36,6.4,21.4,0.0,0.0,0.0,0.0,0,1018.6,1010.5,0,0,0,0,0.57,1.72,11.8,17.2,102,106,37.1,23.4,19.9,18.2,14.0,0.139,0.232,0.308,0.387,1,3600.0,917.2,800.6,116.6,903.3,917.2,1179.1,873.0,762.0,111.0,903.3,873.0,1122.3,Tracheophyta; Magnoliopsida; Quercus L.; Eucalyptus L'Hér.
2006,2006-09-03,Viana do Castelo,Ponte da Barca,Crasto,EIRÓ (Eiriz),41.7740223,-8.431444,NC,137.0,2006-09-03T13:00,30.2,43,16.3,31.6,0.0,0.0,0.0,0.0,0,1020.8,1005.2,7,8,0,0,0.65,2.44,15.5,19.9,338,347,30.6,31.0,22.7,21.6,20.1,0.127,0.206,0.2,0.317,1,3600.0,836.3,732.7,103.7,892.3,836.3,1104.0,839.0,735.0,104.0,892.3,839.0,1107.5,Vitis vinifera L.; Tracheophyta; Magnoliopsida; Eucalyptus L'Hér.; Pinus pinaster Aiton; Castanea sativa Mill.; Quercus L.
2006,2006-09-04,Viana do Castelo,Arcos de Valdevez,Senharei,GONDIAO (Gondião),41.8926895,-8.4711589,NC,304.0,2006-09-04T19:00,28.4,56,18.7,30.3,0.0,0.0,0.0,0.0,0,1020.4,986.0,0,0,0,0,0.09,1.72,9.6,14.1,13,13,20.2,28.0,24.7,21.1,19.4,0.118,0.197,0.202,0.319,1,2143.14,0.0,0.0,0.0,0.0,0.0,0.0,58.0,36.0,22.0,276.6,58.0,122.5,Quercus L.; Magnoliopsida; Eucalyptus L'Hér.
2006,2006-06-02,Viana do Castelo,Arcos de Valdevez,Aguiã,Bouça Soeiro,41.8810006,-8.4423065,NC,132.0,2006-06-02T01:00,16.1,64,9.3,14.1,0.0,0.0,0.0,0.0,0,1021.2,1005.4,0,0,0,0,0.04,0.66,12.1,14.9,80,82,18.0,15.9,19.7,17.5,13.3,0.164,0.251,0.314,0.389,0,0.0,0.0,0.0,0.0,0.0,0.0,0.0,0.0,0.0,0.0,0.0,0.0,0.0,Eucalyptus L'Hér.; Tracheophyta; Magnoliopsida; Quercus L.
2006,2006-06-21,Viana do Castelo,Ponte de Lima,Gandra,Lourais,41.7810462,-8.4978034,NC,79.0,2006-06-21T19:00,22.7,66,16.1,21.7,0.0,0.0,0.0,0.0,0,1016.6,1007.4,0,0,0,0,0.18,0.93,20.9,30.0,331,336,39.6,24.8,22.2,19.3,15.3,0.172,0.199,0.276,0.372,1,3600.0,146.5,103.4,43.1,532.7,146.5,257.1,214.0,151.0,63.0,532.7,214.0,375.4,Magnoliopsida; Eucalyptus L'Hér.; Tracheophyta; Vitis vinifera L.; Pinus pinaster Aiton; Acacia Mill.; 
2006,2006-07-06,Viana do Castelo,Viana do Castelo,Castelo do Neiva,Castelo,41.6237388,-8.7950443,NC,56.0,2006-07-06T23:00,20.0,72,14.7,19.0,0.0,0.0,0.0,0.0,0,1021.6,1015.0,0,0,0,0,0.05,0.66,17.1,30.3,353,3,29.2,21.1,22.2,20.0,16.9,0.108,0.166,0.255,0.36,0,0.0,0.0,0.0,0.0,0.0,0.0,0.0,0.0,0.0,0.0,0.0,0.0,0.0,Tracheophyta; Pinus pinaster Aiton; Eucalyptus L'Hér.; Magnoliopsida
2006,2006-06-04,Viana do Castelo,Arcos de Valdevez,São Jorge,Cimo de Vila,41.822374,-8.3769036,NC,77.0,2006-06-04T14:00,29.2,24,6.5,30.6,0.0,0.0,0.0,0.0,0,1018.1,1009.3,0,0,0,0,0.69,3.09,3.1,6.3,159,149,19.1,30.0,21.3,18.2,13.8,0.124,0.22,0.302,0.386,1,3600.0,941.4,829.6,111.7,928.4,941.4,1187.8,969.0,854.0,115.0,928.4,969.0,1222.7,Tracheophyta; Pinus pinaster Aiton; Vitis vinifera L.; Magnoliopsida
2006,2006-06-25,Viana do Castelo,Ponte da Barca,Cuide de Vila Verde,Danaia,41.7662037,-8.3983801,NC,533.0,2006-06-25T16:00,17.9,70,12.3,16.8,0.1,0.1,0.0,0.0,51,1016.3,955.0,99,98,0,36,0.27,0.63,12.8,17.1,281,285,35.3,22.1,19.2,17.6,13.4,0.175,0.23,0.281,0.372,1,3600.0,417.2,147.3,269.9,212.3,417.2,918.5,456.0,161.0,295.0,212.3,456.0,1003.9,Magnoliopsida; Eucalyptus L'Hér.; Quercus L.; Tracheophyta
2006,2006-06-03,Viana do Castelo,Viana do Castelo,Meadela,BAIRRO MALHÃO (Largo Bairro Jardim),41.7079893,-8.8096973,NC,32.0,2006-06-03T23:00,18.3,73,13.4,18.2,0.0,0.0,0.0,0.0,0,1019.8,1016.0,0,0,0,0,0.02,0.57,8.2,10.4,49,34,14.4,19.8,22.2,18.6,14.4,0.11,0.229,0.31,0.388,0,0.0,0.0,0.0,0.0,0.0,0.0,0.0,0.0,0.0,0.0,0.0,0.0,0.0,Tracheophyta; Magnoliopsida
2006,2006-06-23,Viana do Castelo,Monção,Barroças e Taias,Souto,41.9982726,-8.4969918,NC,165.0,2006-06-23T09:00,21.4,74,16.6,21.6,0.0,0.0,0.0,0.0,0,1013.9,994.7,0,0,0,0,0.32,0.67,14.5,17.2,337,340,25.9,22.7,20.3,18.5,14.6,0.168,0.225,0.282,0.373,1,3600.0,612.2,503.8,108.4,756.0,612.2,882.3,542.0,446.0,96.0,756.0,542.0,781.1,Pinus pinaster Aiton; Tracheophyta; Eucalyptus L'Hér.; Magnoliopsida; ; Quercus L.
2006,2006-06-06,Viana do Castelo,Ponte da Barca,Boivães,BOIVIVO (BOIVÃES),41.758442,-8.4549611,NC,329.0,2006-06-06T08:00,24.1,42,10.2,22.4,0.0,0.0,0.0,0.0,1,1014.1,976.6,30,0,0,99,0.27,1.75,11.9,20.6,90,94,31.0,20.4,19.7,17.2,12.6,0.122,0.217,0.301,0.385,1,3600.0,394.1,216.3,177.8,421.8,394.1,681.2,328.0,180.0,148.0,421.8,328.0,567.0,Pinus pinaster Aiton; Magnoliopsida; Vitis vinifera L.
2006,2006-07-08,Viana do Castelo,Monção,Trute,Sande,42.0106983,-8.4828385,NC,145.0,2006-07-08T15:00,26.1,52,15.6,27.0,0.0,0.0,0.0,0.0,0,1017.6,1000.9,15,0,0,51,0.59,1.62,18.2,22.9,304,315,28.8,31.4,22.8,19.4,15.9,0.107,0.171,0.257,0.361,1,3600.0,818.0,713.7,104.3,873.1,818.0,1081.6,863.0,753.0,110.0,873.1,863.0,1141.2,Pinus pinaster Aiton; Magnoliopsida; Eucalyptus L'Hér.; Vitis vinifera L.; Tracheophyta; 
2006,2006-07-09,Viana do Castelo,Ponte da Barca,Vila Chã (são João Baptista),S. SEBASTIÃO (São Sebastião),41.7941167,-8.3350706,NC,255.0,2006-07-09T13:00,29.2,42,14.9,32.0,0.0,0.0,0.0,0.0,0,1019.3,990.4,0,0,0,0,0.72,2.36,9.2,11.3,318,323,28.4,32.8,22.7,19.3,15.5,0.102,0.167,0.252,0.359,1,3600.0,981.6,866.7,115.0,921.9,981.6,1243.8,982.0,867.0,115.0,921.9,982.0,1244.3,Vitis vinifera L.; Magnoliopsida; Pinus pinaster Aiton; Tracheophyta; Quercus L.
2006,2006-07-09,Viana do Castelo,Viana do Castelo,Meixedo,Vilela,41.7446249,-8.7108467,NC,30.0,2006-07-09T16:00,25.2,53,15.0,25.0,0.0,0.0,0.0,0.0,0,1019.2,1015.7,0,0,0,0,0.52,1.5,19.5,27.2,330,336,37.1,31.1,23.4,20.4,17.2,0.086,0.174,0.265,0.364,1,3600.0,701.1,604.9,96.2,866.6,701.1,923.6,765.0,660.0,105.0,866.6,765.0,1007.8,Tracheophyta; Magnoliopsida; Eucalyptus L'Hér.; Pinales
2006,2006-06-06,Viana do Castelo,Ponte da Barca,Grovelas,Barral,41.7560066,-8.4369323,NC,195.0,2006-06-06T12:00,30.9,26,9.4,30.8,0.0,0.0,0.0,0.0,1,1014.1,992.2,29,0,0,95,0.66,3.28,10.1,13.8,184,173,24.1,29.0,21.3,17.9,13.2,0.114,0.21,0.297,0.384,1,3600.0,844.4,546.9,297.5,582.9,844.4,1246.4,826.0,535.0,291.0,582.9,826.0,1219.2,Magnoliopsida; Vitis vinifera L.; Eucalyptus L'Hér.; Pinus pinaster Aiton
2006,2006-06-07,Viana do Castelo,Ponte da Barca,Boivães,BOIVIVO (BOIVÃES),41.758442,-8.4549611,NC,329.0,2006-06-07T02:00,19.1,68,12.9,19.4,0.0,0.0,0.0,0.0,1,1013.8,975.7,24,0,0,79,0.0,0.72,3.7,3.5,119,156,12.6,17.7,21.4,17.4,12.6,0.116,0.212,0.298,0.384,0,0.0,0.0,0.0,0.0,0.0,0.0,0.0,0.0,0.0,0.0,0.0,0.0,0.0,Pinus pinaster Aiton; Magnoliopsida; Vitis vinifera L.
2006,2006-02-02,Viana do Castelo,Paredes de Coura,Porreiras,Orros (PORREIRAS),41.9623936,-8.553217477186966,NC,563.0,2006-02-02T19:00,8.2,65,2.1,5.6,0.0,0.0,0.0,0.0,2,1013.1,946.6,58,13,29,96,0.01,0.38,5.4,7.1,90,139,20.5,4.2,3.9,4.3,8.5,0.353,0.363,0.386,0.403,0,0.0,0.0,0.0,0.0,0.0,0.0,0.0,0.0,0.0,0.0,0.0,0.0,0.0,Quercus L.; Magnoliopsida; Eucalyptus L'Hér.; Pinus pinaster Aiton; Tracheophyta; 
2006,2006-06-07,Viana do Castelo,Ponte de Lima,Rendufe,JUNTO ÁS PEDREIRAS - ERMIDA (RENDUFE),41.8597764,-8.564048195152429,NC,438.0,2006-06-07T11:00,24.6,47,12.7,25.8,0.0,0.0,0.0,0.0,0,1016.0,966.4,0,0,0,0,0.57,1.63,9.8,12.4,216,210,32.8,26.4,20.2,16.9,12.1,0.117,0.213,0.299,0.384,1,3600.0,888.4,765.5,122.9,860.7,888.4,1181.2,846.0,729.0,117.0,860.7,846.0,1124.8,Magnoliopsida; Pinus pinaster Aiton; Tracheophyta; Eucalyptus L'Hér.
2006,2006-07-09,Viana do Castelo,Valença,São Julião,CACHARIA (Cachada),41.9403117,-8.6591947,NC,169.0,2006-07-09T21:00,22.4,65,15.5,22.2,0.0,0.0,0.0,0.0,0,1019.2,999.5,0,0,0,1,0.09,0.95,14.0,26.1,1,15,26.6,24.2,23.7,19.9,16.4,0.102,0.167,0.255,0.36,0,0.0,0.0,0.0,0.0,0.0,0.0,0.0,0.0,0.0,0.0,0.0,0.0,2.8,Pinus pinaster Aiton; Tracheophyta; Vitis vinifera L.; Magnoliopsida; Eucalyptus L'Hér.; 
2006,2006-02-03,Viana do Castelo,Vila Nova de Cerveira,Vila Meã,Pegada (Vila Meã),41.97514945,-8.682731386976396,NC,24.0,2006-02-03T17:00,14.5,71,9.2,12.9,0.0,0.0,0.0,0.0,0,1012.9,1010.0,0,0,0,0,0.09,0.48,9.2,16.2,334,339,24.5,12.2,8.5,7.7,11.6,0.348,0.36,0.385,0.398,1,3600.0,114.9,83.1,31.7,607.5,114.9,192.7,181.0,131.0,50.0,607.5,181.0,303.6,Tracheophyta; Pinus pinaster Aiton; Eucalyptus L'Hér.; Magnoliopsida
2006,2006-09-10,Viana do Castelo,Viana do Castelo,Montaria,MONTE (MONTARIA),41.7913586,-8.728729045056994,NC,291.0,2006-09-10T19:00,18.4,77,14.3,19.0,0.0,0.0,0.0,0.0,0,1020.1,986.0,0,0,0,0,0.03,0.48,5.6,10.0,285,296,19.4,22.8,22.9,21.4,19.4,0.108,0.18,0.204,0.319,0,1565.21,0.0,0.0,0.0,0.0,0.0,0.0,38.0,22.0,16.0,191.6,38.0,96.2,Tracheophyta; Magnoliopsida
2006,2006-02-02,Viana do Castelo,Viana do Castelo,Montaria,Acessos IC1 (MONTARIA),41.7913586,-8.728729045056994,NC,291.0,2006-02-02T19:00,9.7,72,5.0,7.6,0.0,0.0,0.0,0.0,2,1013.0,978.1,56,10,29,98,0.01,0.33,6.4,10.2,142,172,22.7,7.5,6.7,6.8,10.6,0.347,0.359,0.385,0.402,0,0.0,0.0,0.0,0.0,0.0,0.0,0.0,0.0,0.0,0.0,0.0,0.0,0.0,Tracheophyta; Magnoliopsida
2006,2006-06-07,Viana do Castelo,Vila Nova de Cerveira,Covas,Vilares,41.8725151,-8.7058574,NC,195.0,2006-06-07T16:00,22.4,69,16.4,24.0,0.0,0.0,0.0,0.0,0,1015.7,993.1,0,0,0,0,0.44,0.84,10.8,13.3,270,268,25.9,28.7,22.5,18.3,13.8,0.118,0.214,0.299,0.383,1,3600.0,660.3,555.3,105.0,809.9,660.3,910.5,723.0,608.0,115.0,809.9,723.0,997.0,Magnoliopsida; Eucalyptus L'Hér.; Pinus pinaster Aiton
2006,2006-06-09,Viana do Castelo,Caminha,Dem,PEDRAS FINAS (Pedras Frias),41.8408718,-8.7699022,NC,253.0,2006-06-09T15:00,19.6,72,14.5,18.9,1.7,1.7,0.0,0.0,61,1012.8,983.4,24,16,15,2,0.32,0.64,14.8,19.3,214,213,44.6,25.2,20.7,18.2,13.6,0.133,0.208,0.295,0.382,1,3600.0,512.5,320.6,192.0,394.8,512.5,1077.9,542.0,339.0,203.0,394.8,542.0,1139.9,Pinus pinaster Aiton; Eucalyptus L'Hér.; Magnoliopsida; Tracheophyta; Quercus L.
2006,2006-07-08,Viana do Castelo,Viana do Castelo,Montaria,Espantar,41.7940644,-8.7413351,NC,254.0,2006-07-08T21:00,18.3,81,15.0,19.0,0.0,0.0,0.0,0.0,0,1018.1,988.3,7,0,0,23,0.03,0.39,6.6,12.1,319,333,17.6,22.1,22.8,19.2,15.8,0.103,0.166,0.255,0.36,0,0.0,0.0,0.0,0.0,0.0,0.0,0.0,0.0,0.0,0.0,0.0,0.0,2.6,Magnoliopsida; Tracheophyta; Eucalyptus L'Hér.
2006,2006-06-07,Viana do Castelo,Ponte de Lima,Ribeira,Fonte do Boi,41.7633736,-8.555046,NC,85.0,2006-06-07T14:00,23.8,67,17.4,26.0,0.0,0.0,0.0,0.0,0,1015.8,1005.9,0,0,0,0,0.56,0.97,16.3,20.5,262,260,33.8,29.8,22.8,19.1,14.3,0.113,0.209,0.297,0.383,1,3600.0,892.6,772.0,120.6,860.3,892.6,1191.8,918.0,794.0,124.0,860.3,918.0,1225.7,Tracheophyta; Magnoliopsida; Eucalyptus L'Hér.; Pinus pinaster Aiton
2006,2006-06-13,Viana do Castelo,Arcos de Valdevez,Gavieira,P.N.P. GERES / TIBO (GAVIEIRA),41.958806550000006,-8.252307986345055,NC,674.0,2006-06-13T04:00,14.6,90,13.1,14.7,0.0,0.0,0.0,0.0,1,1013.9,936.5,30,0,8,83,0.0,0.16,6.3,14.3,103,102,21.6,16.4,18.9,16.5,11.7,0.294,0.206,0.291,0.38,0,0.0,0.0,0.0,0.0,0.0,0.0,0.0,0.0,0.0,0.0,0.0,0.0,0.0,Magnoliopsida; Pinus pinaster Aiton; Quercus L.
2006,2006-07-12,Viana do Castelo,Ponte da Barca,Sampriz,Portela,41.7756787,-8.3762087,NC,589.0,2006-07-12T13:00,32.0,38,16.0,35.8,0.0,0.0,0.0,0.0,0,1017.1,952.6,0,0,0,0,0.7,2.93,4.6,5.6,72,75,24.5,34.4,24.4,19.4,14.5,0.16,0.233,0.296,0.406,1,3600.0,922.4,775.5,146.9,827.2,922.4,1240.7,923.0,776.0,147.0,827.2,923.0,1241.5,Magnoliopsida; Tracheophyta; Pinus pinaster Aiton; Quercus L.
2006,2006-02-06,Viana do Castelo,Ponte de Lima,Labrujó,Pereiro,41.8543636,-8.541474,NC,526.0,2006-02-06T18:00,9.6,55,1.1,7.4,0.0,0.0,0.0,0.0,0,1025.1,962.3,0,0,0,0,0.01,0.53,1.8,3.0,101,104,12.6,6.7,5.0,5.0,8.7,0.344,0.357,0.38,0.403,0,1536.82,0.0,0.0,0.0,0.0,0.0,0.0,42.0,26.0,16.0,237.1,42.0,94.2,Magnoliopsida; Eucalyptus L'Hér.; Quercus L.
2006,2006-06-27,Viana do Castelo,Viana do Castelo,Vila Franca,CALVARIO (Calvário),41.6845345,-8.7416926,NC,17.0,2006-06-27T17:00,20.9,60,12.8,18.2,0.0,0.0,0.0,0.0,0,1016.3,1014.3,3,0,0,11,0.36,0.99,25.6,34.6,325,329,49.0,26.3,21.6,19.9,16.5,0.095,0.189,0.279,0.371,1,3600.0,505.0,410.5,94.5,750.0,505.0,724.3,577.0,469.0,108.0,750.0,577.0,827.6,Eucalyptus L'Hér.; Magnoliopsida; Tracheophyta
2006,2006-02-06,Viana do Castelo,Caminha,Dem,Pedras Finas (Pedras Frias),41.8408718,-8.7699022,NC,253.0,2006-02-06T13:00,12.4,55,3.6,9.8,0.0,0.0,0.0,0.0,0,1025.5,995.0,0,0,0,0,0.27,0.65,8.3,11.2,90,88,25.6,11.2,6.4,7.5,10.6,0.341,0.353,0.379,0.401,1,3600.0,573.9,490.4,83.6,912.0,573.9,756.4,570.0,487.0,83.0,912.0,570.0,751.2,Pinus pinaster Aiton; Eucalyptus L'Hér.; Magnoliopsida; Tracheophyta; Quercus L.
2006,2006-06-30,Viana do Castelo,Viana do Castelo,Castelo do Neiva,Castelo,41.6237388,-8.7950443,NC,56.0,2006-06-30T13:00,26.0,59,17.4,29.1,0.0,0.0,0.0,0.0,0,1018.6,1012.1,0,0,0,0,0.63,1.38,12.2,13.0,272,270,23.8,30.8,21.8,19.7,16.5,0.11,0.173,0.263,0.365,1,3600.0,950.4,822.5,127.9,870.1,950.4,1250.9,951.0,823.0,128.0,870.1,951.0,1251.6,Tracheophyta; Pinus pinaster Aiton; Eucalyptus L'Hér.; Magnoliopsida
2006,2006-06-18,Viana do Castelo,Ponte da Barca,Azias,Igreja,41.7719208,-8.354615720316733,NC,459.0,2006-06-18T14:00,22.3,73,17.3,24.6,0.2,0.2,0.0,0.0,51,1015.9,963.6,42,32,22,0,0.45,0.72,8.8,10.8,289,291,27.0,24.8,19.7,17.6,13.2,0.334,0.256,0.282,0.377,1,3600.0,698.5,504.9,193.6,559.8,698.5,1194.9,718.0,519.0,199.0,559.8,718.0,1228.3,Magnoliopsida; Eucalyptus L'Hér.; Tracheophyta
2006,2006-09-11,Viana do Castelo,Ponte de Lima,Rebordões (souto),CARVALHAL (Carvalha),41.7274103,-8.5486269,NC,124.0,2006-09-11T11:00,20.6,67,14.2,21.0,0.0,0.0,0.0,0.0,3,1018.5,1003.9,94,7,97,97,0.25,0.8,6.5,8.8,174,171,17.6,22.8,21.8,22.7,20.5,0.103,0.172,0.196,0.313,1,2310.91,398.4,101.2,297.2,137.0,398.4,997.0,374.0,95.0,279.0,137.0,374.0,935.9,Magnoliopsida; Tracheophyta; Pinus pinaster Aiton; Eucalyptus L'Hér.
2006,2006-06-20,Viana do Castelo,Viana do Castelo,Vila Fria,Monte da Ola,41.6625255,-8.7617649,NC,44.0,2006-06-20T17:00,21.1,65,14.4,18.8,0.0,0.0,0.0,0.0,0,1017.3,1012.1,15,0,0,50,0.35,0.87,26.7,37.2,331,334,52.2,25.9,21.5,19.6,15.8,0.121,0.2,0.287,0.376,1,3600.0,516.7,429.3,87.4,788.8,516.7,720.8,591.0,491.0,100.0,788.8,591.0,824.4,Eucalyptus L'Hér.; Tracheophyta; Magnoliopsida; Pinus pinaster Aiton
2006,2006-06-21,Viana do Castelo,Viana do Castelo,Mazarefes,JUNTO PONTE NOVA A28 (MAZAREFES),41.6816554,-8.766340043058833,NC,11.0,2006-06-21T17:00,21.8,68,15.7,20.3,0.0,0.0,0.0,0.0,0,1017.0,1015.7,0,0,0,0,0.34,0.83,23.9,31.7,329,332,43.2,26.9,21.9,19.8,16.1,0.113,0.198,0.286,0.375,1,3600.0,503.7,416.2,87.4,764.0,503.7,721.5,576.0,476.0,100.0,764.0,576.0,825.1,Eucalyptus L'Hér.; Tracheophyta; Magnoliopsida; Pinales
2006,2006-06-05,Viana do Castelo,Ponte de Lima,Rendufe,STº OVIDEO (RENDUFE),41.8597764,-8.564048195152429,NC,438.0,2006-06-05T19:00,25.0,46,12.6,25.2,0.0,0.0,0.0,0.0,0,1014.2,964.8,0,0,0,0,0.15,1.71,4.6,8.8,321,325,18.4,25.4,21.4,16.4,11.9,0.123,0.22,0.303,0.385,1,3600.0,139.2,100.3,38.9,576.2,139.2,231.2,211.0,152.0,59.0,576.2,211.0,350.5,Magnoliopsida; Pinus pinaster Aiton; Tracheophyta; Eucalyptus L'Hér.
2006,2006-02-09,Viana do Castelo,Viana do Castelo,Montaria,Jnt A 28 (MONTARIA),41.7913586,-8.728729045056994,NC,291.0,2006-02-09T06:00,-0.1,97,-0.5,-3.3,0.0,0.0,0.0,0.0,0,1016.4,980.2,0,0,0,1,0.0,0.02,7.0,6.6,69,61,14.8,2.7,5.5,7.3,10.2,0.334,0.346,0.374,0.401,0,0.0,0.0,0.0,0.0,0.0,0.0,0.0,0.0,0.0,0.0,0.0,0.0,0.0,Tracheophyta; Magnoliopsida
2006,2006-07-13,Viana do Castelo,Ponte de Lima,Fornelos,RIBEIRA DE BOLECO (Entre Ribeiras),41.7270997,-8.5398594,NC,160.0,2006-07-13T20:00,30.9,52,19.9,33.9,0.0,0.0,0.0,0.0,1,1013.7,995.7,23,0,6,64,0.07,2.13,5.4,7.2,53,63,12.2,30.6,28.1,21.3,16.4,0.117,0.152,0.239,0.353,1,1958.11,4.9,2.1,2.7,24.5,3.7,13.1,48.0,21.0,27.0,162.3,48.0,128.9,Tracheophyta; Eucalyptus L'Hér.; Magnoliopsida; Pinus pinaster Aiton
2006,2006-02-09,Viana do Castelo,Valença,Friestas,Eido Novo,42.0420519,-8.5660538,NC,65.0,2006-02-09T12:00,14.2,54,5.1,12.7,0.0,0.0,0.0,0.0,0,1016.4,1008.6,12,0,0,41,0.26,0.74,2.2,2.9,171,150,13.0,10.7,6.3,7.9,11.0,0.335,0.348,0.376,0.397,1,3600.0,548.3,443.9,104.4,832.4,548.3,749.6,520.0,421.0,99.0,832.4,520.0,710.9,Pinus pinaster Aiton; Magnoliopsida; Tracheophyta; Vitis vinifera L.; 
2006,2006-06-30,Viana do Castelo,Viana do Castelo,Castelo do Neiva,Castelo,41.6237388,-8.7950443,NC,56.0,2006-06-30T15:00,25.5,61,17.3,27.8,0.0,0.0,0.0,0.0,0,1018.4,1011.9,0,0,0,0,0.56,1.29,13.1,15.3,286,289,26.6,31.0,22.5,19.7,16.5,0.109,0.173,0.263,0.365,1,3600.0,801.7,680.4,121.3,828.2,801.7,1087.1,846.0,718.0,128.0,828.2,846.0,1147.1,Tracheophyta; Pinus pinaster Aiton; Eucalyptus L'Hér.; Magnoliopsida
2006,2006-07-01,Viana do Castelo,Arcos de Valdevez,Carralcova,Vitoreira,41.8833211,-8.3500171,NC,404.0,2006-07-01T14:00,23.5,60,15.2,25.4,0.0,0.0,0.0,0.0,0,1018.6,972.5,10,0,0,35,0.57,1.16,11.9,14.9,241,238,35.6,28.8,21.8,18.5,14.7,0.126,0.203,0.272,0.368,1,3600.0,865.8,752.8,113.0,834.0,865.8,1194.4,889.0,773.0,116.0,834.0,889.0,1226.4,Magnoliopsida; Quercus L.
2006,2006-06-22,Viana do Castelo,Monção,Barroças e Taias,Souto,41.9982726,-8.4969918,NC,165.0,2006-06-22T16:00,27.4,52,16.7,28.0,0.0,0.0,0.0,0.0,0,1014.1,995.3,0,0,0,0,0.53,1.76,18.3,24.6,340,349,35.6,28.3,21.5,18.4,14.5,0.171,0.227,0.282,0.373,1,3600.0,660.2,557.6,102.5,802.1,660.2,920.6,721.0,609.0,112.0,802.1,721.0,1005.4,Pinus pinaster Aiton; Tracheophyta; Eucalyptus L'Hér.; Magnoliopsida; ; Quercus L.
2006,2006-06-06,Viana do Castelo,Viana do Castelo,Barroselas,Paço,41.6471968,-8.7014513,NC,69.0,2006-06-06T11:00,29.4,31,10.4,28.6,0.0,0.0,0.0,0.0,1,1014.1,1006.2,29,0,0,98,0.61,2.84,14.0,19.6,145,139,32.4,28.2,22.5,19.0,14.4,0.111,0.205,0.295,0.382,1,3600.0,781.7,453.9,327.8,510.6,781.7,1180.9,744.0,432.0,312.0,510.6,744.0,1124.0,Tracheophyta; Magnoliopsida; Quercus L.; Eucalyptus L'Hér.
2006,2006-02-06,Viana do Castelo,Ponte de Lima,Labrujó,Pereiro - Meia de Baixo (Pereiro),41.8543636,-8.541474,NC,526.0,2006-02-06T15:00,11.8,47,0.7,8.6,0.0,0.0,0.0,0.0,0,1024.7,962.4,0,0,0,0,0.24,0.74,8.0,10.8,95,92,26.3,9.6,4.2,5.0,8.7,0.345,0.357,0.381,0.403,1,3600.0,440.8,371.1,69.7,879.1,440.8,593.9,487.0,410.0,77.0,879.1,487.0,656.1,Magnoliopsida; Eucalyptus L'Hér.; Quercus L.
2006,2006-02-02,Viana do Castelo,Vila Nova de Cerveira,Gondarém,Penetao (Penetão),41.9180405,-8.7565395,NC,40.0,2006-02-02T13:00,13.4,57,5.0,9.3,0.0,0.0,0.0,0.0,1,1014.3,1009.5,29,0,0,95,0.24,0.67,20.3,26.8,160,160,40.7,11.3,7.9,9.0,12.6,0.342,0.357,0.385,0.404,1,3600.0,452.1,264.8,187.3,510.6,452.1,730.5,449.0,263.0,186.0,510.6,449.0,725.5,Eucalyptus L'Hér.; Tracheophyta; Pinus pinaster Aiton; Magnoliopsida
2006,2006-02-06,Viana do Castelo,Valença,Cerdal,Gondelim,41.9789,-8.622752,NC,50.0,2006-02-06T18:00,11.1,81,8.0,9.6,0.0,0.0,0.0,0.0,0,1025.3,1019.2,0,0,0,0,0.02,0.25,6.4,6.9,313,313,8.3,10.1,8.2,7.9,11.2,0.339,0.353,0.38,0.397,0,1615.66,0.0,0.0,0.0,0.0,0.0,0.0,45.0,27.0,18.0,242.3,45.0,96.7,Magnoliopsida; Tracheophyta; Pinus pinaster Aiton; Eucalyptus L'Hér.; Vitis vinifera L.; 
2006,2006-06-07,Viana do Castelo,Viana do Castelo,Meixedo,JUNTO A27 (MEIXEDO),41.7553054,-8.711300382274286,NC,43.0,2006-06-07T17:00,22.1,66,15.4,22.7,0.0,0.0,0.0,0.0,0,1015.8,1010.8,0,0,0,0,0.35,0.91,8.7,10.5,287,286,21.2,29.6,23.8,19.4,14.7,0.095,0.213,0.302,0.384,1,3600.0,495.6,412.0,83.6,772.9,495.6,707.8,569.0,473.0,96.0,772.9,569.0,812.7,Magnoliopsida; Eucalyptus L'Hér.; Vitis vinifera L.
2006,2006-06-07,Viana do Castelo,Viana do Castelo,Vila Mou,Rasas,41.73567,-8.7006476,NC,54.0,2006-06-07T19:00,21.3,63,14.0,21.7,0.0,0.0,0.0,0.0,0,1016.1,1009.8,0,0,0,0,0.13,0.93,6.1,7.3,332,340,16.9,26.0,23.8,19.4,14.6,0.112,0.207,0.296,0.383,1,3600.0,130.3,88.2,42.1,487.5,130.3,240.3,195.0,132.0,63.0,487.5,195.0,359.6,Tracheophyta; Vitis vinifera L.; Magnoliopsida; Eucalyptus L'Hér.; Pinus pinaster Aiton
2006,2006-06-26,Viana do Castelo,Viana do Castelo,Perre,Costa,41.7211032,-8.7947817,NC,24.0,2006-06-26T17:00,19.9,59,11.7,16.7,0.0,0.0,0.0,0.0,1,1016.2,1013.4,26,0,0,85,0.34,0.95,26.1,35.1,330,333,50.0,25.6,21.5,19.9,16.3,0.098,0.191,0.28,0.372,1,3600.0,491.3,362.5,128.7,660.8,491.3,726.2,561.0,414.0,147.0,660.8,561.0,829.2,Tracheophyta; Vitis vinifera L.; Eucalyptus L'Hér.
2006,2006-09-06,Viana do Castelo,Arcos de Valdevez,Jolda (madalena),Vilarinho,41.8011971,-8.5021651,NC,102.0,2006-09-06T15:00,30.4,42,16.2,31.8,0.0,0.0,0.0,0.0,0,1013.5,1001.9,4,4,0,1,0.54,2.5,10.7,12.6,318,323,26.3,33.6,25.4,22.4,20.5,0.109,0.187,0.198,0.315,1,3600.0,641.9,517.4,124.5,775.7,641.9,898.2,691.0,557.0,134.0,775.7,691.0,966.9,Vitis vinifera L.; Castanea sativa Mill.; Magnoliopsida; Eucalyptus L'Hér.; Pinus pinaster Aiton; Tracheophyta; Olea europaea L.
2006,2006-07-14,Viana do Castelo,Ponte da Barca,Sampriz,Portela,41.7756787,-8.3762087,NC,589.0,2006-07-14T12:00,30.7,39,15.1,33.8,0.0,0.0,0.0,0.0,0,1016.7,952.0,16,0,23,8,0.65,2.7,4.7,5.5,67,67,19.1,31.8,24.9,20.1,14.7,0.204,0.229,0.293,0.405,1,3600.0,884.8,737.2,147.6,793.5,884.8,1229.6,863.0,719.0,144.0,793.5,863.0,1199.3,Magnoliopsida; Tracheophyta; Pinus pinaster Aiton; Quercus L.
2006,2006-02-09,Viana do Castelo,Ponte de Lima,Calheiros,Pombarinho (Pombal),41.7675021,-8.5830992,NC,19.0,2006-02-09T19:00,9.8,84,7.2,7.6,0.0,0.0,0.0,0.0,1,1014.4,1012.1,30,0,2,97,0.0,0.2,10.1,10.7,27,40,13.3,9.5,9.2,8.9,11.7,0.33,0.345,0.373,0.401,0,0.0,0.0,0.0,0.0,0.0,0.0,0.0,0.0,0.0,0.0,0.0,0.0,0.0,Tracheophyta; Magnoliopsida
2006,2006-02-10,Viana do Castelo,Ponte de Lima,Rendufe,Desconhecido (RENDUFE),41.8597764,-8.564048195152429,NC,438.0,2006-02-10T14:00,14.3,48,3.4,12.3,0.0,0.0,0.0,0.0,1,1015.2,963.9,34,4,48,5,0.22,0.85,2.6,2.9,254,240,15.5,11.2,5.9,5.7,8.7,0.333,0.346,0.374,0.401,1,3600.0,379.6,235.5,144.2,450.9,379.6,733.6,395.0,245.0,150.0,450.9,395.0,763.4,Magnoliopsida; Pinus pinaster Aiton; Tracheophyta; Eucalyptus L'Hér.
2006,2006-06-08,Viana do Castelo,Ponte de Lima,Labrujó,MONTE SANTA CATARINA (Belmonte),41.8543636,-8.541474,NC,526.0,2006-06-08T16:00,23.7,49,12.3,23.2,0.0,0.0,0.0,0.0,0,1014.2,955.0,2,1,0,2,0.49,1.49,14.6,19.0,220,217,40.3,27.9,21.3,17.0,11.9,0.119,0.211,0.298,0.383,1,3600.0,667.1,563.1,104.0,824.3,667.1,906.9,731.0,617.0,114.0,824.3,731.0,993.8,Magnoliopsida; Eucalyptus L'Hér.; Quercus L.
2006,2006-02-11,Viana do Castelo,Valença,Verdoejo,St Ouvideo (VERDOEJO),42.0223828,-8.5934111,NC,546.0,2006-02-11T20:00,5.8,83,3.1,3.8,0.0,0.0,0.0,0.0,0,1019.9,954.3,0,0,0,0,0.0,0.16,2.6,2.3,56,342,8.6,5.4,6.6,5.2,7.9,0.328,0.343,0.372,0.4,0,0.0,0.0,0.0,0.0,0.0,0.0,0.0,0.0,0.0,0.0,0.0,0.0,0.0,Magnoliopsida; Vitis vinifera L.; Pinus pinaster Aiton; Tracheophyta; Eucalyptus L'Hér.; 
2006,2006-09-08,Viana do Castelo,Ponte de Lima,Refóios do Lima,.S MAMEDE (REFÓIOS DO LIMA),41.7756806,-8.5590065,NC,30.0,2006-09-08T06:00,18.5,89,16.6,19.5,0.0,0.0,0.0,0.0,1,1014.5,1010.9,24,0,0,81,0.0,0.23,8.4,14.1,7,4,15.5,19.5,23.5,22.8,20.9,0.113,0.188,0.204,0.32,0,0.0,0.0,0.0,0.0,0.0,0.0,0.0,0.0,0.0,0.0,0.0,0.0,0.0,Tracheophyta; Magnoliopsida; Eucalyptus L'Hér.
2006,2006-02-12,Viana do Castelo,Paredes de Coura,Castanheira,Travanca,41.8911734,-8.5455629,NC,503.0,2006-02-12T21:00,8.3,80,5.1,6.7,0.0,0.0,0.0,0.0,1,1024.1,963.8,28,0,0,94,0.0,0.22,2.9,3.7,83,11,8.3,5.6,7.0,5.8,8.4,0.328,0.343,0.371,0.401,0,0.0,0.0,0.0,0.0,0.0,0.0,0.0,0.0,0.0,0.0,0.0,0.0,0.0,Quercus L.; Magnoliopsida; Tracheophyta; Castanea sativa Mill.; Eucalyptus L'Hér.; Pinus pinaster Aiton; 
2006,2006-06-27,Viana do Castelo,Vila Nova de Cerveira,Loivo,SRº PORTO (LOIVO),41.9250411,-8.7475152,NC,44.0,2006-06-27T16:00,21.2,59,12.9,19.3,0.0,0.0,0.0,0.0,0,1016.4,1011.2,3,3,0,0,0.42,1.03,24.0,32.7,324,328,47.5,27.3,21.4,19.9,16.6,0.092,0.191,0.28,0.372,1,3600.0,639.8,495.0,144.8,707.9,639.8,925.4,698.0,540.0,158.0,707.9,698.0,1009.7,Tracheophyta; Magnoliopsida; Eucalyptus L'Hér.; Pinus pinaster Aiton
2006,2006-07-10,Viana do Castelo,Ponte da Barca,Entre Ambos-os-Rios,SOBREDO - P.N.P.G. (Sobredo),41.8061835,-8.2999349,NC,291.0,2006-07-10T14:00,31.8,36,15.0,34.6,0.0,0.0,0.0,0.0,0,1020.1,987.5,0,0,0,0,0.73,2.99,8.5,10.3,282,282,27.7,34.9,24.3,19.8,15.7,0.104,0.172,0.253,0.359,1,3600.0,920.6,815.4,105.2,906.8,920.6,1189.8,945.0,837.0,108.0,906.8,945.0,1221.4,Magnoliopsida; Pinus pinaster Aiton; Quercus L.
2006,2006-07-11,Viana do Castelo,Ponte de Lima,Freixo,QUINTA SOUTINHO (Quinta),41.7675021,-8.5830992,NC,19.0,2006-07-11T22:00,25.8,62,17.9,26.4,0.0,0.0,0.0,0.0,0,1017.7,1015.5,0,0,0,0,0.08,1.27,15.0,20.0,10,30,24.8,26.9,26.2,21.2,17.4,0.099,0.159,0.249,0.357,0,0.0,0.0,0.0,0.0,0.0,0.0,0.0,0.0,0.0,0.0,0.0,0.0,0.0,Tracheophyta; Magnoliopsida
2006,2006-06-09,Viana do Castelo,Viana do Castelo,Vila de Punhe,MILHOES (Milhões),41.6569172,-8.7352724,NC,109.0,2006-06-09T14:00,22.1,66,15.3,22.2,0.3,0.3,0.0,0.0,51,1012.8,1000.1,19,11,15,0,0.45,0.92,18.5,24.1,209,207,43.6,26.4,21.4,19.2,14.4,0.121,0.203,0.293,0.381,1,3600.0,732.3,554.3,178.0,616.3,732.3,1193.9,753.0,570.0,183.0,616.3,753.0,1227.8,Pinus pinaster Aiton; Tracheophyta; Magnoliopsida; Eucalyptus L'Hér.; Vitis vinifera L.
2006,2006-07-23,Viana do Castelo,Monção,Luzio,Leiradelo,41.982478,-8.4620655,NC,388.0,2006-07-23T01:00,16.4,96,15.8,17.8,0.0,0.0,0.0,0.0,1,1021.9,976.4,42,46,0,1,0.0,0.08,4.3,9.2,24,31,13.3,19.0,22.9,21.4,16.4,0.107,0.155,0.239,0.35,0,0.0,0.0,0.0,0.0,0.0,0.0,0.0,0.0,0.0,0.0,0.0,0.0,0.0,Magnoliopsida; Pinus pinaster Aiton; Quercus L.; Eucalyptus L'Hér.; 
2006,2006-09-08,Viana do Castelo,Viana do Castelo,Mujães,TEIXE (MUJÃES),41.65874885,-8.711843394230462,NC,74.0,2006-09-08T20:00,21.3,84,18.5,22.9,0.0,0.0,0.0,0.0,0,1016.2,1007.5,6,6,0,1,0.01,0.4,10.2,18.2,350,352,20.2,24.6,24.9,22.6,20.7,0.11,0.185,0.203,0.319,0,0.0,0.0,0.0,0.0,0.0,0.0,0.0,0.0,0.0,0.0,0.0,0.0,0.0,Eucalyptus L'Hér.; Magnoliopsida; Tracheophyta
2006,2006-06-11,Viana do Castelo,Caminha,Vilarelho,MIRADOURO (Mirante),41.8646734,-8.8307122,NC,26.0,2006-06-11T21:00,17.8,85,15.3,17.7,0.0,0.0,0.0,0.0,0,1018.0,1014.9,4,0,0,13,0.01,0.3,12.7,20.6,345,348,25.9,20.9,22.3,19.9,15.5,0.138,0.207,0.297,0.381,0,0.0,0.0,0.0,0.0,0.0,0.0,0.0,0.0,0.0,0.0,0.0,0.0,0.0,Eucalyptus L'Hér.; Tracheophyta; Magnoliopsida; Pinus pinaster Aiton
2006,2006-07-25,Viana do Castelo,Monção,Abedim,S. MARTINHO DA PENHA (São Martinho da Penha),41.990917,-8.5246789,NC,399.0,2006-07-25T09:00,20.0,68,14.0,20.5,0.0,0.0,0.0,0.0,0,1018.5,972.4,2,2,0,0,0.3,0.74,6.0,7.3,335,340,19.4,23.4,22.3,21.3,16.6,0.098,0.153,0.236,0.349,1,3600.0,572.4,456.8,115.6,729.4,572.4,830.1,500.0,399.0,101.0,729.4,500.0,725.2,Magnoliopsida; Pinus pinaster Aiton; Pinales; Quercus L.; Eucalyptus L'Hér.; Vitis vinifera L.; 
2006,2006-07-11,Viana do Castelo,Ponte da Barca,Nogueira,COTINHA (Cotinho),41.7894209,-8.4160262,NC,42.0,2006-07-11T22:00,26.7,61,18.6,27.7,0.0,0.0,0.0,0.0,0,1017.7,1012.8,0,0,0,0,0.09,1.36,15.0,20.0,10,30,24.8,27.6,27.1,21.3,17.1,0.098,0.156,0.243,0.355,0,0.0,0.0,0.0,0.0,0.0,0.0,0.0,0.0,0.0,0.0,0.0,0.0,0.0,Tracheophyta; Vitis vinifera L.; Magnoliopsida
2006,2006-07-25,Viana do Castelo,Valença,Boivão,CIMA (Cima de Vila),42.0103856,-8.5360974,NC,178.0,2006-07-25T23:00,18.3,84,15.5,18.4,0.0,0.0,0.0,0.0,0,1017.3,996.3,5,0,0,18,0.01,0.34,12.2,20.6,346,356,23.0,21.3,24.4,22.1,17.6,0.101,0.149,0.231,0.347,0,0.0,0.0,0.0,0.0,0.0,0.0,0.0,0.0,0.0,0.0,0.0,0.0,0.0,Magnoliopsida; Pinus pinaster Aiton; 
2006,2006-06-09,Viana do Castelo,Valença,Friestas,EIRAS (Eirado),42.0449934,-8.5661544,NC,42.0,2006-06-09T13:00,22.0,70,16.3,22.3,0.0,0.0,0.0,0.0,1,1013.1,1008.2,32,16,29,1,0.43,0.79,19.0,24.3,205,204,43.6,26.0,21.4,19.1,14.4,0.124,0.21,0.296,0.382,1,3600.0,728.0,518.6,209.4,551.6,728.0,1248.0,730.0,520.0,210.0,551.6,730.0,1251.4,Pinus pinaster Aiton; Magnoliopsida; Tracheophyta; Vitis vinifera L.; 
2006,2006-02-09,Viana do Castelo,Melgaço,Cubalhão,Coutadas PNPG (Coutadas de Soengas),42.0550453,-8.2428505,NC,797.0,2006-02-09T14:00,13.0,42,0.4,10.6,0.0,0.0,0.0,0.0,1,1015.3,923.9,22,0,19,35,0.29,0.87,3.3,4.3,174,175,18.0,6.2,2.3,4.1,8.0,0.371,0.386,0.417,0.426,1,3600.0,541.2,443.3,97.9,863.9,541.2,721.2,564.0,462.0,102.0,863.9,564.0,751.6,Magnoliopsida; Quercus L.
2006,2006-10-13,Viana do Castelo,Viana do Castelo,Viana Do Castelo (monserrate),STª LUZIA (SANTA LUZIA),41.70153575,-8.835134067055522,NC,180.0,2006-10-13T15:00,20.8,49,9.7,20.5,0.0,0.0,0.0,0.0,0,1019.5,998.4,0,0,0,0,0.31,1.25,1.9,3.6,202,174,13.3,20.4,16.4,17.6,19.4,0.363,0.381,0.365,0.325,1,3600.0,477.0,401.7,75.3,841.2,477.0,656.4,532.0,448.0,84.0,841.2,532.0,732.0,Magnoliopsida; Eucalyptus L'Hér.; Tracheophyta; Pinales
2006,2006-11-10,Viana do Castelo,Paredes de Coura,Romarigães,MONTE DA CIVIDADE (Agro do Monte),41.9133898,-8.56396258972716,NC,357.0,2006-11-10T19:00,14.4,84,11.7,14.2,0.0,0.0,0.0,0.0,0,1028.2,985.7,0,0,0,0,0.0,0.27,5.1,7.6,51,8,12.2,14.0,15.4,15.9,17.8,0.374,0.384,0.392,0.367,0,0.0,0.0,0.0,0.0,0.0,0.0,0.0,0.0,0.0,0.0,0.0,0.0,0.0,Eucalyptus L'Hér.; Pinus pinaster Aiton; Magnoliopsida; Tracheophyta; Quercus L.; 
2006,2006-07-27,Viana do Castelo,Monção,Monção,FERRONHO (Ferreiros),42.06752,-8.4755682,NC,75.0,2006-07-27T22:00,19.3,75,14.8,18.4,0.0,0.0,0.0,0.0,0,1019.0,1010.1,0,0,0,0,0.05,0.56,17.4,29.8,342,348,34.6,21.9,24.2,22.3,18.0,0.116,0.146,0.227,0.345,0,0.0,0.0,0.0,0.0,0.0,0.0,0.0,0.0,0.0,0.0,0.0,0.0,0.0,Magnoliopsida; Vitis vinifera L.; Tracheophyta; Pinus pinaster Aiton
2006,2006-02-11,Viana do Castelo,Monção,Tangil,Armada,42.022956,-8.364877,NC,134.0,2006-02-11T14:00,14.8,58,6.6,13.2,0.0,0.0,0.0,0.0,0,1018.2,1002.2,0,0,0,0,0.29,0.71,6.1,7.2,270,276,20.9,13.5,7.4,7.0,9.9,0.331,0.344,0.373,0.395,1,3600.0,548.9,467.2,81.7,889.9,548.9,737.4,571.0,486.0,85.0,889.9,571.0,767.0,Magnoliopsida; Pinus pinaster Aiton; Vitis vinifera L.; Tracheophyta; Quercus L.; 
2006,2006-07-12,Viana do Castelo,Valença,Cerdal,Vilar,41.9684787,-8.6276448,NC,54.0,2006-07-12T12:00,31.4,50,19.7,35.6,0.0,0.0,0.0,0.0,0,1016.3,1010.2,0,0,0,0,0.66,2.31,9.2,10.8,339,358,22.0,33.3,24.7,20.9,16.8,0.099,0.163,0.25,0.357,1,3600.0,885.5,714.1,171.3,769.1,885.5,1228.8,863.0,696.0,167.0,769.1,863.0,1197.6,Magnoliopsida; Tracheophyta; Pinus pinaster Aiton; Eucalyptus L'Hér.; Vitis vinifera L.; 
2006,2006-06-28,Viana do Castelo,Vila Nova de Cerveira,Covas,COVA DA CERPA (COVAS),41.8952476,-8.6797571,NC,312.0,2006-06-28T13:00,20.3,62,12.9,21.5,0.0,0.0,0.0,0.0,0,1019.0,982.8,11,12,0,0,0.52,0.89,10.5,13.0,292,294,29.5,25.9,19.3,18.1,14.7,0.119,0.189,0.272,0.369,1,3600.0,876.2,632.4,243.8,669.5,876.2,1250.0,877.0,633.0,244.0,669.5,877.0,1251.2,Magnoliopsida; Pinus pinaster Aiton; Eucalyptus L'Hér.
2006,2006-02-11,Viana do Castelo,Viana do Castelo,Geraz Do Lima (santa Maria),Regedoura,41.7071247,-8.680829,NC,35.0,2006-02-11T15:00,13.6,65,7.2,11.2,0.0,0.0,0.0,0.0,0,1019.0,1014.8,0,0,0,0,0.24,0.55,11.6,14.3,330,335,21.6,14.3,9.7,9.3,11.7,0.322,0.339,0.37,0.402,1,3600.0,457.4,384.5,72.9,854.1,457.4,632.3,502.0,422.0,80.0,854.1,502.0,693.9,Eucalyptus L'Hér.; Vitis vinifera L.; Pinus pinaster Aiton; Olea europaea L.; Tracheophyta
2006,2006-02-11,Viana do Castelo,Ponte da Barca,Boivães,Boivigo (BOIVÃES),41.758442,-8.4549611,NC,329.0,2006-02-11T23:00,2.6,93,1.6,-0.6,0.0,0.0,0.0,0.0,0,1021.5,980.8,0,0,0,0,0.0,0.05,8.8,12.7,71,83,19.1,4.4,7.3,6.6,9.2,0.328,0.342,0.371,0.402,0,0.0,0.0,0.0,0.0,0.0,0.0,0.0,0.0,0.0,0.0,0.0,0.0,0.0,Pinus pinaster Aiton; Magnoliopsida; Vitis vinifera L.
2006,2006-07-12,Viana do Castelo,Paredes de Coura,Castanheira,OUTEIRINHO (Outeirais),41.8911734,-8.5455629,NC,503.0,2006-07-12T22:00,25.0,64,17.8,26.9,0.0,0.0,0.0,0.0,0,1018.1,961.4,5,0,3,12,0.03,1.13,6.8,14.2,65,66,20.9,25.8,25.6,19.5,14.9,0.111,0.171,0.254,0.359,0,0.0,0.0,0.0,0.0,0.0,0.0,0.0,0.0,0.0,0.0,0.0,0.0,0.0,Quercus L.; Magnoliopsida; Tracheophyta; Castanea sativa Mill.; Eucalyptus L'Hér.; Pinus pinaster Aiton; 
2006,2006-02-13,Viana do Castelo,Vila Nova de Cerveira,Mentrestido,Fiais,41.9004841,-8.6682033,NC,192.0,2006-02-13T15:00,11.6,79,8.1,9.8,0.0,0.0,0.0,0.0,3,1022.8,999.6,92,71,0,95,0.15,0.29,9.1,10.7,252,250,25.2,12.7,8.9,8.5,10.6,0.321,0.337,0.368,0.399,1,3600.0,298.1,116.7,181.4,256.3,298.1,638.9,327.0,128.0,199.0,256.3,327.0,700.9,Magnoliopsida; Pinus pinaster Aiton; Eucalyptus L'Hér.
2006,2006-02-12,Viana do Castelo,Ponte de Lima,Arcozelo,Vilar,41.7691704,-8.5863312,NC,2.0,2006-02-12T23:00,6.2,96,5.6,4.1,0.0,0.0,0.0,0.0,0,1024.3,1024.0,10,0,0,33,0.0,0.04,7.2,7.4,72,61,13.7,7.9,10.1,9.4,11.7,0.325,0.34,0.369,0.4,0,0.0,0.0,0.0,0.0,0.0,0.0,0.0,0.0,0.0,0.0,0.0,0.0,0.0,Tracheophyta; Magnoliopsida
2006,2006-02-12,Viana do Castelo,Ponte de Lima,Calheiros,Arcela,41.7675021,-8.5830992,NC,19.0,2006-02-12T14:00,16.9,55,7.8,15.3,0.0,0.0,0.0,0.0,1,1022.9,1020.6,21,0,0,69,0.32,0.86,8.0,11.4,108,108,19.8,15.0,9.2,9.2,11.6,0.326,0.341,0.369,0.4,1,3600.0,561.1,477.4,83.7,894.7,561.1,749.1,583.0,496.0,87.0,894.7,583.0,778.3,Tracheophyta; Magnoliopsida
2006,2006-07-03,Viana do Castelo,Viana do Castelo,Geraz Do Lima (santa Leocádia),Agros,41.7030034,-8.6674105,NC,38.0,2006-07-03T15:00,21.8,61,14.0,23.0,0.0,0.0,0.0,0.0,1,1016.3,1011.8,23,0,6,63,0.5,1.02,11.6,13.6,300,302,27.7,30.2,22.3,20.1,16.7,0.091,0.181,0.272,0.368,1,3600.0,772.7,599.2,173.5,729.0,772.7,1087.4,815.0,632.0,183.0,729.0,815.0,1147.0,Tracheophyta; Pinus pinaster Aiton; Vitis vinifera L.; Magnoliopsida; Olea europaea L.; Eucalyptus L'Hér.
2006,2006-07-04,Viana do Castelo,Paredes de Coura,Infesta,RIBAS (Riba Coura),41.9051877,-8.5930067,NC,320.0,2006-07-04T22:00,15.4,94,14.5,16.2,0.0,0.0,0.0,0.0,2,1019.5,981.7,61,41,0,79,0.0,0.1,4.2,7.2,290,297,11.9,18.8,21.1,18.9,15.2,0.113,0.175,0.26,0.363,0,0.0,0.0,0.0,0.0,0.0,0.0,0.0,0.0,0.0,0.0,0.0,0.0,0.0,Eucalyptus L'Hér.; Quercus L.; Tracheophyta; Pinus pinaster Aiton; Magnoliopsida; 
2006,2006-01-25,Viana do Castelo,Paredes de Coura,Coura,Seara PPCB (Seara),41.91106,-8.55959,NC,374.0,2006-01-25T19:00,9.1,63,2.4,6.6,0.0,0.0,0.0,0.0,0,1013.1,968.5,15,0,18,14,0.01,0.43,5.4,6.5,82,71,14.8,6.7,7.4,7.4,10.5,0.366,0.378,0.4,0.403,0,0.0,0.0,0.0,0.0,0.0,0.0,0.0,0.0,0.0,0.0,0.0,0.0,0.0,Pinus pinaster Aiton; Magnoliopsida; Tracheophyta; Quercus L.; Eucalyptus L'Hér.; 
2006,2006-07-07,Viana do Castelo,Arcos de Valdevez,Extremo,Coutada de Cima,41.9678069,-8.4750688,NC,383.0,2006-07-07T17:00,25.4,51,14.6,25.1,0.0,0.0,0.0,0.0,0,1019.1,975.6,0,0,0,1,0.38,1.57,12.3,17.1,328,332,33.8,28.8,22.0,18.4,14.9,0.113,0.174,0.258,0.362,1,3600.0,446.1,321.0,125.1,590.4,446.1,719.4,510.0,367.0,143.0,590.4,510.0,822.5,Magnoliopsida; Tracheophyta; Quercus L.
2006,2006-06-10,Viana do Castelo,Ponte da Barca,Crasto,Mota,41.7740223,-8.431444,NC,137.0,2006-06-10T00:00,15.3,94,14.4,15.3,0.0,0.0,0.0,0.0,2,1014.6,998.3,51,39,18,17,0.0,0.1,9.9,17.5,161,172,22.3,17.8,21.1,18.9,13.9,0.145,0.198,0.29,0.38,0,0.0,0.0,0.0,0.0,0.0,0.0,0.0,0.0,0.0,0.0,0.0,0.0,0.0,Vitis vinifera L.; Tracheophyta; Magnoliopsida; Eucalyptus L'Hér.; Pinus pinaster Aiton; Castanea sativa Mill.; Quercus L.
2006,2006-06-19,Viana do Castelo,Viana do Castelo,Cardielos,S.SILVESTRE (SÃO SILVESTRE),41.7220152,-8.746109,NC,268.0,2006-06-19T12:00,22.0,61,14.1,23.9,0.0,0.0,0.0,0.0,0,1017.1,986.1,16,17,2,0,0.56,1.04,10.2,12.7,309,315,28.8,25.1,20.0,18.5,14.3,0.213,0.206,0.282,0.374,1,3600.0,937.4,791.1,146.3,840.5,937.4,1246.8,916.0,773.0,143.0,840.5,916.0,1218.3,Eucalyptus L'Hér.; Magnoliopsida; Tracheophyta
2006,2006-06-11,Viana do Castelo,Vila Nova de Cerveira,Lovelhe,Picouto,41.9546211,-8.7319668,NC,50.0,2006-06-11T22:00,17.0,91,15.5,17.1,0.0,0.0,0.0,0.0,0,1018.1,1012.1,7,0,0,23,0.0,0.17,11.6,18.9,344,347,23.0,19.4,21.2,18.9,14.5,0.181,0.208,0.294,0.38,0,0.0,0.0,0.0,0.0,0.0,0.0,0.0,0.0,0.0,0.0,0.0,0.0,0.0,Eucalyptus L'Hér.; Magnoliopsida; Pinus pinaster Aiton; Tracheophyta
2006,2006-07-30,Viana do Castelo,Arcos de Valdevez,Jolda (madalena),VALINHA (Valinho),41.8011971,-8.5021651,NC,102.0,2006-07-30T08:00,20.0,86,17.7,22.2,0.0,0.0,0.0,0.0,3,1016.2,1004.2,99,100,15,0,0.07,0.32,4.1,5.3,285,298,10.1,21.9,23.5,22.6,18.4,0.099,0.141,0.217,0.34,1,1351.56,120.9,47.4,73.6,105.1,120.9,598.5,97.0,38.0,59.0,105.1,97.0,480.0,Vitis vinifera L.; Castanea sativa Mill.; Magnoliopsida; Eucalyptus L'Hér.; Pinus pinaster Aiton; Tracheophyta; Olea europaea L.
2006,2006-09-08,Viana do Castelo,Paredes de Coura,Cristelo,PEREIROS (Pereiro),41.9039508,-8.5382744,NC,433.0,2006-09-08T23:00,19.3,88,17.3,21.4,0.0,0.0,0.0,0.0,1,1017.5,967.5,26,1,19,47,0.0,0.26,3.2,4.8,63,13,10.4,20.9,23.6,21.1,18.8,0.105,0.18,0.199,0.317,0,0.0,0.0,0.0,0.0,0.0,0.0,0.0,0.0,0.0,0.0,0.0,0.0,0.0,Magnoliopsida; Tracheophyta; Quercus L.; Pinales; Eucalyptus L'Hér.; ; Pinus pinaster Aiton
2006,2006-02-04,Viana do Castelo,Ponte de Lima,Vilar das Almas,Igreja,41.651499,-8.5604981,NC,165.0,2006-02-04T15:00,14.1,59,6.2,11.7,0.0,0.0,0.0,0.0,0,1018.2,998.5,0,0,0,0,0.23,0.66,10.1,11.6,17,22,21.2,12.7,7.2,7.1,10.7,0.349,0.358,0.382,0.402,1,3600.0,421.6,351.0,70.6,840.9,421.6,587.6,466.0,388.0,78.0,840.9,466.0,649.5,Vitis vinifera L.; Pinus pinaster Aiton; Eucalyptus L'Hér.; Magnoliopsida; Tracheophyta
2006,2006-06-30,Viana do Castelo,Viana do Castelo,Portela Susã,CONDELHO (Condado),41.6724119,-8.6997584,NC,161.0,2006-06-30T13:00,25.6,57,16.5,28.6,0.0,0.0,0.0,0.0,0,1018.5,1000.0,0,0,0,0,0.63,1.41,10.4,10.8,272,266,23.0,30.8,21.5,19.1,15.7,0.106,0.176,0.266,0.366,1,3600.0,946.4,815.5,130.9,862.7,946.4,1250.9,947.0,816.0,131.0,862.7,947.0,1251.6,Eucalyptus L'Hér.; Vitis vinifera L.; Pinus pinaster Aiton; Tracheophyta; Magnoliopsida
2006,2006-06-21,Viana do Castelo,Ponte de Lima,Labruja,Devesa,41.809265,-8.5793561,NC,167.0,2006-06-21T11:00,22.0,56,12.8,22.3,0.0,0.0,0.0,0.0,0,1018.9,999.4,0,0,0,0,0.52,1.17,15.3,18.0,336,340,31.3,24.3,19.6,18.9,15.0,0.147,0.193,0.279,0.373,1,3600.0,899.0,796.0,103.0,895.2,899.0,1177.6,855.0,757.0,98.0,895.2,855.0,1119.9,Pinus pinaster Aiton; Tracheophyta; Eucalyptus L'Hér.; Magnoliopsida; Olea europaea L.
2006,2006-12-24,Viana do Castelo,Ponte de Lima,Arcozelo,BARROSAS (Barrosa),41.7691704,-8.5863312,NC,2.0,2006-12-24T15:00,12.6,55,3.8,10.4,0.0,0.0,0.0,0.0,0,1030.8,1030.6,0,0,0,0,0.15,0.66,5.2,6.4,25,27,11.2,11.1,7.4,10.6,16.3,0.355,0.364,0.38,0.417,1,3600.0,281.3,224.5,56.8,784.0,281.3,404.9,327.0,261.0,66.0,784.0,327.0,470.6,Tracheophyta; Magnoliopsida
2006,2006-07-30,Viana do Castelo,Valença,Ganfei,MOSTEIRÓ (Mosteiro de Gonfei),42.0445783,-8.6117008,NC,46.0,2006-07-30T17:00,23.3,64,16.1,23.4,0.0,0.0,0.0,0.0,0,1017.0,1011.6,6,4,4,0,0.34,1.02,13.8,17.4,317,320,29.5,29.4,24.4,22.4,18.5,0.106,0.144,0.223,0.342,1,3600.0,449.1,351.3,97.8,687.6,449.1,678.0,519.0,406.0,113.0,687.6,519.0,783.6,Magnoliopsida; Eucalyptus L'Hér.; Pinus pinaster Aiton; Tracheophyta; Vitis vinifera L.; 
2006,2006-12-25,Viana do Castelo,Paredes de Coura,Coura,Agrela,41.91106,-8.55959,NC,374.0,2006-12-25T21:00,0.4,87,-1.4,-2.9,0.0,0.0,0.0,0.0,1,1028.5,981.8,24,0,0,80,0.0,0.08,6.6,7.8,103,112,14.0,2.1,4.8,7.7,14.0,0.353,0.361,0.378,0.416,0,0.0,0.0,0.0,0.0,0.0,0.0,0.0,0.0,0.0,0.0,0.0,0.0,0.0,Pinus pinaster Aiton; Magnoliopsida; Tracheophyta; Quercus L.; Eucalyptus L'Hér.; 
2006,2006-02-13,Viana do Castelo,Ponte de Lima,Vilar das Almas,Igreja,41.651499,-8.5604981,NC,165.0,2006-02-13T17:00,11.0,80,7.6,9.1,0.0,0.0,0.0,0.0,3,1022.3,1002.3,100,94,8,98,0.08,0.27,9.3,11.3,257,253,17.6,11.6,8.8,7.9,10.1,0.32,0.337,0.367,0.4,1,3600.0,121.5,49.7,71.8,276.9,121.5,252.0,176.0,72.0,104.0,276.9,176.0,364.9,Vitis vinifera L.; Pinus pinaster Aiton; Eucalyptus L'Hér.; Magnoliopsida; Tracheophyta
2006,2006-08-01,Viana do Castelo,Ponte de Lima,Vitorino dos Piães,VARIOS (VITORINO DOS PIÃES),41.68319845,-8.626889798467637,NC,160.0,2006-08-01T14:00,26.2,57,17.1,26.7,0.0,0.0,0.0,0.0,3,1019.6,1001.2,84,93,0,1,0.47,1.46,17.2,22.7,327,331,34.9,29.8,23.9,22.3,18.4,0.103,0.14,0.214,0.338,1,3600.0,618.2,261.9,356.3,299.8,618.2,1159.8,635.0,269.0,366.0,299.8,635.0,1191.4,Pinus pinaster Aiton; Tracheophyta; Magnoliopsida; Eucalyptus L'Hér.
2006,2006-02-14,Viana do Castelo,Ponte de Lima,Calheiros,Arcela,41.7675021,-8.5830992,NC,19.0,2006-02-14T18:00,11.8,78,8.1,9.0,0.0,0.0,0.0,0.0,1,1024.3,1022.0,29,1,0,94,0.04,0.3,15.7,25.4,328,328,28.8,12.0,10.7,9.5,11.5,0.323,0.337,0.366,0.399,1,2293.8,4.0,2.1,1.9,24.2,3.0,8.4,64.0,34.0,30.0,263.1,64.0,135.6,Tracheophyta; Magnoliopsida
2006,2006-07-13,Viana do Castelo,Ponte da Barca,Sampriz,Portela,41.7756787,-8.3762087,NC,589.0,2006-07-13T14:00,32.8,33,14.6,36.5,0.0,0.0,0.0,0.0,0,1016.0,951.7,12,0,7,26,0.67,3.3,1.1,1.1,18,18,18.0,35.9,25.6,19.8,14.6,0.166,0.23,0.294,0.405,1,3600.0,878.5,762.6,115.9,850.7,878.5,1186.4,902.0,783.0,119.0,850.7,902.0,1218.2,Magnoliopsida; Tracheophyta; Pinus pinaster Aiton; Quercus L.
2006,2006-07-14,Viana do Castelo,Viana do Castelo,Castelo do Neiva,Castelo,41.6237388,-8.7950443,NC,56.0,2006-07-14T14:00,33.1,37,16.3,35.9,0.0,0.0,0.0,0.0,0,1014.3,1008.0,2,0,2,1,0.72,3.2,9.3,9.8,324,332,21.6,37.5,27.5,21.8,17.4,0.102,0.154,0.242,0.354,1,3600.0,878.3,757.4,120.9,843.0,878.3,1189.2,901.0,777.0,124.0,843.0,901.0,1219.9,Tracheophyta; Pinus pinaster Aiton; Eucalyptus L'Hér.; Magnoliopsida
2006,2006-01-22,Viana do Castelo,Paredes de Coura,Insalde,Agrela,41.9485994,-8.5329017,NC,509.0,2006-01-22T18:00,8.9,75,4.7,6.9,0.0,0.0,0.0,0.0,0,1024.2,963.3,0,0,0,0,0.02,0.29,5.0,6.0,330,343,7.9,7.3,6.4,6.8,10.0,0.379,0.388,0.407,0.405,0,7.08,0.0,0.0,0.0,0.0,0.0,0.0,11.0,5.0,6.0,62.8,11.0,51.6,Quercus L.; Magnoliopsida; Eucalyptus L'Hér.; Pinus pinaster Aiton; Tracheophyta; 
2006,2006-09-09,Viana do Castelo,Vila Nova de Cerveira,Gondarém,Mangoeiro,41.9180405,-8.7565395,NC,40.0,2006-09-09T01:00,18.9,97,18.4,20.6,0.0,0.0,0.0,0.0,0,1016.9,1012.2,8,1,0,23,0.0,0.07,10.0,16.2,345,348,20.9,20.8,24.1,22.7,20.9,0.088,0.188,0.225,0.331,0,0.0,0.0,0.0,0.0,0.0,0.0,0.0,0.0,0.0,0.0,0.0,0.0,0.0,Eucalyptus L'Hér.; Tracheophyta; Pinus pinaster Aiton; Magnoliopsida
2006,2006-07-15,Viana do Castelo,Valença,Fontoura,PAÇOS (Paço),41.9623472,-8.626216,NC,93.0,2006-07-15T15:00,31.7,48,19.4,35.3,0.0,0.0,0.0,0.0,0,1016.0,1005.5,0,0,0,0,0.62,2.42,9.7,11.1,297,295,21.6,36.4,27.5,21.8,16.8,0.108,0.156,0.242,0.354,1,3600.0,754.4,619.8,134.6,761.9,754.4,1076.8,796.0,654.0,142.0,761.9,796.0,1136.2,Pinus pinaster Aiton; Magnoliopsida; Tracheophyta; Eucalyptus L'Hér.
2006,2006-02-01,Viana do Castelo,Vila Nova de Cerveira,Covas,Real,41.8952476,-8.6797571,NC,312.0,2006-02-01T20:00,5.9,91,4.6,4.1,0.0,0.0,0.0,0.0,2,1021.0,982.9,59,0,51,96,0.0,0.08,3.7,3.9,101,158,9.7,5.3,5.8,6.7,10.6,0.351,0.362,0.387,0.402,0,0.0,0.0,0.0,0.0,0.0,0.0,0.0,0.0,0.0,0.0,0.0,0.0,0.0,Magnoliopsida; Pinus pinaster Aiton; Eucalyptus L'Hér.
2006,2006-06-27,Viana do Castelo,Vila Nova de Cerveira,Loivo,Mata Velha,41.9291561,-8.736855623087248,NC,115.0,2006-06-27T16:00,20.7,59,12.4,18.8,0.0,0.0,0.0,0.0,0,1016.4,1002.9,1,0,0,4,0.42,1.0,23.7,32.5,324,329,45.4,26.8,20.9,19.4,16.1,0.092,0.191,0.28,0.372,1,3600.0,656.3,527.0,129.2,753.7,656.3,925.4,716.0,575.0,141.0,753.7,716.0,1009.7,Pinus pinaster Aiton; Magnoliopsida; Tracheophyta; Eucalyptus L'Hér.; Vitis vinifera L.
2006,2006-02-05,Viana do Castelo,Arcos de Valdevez,Santar,Ponte,41.8207621,-8.4242421,NC,66.0,2006-02-05T21:00,5.7,83,3.1,2.7,0.0,0.0,0.0,0.0,0,1024.3,1016.1,0,0,0,0,0.0,0.15,9.6,10.9,13,354,15.1,5.1,7.4,7.5,10.9,0.345,0.356,0.38,0.403,0,0.0,0.0,0.0,0.0,0.0,0.0,0.0,0.0,0.0,0.0,0.0,0.0,0.0,Magnoliopsida; Tracheophyta; Pinus pinaster Aiton
2006,2006-02-06,Viana do Castelo,Viana do Castelo,Areosa,Areosa de Cima (AREOSA),41.7211476,-8.8555868,NC,18.0,2006-02-06T14:00,13.6,48,2.8,10.3,0.0,0.0,0.0,0.0,0,1025.0,1022.8,0,0,0,0,0.28,0.81,12.0,14.9,111,110,28.4,12.8,8.3,9.2,12.1,0.335,0.351,0.378,0.403,1,3600.0,535.3,455.5,79.8,898.6,535.3,713.2,557.0,474.0,83.0,898.6,557.0,742.1,Tracheophyta; Magnoliopsida; Acacia Mill.; Eucalyptus L'Hér.
2006,2006-07-08,Viana do Castelo,Arcos de Valdevez,Prozelo,GONTINHO (Gontilhe),41.8649428,-8.43156936695402,NC,83.0,2006-07-08T14:00,28.1,48,16.0,29.0,0.0,0.0,0.0,0.0,0,1017.3,1007.8,0,0,0,0,0.68,1.98,21.0,27.6,322,327,37.1,32.1,23.2,20.1,16.6,0.117,0.179,0.26,0.361,1,3600.0,921.0,808.9,112.1,897.7,921.0,1192.4,945.0,830.0,115.0,897.7,945.0,1223.4,Magnoliopsida; Pinus pinaster Aiton; Vitis vinifera L.; Tracheophyta; Eucalyptus L'Hér.
2006,2006-09-10,Viana do Castelo,Ponte de Lima,Estorãos,Igreja,41.7853744,-8.646583788138006,NC,18.0,2006-09-10T02:00,17.4,99,17.2,18.7,0.0,0.0,0.0,0.0,3,1019.5,1017.3,84,93,0,0,0.0,0.02,8.8,11.6,325,334,14.0,19.7,24.1,23.0,21.0,0.109,0.182,0.203,0.319,0,0.0,0.0,0.0,0.0,0.0,0.0,0.0,0.0,0.0,0.0,0.0,0.0,0.0,Tracheophyta; Eucalyptus L'Hér.; Magnoliopsida; Vitis vinifera L.
2006,2006-03-16,Viana do Castelo,Ponte de Lima,Calheiros,Esmorigo,41.7994329,-8.4410644,NC,84.0,2006-03-16T15:00,15.6,79,11.9,14.8,0.0,0.0,0.0,0.0,3,1011.5,1001.5,100,85,6,100,0.18,0.38,9.2,11.3,239,239,25.6,17.1,13.4,10.6,9.5,0.359,0.373,0.399,0.418,1,1225.05,294.5,60.2,234.3,100.8,294.5,825.8,318.0,65.0,253.0,100.8,318.0,891.5,Pinus pinaster Aiton; Eucalyptus L'Hér.; Castanea sativa Mill.; Magnoliopsida; Tracheophyta; Vitis vinifera L.
2006,2006-02-06,Viana do Castelo,Viana do Castelo,Deocriste,Costa,41.6904909,-8.7043822,NC,42.0,2006-02-06T17:00,12.9,52,3.2,10.6,0.0,0.0,0.0,0.0,0,1024.9,1019.8,0,0,0,0,0.1,0.72,5.2,5.4,286,290,8.3,11.9,8.9,9.0,11.9,0.331,0.351,0.378,0.403,1,3600.0,131.6,96.7,34.9,633.5,131.6,214.8,200.0,147.0,53.0,633.5,200.0,326.4,Magnoliopsida; Eucalyptus L'Hér.; Tracheophyta; Pinus pinaster Aiton
2006,2006-08-03,Viana do Castelo,Ponte de Lima,Gondufe,Paraiso,41.7655223,-8.5126716,NC,154.0,2006-08-03T14:00,30.7,38,14.8,32.0,0.0,0.0,0.0,0.0,1,1011.6,994.3,28,0,47,0,0.66,2.74,13.0,16.3,341,346,28.4,33.6,24.9,22.3,18.4,0.099,0.139,0.212,0.336,1,3600.0,804.9,652.1,152.8,750.6,804.9,1154.1,827.0,670.0,157.0,750.6,827.0,1185.7,Magnoliopsida; Eucalyptus L'Hér.; Vitis vinifera L.; Tracheophyta
2006,2006-07-01,Viana do Castelo,Viana do Castelo,Montaria,Lousa,41.7866665,-8.7320722,NC,245.0,2006-07-01T21:00,17.2,84,14.5,18.1,0.0,0.0,0.0,0.0,1,1018.1,989.2,29,0,0,95,0.02,0.31,3.9,6.4,292,308,11.2,21.3,22.4,18.9,15.4,0.106,0.176,0.264,0.365,0,0.0,0.0,0.0,0.0,0.0,0.0,0.0,0.0,0.0,0.0,0.0,0.0,5.8,Pinus pinaster Aiton; Tracheophyta; Magnoliopsida; Eucalyptus L'Hér.
2006,2006-02-09,Viana do Castelo,Melgaço,Paços,Lubio (PAÇOS),42.128804900000006,-8.21656543519565,NC,214.0,2006-02-09T19:00,11.8,65,5.5,9.6,0.0,0.0,0.0,0.0,0,1015.0,989.3,3,0,0,9,0.02,0.48,7.2,8.0,53,36,11.2,6.9,5.9,6.6,10.8,0.398,0.42,0.457,0.474,0,0.0,0.0,0.0,0.0,0.0,0.0,0.0,0.0,0.0,0.0,0.0,0.0,0.0,Tracheophyta; Vitis vinifera L.; Magnoliopsida; Quercus L.; Castanea sativa Mill.; Pinus pinaster Aiton
2006,2006-07-17,Viana do Castelo,Monção,Trute,Sande,42.0106983,-8.4828385,NC,145.0,2006-07-17T23:00,23.5,72,18.2,24.9,0.0,0.0,0.0,0.0,0,1015.2,998.4,0,0,0,0,0.04,0.81,11.6,18.4,187,186,19.4,25.6,27.7,22.2,16.7,0.105,0.152,0.238,0.352,0,0.0,0.0,0.0,0.0,0.0,0.0,0.0,0.0,0.0,0.0,0.0,0.0,0.0,Pinus pinaster Aiton; Magnoliopsida; Eucalyptus L'Hér.; Vitis vinifera L.; Tracheophyta; 
2006,2006-07-08,Viana do Castelo,Viana do Castelo,Castelo do Neiva,Castelo,41.6237388,-8.7950443,NC,56.0,2006-07-08T15:00,26.0,50,14.8,25.9,0.0,0.0,0.0,0.0,0,1017.5,1011.0,0,0,0,0,0.6,1.67,21.8,28.9,322,327,38.5,30.9,23.3,20.2,17.0,0.105,0.163,0.252,0.359,1,3600.0,826.5,720.3,106.2,879.2,826.5,1084.0,872.0,760.0,112.0,879.2,872.0,1143.8,Tracheophyta; Pinus pinaster Aiton; Eucalyptus L'Hér.; Magnoliopsida
2006,2006-07-03,Viana do Castelo,Viana do Castelo,Areosa,S.MAMEDE (São Mamede),41.7303664,-8.8291614,NC,271.0,2006-07-03T17:00,20.6,61,12.9,20.1,0.0,0.0,0.0,0.0,1,1015.9,984.5,24,13,3,35,0.31,0.95,10.0,12.8,291,292,25.2,26.6,21.4,18.8,15.3,0.107,0.173,0.262,0.364,1,3600.0,425.4,269.6,155.8,492.4,425.4,724.5,486.0,308.0,178.0,492.4,486.0,827.6,Eucalyptus L'Hér.; Magnoliopsida
2006,2006-07-21,Viana do Castelo,Caminha,Seixas,Coura,41.8964324,-8.8187697,NC,6.0,2006-07-21T17:00,21.7,67,15.2,21.5,0.0,0.0,0.0,0.0,0,1020.5,1019.8,1,0,0,3,0.35,0.87,14.0,16.3,305,305,30.6,30.8,25.7,23.4,18.6,0.08,0.162,0.251,0.356,1,3600.0,500.8,413.7,87.1,778.5,500.8,704.1,575.0,475.0,100.0,778.5,575.0,808.3,Tracheophyta; Magnoliopsida
2006,2006-08-04,Viana do Castelo,Valença,Cerdal,VADE (CERDAL),41.9842495,-8.6482091,NC,25.0,2006-08-04T14:00,30.7,33,12.4,32.3,0.0,0.0,0.0,0.0,0,1014.4,1011.6,0,0,0,0,0.7,2.98,9.2,11.2,339,354,20.5,34.5,24.8,22.6,19.0,0.101,0.142,0.218,0.339,1,3600.0,894.7,789.5,105.1,911.7,894.7,1150.7,919.0,811.0,108.0,911.7,919.0,1182.0,Magnoliopsida; Tracheophyta; Pinus pinaster Aiton; Eucalyptus L'Hér.; Vitis vinifera L.; 
2006,2006-07-23,Viana do Castelo,Viana do Castelo,Geraz Do Lima (santa Leocádia),Agros,41.7030034,-8.6674105,NC,38.0,2006-07-23T14:00,26.0,58,17.1,28.1,0.0,0.0,0.0,0.0,0,1017.9,1013.5,0,0,0,0,0.61,1.41,16.3,19.9,311,316,31.0,33.2,24.5,22.8,18.3,0.083,0.159,0.247,0.354,1,3600.0,895.8,778.9,117.0,876.3,895.8,1177.8,919.0,799.0,120.0,876.3,919.0,1208.2,Tracheophyta; Pinus pinaster Aiton; Vitis vinifera L.; Magnoliopsida; Olea europaea L.; Eucalyptus L'Hér.
2006,2006-07-09,Viana do Castelo,Arcos de Valdevez,Extremo,COUTADA (Coutada de Baixo),41.968693,-8.4719897,NC,347.0,2006-07-09T20:00,24.3,52,13.8,24.4,0.0,0.0,0.0,0.0,0,1019.4,979.7,0,0,0,0,0.08,1.45,7.6,16.6,8,13,22.3,25.7,23.2,18.7,15.0,0.11,0.174,0.257,0.36,1,2426.08,10.4,6.0,4.4,68.8,8.1,22.2,64.0,37.0,27.0,280.4,64.0,136.9,Magnoliopsida; Eucalyptus L'Hér.; Tracheophyta; Quercus L.
2006,2006-07-27,Viana do Castelo,Valença,Gandra,Balagota,42.00464365,-8.631936617522708,NC,33.0,2006-07-27T16:00,24.6,56,15.1,22.7,0.0,0.0,0.0,0.0,0,1018.5,1014.7,2,2,1,0,0.44,1.37,26.8,36.1,327,330,51.5,29.5,24.5,22.6,18.4,0.105,0.145,0.226,0.344,1,3600.0,567.8,438.2,129.6,649.6,567.8,894.5,622.0,480.0,142.0,649.6,622.0,979.9,Magnoliopsida; Eucalyptus L'Hér.; Tracheophyta; Vitis vinifera L.; Pinus pinaster Aiton; Acacia Mill.; 
2006,2006-07-04,Viana do Castelo,Arcos de Valdevez,Carralcova,ARROXEIRA (Arrochela),41.8906905,-8.3592674,NC,461.0,2006-07-04T13:00,20.5,58,12.0,20.4,0.2,0.2,0.0,0.0,51,1016.6,963.8,39,35,13,0,0.45,1.01,11.9,15.0,299,300,29.9,24.6,19.8,18.3,14.5,0.149,0.195,0.269,0.366,1,3600.0,714.4,532.5,181.8,565.1,714.4,1246.7,715.0,533.0,182.0,565.1,715.0,1247.8,Magnoliopsida; Eucalyptus L'Hér.
2006,2006-02-03,Viana do Castelo,Paredes de Coura,Ferreira,Penedo,41.9305132,-8.5932664,NC,297.0,2006-02-03T21:00,5.4,89,3.7,2.5,0.0,0.0,0.0,0.0,0,1014.7,978.5,0,0,0,0,0.0,0.1,9.8,16.3,54,45,22.3,5.8,7.3,6.5,10.3,0.35,0.36,0.384,0.402,0,0.0,0.0,0.0,0.0,0.0,0.0,0.0,0.0,0.0,0.0,0.0,0.0,0.0,Tracheophyta; Eucalyptus L'Hér.; Magnoliopsida; Quercus L.; Pinus pinaster Aiton; 
2006,2006-06-23,Viana do Castelo,Viana do Castelo,Moreira de Geraz do Lima,JUNTO PONTE (MOREIRA DE GERAZ DO LIMA),41.72042285,-8.68048110506025,NC,7.0,2006-06-23T02:00,18.7,84,15.9,18.8,0.0,0.0,0.0,0.0,0,1012.6,1011.8,3,0,0,9,0.02,0.35,13.1,20.1,339,345,20.9,20.2,22.7,20.0,16.2,0.106,0.196,0.284,0.374,0,0.0,0.0,0.0,0.0,0.0,0.0,0.0,0.0,0.0,0.0,0.0,0.0,0.0,Vitis vinifera L.; Tracheophyta; Magnoliopsida; Pinus pinaster Aiton
2006,2006-02-12,Viana do Castelo,Arcos de Valdevez,Rio Frio,Boussos (Boussol),41.8484671,-8.4511949,NC,451.0,2006-02-12T17:00,14.2,59,6.4,12.5,0.0,0.0,0.0,0.0,1,1022.9,969.8,29,0,0,96,0.11,0.66,5.2,7.9,295,300,14.8,11.9,7.3,6.0,8.8,0.327,0.343,0.371,0.401,1,3600.0,147.5,104.5,43.0,605.2,147.5,242.3,216.0,153.0,63.0,605.2,216.0,354.9,Eucalyptus L'Hér.; Magnoliopsida; Pinus pinaster Aiton; Quercus L.; Acacia Mill.
2006,2006-02-12,Viana do Castelo,Valença,Ganfei,Vilar,42.0253228,-8.6083015,NC,246.0,2006-02-12T00:00,3.2,91,1.9,0.2,0.0,0.0,0.0,0.0,0,1021.5,991.0,0,0,0,0,0.0,0.07,8.4,10.8,70,86,18.7,5.1,7.8,7.3,9.8,0.328,0.342,0.372,0.396,0,0.0,0.0,0.0,0.0,0.0,0.0,0.0,0.0,0.0,0.0,0.0,0.0,0.0,Magnoliopsida; Eucalyptus L'Hér.; Pinus pinaster Aiton; Tracheophyta; Vitis vinifera L.; ; Acacia Mill.
2006,2006-07-05,Viana do Castelo,Viana do Castelo,Castelo do Neiva,Castelo,41.6237388,-8.7950443,NC,56.0,2006-07-05T19:00,18.2,65,11.6,15.2,0.0,0.0,0.0,0.0,1,1021.5,1014.8,29,0,0,96,0.16,0.73,24.2,32.7,332,333,43.2,22.7,21.9,20.0,16.8,0.11,0.167,0.257,0.361,1,3600.0,134.2,69.1,65.0,353.9,134.2,258.4,196.0,101.0,95.0,353.9,196.0,377.6,Tracheophyta; Pinus pinaster Aiton; Eucalyptus L'Hér.; Magnoliopsida
2006,2006-04-29,Viana do Castelo,Arcos de Valdevez,Gavieira,E.N. (GAVIEIRA),41.958806550000006,-8.252307986345055,NC,674.0,2006-04-29T18:00,17.5,53,7.9,16.0,0.0,0.0,0.0,0.0,0,1013.2,936.6,0,0,0,0,0.18,0.93,6.5,9.5,19,25,24.8,17.9,14.6,11.6,8.5,0.308,0.346,0.389,0.413,1,3600.0,232.1,180.9,51.2,687.1,232.1,355.2,313.0,244.0,69.0,687.1,313.0,479.1,Magnoliopsida; Pinus pinaster Aiton; Quercus L.
2006,2006-07-29,Viana do Castelo,Arcos de Valdevez,Senharei,S. MAMEDE (São Mamede),41.8883172,-8.4812308,Desconhecida,548.0,2006-07-29T10:00,21.6,65,14.7,23.0,0.0,0.0,0.0,0.0,0,1014.8,952.7,0,0,0,0,0.4,0.91,5.1,5.8,274,277,22.0,24.6,20.9,20.4,16.2,0.119,0.151,0.232,0.346,1,3600.0,693.9,552.7,141.2,732.1,693.9,1001.5,634.0,505.0,129.0,732.1,634.0,915.1,Magnoliopsida; Quercus L.
2006,2006-02-11,Viana do Castelo,Melgaço,Cristoval,Grova,42.1319119,-8.2064651,NC,255.0,2006-02-11T18:00,11.5,68,5.8,8.9,0.0,0.0,0.0,0.0,0,1020.4,989.7,0,0,0,0,0.04,0.44,10.7,23.3,33,39,28.1,10.3,7.5,6.5,10.4,0.391,0.416,0.454,0.473,1,1892.59,0.0,0.0,0.0,0.0,0.0,0.0,53.0,33.0,20.0,278.0,53.0,107.5,Tracheophyta; Magnoliopsida; Vitis vinifera L.; Castanea sativa Mill.; Pinus pinaster Aiton; Quercus L.
2006,2006-08-04,Viana do Castelo,Valença,Cerdal,Gosende,41.983119,-8.6022883,NC,158.0,2006-08-04T17:00,31.1,30,11.7,29.0,0.0,0.0,0.0,0.0,0,1013.4,995.6,0,0,0,0,0.52,3.15,17.9,23.9,345,354,32.0,33.8,25.4,22.1,18.4,0.102,0.143,0.22,0.34,1,3600.0,474.7,399.7,75.0,800.9,474.7,663.2,551.0,464.0,87.0,800.9,551.0,769.8,Magnoliopsida; Tracheophyta; Pinus pinaster Aiton; Eucalyptus L'Hér.; Vitis vinifera L.; 
2006,2006-07-10,Viana do Castelo,Viana do Castelo,Geraz Do Lima (santa Leocádia),SRª DA GUIA (Santa Leocádia),41.69720995,-8.657253399665219,NC,106.0,2006-07-10T05:00,16.0,90,14.3,16.4,0.0,0.0,0.0,0.0,0,1018.7,1006.0,0,0,0,0,0.0,0.18,6.9,9.7,9,358,12.6,18.0,22.6,20.3,16.7,0.101,0.163,0.253,0.359,0,0.0,0.0,0.0,0.0,0.0,0.0,0.0,0.0,0.0,0.0,0.0,0.0,0.0,Pinus pinaster Aiton; Tracheophyta; Magnoliopsida; Pinus pinea L.; Olea europaea L.; Eucalyptus L'Hér.
