year,date,district,municipality,parish,local,latitude,longitude,cause,elevation,hourly.time,hourly.temperature_2m,hourly.relative_humidity_2m,hourly.dew_point_2m,hourly.apparent_temperature,hourly.precipitation,hourly.rain,hourly.snowfall,hourly.snow_depth,hourly.weather_code,hourly.pressure_msl,hourly.surface_pressure,hourly.cloud_cover,hourly.cloud_cover_low,hourly.cloud_cover_mid,hourly.cloud_cover_high,hourly.et0_fao_evapotranspiration,hourly.vapour_pressure_deficit,hourly.wind_speed_10m,hourly.wind_speed_100m,hourly.wind_direction_10m,hourly.wind_direction_100m,hourly.wind_gusts_10m,hourly.soil_temperature_0_to_7cm,hourly.soil_temperature_7_to_28cm,hourly.soil_temperature_28_to_100cm,hourly.soil_temperature_100_to_255cm,hourly.soil_moisture_0_to_7cm,hourly.soil_moisture_7_to_28cm,hourly.soil_moisture_28_to_100cm,hourly.soil_moisture_100_to_255cm,hourly.is_day,hourly.sunshine_duration,hourly.shortwave_radiation_instant,hourly.direct_radiation_instant,hourly.diffuse_radiation_instant,hourly.direct_normal_irradiance_instant,hourly.global_tilted_irradiance_instant,hourly.terrestrial_radiation_instant,hourly.shortwave_radiation,hourly.direct_radiation,hourly.diffuse_radiation,hourly.direct_normal_irradiance,hourly.global_tilted_irradiance,hourly.terrestrial_radiation,scientificNames
2009,2009-05-29,Aveiro,Santa Maria da Feira,Romariz,Goim (Trav. Alto de Goim),40.9432485,-8.4589611,Desconhecida,302.0,2009-05-29T13:00,29.6,26,8.3,31.1,0.0,0.0,0.0,0.0,0,1014.8,980.9,0,0,0,0,0.72,3.06,5.3,7.0,62,69,20.2,27.2,18.9,15.1,12.4,0.204,0.249,0.285,0.363,1,3600.0,976.4,863.8,112.6,920.3,976.4,1249.8,980.0,867.0,113.0,920.3,980.0,1254.4,Eucalyptus L'Hér.; Tracheophyta; Pinales; Magnoliopsida
2009,2009-02-21,Aveiro,Santa Maria da Feira,Romariz,Lugar de Carvalhal,40.9432485,-8.4589611,Desconhecida,302.0,2009-02-21T21:00,9.7,78,6.1,7.2,0.0,0.0,0.0,0.0,0,1030.4,993.6,5,0,7,2,0.01,0.26,10.8,22.3,2,358,24.5,9.8,10.5,9.1,10.2,0.342,0.358,0.389,0.402,0,0.0,0.0,0.0,0.0,0.0,0.0,0.0,0.0,0.0,0.0,0.0,0.0,0.0,Eucalyptus L'Hér.; Tracheophyta; Pinales; Magnoliopsida
2009,2009-05-29,Aveiro,Sever do Vouga,Pessegueiro do Vouga,E. N. 16 - Ponte de Santiago (PESSEGUEIRO DO VOUGA),40.708796750000005,-8.368903878512011,Desconhecida,102.0,2009-05-29T16:00,32.4,22,7.9,31.8,0.0,0.0,0.0,0.0,0,1012.7,1001.2,0,0,0,0,0.59,3.81,8.4,10.3,329,331,22.0,33.5,22.2,16.5,13.7,0.096,0.145,0.187,0.281,1,3600.0,671.0,578.2,92.7,857.9,671.0,897.5,738.0,636.0,102.0,857.9,738.0,987.2,Tracheophyta; Pinus pinaster Aiton; Magnoliopsida; Eucalyptus L'Hér.
2009,2009-02-20,Aveiro,Albergaria-a-Velha,Albergaria-a-Velha,Srª do Socorro (SENHORA DO SOCORRO),40.690328,-8.479538190307041,NC,121.0,2009-02-20T12:00,14.8,57,6.4,13.6,0.0,0.0,0.0,0.0,0,1021.6,1007.1,0,0,0,0,0.31,0.72,3.9,5.2,146,146,19.1,13.8,8.9,9.8,11.1,0.25,0.27,0.316,0.331,1,3600.0,620.8,525.4,95.4,864.9,620.8,850.1,592.0,501.0,91.0,864.9,592.0,810.6,Tracheophyta; Eucalyptus L'Hér.
2009,2009-06-19,Aveiro,Albergaria-a-Velha,Valmaior,Mouquim,40.6972034,-8.4379283,NC,53.0,2009-06-19T16:00,30.7,41,16.1,31.5,0.0,0.0,0.0,0.0,0,1018.1,1012.1,0,0,0,0,0.6,2.59,16.1,20.1,320,327,29.9,35.2,25.5,19.8,15.4,0.071,0.131,0.148,0.253,1,3600.0,675.4,577.6,97.8,829.8,675.4,922.1,739.0,632.0,107.0,829.8,739.0,1008.9,Eucalyptus L'Hér.; Tracheophyta
2009,2009-02-28,Aveiro,Santa Maria da Feira,Vale,R.Campinho Verde (FIÃES),40.9798669,-8.4432735,Desconhecida,216.0,2009-02-28T23:00,9.2,98,8.9,8.2,0.0,0.0,0.0,0.0,3,1013.8,987.7,100,71,78,1,0.0,0.02,5.3,10.0,298,308,9.0,10.5,11.5,10.1,10.2,0.32,0.333,0.37,0.409,0,0.0,0.0,0.0,0.0,0.0,0.0,0.0,0.0,0.0,0.0,0.0,0.0,0.0,Magnoliopsida; Tracheophyta; Eucalyptus L'Hér.; Pinales
2009,2009-02-15,Aveiro,Murtosa,Bunheiro,Bunheiro Estrada Nacional 109.5 (Travessa 25 de Abril),40.7741043,-8.6450912,Desconhecida,4.0,2009-02-15T16:00,17.5,53,7.9,16.2,0.0,0.0,0.0,0.0,0,1017.8,1017.3,3,0,0,10,0.23,0.94,5.4,4.3,323,336,10.8,16.2,11.2,10.6,12.3,0.341,0.359,0.386,0.367,1,3600.0,350.9,291.8,59.0,823.7,350.9,496.8,416.0,346.0,70.0,823.7,416.0,589.0,Tracheophyta; Pinus pinaster Aiton; Eucalyptus L'Hér.; Oryza sativa L.; Magnoliopsida; 
2009,2009-05-31,Aveiro,Vale de Cambra,São Pedro de Castelões,Carvalhal,40.8390621,-8.402303678879736,Desconhecida,216.0,2009-05-31T12:00,31.5,24,8.4,32.1,0.0,0.0,0.0,0.0,0,1013.4,989.2,0,0,0,0,0.75,3.53,9.4,11.4,302,305,27.0,30.2,21.2,16.8,13.3,0.138,0.218,0.28,0.358,1,3600.0,975.2,859.7,115.5,914.7,975.2,1250.7,954.0,841.0,113.0,914.7,954.0,1223.5,Tracheophyta; Eucalyptus L'Hér.
2009,2009-06-19,Aveiro,Santa Maria da Feira,Vale,Lugar das Presinhas,40.9798669,-8.4432735,Desconhecida,216.0,2009-06-19T13:00,29.9,47,17.4,33.6,0.0,0.0,0.0,0.0,0,1019.0,994.5,0,0,0,0,0.71,2.23,9.3,10.9,298,297,22.7,30.8,23.0,18.7,14.2,0.181,0.249,0.278,0.356,1,3600.0,961.1,844.3,116.8,889.2,961.1,1257.9,963.0,846.0,117.0,889.2,963.0,1260.4,Magnoliopsida; Tracheophyta; Eucalyptus L'Hér.; Pinales
2009,2009-05-31,Aveiro,Arouca,São Miguel do Mato,Carvalhal Redondo,40.9720849,-8.3558047,Desconhecida,253.0,2009-05-31T14:00,30.2,26,8.6,30.0,0.0,0.0,0.0,0.0,0,1013.4,985.0,0,0,0,0,0.75,3.17,14.0,17.3,305,306,34.2,28.8,20.8,16.1,12.6,0.19,0.26,0.292,0.365,1,3600.0,927.1,817.4,109.7,914.1,927.1,1189.9,955.0,842.0,113.0,914.1,955.0,1225.7,Eucalyptus L'Hér.; Tracheophyta; Magnoliopsida; Pinus pinaster Aiton
2009,2009-06-18,Aveiro,Santa Maria da Feira,Vale,Presinhas,40.9698315,-8.4324212,Desconhecida,240.0,2009-06-18T21:00,23.5,81,20.1,26.2,0.0,0.0,0.0,0.0,0,1018.2,990.5,17,0,0,58,0.01,0.54,8.3,12.6,342,358,14.8,23.6,23.4,18.4,14.0,0.187,0.253,0.278,0.357,0,0.0,0.0,0.0,0.0,0.0,0.0,0.0,0.0,0.0,0.0,0.0,0.0,0.0,Eucalyptus L'Hér.; Pinales; Magnoliopsida; Tracheophyta
2009,2009-05-27,Aveiro,Arouca,Alvarenga,Srª do Monte,40.9662166,-8.1727407,Desconhecida,338.0,2009-05-27T23:00,14.7,47,3.5,11.4,0.0,0.0,0.0,0.0,0,1022.4,982.3,0,0,0,0,0.07,0.88,11.9,27.5,85,84,33.8,14.5,17.2,14.6,11.9,0.298,0.33,0.308,0.368,0,0.0,0.0,0.0,0.0,0.0,0.0,0.0,0.0,0.0,0.0,0.0,0.0,0.0,Tracheophyta; Magnoliopsida; Quercus L.; Eucalyptus L'Hér.; Castanea sativa Mill.; Pinus pinaster Aiton
2009,2009-06-21,Aveiro,Santa Maria da Feira,Sanguedo,R.Xisto (SANGUEDO),41.00973155,-8.526635195329606,NC,164.0,2009-06-21T16:00,32.0,23,8.4,32.3,0.0,0.0,0.0,0.0,0,1016.1,997.6,0,0,0,0,0.56,3.66,4.3,5.3,48,62,16.9,33.3,24.7,19.6,14.8,0.131,0.174,0.215,0.327,1,3600.0,692.2,598.0,94.2,859.3,692.2,921.7,757.0,654.0,103.0,859.3,757.0,1008.0,Magnoliopsida; Tracheophyta; Eucalyptus L'Hér.; Pinus pinaster Aiton
2009,2009-06-02,Aveiro,Aveiro,Nossa Senhora de Fátima,Rua Direita - Povoa do Valado,40.5634099,-8.5872202,Desconhecida,31.0,2009-06-02T15:00,25.0,45,12.4,25.2,0.0,0.0,0.0,0.0,0,1015.7,1012.1,10,0,0,34,0.58,1.74,15.3,18.7,285,286,34.2,34.8,24.1,19.3,14.7,0.047,0.095,0.135,0.238,1,3600.0,811.2,706.5,104.7,874.5,811.2,1074.3,860.0,749.0,111.0,874.5,860.0,1139.0,Eucalyptus L'Hér.; Magnoliopsida; Pinus pinaster Aiton
2009,2009-06-03,Aveiro,Arouca,Mansores,Borralheiro,40.9312663,-8.3654246,NC,398.0,2009-06-03T23:00,14.1,88,12.1,14.2,0.0,0.0,0.0,0.0,3,1016.7,969.9,100,76,53,99,0.0,0.2,3.5,5.2,294,304,11.9,16.9,19.3,16.5,12.3,0.153,0.238,0.291,0.363,0,0.0,0.0,0.0,0.0,0.0,0.0,0.0,0.0,0.0,0.0,0.0,0.0,0.0,Tracheophyta; Eucalyptus L'Hér.
2009,2009-05-05,Aveiro,Aveiro,Requeixo,Taipa,40.5916502,-8.5303964,NC,30.0,2009-05-05T17:00,27.3,28,7.4,24.9,0.0,0.0,0.0,0.0,0,1020.4,1016.9,0,0,0,0,0.42,2.6,11.6,14.7,334,338,21.6,27.7,20.3,15.2,12.9,0.101,0.17,0.189,0.277,1,3600.0,448.7,375.9,72.8,808.1,448.7,625.6,530.0,444.0,86.0,808.1,530.0,738.9,Eucalyptus L'Hér.; Tracheophyta
2009,2009-06-20,Aveiro,Santa Maria da Feira,Sanguedo,Lugar da Redonda (Sisto),41.0083552,-8.5188259,Desconhecida,158.0,2009-06-20T19:00,28.3,51,17.3,29.5,0.0,0.0,0.0,0.0,0,1016.5,998.5,0,0,0,0,0.19,1.86,9.8,15.5,324,329,21.6,29.5,25.1,19.3,14.7,0.139,0.181,0.217,0.327,1,3600.0,142.3,101.8,40.5,543.8,142.3,248.0,211.0,151.0,60.0,543.8,211.0,367.8,Tracheophyta; Magnoliopsida; Eucalyptus L'Hér.
2009,2009-06-13,Aveiro,Aveiro,Nossa Senhora de Fátima,Campo de Futebol do Barroca - Póvoa do Valado,40.5713841,-8.574449,Desconhecida,42.0,2009-06-13T13:00,26.7,51,15.8,28.8,0.0,0.0,0.0,0.0,0,1016.8,1011.9,19,0,2,58,0.65,1.72,14.0,17.3,325,329,33.1,29.7,21.8,18.5,15.5,0.107,0.14,0.131,0.233,1,3600.0,950.7,791.1,159.6,832.7,950.7,1259.8,953.0,793.0,160.0,832.7,953.0,1262.9,Tracheophyta; Magnoliopsida; Pinus pinaster Aiton; Eucalyptus L'Hér.
2009,2009-06-21,Aveiro,Santa Maria da Feira,Souto,Rua da Acail Gaz (Rua da Fonte da Ribeira),40.888651,-8.5511666,NC,136.0,2009-06-21T20:00,28.4,35,11.5,27.6,0.0,0.0,0.0,0.0,0,1015.5,1000.0,0,0,0,0,0.11,2.51,8.3,14.8,355,3,17.3,28.8,25.9,19.7,15.0,0.111,0.14,0.184,0.306,1,2335.54,7.2,4.2,3.1,47.7,5.5,16.1,59.0,34.0,25.0,261.3,59.0,131.5,Pinales; Magnoliopsida; Eucalyptus L'Hér.; Pinus pinaster Aiton; Tracheophyta
2009,2009-06-22,Aveiro,Santa Maria da Feira,Vale,Parada,40.9798669,-8.4432735,Desconhecida,216.0,2009-06-22T11:00,26.6,41,12.2,27.4,0.0,0.0,0.0,0.0,0,1017.9,993.2,0,0,0,0,0.6,2.06,10.9,13.0,214,208,23.4,28.2,22.5,19.6,14.5,0.141,0.223,0.271,0.355,1,3600.0,888.6,757.1,131.4,846.9,888.6,1183.7,845.0,720.0,125.0,846.9,845.0,1125.7,Magnoliopsida; Tracheophyta; Eucalyptus L'Hér.; Pinales
2009,2009-06-16,Aveiro,Espinho,Silvalde,Trav do Calvario (SILVALDE),40.9903511,-8.6407154,Desconhecida,8.0,2009-06-16T20:00,22.1,81,18.6,23.3,0.0,0.0,0.0,0.0,0,1017.3,1016.4,17,0,14,30,0.06,0.52,14.2,21.4,339,347,25.2,24.6,23.7,19.0,15.4,0.158,0.202,0.228,0.328,1,1371.49,4.4,1.8,2.7,20.2,3.3,13.3,43.0,17.0,26.0,131.9,43.0,128.5,Tracheophyta
2009,2009-05-05,Aveiro,Vagos,Gafanha da Boa hora,Depósito da àgua - Estrada da Floresta (Gafanha da Boa Hora),40.54100505,-8.752565492256718,NC,12.0,2009-05-05T20:00,19.6,59,11.4,17.9,0.0,0.0,0.0,0.0,0,1020.9,1019.5,0,0,0,0,0.09,0.93,14.3,26.3,350,357,24.1,20.8,20.5,15.7,13.4,0.085,0.155,0.173,0.237,0,0.0,0.0,0.0,0.0,0.0,0.0,0.0,12.0,5.0,7.0,59.8,12.0,53.5,Pinus pinaster Aiton; Tracheophyta
2009,2009-04-04,Aveiro,Oliveira de Azeméis,Cesar,Vilarinho,40.9274322,-8.4512653,Desconhecida,269.0,2009-04-04T12:00,16.9,63,9.8,15.6,0.0,0.0,0.0,0.0,2,1023.5,991.7,78,87,0,0,0.34,0.71,10.9,13.2,314,315,26.3,17.2,12.1,12.0,11.0,0.178,0.243,0.32,0.385,1,3600.0,622.6,383.4,239.1,474.3,622.6,1106.0,604.0,372.0,232.0,474.3,604.0,1073.0,Tracheophyta; Eucalyptus L'Hér.; Pinus pinaster Aiton; Magnoliopsida
2009,2009-04-04,Aveiro,Santa Maria da Feira,Nogueira da Regedoura,Trav. de Adelaide (NOGUEIRA DA REGEDOURA),41.0157616,-8.5571606,Desconhecida,227.0,2009-04-04T17:00,15.9,63,8.8,13.0,0.0,0.0,0.0,0.0,0,1023.0,996.0,9,5,0,14,0.23,0.67,17.6,23.2,316,318,36.4,18.5,14.0,12.3,11.3,0.174,0.242,0.32,0.385,1,3600.0,351.8,287.5,64.3,765.8,351.8,513.5,432.0,353.0,79.0,765.8,432.0,630.6,Eucalyptus L'Hér.; Magnoliopsida; Tracheophyta; Quercus L.
2009,2009-06-21,Aveiro,Oliveira do Bairro,Palhaça,Palhaça Aguas Boas (PALHAÇA),40.5275181,-8.6001465,NC,56.0,2009-06-21T17:00,33.7,21,8.5,32.3,0.0,0.0,0.0,0.0,0,1015.1,1008.8,0,0,0,0,0.5,4.11,8.7,10.2,312,315,18.7,38.2,26.3,20.3,15.8,0.05,0.084,0.115,0.209,1,3600.0,514.6,433.5,81.1,798.0,514.6,719.4,590.0,497.0,93.0,798.0,590.0,824.8,Tracheophyta; Magnoliopsida; Eucalyptus L'Hér.; Pinus pinaster Aiton
2009,2009-02-15,Aveiro,Albergaria-a-Velha,Ribeira de Fráguas,Telhadela,40.7410269,-8.4455598,NC,68.0,2009-02-15T14:00,17.3,51,7.2,16.8,0.0,0.0,0.0,0.0,0,1017.9,1009.8,6,0,0,19,0.34,0.96,1.5,1.8,346,79,13.7,16.0,10.0,10.0,11.6,0.276,0.292,0.334,0.332,1,3600.0,595.1,512.3,82.8,910.4,595.1,789.0,618.0,532.0,86.0,910.4,618.0,819.4,Eucalyptus L'Hér.; Pinus pinaster Aiton; Magnoliopsida
2009,2009-06-23,Aveiro,Santa Maria da Feira,Sanguedo,Xisto (SANGUEDO),41.00973155,-8.526635195329606,NC,164.0,2009-06-23T14:00,22.7,53,12.6,23.0,0.0,0.0,0.0,0.0,0,1017.3,998.2,17,0,0,56,0.54,1.3,14.5,17.9,297,298,32.4,29.7,23.2,20.0,15.0,0.123,0.164,0.212,0.326,1,3600.0,838.0,576.2,261.8,635.1,838.0,1201.2,861.0,592.0,269.0,635.1,861.0,1234.2,Magnoliopsida; Tracheophyta; Eucalyptus L'Hér.; Pinus pinaster Aiton
2009,2009-06-21,Aveiro,Ílhavo,Gafanha da Encarnação,Z.I. da Mota - Gaf. Encarnação,40.6134908,-8.7276477,Desconhecida,5.0,2009-06-21T17:00,34.2,19,7.6,32.0,0.0,0.0,0.0,0.0,0,1015.1,1014.5,0,0,0,0,0.56,4.34,13.0,15.1,314,320,23.0,40.8,28.0,21.5,16.7,0.044,0.115,0.132,0.233,1,3600.0,516.4,434.4,82.0,799.4,516.4,719.6,592.0,498.0,94.0,799.4,592.0,824.9,Pinus pinaster Aiton; Tracheophyta
2009,2009-06-24,Aveiro,Oliveira de Azeméis,Cesar,Mergulhao (CÉSAR),40.9123659,-8.4330609,NC,343.0,2009-06-24T18:00,19.9,62,12.5,18.8,0.0,0.0,0.0,0.0,1,1014.3,974.7,40,43,2,0,0.21,0.87,12.6,16.9,273,272,33.1,23.7,21.4,19.3,14.3,0.14,0.216,0.274,0.354,1,3600.0,252.0,170.4,81.6,461.6,252.0,488.7,312.0,211.0,101.0,461.6,312.0,605.1,Tracheophyta; Pinus pinaster Aiton; Magnoliopsida
2009,2009-06-24,Aveiro,Oliveira do Bairro,Bustos,Cabeço de Bustos,40.4970165,-8.5967215,Desconhecida,59.0,2009-06-24T19:00,20.3,65,13.5,19.7,0.0,0.0,0.0,0.0,0,1014.2,1007.3,7,7,1,0,0.14,0.84,12.2,16.2,272,271,28.1,25.0,23.3,20.7,16.0,0.056,0.078,0.112,0.208,1,3600.0,125.3,74.8,50.5,397.4,125.3,249.1,186.0,111.0,75.0,397.4,186.0,369.8,Magnoliopsida; Tracheophyta
2009,2009-06-23,Aveiro,Ílhavo,Gafanha da Encarnação,Zona Industrial Mota (GAFANHA DA ENCARNAÇÃO),40.6134908,-8.7276477,Desconhecida,5.0,2009-06-23T06:00,17.2,79,13.6,16.9,0.0,0.0,0.0,0.0,3,1018.6,1018.0,100,100,0,63,0.04,0.41,10.0,12.0,339,339,16.9,19.5,24.7,22.0,16.9,0.045,0.112,0.131,0.232,1,0.0,36.0,0.0,36.0,0.0,21.5,195.2,16.0,0.0,16.0,0.0,16.0,86.7,Pinus pinaster Aiton; Tracheophyta
2009,2009-06-20,Aveiro,Santa Maria da Feira,Sanguedo,Sisto (SANGUEDO),41.00973155,-8.526635195329606,NC,164.0,2009-06-20T23:00,22.8,76,18.4,24.6,0.0,0.0,0.0,0.0,0,1017.6,998.5,0,0,0,0,0.02,0.65,8.7,11.9,95,85,14.8,22.9,24.7,19.4,14.7,0.139,0.181,0.217,0.327,0,0.0,0.0,0.0,0.0,0.0,0.0,0.0,0.0,0.0,0.0,0.0,0.0,0.0,Magnoliopsida; Tracheophyta; Eucalyptus L'Hér.; Pinus pinaster Aiton
2009,2009-05-05,Aveiro,Santa Maria da Feira,Sanguedo,Bairro Social (Bairro Santa Maria),41.0083552,-8.5188259,Desconhecida,158.0,2009-05-05T22:00,16.5,78,12.6,16.3,0.0,0.0,0.0,0.0,0,1021.9,1003.1,0,0,0,0,0.01,0.41,6.7,12.4,54,36,14.4,17.1,18.7,14.3,12.0,0.206,0.243,0.269,0.348,0,0.0,0.0,0.0,0.0,0.0,0.0,0.0,0.0,0.0,0.0,0.0,0.0,0.0,Tracheophyta; Magnoliopsida; Eucalyptus L'Hér.
2009,2009-06-24,Aveiro,Oliveira do Bairro,Bustos,Cabeço (Cabeça Gorda),40.4970165,-8.5967215,Desconhecida,59.0,2009-06-24T05:00,16.0,93,14.9,17.1,0.0,0.0,0.0,0.0,2,1015.0,1008.0,60,63,5,0,0.0,0.13,3.5,4.5,246,256,7.9,16.7,22.8,20.8,16.0,0.05,0.079,0.113,0.208,0,0.0,0.0,0.0,0.0,0.0,0.0,0.0,0.0,0.0,0.0,0.0,0.0,0.0,Magnoliopsida; Tracheophyta
2009,2009-06-01,Aveiro,Vale de Cambra,Macieira de Cambra,Quinta Davide (Quinta da Costa Boa),40.8480592,-8.3880687,Desconhecida,278.0,2009-06-01T01:00,18.3,49,7.4,16.9,0.0,0.0,0.0,0.0,0,1015.0,982.6,0,0,0,0,0.03,1.08,5.0,4.3,90,48,13.3,17.5,21.3,16.8,13.1,0.158,0.24,0.289,0.363,0,0.0,0.0,0.0,0.0,0.0,0.0,0.0,0.0,0.0,0.0,0.0,0.0,0.0,Tracheophyta; Pinus pinaster Aiton; Eucalyptus L'Hér.
2009,2009-07-03,Aveiro,Santa Maria da Feira,Vale,Prezinhas (Vale),40.98641165,-8.439360458228212,NC,230.0,2009-07-03T18:00,20.7,75,16.1,21.1,0.0,0.0,0.0,0.0,1,1017.3,990.5,43,44,6,0,0.19,0.62,12.1,15.6,297,296,29.2,23.6,21.6,19.3,15.3,0.222,0.244,0.261,0.35,1,3600.0,242.5,144.7,97.8,390.3,242.5,490.4,300.0,179.0,121.0,390.3,300.0,606.7,Magnoliopsida; Pinus pinaster Aiton; Eucalyptus L'Hér.; Pinales; Tracheophyta
2009,2009-06-21,Aveiro,Santa Maria da Feira,Sanguedo,Rua do Cisto (Rua do Lameirão),41.0083552,-8.5188259,NC,158.0,2009-06-21T13:00,30.4,24,7.6,30.5,0.0,0.0,0.0,0.0,0,1017.3,999.4,0,0,0,0,0.76,3.3,11.9,15.5,93,95,30.6,31.6,23.8,19.5,14.8,0.134,0.177,0.216,0.327,1,3600.0,979.2,864.4,114.8,910.5,979.2,1257.3,981.0,866.0,115.0,910.5,981.0,1259.6,Tracheophyta; Magnoliopsida; Eucalyptus L'Hér.
2009,2009-06-21,Aveiro,Santa Maria da Feira,Lobão,Vale da Cabra (Azenha do Valente),40.98260465,-8.4900676884166,Desconhecida,179.0,2009-06-21T19:00,29.7,33,11.6,28.7,0.0,0.0,0.0,0.0,0,1015.6,995.3,0,0,0,0,0.23,2.81,9.9,14.3,341,348,16.6,29.6,25.2,19.5,14.7,0.129,0.173,0.215,0.327,1,3600.0,147.6,107.2,40.4,572.4,147.6,248.0,219.0,159.0,60.0,572.4,219.0,367.9,Eucalyptus L'Hér.; Tracheophyta
2009,2009-06-24,Aveiro,Santa Maria da Feira,Sanguedo,Rua do Cisto (Rua do Lameirão),41.0083552,-8.5188259,NC,158.0,2009-06-24T16:00,21.6,59,13.2,20.7,0.0,0.0,0.0,0.0,1,1014.3,995.9,46,47,6,0,0.38,1.07,15.3,19.4,261,260,34.9,26.7,22.4,20.0,15.1,0.129,0.161,0.211,0.325,1,3600.0,540.6,376.9,163.7,540.6,540.6,922.9,591.0,412.0,179.0,540.6,591.0,1008.9,Tracheophyta; Magnoliopsida; Eucalyptus L'Hér.
2009,2009-02-21,Aveiro,Oliveira de Azeméis,Loureiro,Serrado,40.8240269,-8.5314973,Desconhecida,112.0,2009-02-21T17:00,16.5,61,9.0,14.5,0.0,0.0,0.0,0.0,0,1028.8,1015.3,7,0,0,24,0.16,0.73,11.4,20.1,332,336,25.9,15.3,11.8,10.3,11.5,0.319,0.34,0.374,0.385,1,3600.0,189.1,133.8,55.3,607.7,189.1,308.1,260.0,184.0,76.0,607.7,260.0,423.5,Eucalyptus L'Hér.; Magnoliopsida; Tracheophyta; Pinus pinaster Aiton
2009,2009-04-04,Aveiro,Albergaria-a-Velha,São João de Loure,Loure,40.6383223,-8.5480701,Desconhecida,16.0,2009-04-04T17:00,17.7,59,9.6,14.2,0.0,0.0,0.0,0.0,0,1023.3,1021.4,2,0,0,7,0.26,0.83,23.1,28.6,326,326,40.0,21.4,15.4,13.7,12.4,0.077,0.142,0.201,0.292,1,3600.0,342.9,269.6,73.3,714.4,342.9,516.2,421.0,331.0,90.0,714.4,421.0,633.9,Eucalyptus L'Hér.; Magnoliopsida; Tracheophyta; Pinus pinaster Aiton; Acacia Mill.; 
2009,2009-06-24,Aveiro,Santa Maria da Feira,Mosteiró,Campo Futebol (Campo Verde),40.8968908,-8.529469,NC,151.0,2009-06-24T17:00,21.6,58,13.0,20.3,0.0,0.0,0.0,0.0,2,1014.2,996.6,50,56,0,0,0.31,1.07,15.0,19.0,260,260,33.8,26.0,22.6,20.3,15.3,0.133,0.19,0.25,0.349,1,3600.0,404.2,292.5,111.7,537.4,404.2,720.4,463.0,335.0,128.0,537.4,463.0,825.2,Magnoliopsida; Pinales; Eucalyptus L'Hér.; Tracheophyta; Pinus pinaster Aiton
2009,2009-05-30,Aveiro,Sever do Vouga,Rocas do Vouga,Nespreira de Cima (Nespereira de Cima),40.7599485,-8.3439116,Desconhecida,384.0,2009-05-30T20:00,24.1,53,13.8,24.0,0.0,0.0,0.0,0.0,0,1011.4,967.9,4,0,0,12,0.07,1.42,8.8,13.0,325,336,22.0,22.6,20.9,15.3,12.0,0.2,0.272,0.299,0.366,0,1454.92,0.0,0.0,0.0,0.0,0.0,0.0,36.0,19.0,17.0,168.0,36.0,91.5,Eucalyptus L'Hér.; Tracheophyta
2009,2009-04-05,Aveiro,Santa Maria da Feira,Romariz,Casal Monte (Casal),40.9500706,-8.4604656,NC,344.0,2009-04-05T17:00,14.9,55,6.0,12.3,0.0,0.0,0.0,0.0,1,1018.6,978.0,22,0,0,74,0.23,0.76,11.2,14.4,274,273,29.9,18.6,14.0,11.7,10.6,0.166,0.244,0.322,0.39,1,3600.0,351.1,277.8,73.3,736.5,351.1,515.7,431.0,341.0,90.0,736.5,431.0,633.0,Eucalyptus L'Hér.; Tracheophyta; Olea europaea L.; Pinales
2009,2009-06-27,Aveiro,Castelo de Paiva,Real,Chã Da Eira (Carreira),41.0338464,-8.2910799,Desconhecida,173.0,2009-06-27T14:00,24.7,42,10.8,24.1,0.0,0.0,0.0,0.0,1,1013.7,993.8,27,0,33,23,0.65,1.81,19.7,25.5,204,202,34.2,26.8,20.0,19.2,14.8,0.177,0.205,0.264,0.354,1,3600.0,928.6,824.5,104.2,909.0,928.6,1200.4,954.0,847.0,107.0,909.0,954.0,1233.2,Eucalyptus L'Hér.; Vitis vinifera L.; Pinus pinaster Aiton; Tracheophyta; Magnoliopsida
2009,2009-06-23,Aveiro,Espinho,Silvalde,Rua do Calvário,40.9871438,-8.6226504,Desconhecida,59.0,2009-06-23T21:00,18.2,76,14.0,18.1,0.0,0.0,0.0,0.0,1,1017.0,1010.0,32,35,0,0,0.02,0.49,9.8,12.7,332,331,20.5,22.6,24.4,20.6,15.7,0.102,0.163,0.217,0.324,0,0.0,0.0,0.0,0.0,0.0,0.0,0.0,0.0,0.0,0.0,0.0,0.0,0.0,Tracheophyta; Eucalyptus L'Hér.; Pinus pinaster Aiton; Acacia Mill.
2009,2009-06-01,Aveiro,Santa Maria da Feira,Guisande,Cimo da Aldeia (Cimo de Aldeia),40.9641998,-8.4670873,Desconhecida,313.0,2009-06-01T23:00,19.7,58,11.3,19.8,0.0,0.0,0.0,0.0,0,1015.9,979.6,0,0,0,0,0.0,0.96,2.2,5.8,351,356,14.4,18.1,21.2,16.6,12.6,0.167,0.251,0.295,0.364,0,0.0,0.0,0.0,0.0,0.0,0.0,0.0,0.0,0.0,0.0,0.0,0.0,0.0,Eucalyptus L'Hér.; Pinales
2009,2009-05-05,Aveiro,Ovar,Cortegaça,Rua da Gândara (CORTEGAÇA),40.940648,-8.6302462,Desconhecida,11.0,2009-05-05T16:00,27.1,29,7.7,25.1,0.0,0.0,0.0,0.0,0,1020.9,1019.6,1,0,0,4,0.55,2.53,15.2,17.7,338,348,25.2,26.9,20.0,15.3,13.1,0.188,0.222,0.243,0.327,1,3600.0,635.8,547.5,88.2,870.5,635.8,845.9,706.0,608.0,98.0,870.5,706.0,939.4,Eucalyptus L'Hér.; Tracheophyta; Magnoliopsida; Pinus pinaster Aiton
2009,2009-06-02,Aveiro,Aveiro,Esgueira,Chão da Senhora - Mataduços,40.6433409,-8.6403931,Desconhecida,17.0,2009-06-02T10:00,24.4,49,13.0,24.7,0.0,0.0,0.0,0.0,1,1015.8,1013.8,28,10,0,62,0.48,1.56,10.4,11.1,284,283,22.7,29.7,22.6,19.3,14.8,0.047,0.097,0.136,0.238,1,3600.0,770.5,625.1,145.4,782.8,770.5,1062.0,710.0,576.0,134.0,782.8,710.0,978.6,Tracheophyta; Magnoliopsida
2009,2009-06-03,Aveiro,Santa Maria da Feira,Paços de Brandão,R. Dr. Fernando Carvalho (PAÇOS DE BRANDÃO),40.9720222,-8.584498051700898,Desconhecida,118.0,2009-06-03T14:00,20.5,58,12.0,20.7,0.0,0.0,0.0,0.0,1,1016.9,1003.1,40,44,0,0,0.52,1.01,15.6,19.0,296,297,32.4,27.7,21.0,18.0,13.8,0.11,0.173,0.236,0.333,1,3600.0,869.3,737.2,132.1,821.4,869.3,1193.3,895.0,759.0,136.0,821.4,895.0,1228.5,Magnoliopsida; Tracheophyta; Eucalyptus L'Hér.; Pinus pinaster Aiton; Pinales
2009,2009-02-22,Aveiro,Albergaria-a-Velha,Branca,Cristelo,40.7540788,-8.4862112,NC,162.0,2009-02-22T11:00,13.5,50,3.2,10.0,0.0,0.0,0.0,0.0,0,1030.9,1011.2,0,0,0,0,0.26,0.78,13.7,19.1,90,90,32.8,11.9,9.7,10.0,11.1,0.321,0.338,0.372,0.384,1,3600.0,552.4,464.2,88.2,841.3,552.4,771.5,501.0,421.0,80.0,841.3,501.0,699.7,Eucalyptus L'Hér.; Magnoliopsida; Tracheophyta
2009,2009-06-26,Aveiro,Espinho,Silvalde,Rua do Calvário,40.9871438,-8.6226504,Desconhecida,59.0,2009-06-26T13:00,21.2,55,11.7,21.2,0.0,0.0,0.0,0.0,1,1017.3,1010.4,34,19,22,11,0.47,1.14,11.3,12.9,253,252,25.2,26.3,21.2,20.5,15.9,0.152,0.159,0.215,0.323,1,3600.0,739.1,571.3,167.8,601.8,739.1,1256.5,740.0,572.0,168.0,601.8,740.0,1258.0,Tracheophyta; Eucalyptus L'Hér.; Pinus pinaster Aiton; Acacia Mill.
2009,2009-07-03,Aveiro,Ovar,Ovar,R.Francisco Carreira (OVAR),40.8456684,-8.64847761987809,NC,0.0,2009-07-03T12:00,24.1,60,15.8,24.5,0.0,0.0,0.0,0.0,3,1018.6,1018.6,100,98,36,0,0.44,1.2,13.7,15.9,247,245,26.6,27.2,22.1,20.9,17.0,0.161,0.17,0.223,0.32,1,3600.0,660.1,345.4,314.7,366.9,660.1,1245.6,644.0,337.0,307.0,366.9,644.0,1215.1,Magnoliopsida; Eucalyptus L'Hér.
2009,2009-02-22,Aveiro,Albergaria-a-Velha,Albergaria-a-Velha,Ae norte sul  km 241+- (ALBERGARIA-A-VELHA),40.690328,-8.479538190307041,NC,121.0,2009-02-22T13:00,16.3,48,5.2,14.1,0.0,0.0,0.0,0.0,0,1029.6,1015.0,0,0,0,0,0.36,0.96,10.9,14.1,84,87,28.1,15.3,10.3,10.1,11.0,0.236,0.262,0.309,0.331,1,3600.0,663.2,573.8,89.4,907.7,663.2,883.8,660.0,571.0,89.0,907.7,660.0,879.5,Tracheophyta; Eucalyptus L'Hér.
2009,2009-06-20,Aveiro,Santa Maria da Feira,Lobão,Vale das Cabras (Azenha do Valente),40.98260465,-8.4900676884166,Desconhecida,179.0,2009-06-20T19:00,28.2,51,17.2,29.3,0.0,0.0,0.0,0.0,0,1016.5,996.1,0,0,0,0,0.19,1.85,9.8,15.5,324,329,21.6,29.4,25.0,19.2,14.6,0.139,0.181,0.217,0.327,1,3600.0,142.1,101.7,40.4,544.7,142.1,247.2,211.0,151.0,60.0,544.7,211.0,367.1,Eucalyptus L'Hér.; Tracheophyta
2009,2009-06-20,Aveiro,Santa Maria da Feira,Vale,Rua das Presinhas,40.9798669,-8.4432735,Desconhecida,216.0,2009-06-20T19:00,28.6,49,16.8,29.5,0.0,0.0,0.0,0.0,0,1016.5,992.0,0,0,0,0,0.2,2.0,9.8,15.5,324,329,21.6,28.5,24.5,19.1,14.3,0.157,0.235,0.275,0.356,1,3600.0,142.1,101.7,40.4,544.7,142.1,247.2,211.0,151.0,60.0,544.7,211.0,367.1,Magnoliopsida; Tracheophyta; Eucalyptus L'Hér.; Pinales
2009,2009-06-29,Aveiro,Estarreja,Avanca,Fontela (Travessa da Associação A. Avanca),40.82539935,-8.555792300053195,Desconhecida,79.0,2009-06-29T18:00,22.7,78,18.7,23.6,0.0,0.0,0.0,0.0,1,1016.6,1007.4,27,21,13,0,0.22,0.6,15.8,21.7,227,227,31.3,24.4,22.2,20.1,16.1,0.261,0.171,0.226,0.321,1,3600.0,282.1,204.5,77.6,550.6,282.1,491.5,349.0,253.0,96.0,550.6,349.0,608.0,Eucalyptus L'Hér.; Tracheophyta; Pinus pinaster Aiton; Magnoliopsida
2009,2009-06-21,Aveiro,Santa Maria da Feira,Lobão,Lugar do Candal (Lugar Novo),40.98260465,-8.4900676884166,Desconhecida,179.0,2009-06-21T01:00,22.3,51,11.6,20.6,0.0,0.0,0.0,0.0,0,1018.1,997.3,0,0,0,0,0.1,1.33,14.8,30.4,94,95,33.1,21.2,24.2,19.3,14.6,0.139,0.181,0.217,0.327,0,0.0,0.0,0.0,0.0,0.0,0.0,0.0,0.0,0.0,0.0,0.0,0.0,0.0,Eucalyptus L'Hér.; Tracheophyta
2009,2009-04-11,Aveiro,Arouca,Várzea,Malafaia,40.9287392,-8.3014985,Desconhecida,345.0,2009-04-11T15:00,12.5,57,4.2,8.3,0.2,0.2,0.0,0.0,51,1014.7,973.8,98,73,54,0,0.29,0.62,21.1,29.5,317,317,51.5,14.4,11.0,11.0,10.3,0.323,0.286,0.318,0.388,1,3600.0,571.4,426.0,145.4,610.1,571.4,951.3,613.0,457.0,156.0,610.1,613.0,1020.6,Tracheophyta; Pinus pinaster Aiton; Magnoliopsida; Eucalyptus L'Hér.; Vitis vinifera L.
2009,2009-06-21,Aveiro,Vagos,Ouca,Tabuaço,40.4951691,-8.6351275,Desconhecida,31.0,2009-06-21T17:00,33.8,21,8.7,31.8,0.0,0.0,0.0,0.0,0,1015.1,1011.6,0,0,0,0,0.55,4.15,13.0,15.1,314,320,23.0,38.4,26.5,20.5,15.9,0.05,0.084,0.115,0.209,1,3600.0,516.3,434.3,82.0,799.6,516.3,719.4,592.0,498.0,94.0,799.6,592.0,824.8,Pinus pinaster Aiton; Magnoliopsida; Tracheophyta; Eucalyptus L'Hér.
2009,2009-03-02,Aveiro,Albergaria-a-Velha,Branca,Cristelo,40.7540788,-8.4862112,Desconhecida,162.0,2009-03-02T16:00,13.9,67,7.9,11.8,0.4,0.4,0.0,0.0,51,1016.2,996.8,85,31,72,47,0.18,0.53,11.0,15.2,11,14,31.7,14.7,11.7,11.1,11.0,0.332,0.317,0.352,0.382,1,3600.0,293.5,181.6,111.9,434.0,293.5,582.8,341.0,211.0,130.0,434.0,341.0,677.1,Eucalyptus L'Hér.; Magnoliopsida; Tracheophyta
2009,2009-05-05,Aveiro,Santa Maria da Feira,Romariz,Rua de Espanal - Reguenga,40.9432485,-8.4589611,Desconhecida,302.0,2009-05-05T16:00,25.3,30,6.2,24.0,0.0,0.0,0.0,0.0,0,1021.2,986.6,2,0,0,8,0.5,2.27,8.3,10.5,360,6,18.4,24.3,17.7,13.4,11.3,0.221,0.276,0.312,0.373,1,3600.0,635.5,549.1,86.4,874.8,635.5,844.2,706.0,610.0,96.0,874.8,706.0,937.9,Eucalyptus L'Hér.; Tracheophyta; Pinales; Magnoliopsida
2009,2009-04-26,Aveiro,Santa Maria da Feira,Romariz,Mouquim,40.9332277,-8.4615868,Desconhecida,268.0,2009-04-26T19:00,10.7,69,5.2,6.8,0.0,0.0,0.0,0.0,1,1018.7,986.5,34,22,23,0,0.08,0.41,19.0,29.3,331,332,47.5,12.9,12.7,12.4,11.3,0.294,0.313,0.322,0.376,1,3453.36,35.9,17.8,18.2,203.9,35.1,87.7,89.0,44.0,45.0,267.3,89.0,217.1,Tracheophyta; Eucalyptus L'Hér.; Pinales
2009,2009-07-04,Aveiro,Santa Maria da Feira,Lourosa,Vendas de Baixo,40.983541,-8.5499188,Desconhecida,164.0,2009-07-04T16:00,21.5,58,12.8,21.4,0.0,0.0,0.0,0.0,1,1017.1,998.0,25,10,2,49,0.44,1.09,13.2,16.3,292,292,32.0,27.5,22.3,19.8,15.9,0.175,0.172,0.203,0.321,1,3600.0,655.4,514.4,141.0,736.0,655.4,924.8,716.0,562.0,154.0,736.0,716.0,1010.3,Tracheophyta; Magnoliopsida; Pinus pinaster Aiton; Eucalyptus L'Hér.
2009,2009-04-29,Aveiro,Mealhada,Casal Comba,Junto à A1 Km 208.4 sentido N/S (Casal Comba),40.3658562,-8.463164068080825,NC,58.0,2009-04-29T15:00,16.5,61,8.9,14.0,0.0,0.0,0.0,0.0,2,1021.3,1014.3,75,80,2,7,0.27,0.73,15.1,19.9,267,266,33.5,18.0,14.7,13.3,12.5,0.18,0.199,0.2,0.258,1,3600.0,410.0,161.9,248.1,215.7,410.0,1013.0,438.0,173.0,265.0,215.7,438.0,1082.2,Vitis vinifera L.; Tracheophyta; Magnoliopsida; Olea europaea L.; Pinus pinaster Aiton
2009,2009-05-02,Aveiro,Vale de Cambra,São Pedro de Castelões,Aguincheira,40.836726,-8.381453,NC,220.0,2009-05-02T17:00,23.6,35,7.3,21.2,0.0,0.0,0.0,0.0,0,1021.3,995.8,0,0,0,0,0.38,1.9,11.9,16.4,3,9,27.0,21.4,15.8,13.0,11.9,0.26,0.293,0.317,0.372,1,3600.0,440.6,368.0,72.6,806.1,440.6,614.9,522.0,436.0,86.0,806.1,522.0,728.5,Eucalyptus L'Hér.; Magnoliopsida; Pinus pinaster Aiton; Tracheophyta
2009,2009-07-04,Aveiro,Ílhavo,Ílhavo (são Salvador),Rua dos Melões - Zona  Industrial das Ervosas,40.59666885,-8.681942750143929,Desconhecida,3.0,2009-07-04T23:00,18.2,77,14.1,18.8,0.0,0.0,0.0,0.0,1,1017.1,1016.7,30,33,0,0,0.0,0.48,4.8,7.7,312,319,11.5,19.7,23.9,21.6,17.9,0.059,0.101,0.126,0.228,0,0.0,0.0,0.0,0.0,0.0,0.0,0.0,0.0,0.0,0.0,0.0,0.0,0.0,Tracheophyta
2009,2009-05-05,Aveiro,Vagos,Sosa,Pontão (Ponte),40.5442612,-8.658884,NC,47.0,2009-05-05T09:00,19.9,36,4.6,15.5,0.0,0.0,0.0,0.0,0,1022.1,1016.5,0,0,0,0,0.37,1.48,21.2,30.2,90,90,40.7,19.7,17.8,15.3,13.2,0.088,0.155,0.171,0.24,1,3600.0,599.5,500.8,98.8,802.9,599.5,839.0,522.0,436.0,86.0,802.9,522.0,730.5,Magnoliopsida; Tracheophyta; Eucalyptus L'Hér.; Pinus pinaster Aiton
2009,2009-07-07,Aveiro,Aveiro,Requeixo,R. da Azenha - Taipa,40.5847106,-8.541109798015727,Desconhecida,36.0,2009-07-07T15:00,24.1,49,12.6,23.4,0.0,0.0,0.0,0.0,0,1015.6,1011.4,5,0,0,16,0.57,1.55,21.2,27.1,328,330,43.9,29.6,21.7,20.3,17.0,0.083,0.113,0.136,0.244,1,3600.0,818.1,708.3,109.8,861.4,818.1,1087.9,864.0,748.0,116.0,861.4,864.0,1148.9,Eucalyptus L'Hér.; Tracheophyta
2009,2009-02-22,Aveiro,Vale de Cambra,Junqueira,Chã - Serra do Arestal,40.8037514,-8.3375148,Desconhecida,748.0,2009-02-22T10:00,8.0,53,-1.0,3.8,0.0,0.0,0.0,0.0,0,1032.2,943.2,0,0,0,0,0.16,0.5,13.0,19.2,84,85,38.9,6.6,5.7,6.4,7.6,0.348,0.359,0.386,0.414,1,3600.0,420.0,339.1,80.9,765.1,420.0,619.7,353.0,285.0,68.0,765.1,353.0,520.9,Pinus pinaster Aiton; Tracheophyta; Magnoliopsida; Eucalyptus L'Hér.
2009,2009-05-05,Aveiro,Ovar,Cortegaça,Rua da Gândara (CORTEGAÇA),40.940648,-8.6302462,Desconhecida,11.0,2009-05-05T14:00,26.8,30,7.7,26.9,0.0,0.0,0.0,0.0,0,1021.5,1020.2,0,0,0,0,0.66,2.47,9.9,10.5,350,6,19.8,26.9,19.3,15.3,13.1,0.191,0.224,0.243,0.327,1,3600.0,897.6,793.0,104.6,926.7,897.6,1151.0,927.0,819.0,108.0,926.7,927.0,1188.8,Eucalyptus L'Hér.; Tracheophyta; Magnoliopsida; Pinus pinaster Aiton
2009,2009-06-26,Aveiro,Águeda,Aguada de Cima,S. Martinho - Casarão,40.5169467,-8.4158179,Desconhecida,35.0,2009-06-26T18:00,21.4,57,12.5,20.2,0.0,0.0,0.0,0.0,1,1016.6,1012.5,40,19,4,67,0.25,1.1,13.3,17.1,303,305,26.3,25.1,22.1,20.7,16.2,0.097,0.108,0.142,0.249,1,3600.0,282.4,184.8,97.6,500.3,282.4,488.9,350.0,229.0,121.0,500.3,350.0,605.9,Tracheophyta; Eucalyptus L'Hér.; Magnoliopsida
2009,2009-06-27,Aveiro,Espinho,Silvalde,Rua do Calvário,40.9871438,-8.6226504,Desconhecida,59.0,2009-06-27T13:00,24.6,42,10.9,23.7,0.0,0.0,0.0,0.0,1,1014.2,1007.4,28,18,16,6,0.65,1.79,22.0,27.7,201,201,37.1,28.0,21.0,20.3,16.0,0.139,0.157,0.214,0.323,1,3600.0,968.0,852.1,115.9,897.7,968.0,1256.2,969.0,853.0,116.0,897.7,969.0,1257.6,Tracheophyta; Eucalyptus L'Hér.; Pinus pinaster Aiton; Acacia Mill.
2009,2009-05-05,Aveiro,Águeda,Águeda,Lugar da Alagoa (ÁGUEDA),40.583217000000005,-8.425849906880153,NC,79.0,2009-05-05T17:00,27.1,28,7.3,24.7,0.0,0.0,0.0,0.0,0,1020.4,1011.3,0,0,0,0,0.42,2.57,11.6,14.7,334,338,21.6,25.7,19.4,14.8,12.7,0.189,0.262,0.307,0.366,1,3600.0,448.4,375.7,72.8,810.2,448.4,623.6,530.0,444.0,86.0,810.2,530.0,737.1,Tracheophyta; Magnoliopsida; Pinus pinaster Aiton; Eucalyptus L'Hér.
2009,2009-07-05,Aveiro,Águeda,Águeda,Vale Domingos,40.583217000000005,-8.425849906880153,NC,79.0,2009-07-05T21:00,18.0,75,13.6,16.8,0.0,0.0,0.0,0.0,2,1017.4,1008.0,64,69,0,5,0.04,0.51,16.3,24.5,335,338,32.8,20.9,22.1,20.5,16.7,0.168,0.197,0.237,0.336,0,0.0,0.0,0.0,0.0,0.0,0.0,0.0,0.0,0.0,0.0,0.0,0.0,0.0,Tracheophyta; Magnoliopsida; Pinus pinaster Aiton; Eucalyptus L'Hér.
2009,2009-05-04,Aveiro,Oliveira de Azeméis,Loureiro,Alumieira,40.8077413,-8.531191908244505,Desconhecida,92.0,2009-05-04T12:00,24.6,44,11.4,26.2,0.0,0.0,0.0,0.0,0,1020.8,1010.1,0,0,0,0,0.61,1.75,7.3,9.4,79,83,25.6,23.7,17.3,14.3,12.7,0.218,0.27,0.295,0.355,1,3600.0,938.8,828.3,110.6,918.5,938.8,1213.6,917.0,809.0,108.0,918.5,917.0,1185.3,Eucalyptus L'Hér.; Tracheophyta
2009,2009-05-30,Aveiro,Arouca,Cabreiros,Portela de Anta (Portela),40.85374,-8.2659812,NC,987.0,2009-05-30T15:00,26.8,22,3.3,25.6,0.0,0.0,0.0,0.0,1,1011.8,905.3,32,0,21,65,0.63,2.76,10.0,12.5,319,321,28.1,24.1,16.7,11.9,8.6,0.248,0.29,0.296,0.368,1,3600.0,805.6,688.7,116.8,859.9,805.6,1066.2,855.0,731.0,124.0,859.9,855.0,1131.6,Magnoliopsida; Eucalyptus L'Hér.
2009,2009-05-04,Aveiro,Estarreja,Pardilhó,Rua da Saltoa,40.7963177,-8.6244728,Desconhecida,10.0,2009-05-04T20:00,20.9,66,14.4,20.0,0.0,0.0,0.0,0.0,0,1019.5,1018.3,0,0,0,0,0.09,0.83,16.7,30.6,353,357,28.4,21.0,19.9,14.9,13.1,0.19,0.258,0.287,0.346,0,3.68,0.0,0.0,0.0,0.0,0.0,0.0,11.0,5.0,6.0,61.3,11.0,50.8,Tracheophyta
2009,2009-05-06,Aveiro,Vagos,Fonte de Angeão,Rua do Sol (Rua da Igreja),40.4496257,-8.6722697,Desconhecida,49.0,2009-05-06T03:00,13.9,86,11.6,14.0,0.0,0.0,0.0,0.0,0,1019.9,1014.0,0,0,0,0,0.0,0.22,2.7,4.9,23,17,10.8,13.5,18.8,15.6,13.2,0.073,0.142,0.169,0.224,0,0.0,0.0,0.0,0.0,0.0,0.0,0.0,0.0,0.0,0.0,0.0,0.0,0.0,Pinus pinaster Aiton; Magnoliopsida; Tracheophyta
2009,2009-05-07,Aveiro,Santa Maria da Feira,Rio Meão,Regadas de Baixo (Azenha das Regadas),40.9581668,-8.5826133,Desconhecida,116.0,2009-05-07T17:00,17.5,64,10.5,16.0,0.0,0.0,0.0,0.0,0,1017.8,1004.0,19,1,0,60,0.27,0.73,11.4,13.9,281,280,25.2,22.8,18.6,15.1,12.4,0.177,0.233,0.268,0.344,1,3600.0,417.0,293.0,124.0,622.6,417.0,632.3,491.0,345.0,146.0,622.6,491.0,744.5,Eucalyptus L'Hér.; Tracheophyta; Olea europaea L.; Magnoliopsida
2009,2009-05-30,Aveiro,Santa Maria da Feira,Argoncilhe,Lugar do Picoto (Rua Nova das Corgas),41.0183885,-8.5477254,Desconhecida,225.0,2009-05-30T18:00,28.8,38,13.0,28.1,0.0,0.0,0.0,0.0,0,1010.9,985.6,16,0,1,53,0.32,2.47,11.4,20.0,342,346,27.4,27.5,22.1,16.1,12.8,0.169,0.205,0.241,0.337,1,3600.0,285.3,207.6,77.7,609.9,285.3,453.0,360.0,262.0,98.0,609.9,360.0,571.7,Eucalyptus L'Hér.; Magnoliopsida; Tracheophyta; Quercus L.
2009,2009-05-09,Aveiro,Oliveira de Azeméis,Loureiro,Loureiro,40.8077413,-8.531191908244505,Desconhecida,92.0,2009-05-09T18:00,20.7,54,11.1,20.8,0.0,0.0,0.0,0.0,1,1010.8,1000.1,38,0,55,15,0.16,1.11,1.5,2.3,14,51,20.2,22.8,18.5,15.7,12.9,0.156,0.232,0.286,0.353,1,3600.0,210.9,126.4,84.5,430.9,210.9,393.7,277.0,166.0,111.0,430.9,277.0,517.2,Eucalyptus L'Hér.; Tracheophyta
2009,2009-05-15,Aveiro,Castelo de Paiva,Paraíso,S.Pedro (São Pedro),41.0046851,-8.3059719,Desconhecida,454.0,2009-05-15T15:00,14.9,57,6.5,13.6,0.0,0.0,0.0,0.0,0,1019.0,965.9,14,13,4,0,0.42,0.73,13.9,18.3,301,302,36.4,18.6,13.5,13.0,10.7,0.31,0.318,0.314,0.374,1,3600.0,789.9,686.6,103.3,882.4,789.9,1041.6,841.0,731.0,110.0,882.4,841.0,1109.0,Eucalyptus L'Hér.; Magnoliopsida; Tracheophyta
2009,2009-05-23,Aveiro,Vale de Cambra,Macieira de Cambra,Simada,40.8480592,-8.3880687,Desconhecida,278.0,2009-05-23T15:00,18.9,59,10.7,17.8,0.2,0.2,0.0,0.0,51,1014.3,981.9,22,3,8,47,0.32,0.9,8.8,10.2,325,328,25.2,21.8,17.4,15.0,12.6,0.233,0.263,0.3,0.367,1,3600.0,476.3,272.0,204.3,342.8,476.3,1058.8,506.0,289.0,217.0,342.8,506.0,1124.8,Tracheophyta; Pinus pinaster Aiton; Eucalyptus L'Hér.
2009,2009-05-26,Aveiro,Ílhavo,Gafanha da Nazaré,Junto Bombas Galp A25 - Sentido Barra/Aveiro,40.6376106,-8.7136614,Desconhecida,4.0,2009-05-26T13:00,22.1,48,10.7,20.9,0.0,0.0,0.0,0.0,0,1024.7,1024.2,0,0,0,0,0.59,1.37,23.4,29.7,349,354,46.1,27.2,18.2,17.1,14.6,0.075,0.127,0.151,0.245,1,3600.0,970.6,853.0,117.6,909.8,970.6,1249.7,974.0,856.0,118.0,909.8,974.0,1254.1,Tracheophyta
2009,2009-02-23,Aveiro,Vale de Cambra,Junqueira,Serra do Arestal,40.8037514,-8.3375148,Desconhecida,748.0,2009-02-23T10:00,8.3,59,0.7,4.4,0.0,0.0,0.0,0.0,0,1023.5,935.4,0,0,0,0,0.16,0.45,13.0,18.4,84,84,39.2,6.7,5.6,6.5,7.5,0.343,0.355,0.383,0.413,1,3600.0,431.0,350.3,80.7,781.5,431.0,626.4,363.0,295.0,68.0,781.5,363.0,527.6,Pinus pinaster Aiton; Tracheophyta; Magnoliopsida; Eucalyptus L'Hér.
2009,2009-05-26,Aveiro,Santa Maria da Feira,Caldas de São Jorge,Arcozelo,40.956178,-8.5083485,Desconhecida,219.0,2009-05-26T14:00,21.0,48,9.7,20.6,0.0,0.0,0.0,0.0,0,1024.2,998.5,0,0,0,0,0.57,1.29,16.9,22.0,358,1,38.5,22.5,16.3,14.9,12.6,0.272,0.242,0.25,0.339,1,3600.0,917.8,801.4,116.4,901.6,917.8,1184.7,946.0,826.0,120.0,901.6,946.0,1221.1,Eucalyptus L'Hér.; Tracheophyta; Magnoliopsida; Pinales
2009,2009-05-28,Aveiro,Ovar,Arada,Rua do Marco,40.9152673,-8.5995458,Desconhecida,73.0,2009-05-28T17:00,29.8,28,9.3,28.0,0.0,0.0,0.0,0.0,0,1016.3,1008.0,4,0,0,13,0.47,3.03,11.8,15.0,40,55,25.2,28.2,21.0,16.3,13.8,0.173,0.177,0.218,0.318,1,3600.0,488.9,400.8,88.1,779.0,488.9,685.3,566.0,464.0,102.0,779.0,566.0,793.3,Tracheophyta; Eucalyptus L'Hér.; Pinus pinaster Aiton; Magnoliopsida
2009,2009-07-01,Aveiro,Ílhavo,Ílhavo (são Salvador),Moitinhos,40.581323,-8.6563691,Desconhecida,28.0,2009-07-01T14:00,24.7,66,18.0,26.8,0.0,0.0,0.0,0.0,2,1020.9,1017.6,70,68,0,31,0.53,1.05,15.7,18.3,261,260,31.0,30.7,24.1,21.3,17.5,0.123,0.106,0.128,0.229,1,3600.0,814.3,632.2,182.2,694.8,814.3,1203.9,836.0,649.0,187.0,694.8,836.0,1235.9,Tracheophyta; Magnoliopsida
2009,2009-05-29,Aveiro,Arouca,Mansores,Borralheiro,40.9312663,-8.3654246,NC,398.0,2009-05-29T15:00,29.5,26,8.1,30.4,0.0,0.0,0.0,0.0,0,1014.0,969.6,4,0,0,15,0.64,3.05,5.1,6.4,45,47,21.6,26.8,18.9,14.7,11.9,0.227,0.287,0.301,0.367,1,3600.0,825.5,723.7,101.8,904.0,825.5,1066.0,876.0,768.0,108.0,904.0,876.0,1131.2,Tracheophyta; Eucalyptus L'Hér.
2009,2009-07-02,Aveiro,Espinho,Silvalde,R. do Calvário (Senhora do Calvário),40.9903511,-8.6407154,NC,8.0,2009-07-02T13:00,24.2,53,14.0,25.7,0.0,0.0,0.0,0.0,0,1020.9,1020.0,1,0,0,2,0.61,1.42,13.6,15.4,320,323,31.7,29.2,23.2,20.7,16.7,0.179,0.159,0.211,0.321,1,3600.0,939.4,816.5,122.9,861.4,939.4,1254.1,940.0,817.0,123.0,861.4,940.0,1254.9,Tracheophyta
2009,2009-06-01,Aveiro,Santa Maria da Feira,Nogueira da Regedoura,Zona Industrial (NOGUEIRA DA REGEDOURA),41.0157616,-8.5571606,Desconhecida,227.0,2009-06-01T01:00,17.9,52,7.9,16.5,0.0,0.0,0.0,0.0,0,1015.0,988.4,0,0,0,0,0.03,0.98,5.4,4.3,98,66,13.0,17.6,21.4,16.8,13.1,0.158,0.226,0.279,0.361,0,0.0,0.0,0.0,0.0,0.0,0.0,0.0,0.0,0.0,0.0,0.0,0.0,0.0,Eucalyptus L'Hér.; Magnoliopsida; Tracheophyta; Quercus L.
2009,2009-06-02,Aveiro,Aveiro,Esgueira,Traseirasdo Continente,40.6433409,-8.6403931,Desconhecida,17.0,2009-06-02T06:00,13.9,97,13.4,14.5,0.0,0.0,0.0,0.0,1,1015.2,1013.1,49,51,0,9,0.0,0.05,2.9,4.4,30,35,7.6,14.2,22.6,19.3,14.8,0.047,0.097,0.136,0.238,1,1285.1,74.2,40.5,33.7,276.1,44.2,195.0,33.0,18.0,15.0,164.4,33.0,86.7,Tracheophyta; Magnoliopsida
2009,2009-06-01,Aveiro,Arouca,Mansores,Borralheiro,40.9312663,-8.3654246,NC,398.0,2009-06-01T05:00,15.5,46,3.9,13.5,0.0,0.0,0.0,0.0,0,1015.5,969.0,0,0,0,0,0.02,0.96,3.9,0.7,112,90,10.4,14.3,18.8,15.8,12.0,0.184,0.26,0.297,0.365,0,0.0,0.0,0.0,0.0,0.0,0.0,0.0,0.0,0.0,0.0,0.0,0.0,0.0,Tracheophyta; Eucalyptus L'Hér.
2009,2009-06-02,Aveiro,Sever do Vouga,Pessegueiro do Vouga,Estrada Nacional 16 (PESSEGUEIRO DO VOUGA),40.708796750000005,-8.368903878512011,Desconhecida,102.0,2009-06-02T21:00,17.8,69,12.1,17.6,0.0,0.0,0.0,0.0,1,1016.7,1004.6,29,0,0,96,0.01,0.63,5.6,8.2,297,308,11.9,21.3,23.3,18.3,14.0,0.074,0.125,0.179,0.278,0,0.0,0.0,0.0,0.0,0.0,0.0,0.0,0.0,0.0,0.0,0.0,0.0,0.0,Tracheophyta; Pinus pinaster Aiton; Magnoliopsida; Eucalyptus L'Hér.
2009,2009-06-03,Aveiro,Aveiro,Esgueira,Traseiras do Continente,40.6433409,-8.6403931,Desconhecida,17.0,2009-06-03T12:00,20.8,59,12.4,20.3,0.0,0.0,0.0,0.0,2,1017.4,1015.4,66,68,8,0,0.46,1.01,16.6,19.0,294,295,33.1,28.5,22.0,19.5,14.9,0.047,0.094,0.135,0.237,1,3600.0,793.6,509.3,284.3,540.6,793.6,1252.6,776.0,498.0,278.0,540.6,776.0,1224.8,Tracheophyta; Magnoliopsida
2009,2009-06-03,Aveiro,Sever do Vouga,Couto de Esteves,Mouta,40.7746725,-8.3233976,Desconhecida,518.0,2009-06-03T13:00,20.5,61,12.6,21.2,0.0,0.0,0.0,0.0,0,1016.1,957.0,11,8,6,0,0.53,0.95,13.4,17.0,276,276,35.6,24.6,18.9,16.2,12.0,0.159,0.244,0.294,0.364,1,3600.0,893.7,681.5,212.2,722.6,893.7,1253.9,897.0,684.0,213.0,722.6,897.0,1258.5,Eucalyptus L'Hér.; Pinus pinaster Aiton; Magnoliopsida
2009,2009-02-18,Aveiro,Vale de Cambra,Junqueira,Chã,40.8035081,-8.3618629,Desconhecida,738.0,2009-02-18T19:00,7.4,88,5.5,5.4,0.0,0.0,0.0,0.0,0,1021.9,934.8,0,0,0,0,0.02,0.13,6.2,8.2,291,299,16.6,7.8,7.2,6.3,7.8,0.352,0.368,0.395,0.419,0,0.0,0.0,0.0,0.0,0.0,0.0,0.0,0.0,0.0,0.0,0.0,0.0,4.5,Magnoliopsida; Eucalyptus L'Hér.; Pinus pinaster Aiton
2009,2009-06-18,Aveiro,Arouca,Mansores,Borralheiro,40.9312663,-8.3654246,NC,398.0,2009-06-18T15:00,29.4,50,17.8,32.3,0.0,0.0,0.0,0.0,1,1018.1,973.6,32,0,4,100,0.53,2.07,6.2,7.6,263,265,23.4,29.2,22.1,17.6,13.3,0.192,0.262,0.285,0.357,1,3600.0,658.1,362.1,296.0,442.4,658.1,1084.5,696.0,383.0,313.0,442.4,696.0,1146.9,Tracheophyta; Eucalyptus L'Hér.
2009,2009-06-20,Aveiro,Albergaria-a-Velha,Valmaior,Mouquim,40.6972034,-8.4379283,NC,53.0,2009-06-20T13:00,31.9,35,14.6,35.0,0.0,0.0,0.0,0.0,0,1017.6,1011.6,0,0,0,0,0.73,3.08,6.6,5.1,299,315,18.4,36.5,24.6,20.0,15.5,0.069,0.128,0.148,0.253,1,3600.0,956.3,837.5,118.8,880.5,956.3,1259.9,958.0,839.0,119.0,880.5,958.0,1262.1,Eucalyptus L'Hér.; Tracheophyta
2009,2009-06-20,Aveiro,Santa Maria da Feira,Lourosa,Zona Industrial do Casalinho,40.9767242,-8.55303625774781,Desconhecida,201.0,2009-06-20T20:00,26.6,56,17.2,28.0,0.0,0.0,0.0,0.0,0,1016.5,993.5,0,0,0,0,0.08,1.52,7.5,13.2,325,338,19.1,27.2,24.9,19.2,14.6,0.142,0.211,0.257,0.352,1,2307.68,6.3,3.6,2.8,40.9,4.8,14.4,57.0,32.0,25.0,247.3,57.0,129.6,Pinus pinaster Aiton; Tracheophyta; Magnoliopsida; Eucalyptus L'Hér.
2009,2009-06-21,Aveiro,Santa Maria da Feira,Sanguedo,Rua Da Boavista (Rua da Fonte da Ribeira),41.0083552,-8.5188259,NC,158.0,2009-06-21T04:00,20.6,34,4.0,16.2,0.0,0.0,0.0,0.0,0,1017.8,999.3,0,0,0,0,0.17,1.62,20.9,36.7,90,91,41.4,20.8,23.7,19.4,14.7,0.138,0.181,0.217,0.327,0,0.0,0.0,0.0,0.0,0.0,0.0,0.0,0.0,0.0,0.0,0.0,0.0,0.0,Tracheophyta; Magnoliopsida; Eucalyptus L'Hér.
2009,2009-06-21,Aveiro,Espinho,Silvalde,Rua do Calvário,40.9871438,-8.6226504,Desconhecida,59.0,2009-06-21T12:00,30.3,25,7.9,31.2,0.0,0.0,0.0,0.0,0,1016.9,1010.2,0,0,0,0,0.7,3.24,6.6,10.5,81,94,24.8,31.3,24.2,20.1,15.5,0.113,0.175,0.221,0.325,1,3600.0,966.5,848.7,117.7,898.4,966.5,1251.1,944.0,829.0,115.0,898.4,944.0,1222.0,Tracheophyta; Eucalyptus L'Hér.; Pinus pinaster Aiton; Acacia Mill.
2009,2009-02-21,Aveiro,Águeda,Macinhata do Vouga,Serem (MACINHATA DO VOUGA),40.6553986,-8.4535347,NC,53.0,2009-02-21T16:00,18.2,53,8.3,15.5,0.0,0.0,0.0,0.0,0,1028.9,1022.5,5,1,0,15,0.26,0.99,15.0,19.7,339,345,27.4,16.8,11.9,10.4,11.5,0.238,0.265,0.312,0.331,1,3600.0,343.1,246.9,96.2,647.2,343.1,533.6,403.0,290.0,113.0,647.2,403.0,626.7,Tracheophyta; Magnoliopsida; Eucalyptus L'Hér.; Pinus pinaster Aiton
2009,2009-06-22,Aveiro,Espinho,Silvalde,Rua do Calvário,40.9871438,-8.6226504,Desconhecida,59.0,2009-06-22T13:00,25.4,60,17.0,27.2,0.0,0.0,0.0,0.0,0,1018.7,1011.9,16,16,0,6,0.6,1.31,17.8,20.6,252,251,33.1,32.4,24.7,20.4,15.5,0.106,0.168,0.219,0.325,1,3600.0,917.6,773.8,143.8,814.9,917.6,1257.4,919.0,775.0,144.0,814.9,919.0,1259.3,Tracheophyta; Eucalyptus L'Hér.; Pinus pinaster Aiton; Acacia Mill.
2009,2009-06-22,Aveiro,Santa Maria da Feira,Lobão,Rua. das Escolas,40.98260465,-8.4900676884166,Desconhecida,179.0,2009-06-22T15:00,24.6,60,16.3,26.2,0.0,0.0,0.0,0.0,0,1018.8,998.1,1,0,0,4,0.55,1.25,15.4,18.8,259,258,32.8,31.4,24.3,19.7,14.8,0.126,0.168,0.213,0.326,1,3600.0,812.8,693.6,119.2,844.8,812.8,1087.1,859.0,733.0,126.0,844.8,859.0,1148.9,Eucalyptus L'Hér.; Tracheophyta
2009,2009-06-24,Aveiro,Santa Maria da Feira,Sanguedo,4   caminhos,41.0083552,-8.5188259,Desconhecida,158.0,2009-06-24T01:00,16.3,86,14.0,17.4,0.0,0.0,0.0,0.0,1,1015.7,997.0,38,42,0,0,0.0,0.25,1.5,2.5,315,315,9.7,18.6,22.8,20.0,15.0,0.122,0.163,0.211,0.325,0,0.0,0.0,0.0,0.0,0.0,0.0,0.0,0.0,0.0,0.0,0.0,0.0,0.0,Tracheophyta; Magnoliopsida; Eucalyptus L'Hér.
2009,2009-05-05,Aveiro,Santa Maria da Feira,Mosteiró,Mosteirô - Junto do campo desportivo,40.8968908,-8.529469,Desconhecida,151.0,2009-05-05T20:00,19.9,61,12.2,19.2,0.0,0.0,0.0,0.0,0,1021.3,1003.5,0,0,0,0,0.06,0.9,9.5,18.4,351,357,19.8,20.1,19.1,14.5,12.3,0.219,0.275,0.311,0.372,0,0.02,0.0,0.0,0.0,0.0,0.0,0.0,12.0,5.0,7.0,60.0,12.0,53.1,Magnoliopsida; Pinales; Eucalyptus L'Hér.; Tracheophyta; Pinus pinaster Aiton
2009,2009-05-30,Aveiro,Santa Maria da Feira,Gião,Rua das Cavadas (Rua das Costouras),40.9953677,-8.4719624,Desconhecida,174.0,2009-05-30T18:00,29.1,38,13.3,28.5,0.0,0.0,0.0,0.0,0,1010.9,991.3,16,0,1,53,0.32,2.51,11.4,20.0,342,346,27.4,27.8,22.4,16.4,13.1,0.169,0.205,0.241,0.337,1,3600.0,285.3,207.6,77.7,609.9,285.3,453.0,360.0,262.0,98.0,609.9,360.0,571.7,Tracheophyta; Pinus pinaster Aiton; Eucalyptus L'Hér.; Magnoliopsida
2009,2009-05-30,Aveiro,Arouca,São Miguel do Mato,Cruz das Eiras (Carvalhal Redondo),40.9720849,-8.3558047,Desconhecida,253.0,2009-05-30T13:00,31.5,24,8.4,32.8,0.0,0.0,0.0,0.0,0,1011.7,983.5,8,0,12,1,0.73,3.51,6.1,7.1,310,315,20.9,28.2,19.9,15.6,12.5,0.212,0.272,0.295,0.366,1,3600.0,962.5,829.0,133.5,882.4,962.5,1250.5,966.0,832.0,134.0,882.4,966.0,1255.1,Eucalyptus L'Hér.; Tracheophyta; Magnoliopsida; Pinus pinaster Aiton
2009,2009-06-27,Aveiro,Oliveira de Azeméis,Vila de Cucujães,Insua (Proximo Posto Cucujães),40.8812243,-8.5085204,Desconhecida,238.0,2009-06-27T20:00,19.4,75,14.9,18.4,0.9,0.9,0.0,0.0,53,1013.2,985.5,68,17,78,20,0.07,0.56,17.9,27.7,202,205,43.2,22.0,21.2,19.3,15.0,0.159,0.183,0.247,0.348,1,1074.03,4.2,1.9,2.4,21.3,3.2,16.4,34.0,15.0,19.0,115.0,34.0,131.9,Magnoliopsida; Tracheophyta; Pinus pinaster Aiton
2009,2009-07-07,Aveiro,Santa Maria da Feira,São João de Ver,Souto Redondo,40.9638381,-8.52619,Desconhecida,259.0,2009-07-07T13:00,22.6,51,11.8,23.0,0.0,0.0,0.0,0.0,0,1016.5,986.6,8,1,0,23,0.6,1.35,16.3,20.2,338,341,32.4,25.6,19.4,18.9,15.4,0.185,0.227,0.258,0.348,1,3600.0,968.5,847.6,120.9,896.2,968.5,1251.4,969.0,848.0,121.0,896.2,969.0,1252.0,Eucalyptus L'Hér.; Tracheophyta; Magnoliopsida
2009,2009-03-27,Leiria,Pedrógão Grande,Graça,Figueira,39.8947954,-8.2157536,Desconhecida,350.0,2009-03-27T11:00,21.5,34,5.1,20.9,0.0,0.0,0.0,0.0,0,1012.1,972.0,9,0,0,31,0.44,1.68,2.9,3.4,300,302,15.5,20.7,14.1,13.1,11.1,0.167,0.249,0.327,0.329,1,3600.0,756.2,661.8,94.4,908.7,756.2,1001.0,705.0,617.0,88.0,908.7,705.0,933.2,Pinus pinaster Aiton; Eucalyptus L'Hér.; Magnoliopsida; Tracheophyta; Olea europaea L.; Acacia Mill.; 
2009,2009-03-28,Leiria,Pombal,Carnide,Vale da Cabra,39.8925259,-8.7431646,Desconhecida,147.0,2009-03-28T14:00,14.7,36,-0.3,7.7,0.0,0.0,0.0,0.0,0,1005.5,988.1,0,0,0,0,0.42,1.08,40.0,52.3,349,350,68.0,19.7,15.3,14.5,12.3,0.057,0.135,0.202,0.196,1,3600.0,794.8,675.9,118.9,894.3,794.8,1038.0,822.0,699.0,123.0,894.3,822.0,1073.6,Eucalyptus L'Hér.; Pinus pinaster Aiton; Magnoliopsida; Tracheophyta
2009,2009-02-27,Leiria,Porto de Mós,Alcaria,Pé da Doninha,39.5722206,-8.7873277,Desconhecida,262.0,2009-02-27T12:00,16.6,49,5.9,13.9,0.0,0.0,0.0,0.0,1,1017.1,986.3,21,0,0,71,0.36,0.97,15.3,19.8,109,109,31.7,16.3,11.5,11.2,11.9,0.234,0.275,0.32,0.25,1,3600.0,673.8,566.0,107.8,862.6,673.8,915.3,644.0,541.0,103.0,862.6,644.0,874.9,Olea europaea L.; Magnoliopsida; Quercus L.; Eucalyptus L'Hér.; Pinus pinaster Aiton
2009,2009-05-02,Leiria,Leiria,Santa Eufémia,Figueira do Outeiro,39.7719336,-8.7363526,Desconhecida,151.0,2009-05-02T16:00,24.0,35,7.4,22.3,0.0,0.0,0.0,0.0,0,1020.8,1003.3,0,0,0,0,0.5,1.95,13.0,16.6,360,5,28.4,25.0,17.0,14.0,13.0,0.144,0.193,0.225,0.221,1,3600.0,635.3,545.5,89.9,869.3,635.3,845.3,707.0,607.0,100.0,869.3,707.0,940.6,Tracheophyta; Pinus pinaster Aiton; Eucalyptus L'Hér.; Magnoliopsida; Acacia Mill.; Olea europaea L.
2009,2009-05-06,Leiria,Pedrógão Grande,Pedrógão Grande,HORTA CIMEIRA (Casal da Horta),39.9384252,-8.2443904,Desconhecida,503.0,2009-05-06T17:00,22.9,37,7.5,19.9,0.0,0.0,0.0,0.0,0,1019.6,962.4,0,0,0,0,0.39,1.75,16.3,21.9,292,293,41.8,24.8,18.7,13.5,11.1,0.155,0.238,0.287,0.33,1,3600.0,442.9,371.1,71.9,798.0,442.9,625.2,524.0,439.0,85.0,798.0,524.0,739.6,Pinus pinaster Aiton; Magnoliopsida; Eucalyptus L'Hér.; Olea europaea L.; Tracheophyta
2009,2009-03-29,Leiria,Pombal,Pombal,POMBAL,39.92194355,-8.636895489112948,Desconhecida,58.0,2009-03-29T16:00,15.1,38,0.7,7.9,0.0,0.0,0.0,0.0,1,1011.1,1004.2,26,0,40,8,0.34,1.07,35.5,46.5,337,338,59.0,19.0,14.6,14.7,12.7,0.057,0.133,0.202,0.209,1,3600.0,465.1,349.5,115.6,656.8,465.1,730.4,527.0,396.0,131.0,656.8,527.0,827.6,Tracheophyta; Pinus pinaster Aiton; Olea europaea L.; Magnoliopsida; Eucalyptus L'Hér.
2009,2009-04-01,Leiria,Porto de Mós,Juncal,VALE AGUA (Algar do Vale),39.6027438,-8.9019782,Desconhecida,123.0,2009-04-01T18:00,14.2,45,2.4,9.6,0.0,0.0,0.0,0.0,0,1016.1,1001.4,0,0,0,0,0.18,0.89,19.9,27.0,328,329,38.5,18.6,15.6,14.4,13.2,0.071,0.159,0.225,0.227,1,3600.0,157.0,112.4,44.7,605.1,157.0,254.4,239.0,171.0,68.0,605.1,239.0,387.2,Tracheophyta; Olea europaea L.; Eucalyptus L'Hér.; Magnoliopsida; Pinus pinaster Aiton
2009,2009-04-02,Leiria,Porto de Mós,Pedreiras,Tremoceira,39.5901401,-8.8629768,Desconhecida,156.0,2009-04-02T16:00,15.2,58,6.9,11.8,0.0,0.0,0.0,0.0,0,1017.7,999.1,1,1,0,0,0.31,0.73,20.6,26.8,317,318,44.3,22.2,15.3,14.1,13.0,0.07,0.157,0.223,0.227,1,3600.0,549.8,451.6,98.3,822.6,549.8,751.9,621.0,510.0,111.0,822.6,621.0,849.2,Olea europaea L.; Pinus pinaster Aiton; Quercus L.; Tracheophyta; Magnoliopsida; Eucalyptus L'Hér.
2009,2009-04-27,Leiria,Caldas da Rainha,Caldas Da Rainha (santo Onofre),BAIRRO DA PONTE,39.4410474,-9.176719996646185,Desconhecida,43.0,2009-04-27T17:00,15.0,66,8.6,11.7,0.0,0.0,0.0,0.0,2,1018.5,1013.3,68,69,9,0,0.22,0.59,20.4,25.8,296,297,36.0,19.0,15.9,14.8,14.0,0.139,0.168,0.19,0.205,1,3600.0,357.1,249.6,107.6,551.5,357.1,611.2,425.0,297.0,128.0,551.5,425.0,727.3,Eucalyptus L'Hér.; Tracheophyta; Pinus pinaster Aiton
2009,2009-05-03,Leiria,Leiria,Leiria,LEIRIA,39.7437902,-8.8071119,Desconhecida,32.0,2009-05-03T19:00,20.3,58,11.7,17.2,0.0,0.0,0.0,0.0,1,1018.7,1014.9,28,0,0,93,0.17,1.01,25.2,40.3,360,2,37.8,21.5,19.4,15.0,13.7,0.089,0.15,0.174,0.199,1,3600.0,62.3,39.6,22.6,454.6,62.3,116.1,132.0,84.0,48.0,459.6,132.0,246.0,Tracheophyta; Pinus pinaster Aiton; Eucalyptus L'Hér.; Magnoliopsida; Acacia Mill.; 
2009,2009-03-28,Leiria,Pedrógão Grande,GRAÇA,ATALAIAS (ATALAIA FUNDEIRA),39.8739104,-8.214098,Desconhecida,313.0,2009-03-28T22:00,8.8,45,-2.4,3.5,0.0,0.0,0.0,0.0,0,1006.8,969.5,0,0,0,0,0.08,0.62,19.7,33.2,352,355,44.3,11.4,14.8,13.6,11.5,0.156,0.242,0.324,0.329,0,0.0,0.0,0.0,0.0,0.0,0.0,0.0,0.0,0.0,0.0,0.0,0.0,0.0,Pinus pinaster Aiton; Eucalyptus L'Hér.; Magnoliopsida; Tracheophyta; Olea europaea L.; Acacia Mill.; 
2009,2009-04-04,Leiria,Marinha Grande,Marinha Grande,Pedra,39.7473845,-8.9585243,Desconhecida,80.0,2009-04-04T12:00,15.7,78,11.8,13.5,0.0,0.0,0.0,0.0,2,1024.0,1014.4,74,76,0,17,0.28,0.4,20.5,24.8,349,351,33.8,19.3,14.4,14.2,13.3,0.06,0.135,0.198,0.22,1,3600.0,624.4,393.2,231.2,480.2,624.4,1120.2,605.0,381.0,224.0,480.2,605.0,1085.4,Pinus pinaster Aiton; Tracheophyta; Magnoliopsida
2009,2009-04-01,Leiria,Pombal,Carriço,Mata Nacional do Urso - Talhão 47,39.9849505,-8.8013235,Desconhecida,108.0,2009-04-01T10:00,12.8,43,0.6,9.9,0.0,0.0,0.0,0.0,0,1016.4,1003.4,1,0,0,4,0.29,0.84,7.1,8.7,41,48,19.1,15.6,12.2,13.8,12.6,0.055,0.132,0.2,0.218,1,3600.0,652.7,556.1,96.6,869.7,652.7,876.4,581.0,495.0,86.0,869.7,581.0,780.1,Pinus pinaster Aiton; Tracheophyta; Eucalyptus L'Hér.
2009,2009-04-03,Leiria,Leiria,Pousos,Casal dos Matos,39.7461192,-8.773472,Desconhecida,74.0,2009-04-03T16:00,14.4,59,6.4,11.1,0.0,0.0,0.0,0.0,1,1021.5,1012.6,23,0,0,77,0.3,0.68,19.3,24.5,323,324,44.3,20.1,14.8,14.0,13.1,0.057,0.129,0.195,0.203,1,3600.0,547.9,455.0,92.9,828.7,547.9,751.5,619.0,514.0,105.0,828.7,619.0,849.0,Tracheophyta; Pinus pinaster Aiton; Eucalyptus L'Hér.; Magnoliopsida; Acacia Mill.; Pinales
2009,2009-05-28,Leiria,Porto de Mós,Pedreiras,Casal da Luisa,39.5898455,-8.8637373,Desconhecida,151.0,2009-05-28T23:00,22.6,30,4.2,18.9,0.0,0.0,0.0,0.0,0,1015.2,997.7,0,0,0,0,0.16,1.92,15.6,35.3,71,76,32.4,20.4,21.8,17.2,14.7,0.087,0.144,0.176,0.219,0,0.0,0.0,0.0,0.0,0.0,0.0,0.0,0.0,0.0,0.0,0.0,0.0,0.0,Pinus pinaster Aiton; Olea europaea L.; Quercus L.; Tracheophyta; Magnoliopsida; Eucalyptus L'Hér.
2009,2009-06-01,Leiria,Alvaiázere,Alvaiázere,VENDAS (Venda do Henrique),39.8247866,-8.3820737,Desconhecida,309.0,2009-06-01T12:00,31.3,21,6.7,31.5,0.0,0.0,0.0,0.0,0,1015.7,981.2,0,0,0,0,0.74,3.59,9.2,11.0,301,302,24.8,33.7,22.8,17.8,13.6,0.098,0.182,0.24,0.279,1,3600.0,974.3,847.5,126.8,896.0,974.3,1258.3,953.0,829.0,124.0,896.0,953.0,1230.8,Tracheophyta; Olea europaea L.; Magnoliopsida; Pinus pinaster Aiton; Eucalyptus L'Hér.; Vitis vinifera L.; Quercus L.
2009,2009-05-27,Leiria,Óbidos,Amoreira,BREJOS (AMOREIRA),39.3434882,-9.196390494494942,Desconhecida,25.0,2009-05-27T16:00,23.3,56,14.2,22.1,0.0,0.0,0.0,0.0,0,1020.3,1017.4,0,0,0,0,0.47,1.25,24.2,32.7,4,8,42.8,26.5,19.9,16.9,15.1,0.115,0.125,0.156,0.178,1,3600.0,674.3,578.8,95.4,851.9,674.3,905.4,742.0,637.0,105.0,851.9,742.0,996.3,Magnoliopsida; Tracheophyta; Eucalyptus L'Hér.
2009,2009-05-29,Leiria,Leiria,Pousos,VALE SEPAL,39.7471149,-8.7796845,Desconhecida,60.0,2009-05-29T17:00,26.9,34,9.8,24.7,0.0,0.0,0.0,0.0,0,1011.8,1004.9,1,0,0,3,0.46,2.34,15.7,21.3,351,354,35.3,31.7,23.4,17.2,14.6,0.055,0.106,0.147,0.194,1,3600.0,488.3,403.8,84.5,780.7,488.3,688.6,566.0,468.0,98.0,780.7,566.0,798.2,Tracheophyta; Pinus pinaster Aiton; Eucalyptus L'Hér.; Magnoliopsida; Acacia Mill.; Pinales
2009,2009-06-27,Leiria,Pombal,Louriçal,RIBEIRA SANTO AMARO (Casais da Ribeira de Santo Amaro),40.0031383,-8.7387872,Desconhecida,25.0,2009-06-27T00:00,15.3,92,14.0,16.0,0.0,0.0,0.0,0.0,0,1017.0,1014.0,13,0,0,42,0.0,0.15,4.4,5.8,9,356,8.3,16.8,22.1,20.9,16.7,0.062,0.073,0.111,0.187,0,0.0,0.0,0.0,0.0,0.0,0.0,0.0,0.0,0.0,0.0,0.0,0.0,0.0,Tracheophyta; Pinus pinaster Aiton; Magnoliopsida; Eucalyptus L'Hér.
2009,2009-07-10,Leiria,Alcobaça,Coz,Castanheira,39.6017827,-8.9473823,Desconhecida,43.0,2009-07-10T14:00,21.3,62,13.8,20.8,0.0,0.0,0.0,0.0,0,1020.4,1015.3,14,1,0,43,0.52,0.96,24.8,31.1,332,333,47.2,29.9,22.2,20.6,17.7,0.05,0.075,0.123,0.198,1,3600.0,915.3,739.9,175.5,810.9,915.3,1207.4,939.0,759.0,180.0,810.9,939.0,1238.6,Pinus pinea L.; Pinus pinaster Aiton; Tracheophyta; Eucalyptus L'Hér.; Magnoliopsida; Pinales; Olea europaea L.; Vitis vinifera L.
2009,2009-07-20,Leiria,Alcobaça,Évora de Alcobaça,MOLEANOS (Molianos),39.5066555,-8.931399941418054,Desconhecida,170.0,2009-07-20T12:00,28.3,41,13.7,30.5,0.0,0.0,0.0,0.0,0,1017.3,997.9,2,0,4,0,0.66,2.28,8.1,8.7,339,343,26.3,35.9,24.5,22.3,18.7,0.08,0.161,0.221,0.286,1,3600.0,935.3,823.3,112.0,881.6,935.3,1237.0,910.0,801.0,109.0,881.6,910.0,1203.5,Olea europaea L.; Eucalyptus L'Hér.; Tracheophyta; Magnoliopsida; Pinus pinaster Aiton
2009,2009-06-02,Leiria,Porto de Mós,Juncal,Zona Industrial JUNCAL,39.6027438,-8.9019782,Desconhecida,123.0,2009-06-02T03:00,14.5,99,14.3,14.8,0.0,0.0,0.0,0.0,0,1015.4,1000.7,19,21,0,1,0.0,0.02,7.9,12.2,357,360,14.8,16.1,22.9,19.3,15.2,0.059,0.128,0.17,0.217,0,0.0,0.0,0.0,0.0,0.0,0.0,0.0,0.0,0.0,0.0,0.0,0.0,0.0,Tracheophyta; Olea europaea L.; Eucalyptus L'Hér.; Magnoliopsida; Pinus pinaster Aiton
2009,2009-06-14,Leiria,Pombal,Pelariga,Z.I. TINTO (PELARIGA),39.9677741,-8.6332632,Desconhecida,47.0,2009-06-14T19:00,22.4,76,17.9,22.7,0.0,0.0,0.0,0.0,1,1017.2,1011.7,29,0,19,60,0.13,0.66,17.9,24.6,341,342,33.1,25.8,22.8,18.9,15.6,0.066,0.098,0.123,0.197,1,3600.0,102.8,50.7,52.1,285.6,102.8,235.5,156.0,77.0,79.0,285.6,156.0,357.4,Tracheophyta; Eucalyptus L'Hér.; Olea europaea L.; Magnoliopsida
2009,2009-06-15,Leiria,Pombal,Redinha,RELVÃO,40.0036505,-8.5899619,Desconhecida,73.0,2009-06-15T11:00,26.2,62,18.3,28.4,0.0,0.0,0.0,0.0,0,1017.4,1009.0,4,0,7,0,0.52,1.3,13.4,16.3,346,354,29.5,29.6,21.4,18.8,15.5,0.064,0.098,0.122,0.197,1,3600.0,796.1,605.7,190.3,674.2,796.1,1191.0,757.0,576.0,181.0,674.2,757.0,1132.6,Eucalyptus L'Hér.; Tracheophyta
2009,2009-06-23,Leiria,Caldas da Rainha,Salir de Matos,Infantes,39.433046,-9.0962527,Desconhecida,62.0,2009-06-23T20:00,19.7,78,15.7,19.4,0.0,0.0,0.0,0.0,1,1016.8,1009.5,27,30,0,0,0.06,0.51,15.5,20.9,316,316,31.3,24.1,24.5,21.1,16.6,0.093,0.156,0.207,0.236,1,2233.89,2.8,1.5,1.4,16.7,2.1,7.3,49.0,25.0,24.0,193.7,49.0,125.6,Tracheophyta; Magnoliopsida; Eucalyptus L'Hér.; Vitis vinifera L.; Olea europaea L.
2009,2009-06-14,Leiria,Alcobaça,Coz,Castanheira,39.6017827,-8.9473823,Desconhecida,43.0,2009-06-14T23:00,17.5,94,16.5,17.9,0.0,0.0,0.0,0.0,1,1017.3,1012.2,24,0,38,5,0.0,0.12,12.8,21.5,10,14,20.2,18.7,20.9,18.8,16.0,0.073,0.109,0.143,0.205,0,0.0,0.0,0.0,0.0,0.0,0.0,0.0,0.0,0.0,0.0,0.0,0.0,0.0,Pinus pinea L.; Pinus pinaster Aiton; Tracheophyta; Eucalyptus L'Hér.; Magnoliopsida; Pinales; Olea europaea L.; Vitis vinifera L.
2009,2009-07-16,Leiria,Leiria,Maceira,Telheiro,39.6847926,-8.8944977,Desconhecida,161.0,2009-07-16T21:00,17.3,88,15.3,15.2,0.0,0.0,0.0,0.0,0,1025.1,1005.9,16,18,0,0,0.02,0.24,26.8,35.1,353,354,40.3,20.7,22.5,19.9,17.1,0.05,0.064,0.103,0.173,0,0.0,0.0,0.0,0.0,0.0,0.0,0.0,0.0,0.0,0.0,0.0,0.0,0.0,Tracheophyta; Pinus pinaster Aiton; Eucalyptus L'Hér.; Magnoliopsida; Acacia Mill.; Olea europaea L.
2009,2009-03-30,Leiria,Pombal,Carriço,Mata Nacional do Urso - Talhão 47,39.9849505,-8.8013235,Desconhecida,108.0,2009-03-30T15:00,14.6,44,2.4,10.7,0.0,0.0,0.0,0.0,1,1014.0,1001.1,42,0,70,0,0.37,0.93,20.6,24.9,341,346,40.7,20.1,13.9,14.1,12.6,0.056,0.134,0.202,0.218,1,3600.0,671.8,535.0,136.8,798.4,671.8,919.4,722.0,575.0,147.0,798.4,722.0,988.1,Pinus pinaster Aiton; Tracheophyta; Eucalyptus L'Hér.
2009,2009-06-26,Leiria,Porto de Mós,Porto De Mós (são Pedro),Anaia,39.6026826,-8.835013283591087,Desconhecida,164.0,2009-06-26T00:00,15.3,90,13.8,15.8,0.0,0.0,0.0,0.0,0,1017.4,997.9,10,10,1,0,0.0,0.17,5.4,13.8,307,309,13.0,17.0,22.0,20.4,16.0,0.057,0.072,0.111,0.169,0,0.0,0.0,0.0,0.0,0.0,0.0,0.0,0.0,0.0,0.0,0.0,0.0,0.0,Tracheophyta; Magnoliopsida; Olea europaea L.; Pinus pinaster Aiton
2009,2009-03-28,Leiria,Leiria,Monte Redondo,Paul,39.8951806,-8.833845,Desconhecida,42.0,2009-03-28T13:00,14.1,43,1.6,7.9,0.0,0.0,0.0,0.0,0,1005.9,1000.9,0,0,0,0,0.41,0.92,38.3,49.8,351,352,66.2,18.9,15.5,15.0,13.0,0.059,0.138,0.203,0.201,1,3600.0,861.1,735.0,126.0,920.3,861.1,1097.2,861.0,735.0,126.0,920.3,861.0,1097.1,Tracheophyta; Pinus pinaster Aiton; Eucalyptus L'Hér.; Magnoliopsida; Acacia Mill.
2009,2009-04-02,Leiria,Castanheira de Pêra,Castanheira de Pêra,Tapada do Carriçal,40.0040495,-8.202774623405045,Desconhecida,479.0,2009-04-02T20:00,9.5,73,4.9,7.1,0.0,0.0,0.0,0.0,0,1018.5,961.5,0,0,0,0,0.01,0.33,8.4,16.3,313,319,34.2,12.7,13.2,11.8,10.7,0.16,0.242,0.32,0.337,0,0.0,0.0,0.0,0.0,0.0,0.0,0.0,0.0,0.0,0.0,0.0,0.0,0.0,Eucalyptus L'Hér.; Magnoliopsida; Olea europaea L.; Pinus pinaster Aiton; Tracheophyta; Acacia Mill.
2009,2009-07-31,Leiria,Pombal,Redinha,Bonitos,40.0036505,-8.5899619,Desconhecida,73.0,2009-07-31T17:00,24.5,53,14.2,23.3,0.0,0.0,0.0,0.0,0,1020.8,1012.3,0,0,0,0,0.39,1.45,17.6,22.8,305,308,34.9,32.1,23.5,21.0,18.4,0.05,0.062,0.085,0.177,1,3600.0,474.4,393.5,80.9,772.6,474.4,676.1,551.0,457.0,94.0,772.6,551.0,785.2,Eucalyptus L'Hér.; Tracheophyta
2009,2009-08-09,Leiria,Pombal,Pelariga,Rua da Cavada - Tinto,39.9716527,-8.617337,Desconhecida,106.0,2009-08-09T13:00,27.8,44,14.4,27.3,0.0,0.0,0.0,0.0,0,1013.7,1001.6,6,0,0,20,0.67,2.1,24.6,32.0,333,337,47.9,34.7,22.8,20.9,18.6,0.05,0.06,0.082,0.174,1,3600.0,901.1,783.0,118.0,861.5,901.1,1209.7,901.0,783.0,118.0,861.5,901.0,1209.6,Tracheophyta; Eucalyptus L'Hér.; Pinus pinaster Aiton; Olea europaea L.
2009,2009-07-15,Leiria,Leiria,Milagres,Casal da Quinta,39.814498,-8.751051,Desconhecida,152.0,2009-07-15T15:00,23.6,46,11.4,23.6,0.0,0.0,0.0,0.0,0,1019.0,1001.4,0,0,0,0,0.57,1.57,15.3,18.6,315,317,37.8,33.0,21.8,20.0,17.0,0.049,0.063,0.097,0.165,1,3600.0,827.3,719.4,107.9,875.7,827.3,1087.5,874.0,760.0,114.0,875.7,874.0,1148.8,Tracheophyta; Pinus pinaster Aiton; Eucalyptus L'Hér.; Magnoliopsida; Acacia Mill.; Olea europaea L.
2009,2009-04-02,Leiria,Figueiró dos Vinhos,Campelo,E.N. 347 KM72 - POVOA (CAMPELO),39.9024537,-8.2753006,Desconhecida,452.0,2009-04-02T20:00,9.4,72,4.6,7.1,0.0,0.0,0.0,0.0,0,1019.0,965.1,0,0,0,0,0.01,0.33,7.4,15.1,313,320,28.8,12.5,13.3,11.9,10.7,0.142,0.226,0.312,0.317,0,0.0,0.0,0.0,0.0,0.0,0.0,0.0,0.0,0.0,0.0,0.0,0.0,0.0,Olea europaea L.; Tracheophyta; Pinus pinaster Aiton; Acacia Mill.; Eucalyptus L'Hér.
2009,2009-07-27,Leiria,Caldas da Rainha,Nadadouro,Casais da Fonte,39.4328745,-9.1765706,Desconhecida,43.0,2009-07-27T14:00,22.2,64,15.1,21.7,0.0,0.0,0.0,0.0,0,1020.4,1015.3,1,1,0,0,0.52,0.97,27.8,34.6,350,352,49.3,32.5,23.1,21.8,19.3,0.048,0.073,0.127,0.191,1,3600.0,921.0,796.3,124.8,887.4,921.0,1190.0,945.0,817.0,128.0,887.4,945.0,1221.0,Eucalyptus L'Hér.; Pinus pinaster Aiton
2009,2009-07-21,Leiria,Leiria,Colmeias,Feteira,39.8231485,-8.7196634,Desconhecida,184.0,2009-07-21T03:00,14.8,97,14.4,15.3,0.0,0.0,0.0,0.0,0,1013.9,992.1,0,0,0,0,0.0,0.05,6.8,13.4,360,6,10.1,17.8,23.8,20.6,17.3,0.076,0.105,0.141,0.203,0,0.0,0.0,0.0,0.0,0.0,0.0,0.0,0.0,0.0,0.0,0.0,0.0,0.0,Tracheophyta; Pinus pinaster Aiton; Eucalyptus L'Hér.; Magnoliopsida; Acacia Mill.
2009,2009-08-13,Leiria,Pombal,Pombal,Charneca,39.9137975,-8.6416173,Desconhecida,111.0,2009-08-13T23:00,22.5,72,17.1,24.5,0.0,0.0,0.0,0.0,0,1014.9,1002.0,11,0,18,0,0.0,0.78,4.0,7.1,350,15,7.6,25.0,27.7,22.3,19.0,0.075,0.091,0.114,0.196,0,0.0,0.0,0.0,0.0,0.0,0.0,0.0,0.0,0.0,0.0,0.0,0.0,0.0,Tracheophyta; Olea europaea L.; Eucalyptus L'Hér.
2009,2009-08-03,Leiria,Pedrógão Grande,Graça,CARVALHEIRA (Carvalheira Grande),39.9022425,-8.2207027,Desconhecida,369.0,2009-08-03T00:00,14.3,78,10.6,13.2,0.0,0.0,0.0,0.0,1,1018.6,975.1,30,0,0,99,0.01,0.36,8.7,16.3,330,338,23.4,17.7,21.8,21.2,18.2,0.138,0.153,0.183,0.284,0,0.0,0.0,0.0,0.0,0.0,0.0,0.0,0.0,0.0,0.0,0.0,0.0,0.0,Pinus pinaster Aiton; Eucalyptus L'Hér.; Magnoliopsida; Tracheophyta; Olea europaea L.; Acacia Mill.; 
2009,2009-05-27,Leiria,Porto de Mós,Pedreiras,Ladeira Pires,39.5901401,-8.8629768,Desconhecida,156.0,2009-05-27T16:00,24.7,43,11.4,24.4,0.0,0.0,0.0,0.0,0,1019.9,1001.8,0,0,0,0,0.51,1.76,11.8,15.3,20,24,28.4,27.7,20.0,16.8,14.7,0.125,0.15,0.178,0.219,1,3600.0,675.0,577.8,97.2,853.3,675.0,902.2,743.0,636.0,107.0,853.3,743.0,993.1,Olea europaea L.; Pinus pinaster Aiton; Quercus L.; Tracheophyta; Magnoliopsida; Eucalyptus L'Hér.
2009,2009-05-29,Leiria,Pedrógão Grande,Pedrógão Grande,HORTA CIMEIRA (Casal da Horta),39.9384252,-8.2443904,Desconhecida,503.0,2009-05-29T21:00,20.8,55,11.6,20.6,0.0,0.0,0.0,0.0,0,1013.2,956.0,9,0,0,29,0.02,1.1,5.1,5.4,356,360,10.1,21.3,20.8,15.4,12.2,0.155,0.215,0.262,0.324,0,0.0,0.0,0.0,0.0,0.0,0.0,0.0,0.0,0.0,0.0,0.0,0.0,0.0,Pinus pinaster Aiton; Magnoliopsida; Eucalyptus L'Hér.; Olea europaea L.; Tracheophyta
2009,2009-06-01,Leiria,Porto de Mós,Calvaria De Cima,S JORGE (SÃO JORGE),39.6281723,-8.8541055,Desconhecida,169.0,2009-06-01T03:00,16.7,92,15.4,18.0,0.0,0.0,0.0,0.0,0,1015.1,995.1,14,15,0,0,0.0,0.15,3.4,7.9,238,286,11.2,16.2,23.0,18.6,14.8,0.06,0.131,0.171,0.218,0,0.0,0.0,0.0,0.0,0.0,0.0,0.0,0.0,0.0,0.0,0.0,0.0,0.0,Tracheophyta; Eucalyptus L'Hér.; Pinus pinaster Aiton
2009,2009-05-22,Leiria,Pedrógão Grande,Pedrógão Grande,HORTA CIMEIRA (Casal da Horta),39.9384252,-8.2443904,Desconhecida,503.0,2009-05-22T21:00,13.1,78,9.4,12.0,0.0,0.0,0.0,0.0,0,1012.5,953.8,6,6,1,0,0.0,0.33,7.1,12.8,315,322,19.8,16.8,18.2,14.4,11.9,0.159,0.234,0.271,0.326,0,0.0,0.0,0.0,0.0,0.0,0.0,0.0,0.0,0.0,0.0,0.0,0.0,0.0,Pinus pinaster Aiton; Magnoliopsida; Eucalyptus L'Hér.; Olea europaea L.; Tracheophyta
2009,2009-04-04,Leiria,Figueiró dos Vinhos,Campelo,Alto da Póvoa - Póvoa,39.9024537,-8.2753006,Desconhecida,452.0,2009-04-04T19:00,12.9,76,8.8,10.9,0.0,0.0,0.0,0.0,0,1023.2,969.7,0,0,0,0,0.04,0.35,11.2,19.7,318,322,37.1,16.2,14.5,11.9,10.7,0.137,0.221,0.308,0.316,1,2051.81,0.0,0.0,0.0,0.0,0.0,0.0,54.0,33.0,21.0,254.9,54.0,118.4,Olea europaea L.; Tracheophyta; Pinus pinaster Aiton; Acacia Mill.; Eucalyptus L'Hér.
2009,2009-08-16,Leiria,Ansião,Ansião,FONTE CARVALHO,39.93455325,-8.429320798841196,Desconhecida,220.0,2009-08-16T11:00,27.5,55,17.6,29.9,0.0,0.0,0.0,0.0,0,1017.6,992.5,7,0,0,22,0.53,1.65,10.2,12.5,312,316,27.7,31.2,26.0,23.3,18.9,0.107,0.134,0.159,0.23,1,3600.0,798.3,665.6,132.7,803.5,798.3,1105.1,752.0,627.0,125.0,803.5,752.0,1041.0,Pinus pinaster Aiton; Magnoliopsida; Eucalyptus L'Hér.; Olea europaea L.; Tracheophyta; Quercus L.
2009,2009-08-16,Leiria,Ansião,Chão de Couce,MATA DE CIMA - SERRA DA QUINTA (Cabeça da Mata),39.9135659,-8.396392251346935,Desconhecida,269.0,2009-08-16T20:00,22.8,64,15.6,23.0,0.0,0.0,0.0,0.0,0,1017.4,986.4,1,0,1,0,0.07,1.0,11.1,20.0,324,332,25.6,27.5,28.1,23.6,19.0,0.123,0.15,0.169,0.257,0,0.0,0.0,0.0,0.0,0.0,0.0,0.0,8.0,3.0,5.0,40.0,8.0,41.7,Magnoliopsida; Quercus L.; Olea europaea L.; Tracheophyta
2009,2009-01-08,Leiria,Peniche,Serra D El-rei,SEZAREDAS,39.3566221,-9.3812853,Desconhecida,15.0,2009-01-08T18:00,6.3,58,-1.4,2.6,0.0,0.0,0.0,0.0,0,1017.8,1015.9,0,0,0,0,0.04,0.4,9.5,13.2,25,26,15.1,7.1,8.9,12.3,15.8,0.217,0.235,0.192,0.181,0,0.0,0.0,0.0,0.0,0.0,0.0,0.0,10.0,4.0,6.0,53.9,10.0,43.8,Tracheophyta; Magnoliopsida
2009,2009-06-01,Leiria,Porto de Mós,Calvaria De Cima,SAO JORGE (SÃO JORGE),39.6281723,-8.8541055,Desconhecida,169.0,2009-06-01T12:00,26.5,42,12.6,27.9,0.0,0.0,0.0,0.0,0,1016.3,996.9,0,0,0,0,0.66,2.0,11.0,12.6,293,294,30.6,34.8,22.7,18.7,14.9,0.06,0.13,0.17,0.217,1,3600.0,964.9,819.6,145.3,866.2,964.9,1258.7,943.0,801.0,142.0,866.2,943.0,1230.1,Tracheophyta; Eucalyptus L'Hér.; Pinus pinaster Aiton
2009,2009-03-31,Leiria,Pombal,Carriço,MATA NACIONAL DO URSO - Talhão 47,39.9849505,-8.8013235,Desconhecida,108.0,2009-03-31T09:00,11.1,59,3.4,8.8,0.0,0.0,0.0,0.0,0,1015.5,1002.4,0,0,0,0,0.17,0.54,4.8,6.0,103,107,14.8,12.6,12.2,14.0,12.6,0.056,0.134,0.201,0.218,1,3600.0,461.7,371.8,89.9,761.8,461.7,669.3,380.0,306.0,74.0,761.8,380.0,550.9,Pinus pinaster Aiton; Tracheophyta; Eucalyptus L'Hér.
2009,2009-06-01,Leiria,Leiria,Pousos,QTA. DEL REI (POUSOS),39.73724055,-8.80732295487287,Desconhecida,81.0,2009-06-01T14:00,26.4,49,14.9,28.5,0.0,0.0,0.0,0.0,0,1015.6,1006.3,0,0,0,0,0.66,1.75,12.5,14.5,309,312,33.5,34.7,23.2,18.5,14.7,0.049,0.086,0.133,0.176,1,3600.0,929.3,816.7,112.6,905.2,929.3,1200.1,957.0,841.0,116.0,905.2,957.0,1235.9,Tracheophyta; Pinus pinaster Aiton; Eucalyptus L'Hér.; Magnoliopsida; Acacia Mill.; Vitis vinifera L.
2009,2009-08-21,Leiria,Pombal,Redinha,Jagardo,40.0036505,-8.5899619,Desconhecida,73.0,2009-08-21T21:00,19.0,68,12.9,16.2,0.0,0.0,0.0,0.0,0,1021.4,1012.7,0,0,0,0,0.09,0.71,26.0,39.7,350,352,43.9,22.0,24.7,22.6,19.4,0.049,0.059,0.075,0.168,0,0.0,0.0,0.0,0.0,0.0,0.0,0.0,0.0,0.0,0.0,0.0,0.0,0.0,Eucalyptus L'Hér.; Tracheophyta
2009,2009-08-22,Leiria,Pombal,Redinha,Verigo,40.0036505,-8.5899619,Desconhecida,73.0,2009-08-22T15:00,30.4,38,14.6,29.6,0.0,0.0,0.0,0.0,0,1016.6,1008.3,0,0,0,0,0.66,2.69,23.7,31.3,336,341,40.7,37.7,24.6,22.6,19.4,0.049,0.059,0.075,0.168,1,3600.0,737.9,639.6,98.3,866.4,737.9,987.2,788.0,683.0,105.0,866.4,788.0,1054.2,Eucalyptus L'Hér.; Tracheophyta
2009,2009-05-01,Leiria,Alvaiázere,Pelmá,Barraca do Toco,39.7710435,-8.4518744,Desconhecida,128.0,2009-05-01T14:00,22.2,34,5.7,20.8,0.0,0.0,0.0,0.0,0,1022.3,1007.3,0,0,0,0,0.61,1.75,15.6,20.0,26,28,34.2,22.7,15.2,14.2,13.3,0.217,0.243,0.269,0.257,1,3600.0,901.7,795.3,106.4,930.5,901.7,1152.0,932.0,822.0,110.0,930.5,932.0,1190.6,Olea europaea L.; Pinus pinaster Aiton; Magnoliopsida
2009,2009-06-15,Leiria,Alcobaça,Coz,Casal do Resoneiro VALE DO AMIEIRO,39.6016797,-8.9561958,Desconhecida,30.0,2009-06-15T15:00,23.7,68,17.5,23.7,0.0,0.0,0.0,0.0,2,1017.0,1013.5,55,0,42,99,0.43,0.92,22.9,29.3,344,346,41.0,29.4,21.9,19.1,16.2,0.072,0.103,0.138,0.186,1,3600.0,653.5,431.2,222.2,522.2,653.5,1094.6,691.0,456.0,235.0,522.2,691.0,1157.4,Pinus pinaster Aiton; Tracheophyta; Eucalyptus L'Hér.; Olea europaea L.; Vitis vinifera L.; Pinales
2009,2009-08-08,Leiria,Pombal,Abiul,Mata da Pregueira,39.8726178,-8.5386326,Desconhecida,182.0,2009-08-08T06:00,15.4,97,14.9,14.8,0.0,0.0,0.0,0.0,3,1016.5,994.9,100,96,0,91,0.01,0.06,15.7,24.6,323,328,31.0,17.8,21.8,21.5,18.6,0.108,0.14,0.172,0.253,1,0.0,5.7,0.0,5.7,0.0,1.6,67.2,2.0,0.0,2.0,0.0,2.0,23.8,Olea europaea L.; Pinus pinaster Aiton; Magnoliopsida; Tracheophyta
2009,2009-05-28,Leiria,Porto de Mós,Pedreiras,EN8 - MOITALINA (PEDREIRAS),39.5898455,-8.8637373,Desconhecida,151.0,2009-05-28T13:00,29.7,26,8.0,28.3,0.0,0.0,0.0,0.0,0,1017.6,1000.4,0,0,0,0,0.8,3.09,20.9,27.1,87,86,41.8,30.5,20.1,17.0,14.7,0.101,0.147,0.177,0.219,1,3600.0,991.1,873.5,117.7,923.5,991.1,1259.8,994.0,876.0,118.0,923.5,994.0,1263.5,Pinus pinaster Aiton; Olea europaea L.; Quercus L.; Tracheophyta; Magnoliopsida; Eucalyptus L'Hér.
2009,2009-05-28,Leiria,Nazaré,Famalicão,Serra da Pescaria,39.5503481,-9.08778095173104,Desconhecida,135.0,2009-05-28T16:00,31.0,23,7.5,29.1,0.0,0.0,0.0,0.0,0,1015.5,1000.2,0,0,0,0,0.64,3.44,15.4,23.1,69,72,34.2,30.0,21.0,16.9,14.6,0.141,0.188,0.228,0.243,1,3600.0,680.8,587.2,93.6,863.9,680.8,905.4,749.0,646.0,103.0,863.9,749.0,996.1,Tracheophyta; Magnoliopsida; Pinus pinea L.
2009,2009-06-21,Leiria,Alcobaça,Turquel,COVÃO MILHO (Covão do Milho),39.4813678,-8.9301527,Desconhecida,200.0,2009-06-21T19:00,26.9,39,11.7,25.8,0.0,0.0,0.0,0.0,0,1015.7,992.9,3,0,0,9,0.22,2.18,11.1,14.8,299,304,28.4,32.6,27.9,21.2,16.2,0.081,0.187,0.245,0.292,1,3600.0,141.7,101.1,40.6,549.7,141.7,243.7,213.0,152.0,61.0,549.7,213.0,366.2,Magnoliopsida; Eucalyptus L'Hér.; Olea europaea L.; Tracheophyta
2009,2009-06-10,Leiria,Caldas da Rainha,Alvorninha,Casal do Freixo,39.382131650000005,-9.026279900000008,Desconhecida,96.0,2009-06-10T15:00,22.9,61,14.9,23.5,0.0,0.0,0.0,0.0,0,1021.7,1010.5,16,3,23,0,0.49,1.1,15.6,19.4,262,260,34.6,27.1,20.2,18.7,15.7,0.193,0.191,0.242,0.26,1,3600.0,739.0,562.3,176.7,682.9,739.0,1092.6,782.0,595.0,187.0,682.9,782.0,1156.2,Tracheophyta; Eucalyptus L'Hér.; Magnoliopsida; Vitis vinifera L.; Olea europaea L.
2009,2009-08-12,Leiria,Caldas da Rainha,Santa Catarina,Mata de Porto Moiro,39.426333,-9.0224624,Desconhecida,120.0,2009-08-12T14:00,32.2,37,15.6,33.8,0.0,0.0,0.0,0.0,0,1015.9,1002.4,8,0,14,0,0.72,3.04,14.5,16.9,318,320,32.8,39.6,26.5,22.2,19.5,0.093,0.153,0.195,0.25,1,3600.0,865.3,757.3,107.9,874.9,865.3,1153.1,890.0,779.0,111.0,874.9,890.0,1186.1,Eucalyptus L'Hér.; Magnoliopsida; Tracheophyta; Pinus pinaster Aiton
2009,2009-05-26,Leiria,Bombarral,Bombarral,EN8 - BOMBARRAL (BOMBARRAL),39.2670652,-9.1584324,Desconhecida,44.0,2009-05-26T10:00,16.8,62,9.5,13.4,0.0,0.0,0.0,0.0,0,1024.3,1019.0,0,0,0,0,0.36,0.72,27.8,34.7,4,4,48.2,18.9,16.4,16.8,15.0,0.155,0.128,0.157,0.178,1,3600.0,791.7,678.4,113.2,854.3,791.7,1058.6,727.0,623.0,104.0,854.3,727.0,972.2,Magnoliopsida; Tracheophyta
2009,2009-08-19,Leiria,Leiria,Pousos,Martinela,39.7417614,-8.7778114,Desconhecida,129.0,2009-08-19T14:00,25.8,49,14.4,26.6,0.0,0.0,0.0,0.0,0,1019.2,1004.3,0,0,0,0,0.61,1.69,17.1,21.2,321,325,38.2,34.3,23.5,22.0,19.0,0.048,0.059,0.08,0.155,1,3600.0,874.1,771.3,102.8,914.8,874.1,1126.1,901.0,795.0,106.0,914.8,901.0,1160.7,Tracheophyta; Pinus pinaster Aiton; Eucalyptus L'Hér.; Magnoliopsida; Acacia Mill.; Pinales
2009,2009-08-22,Leiria,Caldas da Rainha,Tornada,RUA DOS BERNARDINOS Nº1 (TORNADA),39.4465914,-9.1294993,Desconhecida,22.0,2009-08-22T21:00,19.2,84,16.4,18.1,0.0,0.0,0.0,0.0,0,1015.9,1013.3,1,1,0,0,0.03,0.35,23.2,35.3,354,357,37.8,22.0,23.9,22.7,20.1,0.091,0.134,0.173,0.228,0,0.0,0.0,0.0,0.0,0.0,0.0,0.0,0.0,0.0,0.0,0.0,0.0,0.0,Tracheophyta; Eucalyptus L'Hér.
2009,2009-08-25,Leiria,Figueiró dos Vinhos,Figueiró dos Vinhos,ALTO DA AGRIA (Alto das Portelas),39.889150400000005,-8.27044355556998,Desconhecida,356.0,2009-08-25T14:00,24.1,35,7.7,22.3,0.0,0.0,0.0,0.0,0,1014.9,974.4,2,0,0,5,0.6,1.94,18.6,24.1,319,321,43.9,30.8,23.4,23.4,19.4,0.108,0.149,0.168,0.264,1,3600.0,837.9,726.7,111.3,885.1,837.9,1099.3,866.0,751.0,115.0,885.1,866.0,1136.1,Eucalyptus L'Hér.; Olea europaea L.; Tracheophyta; Pinus pinaster Aiton; Magnoliopsida
2009,2009-09-14,Leiria,Ansião,Pousaflores,PEREIRO CIMA,39.869095,-8.3813163,Desconhecida,315.0,2009-09-14T21:00,17.1,87,15.0,17.5,0.0,0.0,0.0,0.0,0,1010.8,974.1,0,0,0,0,0.0,0.24,9.2,18.8,315,324,23.8,21.0,24.2,23.6,20.5,0.132,0.147,0.161,0.246,0,0.0,0.0,0.0,0.0,0.0,0.0,0.0,0.0,0.0,0.0,0.0,0.0,0.0,Eucalyptus L'Hér.; Olea europaea L.; Magnoliopsida; Vitis vinifera L.; Pinus pinaster Aiton
2009,2009-09-23,Leiria,Ansião,Pousaflores,Chã da Ruiva,39.9113771,-8.4359857,Desconhecida,207.0,2009-09-23T14:00,30.3,24,7.2,30.3,0.0,0.0,0.0,0.0,0,1019.2,995.8,0,0,0,0,0.53,3.29,3.6,4.7,53,58,19.1,32.3,22.4,22.0,20.9,0.127,0.133,0.148,0.221,1,3600.0,711.9,619.0,92.8,883.2,711.9,952.6,744.0,647.0,97.0,883.2,744.0,995.6,Tracheophyta; Pinus pinaster Aiton; Quercus L.; Magnoliopsida
2009,2009-05-31,Leiria,Leiria,Barreira,Casal da Cortiça,39.702313,-8.8189589,Desconhecida,63.0,2009-05-31T15:00,26.9,43,13.1,27.2,0.0,0.0,0.0,0.0,0,1012.9,1005.7,0,0,0,0,0.63,2.04,16.1,19.7,309,310,38.5,34.1,23.4,18.0,14.7,0.051,0.099,0.144,0.193,1,3600.0,824.2,712.9,111.3,878.8,824.2,1079.5,874.0,756.0,118.0,878.8,874.0,1144.7,Tracheophyta; Pinus pinaster Aiton; Eucalyptus L'Hér.; Magnoliopsida; Acacia Mill.; Vitis vinifera L.
2009,2009-07-11,Leiria,Alcobaça,Coz,VALE DEUS Castanheira,39.6016797,-8.9561958,Desconhecida,30.0,2009-07-11T19:00,19.3,71,13.9,17.5,0.0,0.0,0.0,0.0,0,1019.0,1015.4,0,0,0,0,0.15,0.65,20.6,26.9,335,335,38.9,25.0,23.1,20.9,17.9,0.055,0.076,0.117,0.18,1,3600.0,136.7,96.4,40.3,531.6,136.7,240.0,207.0,146.0,61.0,531.6,207.0,363.5,Pinus pinaster Aiton; Tracheophyta; Eucalyptus L'Hér.; Olea europaea L.; Vitis vinifera L.; Pinales
2009,2009-08-26,Leiria,Pombal,Louriçal,Val da Sobreira - Torneira,40.0031383,-8.7387872,Desconhecida,25.0,2009-08-26T18:00,23.0,70,17.3,23.5,0.0,0.0,0.0,0.0,0,1016.9,1014.0,0,0,0,0,0.19,0.84,14.5,19.4,300,301,30.2,29.6,23.7,22.3,19.7,0.048,0.059,0.076,0.165,1,3600.0,188.0,138.3,49.7,593.6,188.0,312.2,265.0,195.0,70.0,593.6,265.0,440.1,Tracheophyta; Pinus pinaster Aiton; Magnoliopsida; Eucalyptus L'Hér.
2009,2009-02-24,Leiria,Porto de Mós,São Bento,MOITA DO ACÔR - PNSAC (Cheira da Moita do Açor),39.51776705,-8.778642467020365,Desconhecida,528.0,2009-02-24T16:00,14.9,52,5.2,12.4,0.0,0.0,0.0,0.0,0,1016.1,954.8,0,0,0,0,0.25,0.81,9.3,11.8,306,308,20.9,15.2,10.1,9.0,10.5,0.301,0.328,0.358,0.255,1,3600.0,399.5,331.7,67.7,815.1,399.5,568.5,466.0,387.0,79.0,815.1,466.0,663.2,Tracheophyta; Olea europaea L.; Magnoliopsida
2009,2009-09-26,Leiria,Pedrógão Grande,Graça,Marinha,39.8964926,-8.2035396,Desconhecida,350.0,2009-09-26T22:00,18.8,73,13.8,19.7,0.0,0.0,0.0,0.0,0,1017.8,977.1,0,0,0,0,0.0,0.59,2.3,7.6,18,329,13.7,21.6,24.3,22.0,21.3,0.117,0.151,0.163,0.259,0,0.0,0.0,0.0,0.0,0.0,0.0,0.0,0.0,0.0,0.0,0.0,0.0,0.0,Pinus pinaster Aiton; Eucalyptus L'Hér.; Magnoliopsida; Tracheophyta; Olea europaea L.; Acacia Mill.; 
2009,2009-07-11,Leiria,Pedrógão Grande,Graça,Carreira,39.8947954,-8.2157536,Desconhecida,350.0,2009-07-11T23:00,16.2,79,12.6,16.2,0.0,0.0,0.0,0.0,0,1019.0,977.9,0,0,0,0,0.0,0.39,5.5,12.2,328,336,17.6,20.2,23.9,20.8,16.8,0.109,0.166,0.199,0.295,0,0.0,0.0,0.0,0.0,0.0,0.0,0.0,0.0,0.0,0.0,0.0,0.0,0.0,Pinus pinaster Aiton; Eucalyptus L'Hér.; Magnoliopsida; Tracheophyta; Olea europaea L.; Acacia Mill.; 
2009,2009-06-23,Leiria,Leiria,Monte Redondo,MATA DO URSO - ESTRADA CORRE ÁGUA,39.8951806,-8.833845,Desconhecida,42.0,2009-06-23T01:00,16.7,85,14.1,16.4,0.0,0.0,0.0,0.0,3,1019.3,1014.3,95,100,0,18,0.01,0.29,11.6,15.5,334,335,20.5,19.0,24.1,20.5,16.3,0.049,0.08,0.117,0.183,0,0.0,0.0,0.0,0.0,0.0,0.0,0.0,0.0,0.0,0.0,0.0,0.0,0.0,Tracheophyta; Pinus pinaster Aiton; Eucalyptus L'Hér.; Magnoliopsida; Acacia Mill.
2009,2009-09-05,Leiria,Pedrógão Grande,Pedrógão Grande,Vale da Ponte,39.955932,-8.158303154152248,Desconhecida,399.0,2009-09-05T00:00,15.2,81,11.9,14.8,0.0,0.0,0.0,0.0,0,1019.1,972.2,0,0,0,0,0.0,0.33,6.4,12.2,333,341,15.5,18.3,23.2,22.5,19.2,0.096,0.133,0.167,0.28,0,0.0,0.0,0.0,0.0,0.0,0.0,0.0,0.0,0.0,0.0,0.0,0.0,0.0,Olea europaea L.; Vitis vinifera L.; Eucalyptus L'Hér.; Pinus pinaster Aiton; Tracheophyta
2009,2009-06-30,Leiria,Caldas da Rainha,Alvorninha,Quinta da Cruz,39.3829834,-9.0363194,Desconhecida,113.0,2009-06-30T17:00,24.7,68,18.4,25.3,0.0,0.0,0.0,0.0,0,1019.9,1006.8,0,0,0,0,0.35,0.99,17.1,21.3,277,276,32.8,29.1,24.3,21.3,17.1,0.168,0.169,0.223,0.257,1,3600.0,453.6,335.0,118.6,609.5,453.6,727.3,520.0,384.0,136.0,609.5,520.0,833.7,Magnoliopsida; Tracheophyta; Eucalyptus L'Hér.; Olea europaea L.
2009,2009-09-17,Leiria,Pombal,Santiago de Litém,Palmeira,39.8448611,-8.606208024297935,Desconhecida,172.0,2009-09-17T16:00,20.1,47,8.4,17.1,0.0,0.0,0.0,0.0,2,1010.7,990.7,80,1,82,98,0.26,1.24,17.6,23.4,311,313,36.4,25.9,22.3,23.0,20.6,0.1,0.132,0.15,0.22,1,2955.86,252.5,77.2,175.3,158.5,252.5,659.9,291.0,89.0,202.0,158.5,291.0,760.5,Pinus pinaster Aiton; Tracheophyta; Magnoliopsida; Eucalyptus L'Hér.; Olea europaea L.
2009,2009-07-17,Leiria,Batalha,Golpilheira,CANOEIRA,39.6857321,-8.8187985,Desconhecida,72.0,2009-07-17T12:00,20.0,51,9.7,17.4,0.0,0.0,0.0,0.0,0,1027.1,1018.5,0,0,0,0,0.51,1.13,28.1,36.5,344,345,60.1,25.8,21.3,20.2,17.5,0.05,0.066,0.107,0.181,1,3600.0,941.0,805.4,135.6,860.3,941.0,1239.5,916.0,784.0,132.0,860.3,916.0,1206.6,Magnoliopsida; Vitis vinifera L.; Tracheophyta
2009,2009-04-03,Leiria,Leiria,Pousos,Casal José Duarte,39.745117,-8.7874426,Desconhecida,57.0,2009-04-03T18:00,13.3,65,6.8,10.1,0.0,0.0,0.0,0.0,1,1021.8,1014.9,25,0,0,84,0.13,0.54,16.8,22.7,329,331,41.8,17.2,15.1,14.1,13.2,0.056,0.129,0.195,0.203,1,3600.0,158.7,117.1,41.7,619.3,158.7,258.7,240.0,177.0,63.0,619.3,240.0,391.2,Tracheophyta; Pinus pinaster Aiton; Eucalyptus L'Hér.; Magnoliopsida; Acacia Mill.; Pinales
2009,2009-08-13,Leiria,Leiria,Arrabal,Martinela,39.7246743,-8.7368874,Desconhecida,159.0,2009-08-13T15:00,31.7,38,15.8,32.4,0.0,0.0,0.0,0.0,0,1013.5,995.6,2,2,0,0,0.62,2.89,15.4,18.9,307,310,37.1,40.0,27.0,22.0,18.9,0.062,0.077,0.098,0.167,1,3600.0,690.3,569.9,120.4,740.8,690.3,1025.3,734.0,606.0,128.0,740.8,734.0,1090.2,Tracheophyta; Pinus pinaster Aiton; Eucalyptus L'Hér.; Magnoliopsida; Acacia Mill.; Olea europaea L.; Vitis vinifera L.; Pinales
2009,2009-07-15,Leiria,Pombal,Pombal,Vale Coimbra,39.92194355,-8.636895489112948,Desconhecida,58.0,2009-07-15T16:00,24.6,45,11.8,23.4,0.0,0.0,0.0,0.0,0,1019.2,1012.4,0,0,0,0,0.52,1.7,18.3,22.1,313,316,35.3,33.3,22.8,20.7,17.7,0.049,0.067,0.098,0.18,1,3600.0,681.7,584.8,96.9,840.2,681.7,921.4,746.0,640.0,106.0,840.2,746.0,1008.3,Tracheophyta; Pinus pinaster Aiton; Olea europaea L.; Magnoliopsida; Eucalyptus L'Hér.
2009,2009-03-16,Leiria,Pombal,Santiago de Litém,Parouvelo,39.8448611,-8.606208024297935,Desconhecida,172.0,2009-03-16T14:00,24.9,34,7.9,23.2,0.0,0.0,0.0,0.0,0,1018.0,998.2,0,0,0,0,0.55,2.09,15.9,20.9,108,109,35.3,21.8,15.2,13.1,12.2,0.259,0.303,0.333,0.253,1,3600.0,744.1,652.3,91.8,921.8,744.1,978.6,770.0,675.0,95.0,921.8,770.0,1012.6,Pinus pinaster Aiton; Tracheophyta; Magnoliopsida; Eucalyptus L'Hér.; Olea europaea L.
2009,2009-09-11,Leiria,Pombal,Abiul,Arraioa - Corujeiras,39.8726178,-8.5386326,Desconhecida,182.0,2009-09-11T14:00,29.7,44,16.0,32.6,0.0,0.0,0.0,0.0,0,1015.7,995.1,3,0,1,9,0.58,2.35,4.5,4.9,284,287,21.6,36.0,26.4,23.8,20.6,0.103,0.136,0.156,0.241,1,3600.0,759.1,657.2,102.0,868.5,759.1,1021.6,789.0,683.0,106.0,868.5,789.0,1061.7,Olea europaea L.; Pinus pinaster Aiton; Magnoliopsida; Tracheophyta
2009,2009-08-16,Leiria,Porto de Mós,Mendiga,Cabeça Veada,39.4804632,-8.859054,Desconhecida,321.0,2009-08-16T18:00,22.8,60,14.5,21.5,0.0,0.0,0.0,0.0,0,1016.5,979.6,0,0,0,0,0.24,1.12,18.8,25.6,331,334,40.0,30.8,26.6,23.1,19.3,0.082,0.152,0.203,0.279,1,3600.0,229.6,179.6,49.9,647.7,229.6,370.0,308.0,241.0,67.0,647.7,308.0,496.5,Magnoliopsida; Olea europaea L.; Tracheophyta; Pinus pinaster Aiton
2009,2009-08-20,Leiria,Caldas da Rainha,Nadadouro,Casais vale de Égua - NADADOURO,39.4328745,-9.1765706,Desconhecida,43.0,2009-08-20T16:00,23.6,66,17.0,23.1,0.0,0.0,0.0,0.0,0,1021.9,1016.9,11,12,0,0,0.41,0.98,24.4,32.4,341,343,43.2,33.7,24.5,22.7,20.3,0.042,0.066,0.115,0.187,1,3600.0,591.5,489.9,101.6,789.7,591.5,829.0,658.0,545.0,113.0,789.7,658.0,922.2,Eucalyptus L'Hér.; Pinus pinaster Aiton
2009,2009-08-21,Leiria,Leiria,Coimbrão,PRAIA PEDROGÃO (Praia do Fausto) - MATA NACIONAL TALHAO 36,39.8974114,-8.88276,Desconhecida,37.0,2009-08-21T20:00,18.6,71,13.1,15.6,0.0,0.0,0.0,0.0,0,1020.7,1016.3,0,0,0,0,0.1,0.63,27.3,41.1,347,349,44.6,21.2,22.5,21.2,19.1,0.051,0.063,0.104,0.197,0,0.0,0.0,0.0,0.0,0.0,0.0,0.0,4.0,1.0,3.0,14.8,4.0,31.7,Tracheophyta; Pinus pinaster Aiton; Eucalyptus L'Hér.; Magnoliopsida; Acacia Mill.
2009,2009-07-28,Leiria,Leiria,Milagres,COLONIA AGRICOLA (Colónia Agricola),39.8056674,-8.7817221,Desconhecida,131.0,2009-07-28T13:00,23.8,51,13.1,24.9,0.0,0.0,0.0,0.0,0,1018.9,1003.7,0,0,0,0,0.62,1.44,15.1,18.3,322,324,36.4,31.8,21.3,20.3,17.7,0.057,0.061,0.09,0.161,1,3600.0,971.7,852.6,119.1,915.3,971.7,1235.6,971.0,852.0,119.0,915.3,971.0,1234.8,Tracheophyta; Pinus pinaster Aiton; Eucalyptus L'Hér.; Magnoliopsida; Acacia Mill.
2009,2009-06-28,Leiria,Porto de Mós,Juncal,Picamilho,39.6027438,-8.9019782,Desconhecida,123.0,2009-06-28T17:00,21.2,84,18.3,21.8,0.1,0.1,0.0,0.0,51,1014.6,1000.2,76,35,31,88,0.17,0.42,17.3,23.4,225,225,35.6,23.9,22.6,21.4,17.2,0.155,0.105,0.148,0.211,1,2350.32,223.3,75.9,147.4,138.3,223.3,726.0,256.0,87.0,169.0,138.3,256.0,832.2,Tracheophyta; Olea europaea L.; Eucalyptus L'Hér.; Magnoliopsida; Pinus pinaster Aiton
2009,2009-05-15,Leiria,Leiria,Monte redondo,VALE DE CIMA (Casal de Vale Pereiro),39.8951806,-8.833845,Desconhecida,42.0,2009-05-15T22:00,13.1,74,8.6,11.6,0.0,0.0,0.0,0.0,2,1020.4,1015.3,51,53,5,0,0.01,0.39,8.0,15.3,342,341,19.8,14.2,16.6,16.1,14.1,0.134,0.144,0.159,0.194,0,0.0,0.0,0.0,0.0,0.0,0.0,0.0,0.0,0.0,0.0,0.0,0.0,0.0,Tracheophyta; Pinus pinaster Aiton; Eucalyptus L'Hér.; Magnoliopsida; Acacia Mill.
2009,2009-09-25,Leiria,Ansião,Chão de Couce,Açude - Serrada da Mata,39.9135659,-8.396392251346935,Desconhecida,269.0,2009-09-25T17:00,29.1,28,8.7,26.8,0.0,0.0,0.0,0.0,1,1015.4,985.1,23,0,37,2,0.3,2.9,13.6,19.3,320,323,28.4,31.0,24.6,21.9,21.1,0.124,0.15,0.159,0.243,1,3600.0,183.9,118.1,65.8,443.9,183.9,362.1,246.0,158.0,88.0,443.9,246.0,484.3,Magnoliopsida; Quercus L.; Olea europaea L.; Tracheophyta
2009,2009-09-27,Leiria,Marinha Grande,Marinha Grande,Embra,39.7483511,-8.9151523,Desconhecida,101.0,2009-09-27T15:00,25.9,47,13.6,25.0,0.0,0.0,0.0,0.0,0,1017.3,1005.6,8,0,13,0,0.46,1.78,16.5,18.3,314,313,27.7,33.9,23.1,21.1,20.0,0.05,0.059,0.076,0.156,1,3600.0,560.7,471.2,89.5,810.2,560.7,792.3,614.0,516.0,98.0,810.2,614.0,867.6,Tracheophyta; Pinus pinaster Aiton
2009,2009-09-28,Leiria,Caldas da Rainha,Salir do Porto,SALIR PORTO,39.4924358,-9.1472141,Desconhecida,9.0,2009-09-28T20:00,22.2,66,15.5,22.6,0.0,0.0,0.0,0.0,0,1015.9,1014.8,10,0,17,0,0.05,0.92,10.6,19.0,10,15,19.4,24.7,25.4,22.8,21.7,0.043,0.065,0.106,0.189,0,0.0,0.0,0.0,0.0,0.0,0.0,0.0,0.0,0.0,0.0,0.0,0.0,0.0,Pinus pinaster Aiton; Magnoliopsida; Tracheophyta
