year,date,district,municipality,parish,local,latitude,longitude,cause,elevation,hourly.time,hourly.temperature_2m,hourly.relative_humidity_2m,hourly.dew_point_2m,hourly.apparent_temperature,hourly.precipitation,hourly.rain,hourly.snowfall,hourly.snow_depth,hourly.weather_code,hourly.pressure_msl,hourly.surface_pressure,hourly.cloud_cover,hourly.cloud_cover_low,hourly.cloud_cover_mid,hourly.cloud_cover_high,hourly.et0_fao_evapotranspiration,hourly.vapour_pressure_deficit,hourly.wind_speed_10m,hourly.wind_speed_100m,hourly.wind_direction_10m,hourly.wind_direction_100m,hourly.wind_gusts_10m,hourly.soil_temperature_0_to_7cm,hourly.soil_temperature_7_to_28cm,hourly.soil_temperature_28_to_100cm,hourly.soil_temperature_100_to_255cm,hourly.soil_moisture_0_to_7cm,hourly.soil_moisture_7_to_28cm,hourly.soil_moisture_28_to_100cm,hourly.soil_moisture_100_to_255cm,hourly.is_day,hourly.sunshine_duration,hourly.shortwave_radiation_instant,hourly.direct_radiation_instant,hourly.diffuse_radiation_instant,hourly.direct_normal_irradiance_instant,hourly.global_tilted_irradiance_instant,hourly.terrestrial_radiation_instant,hourly.shortwave_radiation,hourly.direct_radiation,hourly.diffuse_radiation,hourly.direct_normal_irradiance,hourly.global_tilted_irradiance,hourly.terrestrial_radiation,scientificNames
2009,2009-08-03,Porto,Marco de Canaveses,Sande,Fundo de Vila,41.1044716,-8.1815849,NC,279.0,2009-08-03T22:00,16.8,88,14.8,17.8,0.0,0.0,0.0,0.0,0,1018.0,985.2,10,0,0,35,0.0,0.22,4.1,5.0,285,300,10.1,18.9,20.7,19.0,16.6,0.219,0.228,0.248,0.339,0,0.0,0.0,0.0,0.0,0.0,0.0,0.0,0.0,0.0,0.0,0.0,0.0,0.0,Tracheophyta; Pinus pinaster Aiton; Vitis vinifera L.; Eucalyptus L'Hér.; Castanea sativa Mill.; Magnoliopsida; 
2009,2009-08-11,Porto,Lousada,Macieira,TALHOS (Talho),41.2904579,-8.244309535049862,NC,224.0,2009-08-11T19:00,27.4,54,17.3,29.1,0.0,0.0,0.0,0.0,0,1016.1,990.6,0,0,0,0,0.12,1.69,6.6,13.3,311,322,26.3,28.1,24.2,19.8,17.0,0.138,0.192,0.231,0.335,1,3600.0,73.7,49.8,23.9,487.3,73.7,136.2,142.0,96.0,46.0,487.3,142.0,262.4,Vitis vinifera L.; Tracheophyta; Magnoliopsida
2009,2009-08-11,Porto,Maia,Maia,PARQUE S. PEDRO AVIOSO (Vereda do Parque da Torre),41.2230552,-8.6093601,NC,79.0,2009-08-11T03:00,18.9,82,15.9,19.8,0.0,0.0,0.0,0.0,0,1016.0,1006.7,0,0,0,0,0.01,0.38,8.0,17.4,54,60,19.1,20.4,23.3,20.6,18.1,0.139,0.182,0.221,0.333,0,0.0,0.0,0.0,0.0,0.0,0.0,0.0,0.0,0.0,0.0,0.0,0.0,0.0,Tracheophyta; Magnoliopsida; Pinus pinaster Aiton
2009,2009-08-07,Porto,Lousada,Macieira,LG. COUTADA (MACIEIRA),41.28743415,-8.242072341825743,NC,219.0,2009-08-07T16:00,23.8,56,14.6,24.5,0.0,0.0,0.0,0.0,0,1018.2,992.9,0,0,0,0,0.46,1.28,11.6,14.7,296,298,29.5,27.2,21.6,19.4,16.8,0.181,0.213,0.236,0.337,1,3600.0,637.8,538.1,99.7,833.9,637.8,858.3,704.0,594.0,110.0,833.9,704.0,947.4,Vitis vinifera L.; Tracheophyta; Magnoliopsida; Pinus pinaster Aiton
2009,2009-07-18,Porto,Amarante,Ataíde,LUG. VARZIELA (ATAIDE),41.2476202,-8.1944338472375,NC,220.0,2009-07-18T00:00,13.6,70,8.2,11.7,0.0,0.0,0.0,0.0,0,1026.7,1000.2,0,0,0,0,0.02,0.47,9.8,16.1,24,27,18.4,16.5,20.5,19.0,15.7,0.136,0.201,0.261,0.345,0,0.0,0.0,0.0,0.0,0.0,0.0,0.0,0.0,0.0,0.0,0.0,0.0,0.0,Magnoliopsida; Eucalyptus L'Hér.; Tracheophyta; Vitis vinifera L.
2009,2009-08-07,Porto,Vila Nova de Gaia,Grijó,RUA NOVA LAVANDEIRA (Rampa Rua Nova),41.030392250000006,-8.583434430828127,NC,110.0,2009-08-07T19:00,20.2,71,14.8,20.0,0.0,0.0,0.0,0.0,0,1017.8,1004.9,0,0,0,0,0.11,0.68,12.5,20.4,311,316,30.2,24.7,22.9,20.5,18.1,0.114,0.151,0.183,0.306,1,3600.0,87.9,58.2,29.7,483.4,87.9,160.2,157.0,104.0,53.0,483.4,157.0,286.1,Magnoliopsida; Tracheophyta; Eucalyptus L'Hér.
2009,2009-08-11,Porto,Vila Nova de Gaia,Madalena,Rua do Cerro,41.1066865,-8.6585831,NC,11.0,2009-08-11T08:00,25.1,51,14.3,25.3,0.0,0.0,0.0,0.0,0,1016.7,1015.4,0,0,0,0,0.21,1.56,8.2,14.6,52,74,20.9,22.9,23.7,21.6,18.9,0.1,0.142,0.18,0.305,1,3600.0,345.0,261.9,83.1,620.7,345.0,562.0,270.0,205.0,65.0,620.7,270.0,439.8,Tracheophyta; Magnoliopsida; Eucalyptus L'Hér.; Pinus pinaster Aiton
2009,2009-08-07,Porto,Amarante,Real,LUGAR DE MONTE ENXOL (Cimo do Lugar),41.2668833,-8.072193852545904,NC,87.0,2009-08-07T22:00,18.1,90,16.4,19.8,0.0,0.0,0.0,0.0,0,1018.3,1008.0,17,0,0,56,0.0,0.21,3.3,2.9,193,263,10.1,20.5,22.6,20.3,17.7,0.172,0.22,0.246,0.337,0,0.0,0.0,0.0,0.0,0.0,0.0,0.0,0.0,0.0,0.0,0.0,0.0,0.0,Magnoliopsida; Tracheophyta; Eucalyptus L'Hér.; Vitis vinifera L.; Pinus pinaster Aiton
2009,2009-08-08,Porto,Gondomar,Fânzeres,RUA IGREJA (FANZERES),41.1712712,-8.54277892397772,NC,113.0,2009-08-08T15:00,26.1,54,16.2,26.5,0.0,0.0,0.0,0.0,0,1014.4,1001.4,16,7,2,27,0.5,1.54,17.2,21.9,327,330,32.4,29.2,22.2,20.3,17.8,0.139,0.188,0.221,0.332,1,3600.0,654.8,484.3,170.5,626.3,654.8,1028.8,695.0,514.0,181.0,626.3,695.0,1091.9,Magnoliopsida; Tracheophyta
2009,2009-03-11,Porto,Vila Nova de Gaia,Olival,Rua das Eiras,41.0612018,-8.5234476,NC,153.0,2009-03-11T15:00,21.1,42,7.8,20.4,0.0,0.0,0.0,0.0,0,1021.0,1003.1,0,0,0,0,0.41,1.45,6.1,7.6,360,8,16.2,18.9,12.5,10.8,10.6,0.346,0.36,0.368,0.399,1,3600.0,615.7,530.6,85.0,909.6,615.7,808.8,666.0,574.0,92.0,909.6,666.0,875.0,Tracheophyta; Eucalyptus L'Hér.; Magnoliopsida
2009,2009-07-18,Porto,Vila Nova de Gaia,Serzedo,Rua do Horto,41.052581,-8.6133197,NC,90.0,2009-07-18T16:00,25.2,49,13.8,24.5,0.0,0.0,0.0,0.0,0,1022.3,1011.8,0,0,0,0,0.52,1.63,19.6,25.6,340,343,36.4,28.8,22.0,20.1,17.0,0.131,0.165,0.237,0.346,1,3600.0,679.9,587.6,92.3,853.1,679.9,912.1,744.0,643.0,101.0,853.1,744.0,998.1,Eucalyptus L'Hér.; Tracheophyta; Pinus pinaster Aiton; Magnoliopsida; Acacia Mill.
2009,2009-07-31,Porto,Gondomar,São Pedro da Cova,LG. MOINHO VELHO (SÃO PEDRO DA COVA),41.146305850000005,-8.513812231973976,NC,128.0,2009-07-31T14:00,23.6,59,15.0,25.4,0.0,0.0,0.0,0.0,1,1021.2,1006.3,22,24,0,0,0.57,1.2,12.7,15.6,295,296,26.3,28.3,21.5,19.9,17.5,0.169,0.202,0.215,0.339,1,3600.0,879.9,760.2,119.7,866.1,879.9,1165.0,904.0,781.0,123.0,866.1,904.0,1196.9,Magnoliopsida; Eucalyptus L'Hér.; Tracheophyta; Vitis vinifera L.; Pinus pinaster Aiton
2009,2009-08-08,Porto,Paredes,Duas Igrejas,AV. DA TELHA (Forno da Telha),41.230974,-8.3772602,NC,332.0,2009-08-08T21:00,19.9,70,14.3,19.9,0.0,0.0,0.0,0.0,0,1014.8,976.4,0,0,0,0,0.03,0.69,10.2,19.0,8,15,20.2,21.1,21.6,18.9,16.3,0.155,0.226,0.253,0.337,0,0.0,0.0,0.0,0.0,0.0,0.0,0.0,0.0,0.0,0.0,0.0,0.0,0.0,Magnoliopsida; Pinus pinaster Aiton; Eucalyptus L'Hér.; Tracheophyta; Vitis vinifera L.
2009,2009-08-11,Porto,Santo Tirso,Lamelas,LUGAR DE LAMELAS (Lugar de Baixo),41.31869835,-8.509147938338778,NC,231.0,2009-08-11T14:00,30.3,38,14.5,32.7,0.0,0.0,0.0,0.0,0,1016.9,990.9,0,0,0,0,0.67,2.67,8.0,9.2,324,329,19.1,31.9,23.0,19.7,17.0,0.146,0.188,0.219,0.335,1,3600.0,864.8,760.8,104.0,892.2,864.8,1135.6,890.0,783.0,107.0,892.2,890.0,1168.7,Eucalyptus L'Hér.; Pinales; Magnoliopsida; Pinus pinaster Aiton
2009,2009-03-12,Porto,Lousada,Lustosa,CRISTELO DE CIMA (Cristelos),41.3321025,-8.3085374,NC,411.0,2009-03-12T11:00,16.8,47,5.4,14.2,0.0,0.0,0.0,0.0,0,1022.1,974.0,0,0,0,0,0.35,1.01,12.7,17.8,98,98,34.2,13.3,9.0,8.7,8.2,0.334,0.35,0.362,0.405,1,3600.0,677.8,584.5,93.3,913.1,677.8,887.1,625.0,539.0,86.0,913.1,625.0,818.1,Vitis vinifera L.; Eucalyptus L'Hér.; Tracheophyta; Magnoliopsida
2009,2009-08-09,Porto,Amarante,Lufrei,Marancinho,41.276408,-8.0535287,NC,208.0,2009-08-09T01:00,17.8,81,14.5,18.1,0.0,0.0,0.0,0.0,0,1014.7,990.3,15,0,0,51,0.01,0.39,8.0,14.9,63,58,15.5,18.3,21.7,19.7,17.0,0.162,0.216,0.245,0.336,0,0.0,0.0,0.0,0.0,0.0,0.0,0.0,0.0,0.0,0.0,0.0,0.0,0.0,Magnoliopsida; Tracheophyta; Pinus pinaster Aiton; Vitis vinifera L.; Eucalyptus L'Hér.; 
2009,2009-07-18,Porto,Vila do Conde,Labruge,RUA DO PINHAL (Rua de São Brás),41.2948806,-8.729805776895741,NC,9.0,2009-07-18T16:00,24.8,54,15.0,23.5,0.0,0.0,0.0,0.0,0,1023.2,1022.1,0,0,0,0,0.5,1.42,25.9,34.4,339,342,47.5,29.1,22.1,20.3,17.2,0.105,0.173,0.25,0.341,1,3600.0,672.9,577.8,95.1,839.1,672.9,911.9,736.0,632.0,104.0,839.1,736.0,997.4,Tracheophyta; Eucalyptus L'Hér.
2009,2009-08-12,Porto,Gondomar,Jovim,R. BOLHAO (JOVIM),41.11258985,-8.522397410112376,NC,56.0,2009-08-12T11:00,32.6,38,16.4,35.2,0.0,0.0,0.0,0.0,0,1016.4,1010.1,0,0,0,0,0.59,3.05,6.1,3.8,298,311,18.7,31.8,24.5,21.5,18.5,0.13,0.162,0.206,0.334,1,3600.0,813.2,705.1,108.1,849.4,813.2,1105.8,767.0,665.0,102.0,849.4,767.0,1042.9,Vitis vinifera L.; Tracheophyta; Magnoliopsida; Eucalyptus L'Hér.
2009,2009-08-09,Porto,Penafiel,Valpedre,Mesão Frio,41.1346994,-8.3081701,NC,248.0,2009-08-09T08:00,20.3,65,13.4,20.1,0.0,0.0,0.0,0.0,0,1015.4,986.6,5,6,0,0,0.17,0.84,8.7,12.3,66,69,23.0,19.9,20.1,19.5,16.9,0.154,0.21,0.245,0.336,1,3600.0,358.1,271.7,86.3,632.1,358.1,572.0,282.0,214.0,68.0,632.1,282.0,450.5,Tracheophyta; Eucalyptus L'Hér.; Magnoliopsida
2009,2009-07-18,Porto,Penafiel,Croca,Pedrantil,41.2204491,-8.2390371,NC,360.0,2009-07-18T17:00,25.6,43,12.0,24.5,0.0,0.0,0.0,0.0,0,1021.4,980.4,0,0,0,0,0.43,1.87,12.6,16.8,333,337,30.2,27.6,20.4,18.0,14.8,0.129,0.197,0.259,0.345,1,3600.0,505.1,425.1,80.0,802.2,505.1,701.8,581.0,489.0,92.0,802.2,581.0,807.2,Magnoliopsida; Eucalyptus L'Hér.; Vitis vinifera L.; Tracheophyta
2009,2009-08-12,Porto,Paredes,Rebordosa,AVENIDA DA TELHA (REBORDOSA),41.2191094,-8.416530009761463,NC,249.0,2009-08-12T07:00,19.8,79,16.1,20.5,0.0,0.0,0.0,0.0,0,1016.4,987.4,0,0,0,0,0.06,0.48,9.1,15.2,81,86,18.7,19.5,22.3,20.0,17.0,0.143,0.173,0.211,0.335,1,3124.39,150.0,93.3,56.7,393.1,137.9,316.2,90.0,56.0,34.0,361.4,90.0,189.8,Magnoliopsida; Pinus pinaster Aiton; Eucalyptus L'Hér.; Tracheophyta; Vitis vinifera L.
2009,2009-08-12,Porto,Santo Tirso,Monte Córdova,Monte,41.325181,-8.4436009,NC,448.0,2009-08-12T18:00,28.2,49,16.4,29.3,0.0,0.0,0.0,0.0,1,1015.9,965.8,29,0,22,54,0.22,1.96,7.9,13.2,309,313,29.9,29.0,23.5,18.8,15.7,0.113,0.203,0.247,0.335,1,3600.0,180.4,121.3,59.1,421.2,180.4,383.6,238.0,160.0,78.0,421.2,238.0,506.0,Pinus pinaster Aiton; Tracheophyta; Eucalyptus L'Hér.
2009,2009-08-09,Porto,TROFA,Covelas,Rindo,41.2964845,-8.5513399,NC,91.0,2009-08-09T14:00,26.0,52,15.3,26.3,0.0,0.0,0.0,0.0,0,1014.1,1003.6,8,0,14,0,0.55,1.62,18.3,23.2,345,347,31.7,28.6,22.1,20.1,17.8,0.141,0.2,0.23,0.333,1,3600.0,767.9,626.0,141.9,729.9,767.9,1141.5,790.0,644.0,146.0,729.9,790.0,1174.3,Magnoliopsida; Pinus pinaster Aiton; Vitis vinifera L.; Quercus L.; Tracheophyta; Eucalyptus L'Hér.; Olea europaea L.; 
2009,2009-08-11,Porto,Matosinhos,Leça Do Balio,RUA DE QUEIRAOS (Rua de Pontelhas),41.2237049,-8.6426199,NC,58.0,2009-08-11T15:00,30.9,43,17.0,32.5,0.0,0.0,0.0,0.0,0,1016.8,1010.2,0,0,0,0,0.64,2.52,15.3,17.7,326,331,28.4,33.2,24.6,20.8,18.2,0.135,0.179,0.22,0.332,1,3600.0,765.5,666.6,98.9,870.4,765.5,1019.9,813.0,708.0,105.0,870.4,813.0,1083.2,Eucalyptus L'Hér.; Magnoliopsida; Tracheophyta; Pinus pinaster Aiton
2009,2009-08-09,Porto,Penafiel,Canelas,LUGAR SANTA LUZIA (Lugar da Bouça),41.0775596,-8.3165006,NC,335.0,2009-08-09T15:00,26.9,45,14.0,27.7,0.0,0.0,0.0,0.0,1,1013.4,975.6,32,0,34,40,0.55,1.94,11.3,14.5,351,354,30.2,29.0,22.0,19.5,17.0,0.148,0.206,0.241,0.335,1,3600.0,711.6,602.4,109.2,783.3,711.6,1023.6,756.0,640.0,116.0,783.3,756.0,1087.4,Eucalyptus L'Hér.; Magnoliopsida; Tracheophyta
2009,2009-08-11,Porto,Santo Tirso,Lamelas,RONDAES (Rondões),41.31869835,-8.509147938338778,NC,231.0,2009-08-11T17:00,28.7,46,15.8,28.4,0.0,0.0,0.0,0.0,0,1015.9,989.8,0,0,0,0,0.43,2.14,15.7,20.8,323,326,28.4,30.5,23.9,19.7,17.0,0.144,0.186,0.219,0.334,1,3600.0,444.2,370.9,73.3,779.4,444.2,633.7,521.0,435.0,86.0,779.4,521.0,743.3,Eucalyptus L'Hér.; Pinales; Magnoliopsida; Pinus pinaster Aiton
2009,2009-08-12,Porto,Amarante,Real,L.MONTACHÃO (REAL),41.2472875,-8.172050257445942,Desconhecida,179.0,2009-08-12T04:00,18.2,85,15.7,19.0,0.0,0.0,0.0,0.0,0,1016.2,995.1,0,0,0,0,0.0,0.31,7.9,13.3,74,92,16.6,19.3,23.1,20.3,17.3,0.132,0.201,0.242,0.334,0,0.0,0.0,0.0,0.0,0.0,0.0,0.0,0.0,0.0,0.0,0.0,0.0,0.0,Tracheophyta; Acacia Mill.; Magnoliopsida; Pinales; Eucalyptus L'Hér.; Vitis vinifera L.
2009,2009-08-09,Porto,Amarante,Fregim,RUA DA PONTE MÓ(FREGIM) (FREGIM),41.2671355,-8.1013692,NC,247.0,2009-08-09T16:00,27.3,42,13.2,27.1,0.0,0.0,0.0,0.0,0,1013.2,985.2,11,0,16,6,0.48,2.12,11.5,14.9,340,345,25.6,28.5,22.1,19.4,16.7,0.153,0.212,0.245,0.336,1,3600.0,566.4,448.8,117.6,701.7,566.4,851.2,626.0,496.0,130.0,701.7,626.0,940.7,Tracheophyta; Magnoliopsida; Pinus pinaster Aiton; Vitis vinifera L.; Quercus L.; Eucalyptus L'Hér.; 
2009,2009-08-12,Porto,Gondomar,Melres,LUG. VERGADAS (MELRES),41.0678331,-8.4011959,NC,25.0,2009-08-12T21:00,26.7,67,20.1,29.4,0.0,0.0,0.0,0.0,0,1015.4,1012.5,6,0,9,1,0.04,1.14,8.2,15.2,337,5,13.7,27.5,27.0,21.8,18.7,0.127,0.16,0.204,0.333,0,0.0,0.0,0.0,0.0,0.0,0.0,0.0,0.0,0.0,0.0,0.0,0.0,0.0,Eucalyptus L'Hér.; Magnoliopsida; Tracheophyta
2009,2009-08-09,Porto,Paredes,Cristelo,L.AREAL (Areal),41.2363325,-8.3647485,NC,337.0,2009-08-09T22:00,18.7,63,11.5,18.0,0.0,0.0,0.0,0.0,0,1014.5,975.4,2,0,1,3,0.03,0.8,8.2,15.0,49,42,18.4,20.0,21.7,18.9,16.3,0.142,0.22,0.252,0.337,0,0.0,0.0,0.0,0.0,0.0,0.0,0.0,0.0,0.0,0.0,0.0,0.0,0.0,Magnoliopsida; Pinus pinaster Aiton; Eucalyptus L'Hér.; Tracheophyta; Vitis vinifera L.
2009,2009-08-09,Porto,Vila do Conde,Vairão,RUA DAS PIAS (Rua de São Brás),41.32628365,-8.67446281139501,Desconhecida,89.0,2009-08-09T08:00,18.8,72,13.5,17.1,0.0,0.0,0.0,0.0,0,1016.0,1005.5,7,2,0,16,0.17,0.62,19.2,25.6,5,11,32.4,19.4,20.6,19.9,17.7,0.127,0.206,0.239,0.332,1,3600.0,346.0,257.0,89.1,602.6,346.0,567.5,272.0,202.0,70.0,602.6,272.0,446.1,Eucalyptus L'Hér.; Tracheophyta; Magnoliopsida
2009,2009-08-09,Porto,Penafiel,Recezinhos (são Martinho),SARGAÇAL (Sargaçal de Baixo),41.2726266,-8.2833754,NC,290.0,2009-08-09T11:00,24.1,52,13.6,25.5,0.0,0.0,0.0,0.0,0,1015.0,981.8,5,0,0,18,0.52,1.44,7.9,10.1,51,55,24.8,25.3,20.2,19.2,16.6,0.153,0.224,0.253,0.337,1,3600.0,831.4,713.9,117.6,853.5,831.4,1113.0,785.0,674.0,111.0,853.5,785.0,1050.9,Eucalyptus L'Hér.; Tracheophyta
2009,2009-08-13,Porto,Amarante,Figueiró (Santa Cristina),Sª. DOMINGOS (Monte de São Domingos),41.2976804,-8.176926,NC,347.0,2009-08-13T02:00,20.0,81,16.7,21.6,0.0,0.0,0.0,0.0,0,1015.1,975.0,6,0,10,0,0.0,0.44,5.6,5.1,117,129,10.1,20.1,23.4,19.7,16.4,0.11,0.2,0.246,0.335,0,0.0,0.0,0.0,0.0,0.0,0.0,0.0,0.0,0.0,0.0,0.0,0.0,0.0,Tracheophyta; Magnoliopsida; Eucalyptus L'Hér.; Vitis vinifera L.
2009,2009-08-10,Porto,Paredes,Lordelo,LUGAR DE SANTA MARTA (Lugar),41.2364966,-8.415551743176014,NC,210.0,2009-08-10T10:00,24.5,47,12.5,23.9,0.0,0.0,0.0,0.0,0,1016.4,992.3,0,0,0,0,0.45,1.63,13.0,17.2,76,79,27.7,24.2,21.1,19.9,17.2,0.157,0.182,0.214,0.336,1,3600.0,705.1,599.5,105.6,817.5,705.1,976.2,641.0,545.0,96.0,817.5,641.0,887.5,Magnoliopsida; Pinus pinaster Aiton; Eucalyptus L'Hér.; Tracheophyta; Vitis vinifera L.
2009,2009-08-10,Porto,Santo Tirso,Monte Córdova,MONTE PADRAO (Bouças do Monte),41.3164414,-8.4320306,NC,357.0,2009-08-10T01:00,15.8,71,10.6,14.6,0.0,0.0,0.0,0.0,0,1015.6,973.8,0,0,0,0,0.02,0.51,9.8,23.7,66,70,25.2,17.6,21.0,18.8,16.2,0.138,0.215,0.246,0.336,0,0.0,0.0,0.0,0.0,0.0,0.0,0.0,0.0,0.0,0.0,0.0,0.0,0.0,Tracheophyta; Vitis vinifera L.; Eucalyptus L'Hér.; Pinus pinaster Aiton; Magnoliopsida
2009,2009-08-12,Porto,Marco de Canaveses,Paredes de Viadores,LG. SOCORRO (NOSSA SENHORA DO SOCORRO),41.1349745,-8.1251255,NC,308.0,2009-08-12T13:00,33.2,31,14.0,35.6,0.0,0.0,0.0,0.0,0,1016.1,981.9,12,0,20,0,0.57,3.48,1.6,2.4,117,117,17.3,32.8,23.4,20.0,16.9,0.12,0.191,0.24,0.335,1,3600.0,755.1,615.3,139.8,689.3,755.1,1189.1,756.0,616.0,140.0,689.3,756.0,1190.6,Magnoliopsida; Pinus pinaster Aiton; Eucalyptus L'Hér.; Tracheophyta; Vitis vinifera L.; 
2009,2009-08-10,Porto,Baião,Frende,JUNTO AO CAMPO DE FUTEBOL (FRENDE),41.1241207,-7.92230055,NC,211.0,2009-08-10T05:00,16.4,73,11.5,15.1,0.0,0.0,0.0,0.0,0,1015.6,990.7,9,0,0,30,0.03,0.5,12.2,27.7,88,91,29.5,17.8,22.4,21.0,17.9,0.125,0.191,0.231,0.33,0,0.0,0.0,0.0,0.0,0.0,0.0,0.0,0.0,0.0,0.0,0.0,0.0,0.0,Pinus pinaster Aiton; Magnoliopsida; Quercus L.; Tracheophyta; Quercus suber L.; Vitis vinifera L.; 
2009,2009-08-12,Porto,Marco de Canaveses,Banho e Carvalhosa,BANHO (BANHO E CARVALHOSA),41.238127000000006,-8.163851707448515,NC,245.0,2009-08-12T13:00,33.2,32,14.3,35.8,0.0,0.0,0.0,0.0,0,1016.1,988.8,12,0,20,0,0.57,3.46,1.6,2.4,117,117,17.3,32.2,23.3,20.0,16.9,0.128,0.198,0.241,0.334,1,3600.0,755.1,615.3,139.8,689.7,755.1,1188.4,756.0,616.0,140.0,689.7,756.0,1189.8,Tracheophyta; Pinus pinaster Aiton; Magnoliopsida; Vitis vinifera L.; Eucalyptus L'Hér.; ; Acacia Mill.
2009,2009-03-12,Porto,Gondomar,Gondomar (são Cosme),ZONA INDUSTRIAL DA PORTELINHA (GONDOMAR),41.13527305,-8.534103623752394,NC,121.0,2009-03-12T11:00,18.6,49,7.7,16.4,0.0,0.0,0.0,0.0,0,1021.7,1007.3,2,0,0,7,0.36,1.09,14.0,19.8,91,93,24.5,15.1,11.3,11.2,10.8,0.345,0.356,0.367,0.398,1,3600.0,669.9,576.5,93.4,901.4,669.9,886.4,617.0,531.0,86.0,901.4,617.0,816.5,Magnoliopsida; Tracheophyta; Eucalyptus L'Hér.
2009,2009-08-12,Porto,Lousada,Pias,LG. JOGO (PIAS),41.26933475,-8.263992795740785,NC,196.0,2009-08-12T14:00,32.7,36,15.5,35.1,0.0,0.0,0.0,0.0,0,1016.1,994.1,12,0,19,1,0.54,3.18,2.6,2.7,286,293,13.0,31.8,23.5,19.8,17.0,0.146,0.223,0.261,0.338,1,3600.0,675.0,550.7,124.3,648.2,675.0,1131.8,695.0,567.0,128.0,648.2,695.0,1165.3,Eucalyptus L'Hér.; Tracheophyta; Magnoliopsida; Pinus pinaster Aiton
2009,2009-08-10,Porto,Penafiel,Paço de Sousa,Sª. LOURENÇO (São Lourenço),41.1666731,-8.3311087,NC,198.0,2009-08-10T13:00,29.1,36,12.5,31.0,0.0,0.0,0.0,0.0,0,1016.4,994.0,0,0,0,0,0.68,2.57,7.6,9.8,71,73,27.7,29.3,21.7,19.8,17.1,0.152,0.2,0.233,0.336,1,3600.0,919.5,808.5,110.9,900.7,919.5,1195.0,920.0,809.0,111.0,900.7,920.0,1195.7,Tracheophyta; Magnoliopsida; Eucalyptus L'Hér.
2009,2009-08-10,Porto,Lousada,Caíde de Rei,L.ALDEIA NOVA (Aldeia Nova),41.2665233,-8.2216457,NC,244.0,2009-08-10T08:00,20.2,58,11.6,18.4,0.0,0.0,0.0,0.0,0,1016.7,988.3,0,0,0,0,0.2,1.0,15.1,22.3,89,88,35.3,19.6,20.6,19.8,17.0,0.138,0.217,0.25,0.336,1,3600.0,355.7,269.3,86.4,628.3,355.7,570.6,280.0,212.0,68.0,628.3,280.0,449.2,Eucalyptus L'Hér.; Tracheophyta; Magnoliopsida
2009,2009-07-31,Porto,Gondomar,São Pedro da Cova,RUA NOVA DO PASSAL (SÃO PEDRO DA COVA),41.146305850000005,-8.513812231973976,NC,128.0,2009-07-31T18:00,21.6,70,15.8,21.7,0.0,0.0,0.0,0.0,0,1020.6,1005.6,10,11,0,0,0.21,0.78,12.7,16.4,285,285,28.8,26.0,22.4,19.9,17.5,0.165,0.2,0.215,0.339,1,3600.0,261.5,176.7,84.8,535.5,261.5,437.9,333.0,225.0,108.0,535.5,333.0,557.8,Magnoliopsida; Eucalyptus L'Hér.; Tracheophyta; Vitis vinifera L.; Pinus pinaster Aiton
2009,2009-07-19,Porto,Valongo,Valongo,R- LOUÇAS (VALONGO),41.1882463,-8.4872744,NC,128.0,2009-07-19T11:00,26.1,50,14.8,28.0,0.0,0.0,0.0,0.0,0,1019.3,1004.5,1,0,0,2,0.56,1.7,8.6,10.5,345,352,17.3,28.0,21.4,19.9,16.7,0.118,0.164,0.233,0.34,1,3600.0,863.7,748.6,115.1,859.4,863.7,1153.6,818.0,709.0,109.0,859.4,818.0,1092.6,Pinus pinaster Aiton; Tracheophyta; Magnoliopsida; Eucalyptus L'Hér.
2009,2009-03-10,Porto,Valongo,Ermesinde,RUA DAS ESTRELAS (Rua das Tulipas),41.2170785,-8.5515798,NC,108.0,2009-03-10T18:00,16.3,66,10.0,15.2,0.0,0.0,0.0,0.0,0,1022.2,1009.3,0,0,0,0,0.09,0.62,7.4,12.9,317,333,12.6,15.9,13.2,11.2,11.0,0.344,0.358,0.366,0.389,1,3600.0,80.7,57.1,23.6,572.4,80.7,138.3,157.0,111.0,46.0,572.4,157.0,269.0,Tracheophyta; Eucalyptus L'Hér.
2009,2009-08-13,Porto,Vila do Conde,Guilhabreu,RUA HIPISMO (GUILHABREU),41.29489335,-8.623785746125533,NC,192.0,2009-08-13T06:00,19.9,94,18.8,22.5,0.0,0.0,0.0,0.0,0,1014.5,992.1,2,0,4,0,0.01,0.15,4.8,6.6,77,81,11.2,19.2,23.2,20.3,17.3,0.119,0.184,0.225,0.332,1,0.0,6.0,0.0,6.0,0.0,1.5,58.0,2.0,0.0,2.0,0.0,2.0,19.2,Pinus pinaster Aiton; Magnoliopsida; Tracheophyta; Eucalyptus L'Hér.
2009,2009-08-10,Porto,Lousada,Macieira,TALHOS (Talho),41.2904579,-8.244309535049862,NC,224.0,2009-08-10T14:00,29.6,33,11.8,31.6,0.0,0.0,0.0,0.0,0,1016.2,990.9,0,0,0,0,0.66,2.77,5.5,7.0,32,35,22.3,30.1,21.9,19.6,16.9,0.151,0.199,0.233,0.336,1,3600.0,872.3,767.4,104.9,898.5,872.3,1137.1,898.0,790.0,108.0,898.5,898.0,1170.6,Vitis vinifera L.; Tracheophyta; Magnoliopsida
2009,2009-08-11,Porto,Santo Tirso,Aves,R. NOSSA SENHORA FATIMA (AVES),41.361773,-8.410822947653934,NC,130.0,2009-08-11T18:00,28.8,50,17.4,29.4,0.0,0.0,0.0,0.0,0,1015.9,1001.1,0,0,0,0,0.3,1.97,13.8,21.4,327,331,27.4,29.2,24.3,20.1,17.4,0.152,0.227,0.262,0.338,1,3600.0,253.0,198.9,54.1,677.7,253.0,390.9,332.0,261.0,71.0,677.7,332.0,512.9,Magnoliopsida; Tracheophyta; Pinus pinaster Aiton; Eucalyptus L'Hér.; Vitis vinifera L.; Pinales; Acacia Mill.; 
2009,2009-02-23,Porto,Marco de Canaveses,Maureles,LUG DA COSTA (MAURELES),41.17581415,-8.196806189337156,NC,209.0,2009-02-23T16:00,16.0,48,5.0,13.4,0.0,0.0,0.0,0.0,0,1018.4,993.6,1,0,0,3,0.25,0.94,9.7,13.7,90,90,26.6,13.8,9.0,8.2,9.3,0.336,0.354,0.383,0.414,1,3600.0,378.9,314.2,64.7,821.6,378.9,534.4,445.0,369.0,76.0,821.6,445.0,627.6,Pinus pinaster Aiton; Tracheophyta; Eucalyptus L'Hér.; Magnoliopsida; Vitis vinifera L.; Quercus L.; Pinales; 
2009,2009-08-10,Porto,Paredes,Vilela,LG. COUCIEIRO (VILELA),41.23628815,-8.388925238330529,NC,271.0,2009-08-10T16:00,29.1,36,12.3,29.4,0.0,0.0,0.0,0.0,0,1015.5,985.0,0,0,0,0,0.53,2.6,9.0,11.8,344,348,24.1,30.4,22.6,19.5,16.8,0.151,0.179,0.213,0.336,1,3600.0,626.8,537.3,89.5,842.2,626.8,849.4,693.0,594.0,99.0,842.2,693.0,939.0,Magnoliopsida; Pinus pinaster Aiton; Eucalyptus L'Hér.; Tracheophyta; Vitis vinifera L.
2009,2009-08-13,Porto,Vila Nova de Gaia,Perosinho,RUA RELVA (Rua da Relva de Alem),41.060478,-8.5855985,NC,118.0,2009-08-13T14:00,32.4,43,18.3,35.4,0.0,0.0,0.0,0.0,0,1013.8,1000.5,8,2,8,4,0.64,2.76,10.0,11.6,285,286,19.1,34.9,25.5,21.2,18.1,0.126,0.169,0.218,0.336,1,3600.0,777.1,640.2,137.0,753.7,777.1,1132.0,800.0,659.0,141.0,753.7,800.0,1165.2,Eucalyptus L'Hér.; Tracheophyta; Magnoliopsida
2009,2009-08-12,Porto,Marco de Canaveses,Manhuncelos,Boi Morto,41.1491999,-8.140302,NC,370.0,2009-08-12T14:00,33.0,30,13.2,34.5,0.0,0.0,0.0,0.0,0,1016.1,975.2,12,0,19,1,0.54,3.51,2.6,2.7,286,293,13.0,33.7,24.3,20.5,17.2,0.134,0.166,0.211,0.335,1,3600.0,674.6,550.4,124.2,648.0,674.6,1131.4,695.0,567.0,128.0,648.0,695.0,1165.6,Magnoliopsida; Pinus pinaster Aiton; Eucalyptus L'Hér.; Tracheophyta; Vitis vinifera L.; ; Quercus L.
2009,2009-08-13,Porto,TROFA,Covelas,MONTE CABRITO (Monte),41.3008521,-8.5349796,NC,115.0,2009-08-13T15:00,32.4,42,17.8,34.7,0.0,0.0,0.0,0.0,0,1013.5,1000.6,4,0,2,9,0.64,2.83,12.8,15.5,302,306,24.1,34.4,25.6,21.0,17.8,0.135,0.177,0.216,0.333,1,3600.0,738.4,624.6,113.8,823.0,738.4,1011.3,785.0,664.0,121.0,823.0,785.0,1075.2,Magnoliopsida; Pinus pinaster Aiton; Vitis vinifera L.; Quercus L.; Tracheophyta; Eucalyptus L'Hér.; Olea europaea L.; ; Pinales
2009,2009-07-19,Porto,Paredes,Sobreira,PARQUE DE MERENDAS (SOBREIRA),41.1538186,-8.3992005,NC,117.0,2009-07-19T17:00,26.6,53,16.2,26.3,0.0,0.0,0.0,0.0,0,1018.0,1004.5,1,0,0,3,0.43,1.64,17.2,22.3,323,326,31.0,30.9,23.7,20.2,16.9,0.127,0.155,0.222,0.343,1,3600.0,497.2,415.5,81.7,784.2,497.2,701.7,572.0,478.0,94.0,784.2,572.0,807.3,Magnoliopsida; Pinus pinaster Aiton; Eucalyptus L'Hér.; Tracheophyta; Vitis vinifera L.
2009,2009-08-12,Porto,Maia,Nogueira,R. ANTº MARQUES (Rua Fernando Marques Dias),41.233971,-8.5839519,NC,82.0,2009-08-12T15:00,32.4,42,17.9,34.6,0.0,0.0,0.0,0.0,0,1015.4,1006.1,14,0,23,2,0.59,2.82,11.2,13.5,303,304,22.0,34.2,25.3,21.0,18.1,0.131,0.175,0.218,0.332,1,3600.0,672.0,547.8,124.2,717.9,672.0,1016.5,714.0,582.0,132.0,717.9,714.0,1080.0,Magnoliopsida; Eucalyptus L'Hér.; Tracheophyta; Pinus pinaster Aiton; 
2009,2009-08-10,Porto,Paços de Ferreira,Figueiró,FUNDO VILA (Fundo de Vila),41.3076369,-8.3451935,NC,360.0,2009-08-10T16:00,28.6,35,11.5,28.6,0.0,0.0,0.0,0.0,0,1015.5,975.1,0,0,0,0,0.52,2.55,9.0,11.8,344,348,24.1,29.7,21.8,18.8,16.2,0.132,0.215,0.251,0.336,1,3600.0,626.9,537.3,89.6,842.4,626.9,849.2,693.0,594.0,99.0,842.4,693.0,938.7,Tracheophyta; Magnoliopsida; Eucalyptus L'Hér.; Vitis vinifera L.; Pinus pinaster Aiton; 
2009,2009-08-10,Porto,Amarante,Telões,ARIEIRO (Areeiro),41.2933712,-8.097429097698791,NC,172.0,2009-08-10T07:00,18.6,65,11.8,17.2,0.0,0.0,0.0,0.0,0,1016.4,996.2,0,0,0,0,0.09,0.76,13.7,25.6,88,90,32.0,18.1,20.9,20.0,17.2,0.151,0.211,0.244,0.335,1,3272.56,163.1,101.1,62.0,413.6,154.3,325.5,100.0,62.0,38.0,391.2,100.0,199.6,Magnoliopsida; Pinus pinaster Aiton; Tracheophyta; Vitis vinifera L.; Eucalyptus L'Hér.; 
2009,2009-08-10,Porto,Amarante,Fregim,RUA DA CARREIRA (FREGIM),41.2671355,-8.1013692,NC,247.0,2009-08-10T13:00,28.8,36,12.1,30.6,0.0,0.0,0.0,0.0,0,1016.4,988.5,0,0,0,0,0.67,2.54,7.6,9.8,71,73,27.7,29.0,21.4,19.5,16.8,0.146,0.209,0.244,0.335,1,3600.0,919.3,808.4,110.9,901.7,919.3,1193.4,920.0,809.0,111.0,901.7,920.0,1194.4,Tracheophyta; Magnoliopsida; Pinus pinaster Aiton; Vitis vinifera L.; Quercus L.; Eucalyptus L'Hér.; 
2009,2009-07-31,Porto,Penafiel,Duas Igrejas,LUGAR DE GRANJA (Lugar da Bouça),41.1864654,-8.2690378,NC,403.0,2009-07-31T21:00,16.9,89,15.1,17.9,0.0,0.0,0.0,0.0,1,1021.0,973.9,32,35,0,0,0.0,0.21,4.3,10.0,294,300,19.4,19.4,20.6,18.1,15.5,0.182,0.257,0.256,0.34,0,0.0,0.0,0.0,0.0,0.0,0.0,0.0,0.0,0.0,0.0,0.0,0.0,0.0,Eucalyptus L'Hér.; Tracheophyta; Magnoliopsida
2009,2009-03-12,Porto,Lousada,Covas,LUGAR DA GRANJA (Lugar da Estrada),41.2681682,-8.3287022,Desconhecida,346.0,2009-03-12T14:00,20.2,39,5.9,19.2,0.0,0.0,0.0,0.0,0,1020.9,980.7,13,0,0,42,0.46,1.44,8.6,11.3,105,107,26.6,16.9,10.4,9.0,8.5,0.329,0.351,0.364,0.405,1,3600.0,726.1,636.3,89.8,946.1,726.1,932.0,752.0,659.0,93.0,946.1,752.0,965.3,Tracheophyta; Magnoliopsida; Eucalyptus L'Hér.
2009,2009-08-10,Porto,Felgueiras,Friande,L.VILA CÃES (Vila Cães),41.3700363,-8.1792832,NC,364.0,2009-08-10T15:00,28.8,34,11.6,29.9,0.0,0.0,0.0,0.0,0,1015.8,975.0,0,0,0,0,0.6,2.6,7.2,9.0,354,360,22.0,29.7,21.6,18.9,16.3,0.15,0.225,0.256,0.335,1,3600.0,772.5,674.6,97.9,882.7,772.5,1017.4,821.0,717.0,104.0,882.7,821.0,1081.4,Vitis vinifera L.; Tracheophyta; Pinus pinaster Aiton; Eucalyptus L'Hér.; Magnoliopsida
2009,2009-08-10,Porto,Vila Nova de Gaia,Madalena,RUA SERRO (Rua Seis Escarpa da Serra),41.1063312,-8.6429519,NC,38.0,2009-08-10T17:00,29.2,46,16.3,27.6,0.0,0.0,0.0,0.0,0,1014.7,1010.4,0,0,0,0,0.48,2.2,26.0,35.3,338,343,43.6,30.9,24.3,20.9,18.4,0.138,0.178,0.222,0.338,1,3600.0,455.1,383.4,71.7,797.8,455.1,639.7,533.0,449.0,84.0,797.8,533.0,749.3,Tracheophyta; Magnoliopsida; Eucalyptus L'Hér.
2009,2009-08-12,Porto,Marco de Canaveses,Sobretâmega,Outeirinho,41.1993999,-8.1651586,NC,110.0,2009-08-12T21:00,28.3,57,18.9,31.1,0.0,0.0,0.0,0.0,0,1015.5,1002.9,6,0,7,6,0.02,1.67,4.0,7.5,355,17,9.7,26.5,26.0,21.0,17.9,0.118,0.191,0.239,0.334,0,0.0,0.0,0.0,0.0,0.0,0.0,0.0,0.0,0.0,0.0,0.0,0.0,0.0,Vitis vinifera L.; Tracheophyta; Pinus pinaster Aiton; Magnoliopsida; Quercus L.; 
2009,2009-08-11,Porto,Amarante,Lufrei,Marancinho,41.276408,-8.0535287,NC,208.0,2009-08-11T23:00,25.5,58,16.7,26.8,0.0,0.0,0.0,0.0,0,1017.1,993.2,0,0,0,0,0.04,1.36,6.6,9.9,77,44,10.8,22.1,24.0,20.1,17.1,0.131,0.201,0.242,0.334,0,0.0,0.0,0.0,0.0,0.0,0.0,0.0,0.0,0.0,0.0,0.0,0.0,0.0,Magnoliopsida; Tracheophyta; Pinus pinaster Aiton; Vitis vinifera L.; Eucalyptus L'Hér.; 
2009,2009-02-23,Porto,Vila Nova de Gaia,Arcozelo,RUA DE CHÃOS VELHOS (Rampa dos Chãos Vermelhos),41.0550094,-8.6399166,NC,44.0,2009-02-23T17:00,17.4,51,7.1,16.0,0.0,0.0,0.0,0.0,0,1017.6,1012.4,0,0,0,0,0.15,0.98,4.6,2.8,309,320,11.2,15.3,11.7,10.6,11.6,0.339,0.355,0.386,0.399,1,3600.0,206.2,159.9,46.2,704.8,206.2,317.1,281.0,218.0,63.0,704.8,281.0,432.3,Pinus pinaster Aiton; Tracheophyta; Eucalyptus L'Hér.; Magnoliopsida; Acacia Mill.
2009,2009-08-12,Porto,Lousada,Aveleda,Gens,41.2834704,-8.2483721,NC,243.0,2009-08-12T10:00,29.1,45,16.0,30.0,0.0,0.0,0.0,0.0,0,1017.1,989.6,0,0,0,0,0.49,2.21,11.3,14.6,99,99,27.7,27.3,22.4,20.1,17.1,0.116,0.205,0.247,0.335,1,3600.0,703.1,598.6,104.5,820.6,703.1,971.7,639.0,544.0,95.0,820.6,639.0,883.1,Vitis vinifera L.; Magnoliopsida; Tracheophyta; Pinus pinaster Aiton; Eucalyptus L'Hér.
2009,2009-08-13,Porto,Marco de Canaveses,Vila Boa de Quires,Tapadinha,41.2028475,-8.2047635,NC,275.0,2009-08-13T16:00,32.3,38,16.1,33.2,0.0,0.0,0.0,0.0,0,1013.8,983.2,17,0,18,20,0.44,3.0,7.7,10.1,323,325,24.8,33.2,25.0,20.1,16.8,0.121,0.192,0.239,0.333,1,3600.0,468.3,348.3,120.0,555.2,468.3,836.1,519.0,386.0,133.0,555.2,519.0,926.6,Pinus pinaster Aiton; Tracheophyta; Eucalyptus L'Hér.; Magnoliopsida; Vitis vinifera L.; Quercus L.; Pinales; 
2009,2009-08-12,Porto,Paredes,Vandoma,Ranha,41.20214915,-8.39894316248769,NC,428.0,2009-08-12T21:00,25.9,56,16.6,27.7,0.0,0.0,0.0,0.0,0,1016.3,968.0,10,0,11,10,0.01,1.46,3.3,5.8,354,360,12.6,24.0,23.7,19.0,15.9,0.113,0.202,0.247,0.335,0,0.0,0.0,0.0,0.0,0.0,0.0,0.0,0.0,0.0,0.0,0.0,0.0,0.0,Magnoliopsida; Pinus pinaster Aiton; Eucalyptus L'Hér.; Tracheophyta; Vitis vinifera L.
2009,2009-08-10,Porto,Paredes,Lordelo,LUGAR DA PARTEIRA (Lugar),41.2364966,-8.415551743176014,NC,210.0,2009-08-10T15:00,29.8,34,12.2,30.1,0.0,0.0,0.0,0.0,0,1015.7,992.0,0,0,0,0,0.63,2.76,12.3,15.4,345,349,23.0,31.0,22.7,19.9,17.2,0.152,0.179,0.213,0.336,1,3600.0,769.1,670.2,98.8,874.1,769.1,1020.8,817.0,712.0,105.0,874.1,817.0,1084.4,Magnoliopsida; Pinus pinaster Aiton; Eucalyptus L'Hér.; Tracheophyta; Vitis vinifera L.
2009,2009-08-13,Porto,Amarante,Gatão,Mizarela,41.2915468,-8.0691688,NC,173.0,2009-08-13T13:00,33.6,35,16.1,37.1,0.0,0.0,0.0,0.0,0,1014.2,994.9,9,0,15,0,0.68,3.38,5.0,5.8,249,248,15.8,34.1,24.6,20.7,17.4,0.123,0.194,0.24,0.334,1,3600.0,874.9,762.0,112.9,857.1,874.9,1184.9,876.0,763.0,113.0,857.1,876.0,1186.4,Magnoliopsida; Tracheophyta
2009,2009-08-10,Porto,Penafiel,Duas Igrejas,RUA NOVA DOS PASSAIS (Rua Nossa Senhora do Carmo),41.1864654,-8.2690378,NC,403.0,2009-08-10T16:00,28.5,33,10.8,28.0,0.0,0.0,0.0,0.0,0,1015.5,970.4,0,0,0,0,0.54,2.6,10.9,13.8,352,354,28.8,29.9,21.7,18.7,16.0,0.128,0.213,0.249,0.336,1,3600.0,631.7,547.6,84.0,861.6,631.7,846.2,699.0,606.0,93.0,861.6,699.0,936.4,Eucalyptus L'Hér.; Tracheophyta; Magnoliopsida
2009,2009-07-20,Porto,Paredes,Recarei,L.ALEGRETE (Alegrete),41.1536564,-8.4122951,NC,87.0,2009-07-20T00:00,19.0,88,17.0,20.7,0.0,0.0,0.0,0.0,0,1018.7,1008.4,0,0,0,0,0.0,0.26,5.4,10.9,356,354,13.7,20.6,23.7,20.4,17.1,0.127,0.155,0.222,0.343,0,0.0,0.0,0.0,0.0,0.0,0.0,0.0,0.0,0.0,0.0,0.0,0.0,0.0,Magnoliopsida; Pinus pinaster Aiton; Eucalyptus L'Hér.; Tracheophyta; Vitis vinifera L.
2009,2009-08-10,Porto,Paredes,Beire,LG. SERRADO (BEIRE),41.2481887,-8.322918173550978,NC,217.0,2009-08-10T21:00,23.3,62,15.6,23.7,0.0,0.0,0.0,0.0,0,1016.4,991.4,0,0,0,0,0.05,1.09,10.5,15.5,16,18,18.7,23.6,23.3,19.7,17.0,0.147,0.197,0.232,0.336,0,0.0,0.0,0.0,0.0,0.0,0.0,0.0,0.0,0.0,0.0,0.0,0.0,0.0,Magnoliopsida; Pinus pinaster Aiton; Eucalyptus L'Hér.; Tracheophyta; Vitis vinifera L.; Quercus L.
2009,2009-08-10,Porto,Amarante,Sanche,PINHAL (Pinheiral),41.2745813,-8.0075272,NC,302.0,2009-08-10T17:00,29.3,32,11.1,28.1,0.0,0.0,0.0,0.0,0,1015.2,981.3,0,0,0,0,0.43,2.75,10.6,14.6,336,340,24.8,30.6,23.1,19.8,16.8,0.123,0.196,0.237,0.333,1,3600.0,449.0,374.9,74.1,789.7,449.0,632.1,527.0,440.0,87.0,789.7,527.0,741.8,Magnoliopsida; Eucalyptus L'Hér.; Pinus pinaster Aiton; Tracheophyta; Acacia Mill.; 
2009,2009-08-10,Porto,Amarante,Mancelos,Manhufe,41.2894833,-8.155317,NC,471.0,2009-08-10T20:00,23.7,53,13.6,23.8,0.0,0.0,0.0,0.0,0,1016.1,962.8,0,0,0,0,0.06,1.37,7.1,10.1,345,356,16.9,24.0,22.3,18.6,15.7,0.13,0.21,0.243,0.333,0,95.04,0.0,0.0,0.0,0.0,0.0,0.0,15.0,7.0,8.0,79.8,15.0,58.3,Tracheophyta; Magnoliopsida; Eucalyptus L'Hér.; Pinus pinaster Aiton; Vitis vinifera L.; 
2009,2009-08-13,Porto,Gondomar,Baguim Do Monte (rio Tinto),R. MORENA (LIPOR) (Rio Tinto),41.18562705,-8.5415098,NC,122.0,2009-08-13T18:00,29.4,53,18.7,31.4,0.0,0.0,0.0,0.0,0,1013.2,999.4,5,0,6,4,0.22,1.93,8.2,11.2,319,327,19.1,31.8,26.7,21.3,18.0,0.112,0.168,0.214,0.329,1,3600.0,183.9,137.0,46.9,477.6,183.9,382.3,243.0,181.0,62.0,477.6,243.0,505.1,Magnoliopsida; Tracheophyta
2009,2009-08-09,Porto,Amarante,Real,LUGAR SÃO BRÁS (Cimo do Lugar),41.2668833,-8.072193852545904,NC,87.0,2009-08-09T22:00,20.7,68,14.6,21.1,0.0,0.0,0.0,0.0,0,1014.5,1004.3,2,0,1,3,0.03,0.78,8.2,15.0,49,42,18.4,21.8,23.4,20.5,17.8,0.151,0.211,0.244,0.336,0,0.0,0.0,0.0,0.0,0.0,0.0,0.0,0.0,0.0,0.0,0.0,0.0,0.0,Magnoliopsida; Tracheophyta; Eucalyptus L'Hér.; Vitis vinifera L.; Pinus pinaster Aiton
2009,2009-08-13,Porto,Vila Nova de Gaia,Madalena,Rua da Cavada,41.1123701,-8.6480805,NC,33.0,2009-08-13T18:00,29.2,56,19.4,30.8,0.0,0.0,0.0,0.0,0,1013.3,1009.5,5,4,3,0,0.26,1.8,13.6,16.8,320,332,26.3,31.8,27.0,21.8,18.6,0.126,0.168,0.218,0.336,1,3600.0,205.3,151.5,53.8,525.7,205.3,384.1,271.0,200.0,71.0,525.7,271.0,507.0,Magnoliopsida; Tracheophyta; Eucalyptus L'Hér.; Pinus pinaster Aiton
2009,2009-08-13,Porto,Vila Nova de Gaia,Madalena,R. FORMIGUEIRO (Rua do Formigueiro),41.1017129,-8.6439767,NC,32.0,2009-08-13T12:00,32.2,46,18.9,35.6,0.0,0.0,0.0,0.0,1,1014.8,1011.2,25,8,30,0,0.65,2.62,10.4,10.1,290,297,24.1,33.6,25.4,21.7,18.6,0.127,0.169,0.219,0.336,1,3600.0,856.6,722.9,133.7,818.0,856.6,1177.7,833.0,703.0,130.0,818.0,833.0,1145.3,Tracheophyta; Magnoliopsida; Pinus pinaster Aiton; Eucalyptus L'Hér.
2009,2009-08-09,Porto,Lousada,Lustosa,S. ROQUE (São Roque),41.3321025,-8.3085374,NC,411.0,2009-08-09T22:00,18.5,60,10.6,17.6,0.0,0.0,0.0,0.0,0,1014.6,967.1,2,0,1,3,0.03,0.85,7.2,10.3,37,29,18.7,19.6,21.4,18.6,15.9,0.16,0.23,0.257,0.336,0,0.0,0.0,0.0,0.0,0.0,0.0,0.0,0.0,0.0,0.0,0.0,0.0,0.0,Vitis vinifera L.; Eucalyptus L'Hér.; Tracheophyta; Magnoliopsida
2009,2009-08-10,Porto,Valongo,Valongo,R.PADRE ANTONIO PIMENTA ELIAS (VALONGO),41.1882463,-8.4872744,NC,128.0,2009-08-10T12:00,28.2,40,13.5,29.8,0.0,0.0,0.0,0.0,0,1016.5,1001.9,0,0,0,0,0.64,2.28,9.6,11.9,56,61,22.0,29.3,22.2,20.4,17.8,0.128,0.181,0.219,0.331,1,3600.0,899.5,788.5,111.0,885.7,899.5,1185.1,875.0,767.0,108.0,885.7,875.0,1152.8,Pinus pinaster Aiton; Tracheophyta; Magnoliopsida; Eucalyptus L'Hér.
2009,2009-08-10,Porto,Paredes,Lordelo,Parteira,41.2327379,-8.4330482,NC,235.0,2009-08-10T23:00,21.1,63,13.7,20.7,0.0,0.0,0.0,0.0,0,1016.3,989.0,0,0,0,0,0.05,0.93,10.5,22.1,41,46,21.2,21.7,23.2,19.8,17.0,0.15,0.178,0.213,0.336,0,0.0,0.0,0.0,0.0,0.0,0.0,0.0,0.0,0.0,0.0,0.0,0.0,0.0,Magnoliopsida; Pinus pinaster Aiton; Eucalyptus L'Hér.; Tracheophyta; Vitis vinifera L.
2009,2009-08-13,Porto,Marco de Canaveses,Vila Boa de Quires,QUATRO IRMAOS (Quatro Irmãos),41.2028475,-8.2047635,NC,275.0,2009-08-13T20:00,27.3,63,19.7,30.4,0.0,0.0,0.0,0.0,0,1013.9,982.8,6,0,8,5,0.04,1.34,4.1,4.2,285,301,9.4,27.0,25.4,20.2,16.8,0.124,0.192,0.239,0.333,0,0.0,0.0,0.0,0.0,0.0,0.0,0.0,11.0,4.0,7.0,48.1,11.0,52.3,Pinus pinaster Aiton; Tracheophyta; Eucalyptus L'Hér.; Magnoliopsida; Vitis vinifera L.; Quercus L.; Pinales; 
2009,2009-08-14,Porto,TROFA,Covelas,AVIARIOS (COVELAS),41.3010548,-8.550531556878779,NC,81.0,2009-08-14T08:00,24.4,82,21.1,28.2,0.0,0.0,0.0,0.0,0,1013.6,1004.2,3,3,0,0,0.16,0.54,4.1,6.7,105,106,11.5,24.0,24.1,21.4,18.1,0.115,0.18,0.224,0.331,1,3600.0,332.4,245.1,87.3,590.0,332.4,553.9,259.0,191.0,68.0,590.0,259.0,431.6,Magnoliopsida; Pinus pinaster Aiton; Vitis vinifera L.; Quercus L.; Tracheophyta; Eucalyptus L'Hér.; Olea europaea L.; 
2009,2009-08-14,Porto,Paredes,Lordelo,Santa Marta,41.234681,-8.411476,NC,184.0,2009-08-14T12:00,32.1,39,16.5,36.0,0.0,0.0,0.0,0.0,0,1013.7,993.1,0,0,0,0,0.64,2.91,2.9,2.5,277,278,13.7,33.3,24.8,21.0,17.5,0.133,0.163,0.208,0.334,1,3600.0,871.6,748.3,123.3,849.5,871.6,1174.2,848.0,728.0,120.0,849.5,848.0,1142.4,Magnoliopsida; Pinus pinaster Aiton; Eucalyptus L'Hér.; Tracheophyta; Vitis vinifera L.
2009,2009-08-11,Porto,Santo Tirso,Refojos de Riba de Ave,ALTO DE Sª. JORGE (Alto de São Jorge),41.2920945,-8.4471657,NC,216.0,2009-08-11T15:00,30.7,37,14.2,31.8,0.0,0.0,0.0,0.0,0,1016.4,992.1,0,0,0,0,0.64,2.79,11.8,14.0,322,325,23.8,32.8,23.5,20.0,17.2,0.12,0.205,0.244,0.335,1,3600.0,764.1,660.6,103.5,865.1,764.1,1017.0,812.0,702.0,110.0,865.1,812.0,1080.7,Tracheophyta; Magnoliopsida; Pinus pinaster Aiton; Vitis vinifera L.; Eucalyptus L'Hér.
2009,2009-08-10,Porto,Paredes,Beire,Venda Nova,41.2451216,-8.3240436,NC,192.0,2009-08-10T16:00,30.0,33,12.1,30.2,0.0,0.0,0.0,0.0,0,1015.5,993.8,0,0,0,0,0.54,2.83,9.0,11.8,344,348,24.1,30.6,22.9,19.9,17.2,0.148,0.198,0.233,0.336,1,3600.0,626.8,537.3,89.5,842.2,626.8,849.4,693.0,594.0,99.0,842.2,693.0,939.0,Magnoliopsida; Pinus pinaster Aiton; Eucalyptus L'Hér.; Tracheophyta; Vitis vinifera L.
2009,2009-08-11,Porto,Vila Nova de Gaia,Pedroso,RUA STA.MARINHA (Rua Mestre Guilherme Camarinha),41.064143,-8.5572235,NC,131.0,2009-08-11T18:00,27.9,53,17.4,28.3,0.0,0.0,0.0,0.0,0,1016.0,1001.0,0,0,0,0,0.29,1.76,15.1,22.7,332,335,33.1,30.2,25.0,20.5,17.9,0.132,0.174,0.22,0.337,1,3600.0,252.5,198.4,54.2,670.8,252.5,393.8,331.0,260.0,71.0,670.8,331.0,516.2,Magnoliopsida; Eucalyptus L'Hér.; Tracheophyta
2009,2009-08-13,Porto,Penafiel,Duas Igrejas,Presa,41.1711721,-8.2706461,NC,398.0,2009-08-13T17:00,30.1,42,15.9,30.9,0.1,0.1,0.0,0.0,51,1014.0,969.7,17,0,11,36,0.3,2.47,8.5,11.6,332,334,18.0,31.6,24.6,19.5,16.2,0.107,0.196,0.244,0.334,1,3600.0,279.1,174.7,104.3,376.3,279.1,618.9,329.0,206.0,123.0,376.3,329.0,729.6,Eucalyptus L'Hér.; Magnoliopsida; Tracheophyta
2009,2009-08-13,Porto,Marco de Canaveses,Vila Boa de Quires,QUATRO IRMAOS (Quatro Irmãos),41.2028475,-8.2047635,NC,275.0,2009-08-13T23:00,25.9,66,19.0,28.5,0.0,0.0,0.0,0.0,0,1014.9,983.6,1,0,1,0,0.02,1.14,4.8,5.4,132,143,5.0,23.0,25.0,20.2,16.8,0.125,0.192,0.239,0.333,0,0.0,0.0,0.0,0.0,0.0,0.0,0.0,0.0,0.0,0.0,0.0,0.0,0.0,Pinus pinaster Aiton; Tracheophyta; Eucalyptus L'Hér.; Magnoliopsida; Vitis vinifera L.; Quercus L.; Pinales; 
2009,2009-08-12,Porto,Vila do Conde,Mindelo,RUA VIENA (MINDELO),41.31512855,-8.714259313172137,NC,34.0,2009-08-12T14:00,32.5,42,17.9,35.5,0.0,0.0,0.0,0.0,0,1016.2,1012.3,1,0,2,0,0.64,2.85,9.2,8.9,309,310,20.2,35.1,24.9,21.0,18.2,0.102,0.19,0.235,0.331,1,3600.0,785.2,667.6,117.6,784.8,785.2,1133.3,808.0,687.0,121.0,784.8,808.0,1166.2,Eucalyptus L'Hér.; Tracheophyta; Pinus pinaster Aiton; Magnoliopsida
2009,2009-08-12,Porto,Maia,Pedrouços,R. TRATADO TORDESILHAS (Rua do Tratado de Tordesilhas),41.1878015,-8.5872773,NC,140.0,2009-08-12T16:00,30.8,47,18.1,31.8,0.0,0.0,0.0,0.0,0,1015.2,999.4,12,0,18,3,0.48,2.38,14.1,17.9,308,310,25.2,32.9,25.2,20.6,17.7,0.13,0.175,0.218,0.332,1,3600.0,508.9,393.2,115.7,619.8,508.9,845.3,563.0,435.0,128.0,619.8,563.0,935.1,Tracheophyta; Magnoliopsida; 
2009,2009-08-11,Porto,Baião,Valadares,Pinheiro,41.14829735,-8.008373641308012,NC,748.0,2009-08-11T00:00,18.0,63,11.0,17.3,0.0,0.0,0.0,0.0,0,1018.4,933.5,0,0,0,0,0.02,0.76,7.4,16.8,14,35,20.2,19.0,22.1,19.1,15.8,0.12,0.185,0.232,0.331,0,0.0,0.0,0.0,0.0,0.0,0.0,0.0,0.0,0.0,0.0,0.0,0.0,0.0,Magnoliopsida; Pinus pinaster Aiton; Tracheophyta; Eucalyptus L'Hér.; Vitis vinifera L.; Pinales; Quercus L.; 
2009,2009-08-11,Porto,Santo Tirso,Monte Córdova,CURTINHAS (Cortinhas),41.3050637,-8.4276676,NC,436.0,2009-08-11T00:00,17.5,68,11.6,16.5,0.0,0.0,0.0,0.0,0,1016.7,966.2,0,0,0,0,0.03,0.64,10.0,12.9,77,60,19.8,18.6,21.5,18.5,15.7,0.13,0.214,0.25,0.336,0,0.0,0.0,0.0,0.0,0.0,0.0,0.0,0.0,0.0,0.0,0.0,0.0,0.0,Eucalyptus L'Hér.; Vitis vinifera L.; Pinus pinaster Aiton; Tracheophyta; Magnoliopsida
2009,2009-08-14,Porto,Marco de Canaveses,Vila Boa do Bispo,Bouça,41.1332787,-8.2097194,NC,208.0,2009-08-14T00:00,25.8,70,19.8,28.9,0.0,0.0,0.0,0.0,0,1014.8,991.0,0,0,0,0,0.01,1.01,4.8,5.6,132,153,7.2,23.0,25.7,21.1,17.6,0.124,0.186,0.238,0.334,0,0.0,0.0,0.0,0.0,0.0,0.0,0.0,0.0,0.0,0.0,0.0,0.0,0.0,Tracheophyta; Pinus pinaster Aiton; Vitis vinifera L.; Quercus L.; Eucalyptus L'Hér.; Magnoliopsida; Acacia Mill.; 
2009,2009-08-02,Porto,Penafiel,Recezinhos (são Martinho),RUA CENTRAL (Rua Cerrado do Tanque),41.2726266,-8.2833754,NC,290.0,2009-08-02T21:00,15.0,79,11.4,14.6,0.0,0.0,0.0,0.0,1,1019.2,984.9,29,0,0,98,0.0,0.35,5.5,12.2,302,315,20.2,18.0,20.1,18.7,16.3,0.251,0.255,0.257,0.34,0,0.0,0.0,0.0,0.0,0.0,0.0,0.0,0.0,0.0,0.0,0.0,0.0,0.0,Eucalyptus L'Hér.; Tracheophyta
2009,2009-08-14,Porto,Penafiel,Duas Igrejas,LG. GRANJA (Prainas da Granja),41.1864654,-8.2690378,NC,403.0,2009-08-14T00:00,24.1,67,17.7,26.1,0.0,0.0,0.0,0.0,0,1015.2,969.4,0,0,0,0,0.02,0.98,5.4,5.5,127,148,6.5,21.4,24.1,19.6,16.1,0.109,0.196,0.244,0.334,0,0.0,0.0,0.0,0.0,0.0,0.0,0.0,0.0,0.0,0.0,0.0,0.0,0.0,Eucalyptus L'Hér.; Tracheophyta; Magnoliopsida
2009,2009-08-12,Porto,Paredes,Baltar,Capela das Almas,41.1914064,-8.3792902,NC,288.0,2009-08-12T14:00,32.8,33,14.2,34.7,0.0,0.0,0.0,0.0,0,1016.1,984.0,12,0,19,1,0.53,3.35,2.6,2.7,286,293,13.0,33.0,23.7,19.8,16.8,0.14,0.17,0.21,0.335,1,3600.0,675.0,550.7,124.3,647.5,675.0,1133.0,695.0,567.0,128.0,647.5,695.0,1166.6,Magnoliopsida; Pinus pinaster Aiton; Eucalyptus L'Hér.; Tracheophyta; Vitis vinifera L.
2009,2009-02-23,Porto,Paredes,Rebordosa,R DA CASADA (REBORDOSA),41.2191094,-8.416530009761463,NC,249.0,2009-02-23T19:00,12.3,66,6.2,10.4,0.0,0.0,0.0,0.0,0,1018.0,988.2,1,0,0,4,0.04,0.48,6.5,8.9,19,32,13.7,10.4,9.7,8.5,9.6,0.339,0.352,0.383,0.409,0,0.0,0.0,0.0,0.0,0.0,0.0,0.0,2.0,1.0,1.0,17.6,2.0,18.4,Magnoliopsida; Pinus pinaster Aiton; Eucalyptus L'Hér.; Tracheophyta; Vitis vinifera L.
2009,2009-03-13,Porto,Paços de Ferreira,Frazão,RUA MEADOS (FRAZÃO),41.26283125,-8.406874611595253,NC,310.0,2009-03-13T00:00,6.3,89,4.6,4.2,0.0,0.0,0.0,0.0,0,1021.7,983.8,0,0,0,0,0.0,0.11,5.5,6.8,67,90,14.8,8.3,11.2,9.6,9.0,0.323,0.345,0.362,0.404,0,0.0,0.0,0.0,0.0,0.0,0.0,0.0,0.0,0.0,0.0,0.0,0.0,0.0,Eucalyptus L'Hér.; Tracheophyta; Magnoliopsida; Vitis vinifera L.; 
2009,2009-08-10,Porto,Lousada,Torno,SEDÕES (TORNO),41.2905655,-8.213711672045186,NC,271.0,2009-08-10T22:00,20.7,65,13.8,20.3,0.0,0.0,0.0,0.0,0,1016.5,985.1,0,0,0,0,0.04,0.86,11.0,16.8,52,43,19.1,21.6,23.0,19.7,16.8,0.126,0.212,0.249,0.336,0,0.0,0.0,0.0,0.0,0.0,0.0,0.0,0.0,0.0,0.0,0.0,0.0,0.0,Tracheophyta; Vitis vinifera L.; Eucalyptus L'Hér.; Pinus pinaster Aiton
2009,2009-03-12,Porto,Paços de Ferreira,Lamoso,LG. COSTADA (LAMOSO),41.31903645,-8.351785814395583,NC,350.0,2009-03-12T22:00,8.7,78,5.1,6.6,0.0,0.0,0.0,0.0,0,1021.4,979.1,0,0,0,0,0.0,0.25,6.5,7.5,96,73,13.0,9.2,11.4,9.3,8.7,0.322,0.345,0.362,0.404,0,0.0,0.0,0.0,0.0,0.0,0.0,0.0,0.0,0.0,0.0,0.0,0.0,0.0,Magnoliopsida; Eucalyptus L'Hér.; Pinus pinaster Aiton; Tracheophyta; Quercus suber L.; 
2009,2009-02-24,Porto,Felgueiras,Penacova,LS. SRº PERDIDOS (PENACOVA),41.3711444,-8.2502985,NC,316.0,2009-02-24T20:00,12.1,68,6.3,11.1,0.0,0.0,0.0,0.0,0,1017.9,980.2,0,0,0,0,0.0,0.46,0.7,4.4,180,325,8.3,8.7,9.4,8.0,8.8,0.323,0.344,0.375,0.416,0,0.0,0.0,0.0,0.0,0.0,0.0,0.0,0.0,0.0,0.0,0.0,0.0,0.0,Magnoliopsida; Vitis vinifera L.; Tracheophyta; Eucalyptus L'Hér.; Pinus pinaster Aiton
2009,2009-07-20,Porto,Gondomar,Foz do Sousa,LUG. LINHA (FOZ DO SOUSA),41.0916552,-8.5093029,NC,21.0,2009-07-20T20:00,22.1,67,15.6,22.2,0.0,0.0,0.0,0.0,0,1014.8,1012.3,6,0,0,19,0.07,0.89,11.6,16.6,324,330,19.4,27.3,25.5,21.2,17.9,0.092,0.128,0.19,0.313,1,1944.8,0.0,0.0,0.0,0.0,0.0,0.0,46.0,26.0,20.0,213.5,46.0,106.4,Tracheophyta; Magnoliopsida; Eucalyptus L'Hér.; Pinus pinaster Aiton
2009,2009-08-12,Porto,Santo Tirso,Monte Córdova,ESPINHEIRO (Espinheiros),41.3164414,-8.4320306,NC,357.0,2009-08-12T21:00,25.6,59,17.1,27.6,0.0,0.0,0.0,0.0,0,1016.0,975.5,2,0,1,5,0.01,1.33,3.3,4.7,347,351,10.1,24.5,24.2,19.4,16.3,0.111,0.199,0.242,0.334,0,0.0,0.0,0.0,0.0,0.0,0.0,0.0,0.0,0.0,0.0,0.0,0.0,0.0,Tracheophyta; Vitis vinifera L.; Eucalyptus L'Hér.; Pinus pinaster Aiton; Magnoliopsida
2009,2009-03-12,Porto,Paços de Ferreira,Arreigada,RUA PINHEIRO MANSO (Arreigada),41.2505024,-8.397302311430758,NC,244.0,2009-03-12T16:00,21.3,39,6.7,20.1,0.0,0.0,0.0,0.0,0,1020.1,991.7,0,0,0,1,0.32,1.55,2.3,2.5,198,188,12.2,18.0,12.0,9.9,9.4,0.321,0.347,0.362,0.405,1,3600.0,464.2,393.8,70.4,865.3,464.2,630.7,534.0,453.0,81.0,865.3,534.0,725.5,Eucalyptus L'Hér.; Tracheophyta; Magnoliopsida; Vitis vinifera L.; 
2009,2009-08-14,Porto,Penafiel,Pinheiro,GILBAIA (PINHEIRO),41.12214905,-8.310423851947583,NC,260.0,2009-08-14T13:00,32.9,35,15.4,36.4,0.0,0.0,0.0,0.0,0,1013.4,984.5,0,0,0,0,0.67,3.24,3.4,4.2,288,290,15.1,34.4,24.7,20.6,17.1,0.118,0.185,0.237,0.333,1,3600.0,886.2,765.3,120.9,861.3,886.2,1184.6,887.0,766.0,121.0,861.3,887.0,1185.7,Eucalyptus L'Hér.; Tracheophyta; Magnoliopsida
2009,2009-08-14,Porto,Paredes,Louredo,forca (LOUREDO),41.23583025000001,-8.345632437917056,NC,226.0,2009-08-14T14:00,32.7,35,15.4,34.8,0.0,0.0,0.0,0.0,0,1013.3,988.1,3,0,5,0,0.61,3.21,7.2,8.5,297,298,19.4,34.3,25.0,20.6,17.1,0.127,0.18,0.227,0.334,1,3600.0,741.7,604.8,136.9,716.0,741.7,1126.0,764.0,623.0,141.0,716.0,764.0,1159.9,Tracheophyta; Magnoliopsida; Eucalyptus L'Hér.; Pinus pinaster Aiton; Vitis vinifera L.; 
2009,2009-08-13,Porto,Paredes,Duas Igrejas,AV.TELHA (Forno da Telha),41.230974,-8.3772602,NC,332.0,2009-08-13T02:00,20.6,79,16.8,22.0,0.0,0.0,0.0,0.0,0,1015.3,977.0,1,0,2,0,0.01,0.51,6.6,5.4,68,90,13.7,20.0,23.4,19.7,16.5,0.113,0.202,0.247,0.335,0,0.0,0.0,0.0,0.0,0.0,0.0,0.0,0.0,0.0,0.0,0.0,0.0,0.0,Magnoliopsida; Pinus pinaster Aiton; Eucalyptus L'Hér.; Tracheophyta; Vitis vinifera L.
2009,2009-08-14,Porto,Vila Nova de Gaia,Avintes,Rua Senhor do Padrão,41.0980132,-8.536709808946833,NC,74.0,2009-08-14T16:00,31.0,47,18.4,32.3,0.0,0.0,0.0,0.0,0,1012.7,1004.3,0,0,0,0,0.55,2.39,16.5,19.7,324,329,31.3,35.2,27.1,22.0,18.5,0.125,0.155,0.202,0.333,1,3600.0,599.1,510.7,88.4,814.5,599.1,835.8,664.0,566.0,98.0,814.5,664.0,926.4,Magnoliopsida; Eucalyptus L'Hér.; Tracheophyta
2009,2009-08-13,Porto,Marco de Canaveses,Paredes de Viadores,LG. GRANJA (Laranjal),41.1349745,-8.1251255,NC,308.0,2009-08-13T11:00,31.2,39,15.8,34.1,0.0,0.0,0.0,0.0,0,1014.8,980.4,10,0,17,0,0.55,2.76,2.3,3.0,108,104,16.9,30.5,23.5,20.3,16.9,0.116,0.188,0.238,0.335,1,3600.0,788.3,679.2,109.1,818.9,788.3,1105.2,744.0,641.0,103.0,818.9,744.0,1043.1,Magnoliopsida; Pinus pinaster Aiton; Eucalyptus L'Hér.; Tracheophyta; Vitis vinifera L.; 
2009,2009-08-03,Porto,Vila do Conde,Fornelo,R. REGO NAVAL (FORNELO),41.3356741,-8.644947269644385,NC,123.0,2009-08-03T21:00,18.1,82,15.0,18.6,0.0,0.0,0.0,0.0,0,1017.9,1003.3,8,0,0,25,0.01,0.37,8.2,12.4,322,330,17.6,20.2,21.1,19.4,17.4,0.192,0.225,0.233,0.336,0,0.0,0.0,0.0,0.0,0.0,0.0,0.0,0.0,0.0,0.0,0.0,0.0,0.0,Eucalyptus L'Hér.; Tracheophyta
2009,2009-08-13,Porto,Vila do Conde,Guilhabreu,RUA HIPISMO (GUILHABREU),41.29489335,-8.623785746125533,NC,192.0,2009-08-13T13:00,31.4,44,17.6,35.3,0.0,0.0,0.0,0.0,0,1014.1,992.5,5,0,8,0,0.67,2.59,6.1,6.5,270,270,14.8,33.8,24.3,20.4,17.3,0.116,0.182,0.225,0.331,1,3600.0,880.5,768.6,111.9,864.0,880.5,1185.5,881.0,769.0,112.0,864.0,881.0,1186.1,Pinus pinaster Aiton; Magnoliopsida; Tracheophyta; Eucalyptus L'Hér.
2009,2009-08-14,Porto,Gondomar,Baguim Do Monte (rio Tinto),RUA DA MORENA (Rua do Padre Dehon),41.18562705,-8.5415098,NC,122.0,2009-08-14T01:00,23.9,81,20.5,27.7,0.0,0.0,0.0,0.0,0,1014.1,1000.0,0,0,0,0,0.0,0.56,2.6,5.8,164,158,6.5,22.5,25.9,21.4,18.0,0.112,0.168,0.214,0.329,0,0.0,0.0,0.0,0.0,0.0,0.0,0.0,0.0,0.0,0.0,0.0,0.0,0.0,Magnoliopsida; Tracheophyta
2009,2009-08-12,Porto,Lousada,Macieira,Talhos (Talho),41.2904579,-8.244309535049862,NC,224.0,2009-08-12T21:00,27.4,57,18.0,30.3,0.0,0.0,0.0,0.0,0,1015.9,990.4,4,0,4,7,0.0,1.59,0.8,2.9,297,353,8.3,25.4,25.0,20.1,17.0,0.132,0.187,0.229,0.335,0,0.0,0.0,0.0,0.0,0.0,0.0,0.0,0.0,0.0,0.0,0.0,0.0,0.0,Vitis vinifera L.; Tracheophyta; Magnoliopsida
2009,2009-08-13,Porto,Amarante,Cepelos,COURACEIROS (Coura),41.2550333,-8.0823148,NC,199.0,2009-08-13T15:00,33.6,35,16.1,35.6,0.0,0.0,0.0,0.0,0,1013.6,991.4,10,0,10,14,0.64,3.38,9.7,12.3,301,302,24.1,34.7,25.2,20.6,17.3,0.121,0.193,0.239,0.333,1,3600.0,726.6,603.5,123.1,796.9,726.6,1009.2,773.0,642.0,131.0,796.9,773.0,1073.7,Pinus pinaster Aiton; Magnoliopsida; Tracheophyta; Eucalyptus L'Hér.; Vitis vinifera L.
2009,2009-08-14,Porto,Amarante,Real,Ramalhada,41.2668833,-8.072193852545904,NC,87.0,2009-08-14T01:00,25.5,72,20.0,28.8,0.0,0.0,0.0,0.0,0,1014.4,1004.4,0,0,0,0,0.0,0.93,3.9,4.2,124,160,7.2,22.7,25.8,21.5,18.0,0.125,0.192,0.239,0.333,0,0.0,0.0,0.0,0.0,0.0,0.0,0.0,0.0,0.0,0.0,0.0,0.0,0.0,Magnoliopsida; Tracheophyta; Eucalyptus L'Hér.; Vitis vinifera L.; Pinus pinaster Aiton
2009,2009-08-12,Porto,Santo Tirso,Negrelos (são Mamede),RUA DA MADRUGADA (São Mamede),41.3454928,-8.346137691061966,NC,182.0,2009-08-12T20:00,26.3,69,20.0,29.3,0.0,0.0,0.0,0.0,0,1015.1,994.3,10,0,9,15,0.04,1.08,6.2,9.8,339,352,13.0,26.4,24.7,20.0,17.1,0.143,0.221,0.26,0.338,0,0.0,0.0,0.0,0.0,0.0,0.0,0.0,13.0,5.0,8.0,57.9,13.0,56.7,Vitis vinifera L.; Pinus pinaster Aiton; Magnoliopsida; Quercus L.; Eucalyptus L'Hér.
2009,2009-08-14,Porto,Penafiel,Abragão,LG SARDOAL (ABRAGÃO),41.17862,-8.226765,NC,524.0,2009-08-14T19:00,28.0,51,16.8,29.5,0.0,0.0,0.0,0.0,0,1013.4,955.2,13,0,21,0,0.11,1.86,5.8,7.0,300,305,16.6,29.0,25.5,20.2,16.3,0.137,0.159,0.207,0.334,1,3600.0,50.7,31.6,19.1,360.9,50.7,116.6,106.0,66.0,40.0,360.9,106.0,243.8,Tracheophyta; Eucalyptus L'Hér.; Magnoliopsida; Pinus pinaster Aiton
2009,2009-08-14,Porto,Felgueiras,Revinhade,LG. RAPADISSA (REVINHA DE CASA NOVA),41.3480916,-8.2667541,NC,394.0,2009-08-14T16:00,30.3,41,15.8,31.6,0.3,0.3,0.0,0.0,51,1013.6,969.8,18,0,17,25,0.48,2.53,7.7,10.0,311,311,24.5,33.2,24.6,19.7,16.2,0.104,0.194,0.245,0.334,1,3600.0,556.4,448.2,108.2,718.5,556.4,831.6,617.0,497.0,120.0,718.5,617.0,922.1,Tracheophyta; Eucalyptus L'Hér.; Pinus pinaster Aiton; Vitis vinifera L.; Magnoliopsida
2009,2009-08-13,Porto,TROFA,Covelas,L.RINDO (Campos de Rindo),41.3008521,-8.5349796,NC,115.0,2009-08-13T01:00,23.9,76,19.4,27.4,0.0,0.0,0.0,0.0,0,1015.3,1002.0,5,0,8,0,0.0,0.72,0.5,1.8,135,127,9.7,22.0,24.9,20.9,17.8,0.138,0.181,0.217,0.334,0,0.0,0.0,0.0,0.0,0.0,0.0,0.0,0.0,0.0,0.0,0.0,0.0,0.0,Magnoliopsida; Pinus pinaster Aiton; Vitis vinifera L.; Quercus L.; Tracheophyta; Eucalyptus L'Hér.; Olea europaea L.; ; Pinales
2009,2009-08-14,Porto,Penafiel,Guilhufe,POVOA (GUILHUFE),41.19863835,-8.306141403902867,NC,204.0,2009-08-14T11:00,31.3,41,16.7,34.4,0.0,0.0,0.0,0.0,0,1014.1,991.2,0,0,0,0,0.58,2.68,4.4,5.2,99,102,17.6,30.9,24.1,20.8,17.3,0.129,0.182,0.228,0.334,1,3600.0,819.4,710.2,109.2,860.0,819.4,1100.9,773.0,670.0,103.0,860.0,773.0,1038.6,Tracheophyta; Vitis vinifera L.; Eucalyptus L'Hér.; Magnoliopsida
2009,2009-08-14,Porto,Marco de Canaveses,Soalhães,ABROLIDE (Aborlide),41.1603957,-8.0979057,NC,397.0,2009-08-14T13:00,32.0,33,13.6,35.1,0.0,0.0,0.0,0.0,0,1013.9,970.0,0,0,0,0,0.66,3.2,2.2,2.5,279,278,14.8,34.2,24.2,20.2,16.5,0.113,0.181,0.232,0.331,1,3600.0,889.8,774.9,114.8,873.0,889.8,1183.4,891.0,776.0,115.0,873.0,891.0,1185.1,Magnoliopsida; Tracheophyta; Quercus L.; Eucalyptus L'Hér.; Pinus pinaster Aiton; Vitis vinifera L.; Castanea sativa Mill.; Pinales; 
2009,2009-07-21,Porto,Vila Nova de Gaia,Gulpilhares,Francelos,41.0815672,-8.6474807,NC,29.0,2009-07-21T02:00,17.4,94,16.4,18.9,0.0,0.0,0.0,0.0,0,1014.2,1010.7,0,0,0,0,0.0,0.12,4.9,7.6,343,3,9.0,19.2,23.4,20.7,17.5,0.125,0.161,0.234,0.345,0,0.0,0.0,0.0,0.0,0.0,0.0,0.0,0.0,0.0,0.0,0.0,0.0,0.0,Tracheophyta; Magnoliopsida
2009,2009-08-11,Porto,Felgueiras,Jugueiros,JUGUEIROS,41.3969664,-8.1875708,Desconhecida,237.0,2009-08-11T01:00,18.4,70,12.8,17.9,0.0,0.0,0.0,0.0,0,1017.0,989.2,0,0,0,0,0.03,0.64,9.5,21.6,61,64,22.7,19.1,22.1,19.5,17.0,0.156,0.238,0.279,0.341,0,0.0,0.0,0.0,0.0,0.0,0.0,0.0,0.0,0.0,0.0,0.0,0.0,0.0,Magnoliopsida; Eucalyptus L'Hér.; Pinus pinaster Aiton
2009,2009-02-24,Porto,Paredes,Duas Igrejas,RUA ALTO DA VILA (Ribeiros Altos),41.230974,-8.3772602,NC,332.0,2009-02-24T21:00,11.0,70,5.8,9.4,0.0,0.0,0.0,0.0,0,1018.0,978.3,0,0,0,0,0.0,0.39,3.6,2.9,53,360,7.9,7.4,9.0,7.8,8.6,0.323,0.344,0.377,0.416,0,0.0,0.0,0.0,0.0,0.0,0.0,0.0,0.0,0.0,0.0,0.0,0.0,0.0,Magnoliopsida; Pinus pinaster Aiton; Eucalyptus L'Hér.; Tracheophyta; Vitis vinifera L.
2009,2009-08-13,Porto,Paços de Ferreira,Frazão,Lugar do Monte,41.2615463,-8.4087418,NC,298.0,2009-08-13T16:00,31.0,42,16.5,32.1,0.0,0.0,0.0,0.0,0,1013.8,980.5,17,0,18,20,0.43,2.62,7.7,10.1,323,325,24.8,33.3,24.8,20.0,16.8,0.107,0.195,0.241,0.334,1,3600.0,468.5,348.4,120.1,554.3,468.5,837.8,519.0,386.0,133.0,554.3,519.0,928.1,Eucalyptus L'Hér.; Tracheophyta; Magnoliopsida; Vitis vinifera L.; 
2009,2009-02-24,Porto,Felgueiras,Lagares,LG. MONTE DAS RUAS (LAGARES),41.368317,-8.22997325743235,NC,289.0,2009-02-24T21:00,11.1,72,6.2,9.9,0.0,0.0,0.0,0.0,0,1018.1,983.5,0,0,0,0,0.0,0.38,1.5,2.2,104,351,6.1,7.8,9.4,8.2,9.0,0.326,0.345,0.376,0.416,0,0.0,0.0,0.0,0.0,0.0,0.0,0.0,0.0,0.0,0.0,0.0,0.0,0.0,Vitis vinifera L.; Eucalyptus L'Hér.; Tracheophyta; Magnoliopsida
2009,2009-08-13,Porto,Gondomar,Lomba,LABERCOS (Lavercos),41.0617409,-8.4108172,NC,76.0,2009-08-13T00:00,26.2,67,19.5,28.9,0.0,0.0,0.0,0.0,0,1015.8,1007.0,7,0,11,0,0.02,1.13,6.1,7.8,298,326,12.2,23.3,25.9,21.4,18.3,0.124,0.176,0.221,0.333,0,0.0,0.0,0.0,0.0,0.0,0.0,0.0,0.0,0.0,0.0,0.0,0.0,0.0,Magnoliopsida; Eucalyptus L'Hér.; Vitis vinifera L.; Pinus pinaster Aiton; Tracheophyta; 
2009,2009-08-11,Porto,Vila do Conde,Tougues,LUGAR DE VILARINHO (Lugar da Granja),41.3609502,-8.7002432,NC,41.0,2009-08-11T10:00,26.9,51,15.8,28.4,0.0,0.0,0.0,0.0,0,1017.7,1013.0,0,0,0,0,0.45,1.75,7.1,8.7,24,48,18.4,26.4,22.2,20.3,17.9,0.121,0.198,0.233,0.329,1,3600.0,701.4,597.9,103.5,821.2,701.4,969.6,637.0,543.0,94.0,821.2,637.0,880.5,Tracheophyta; Eucalyptus L'Hér.
2009,2009-03-12,Porto,Penafiel,Duas Igrejas,LG. PINHEIRO (DUAS IGREJAS),41.1811673,-8.260343605021998,NC,444.0,2009-03-12T19:00,18.0,38,3.6,15.8,0.0,0.0,0.0,0.0,0,1020.8,969.2,0,0,0,0,0.05,1.27,4.6,5.2,39,25,7.9,12.2,11.0,8.3,7.8,0.326,0.35,0.365,0.405,0,144.04,0.0,0.0,0.0,0.0,0.0,0.0,16.0,8.0,8.0,91.4,16.0,61.1,Eucalyptus L'Hér.; Tracheophyta; Magnoliopsida
2009,2009-08-11,Porto,Penafiel,Recezinhos (são Mamede),ALEM (Alegria),41.2388072,-8.2129207,NC,305.0,2009-08-11T18:00,29.1,43,15.4,29.2,0.0,0.0,0.0,0.0,0,1016.0,981.7,0,0,0,0,0.3,2.28,11.7,18.1,315,319,28.1,29.6,23.6,19.4,16.5,0.131,0.201,0.242,0.334,1,3600.0,251.7,197.7,54.0,678.4,251.7,388.1,331.0,260.0,71.0,678.4,331.0,510.4,Eucalyptus L'Hér.; Tracheophyta; Vitis vinifera L.; Magnoliopsida; Quercus L.
2009,2009-07-21,Porto,Paços de Ferreira,Frazão,R. SAO MARTINHO (FRAZÃO),41.26283125,-8.406874611595253,NC,310.0,2009-07-21T10:00,21.0,67,14.6,21.7,0.0,0.0,0.0,0.0,1,1013.3,977.6,40,11,0,100,0.35,0.83,6.9,8.7,227,225,23.8,24.1,20.8,19.0,15.5,0.103,0.179,0.254,0.343,1,3600.0,624.8,312.4,312.4,405.8,624.8,1019.9,572.0,286.0,286.0,405.8,572.0,933.6,Eucalyptus L'Hér.; Tracheophyta; Magnoliopsida; Vitis vinifera L.; 
2009,2009-08-11,Porto,Lousada,Sousela,RIO (Ribas),41.3017441,-8.3101787,NC,256.0,2009-08-11T23:00,22.3,69,16.5,23.6,0.0,0.0,0.0,0.0,0,1017.1,987.5,0,0,0,0,0.02,0.82,6.6,9.9,77,44,10.8,21.6,23.7,19.8,16.9,0.12,0.208,0.249,0.336,0,0.0,0.0,0.0,0.0,0.0,0.0,0.0,0.0,0.0,0.0,0.0,0.0,0.0,Vitis vinifera L.; Eucalyptus L'Hér.; Tracheophyta; Pinus pinaster Aiton; Magnoliopsida
2009,2009-08-13,Porto,TROFA,Bougado (são Martinho),R. ALBERTO PIMENTEL (Santiago),41.3302367,-8.5724918,NC,31.0,2009-08-13T12:00,31.8,46,18.8,36.1,0.0,0.0,0.0,0.0,0,1014.7,1011.2,0,0,0,0,0.64,2.54,5.6,4.0,297,297,14.4,33.6,24.9,21.4,18.4,0.117,0.182,0.225,0.332,1,3600.0,863.8,740.4,123.4,839.4,863.8,1175.5,840.0,720.0,120.0,839.4,840.0,1143.0,Tracheophyta; Magnoliopsida; Pinales
2009,2009-07-21,Porto,Baião,Gestaçô,Quintinha,41.1677523,-7.9285981,NC,618.0,2009-07-21T15:00,22.5,53,12.4,20.6,0.0,0.0,0.0,0.0,2,1012.6,943.3,74,0,74,98,0.4,1.28,18.4,24.9,266,265,45.4,27.2,21.6,18.1,14.2,0.122,0.162,0.23,0.335,1,3600.0,532.1,148.4,383.7,184.5,532.1,1065.3,563.0,157.0,406.0,184.5,563.0,1127.2,Pinus pinaster Aiton; Magnoliopsida; Eucalyptus L'Hér.; Tracheophyta; Vitis vinifera L.; Quercus L.; 
2009,2009-08-13,Porto,Amarante,Lufrei,Santiago,41.276408,-8.0535287,NC,208.0,2009-08-13T15:00,33.6,35,16.0,35.5,0.0,0.0,0.0,0.0,0,1013.6,990.4,10,0,10,14,0.64,3.37,9.7,12.3,301,302,24.1,34.6,25.1,20.6,17.2,0.121,0.193,0.239,0.333,1,3600.0,726.4,603.3,123.1,798.0,726.4,1007.5,773.0,642.0,131.0,798.0,773.0,1072.1,Magnoliopsida; Tracheophyta; Pinus pinaster Aiton; Vitis vinifera L.; Eucalyptus L'Hér.; 
2009,2009-08-04,Porto,Gondomar,Covelo,RUA DA BOUÇA (Rua do Padre Dehon),41.103053,-8.4818908,NC,66.0,2009-08-04T01:00,17.0,91,15.5,17.5,0.0,0.0,0.0,0.0,1,1017.3,1009.4,25,1,0,81,0.0,0.17,9.0,16.2,355,357,14.0,18.5,21.5,20.3,18.0,0.192,0.192,0.214,0.337,0,0.0,0.0,0.0,0.0,0.0,0.0,0.0,0.0,0.0,0.0,0.0,0.0,0.0,Eucalyptus L'Hér.; Pinus pinaster Aiton; Magnoliopsida; Tracheophyta
2009,2009-08-13,Porto,Penafiel,Recezinhos (são Martinho),RUA DA AGRA (Rua da Alameda),41.2726266,-8.2833754,NC,290.0,2009-08-13T20:00,26.8,64,19.3,29.7,0.0,0.0,0.0,0.0,0,1013.9,981.1,6,0,8,5,0.04,1.27,4.1,4.2,285,301,9.4,27.1,25.3,20.2,16.8,0.108,0.198,0.246,0.335,0,0.0,0.0,0.0,0.0,0.0,0.0,0.0,11.0,4.0,7.0,48.0,11.0,52.6,Eucalyptus L'Hér.; Tracheophyta
2009,2009-08-15,Porto,Paredes,Beire,RUA OUTEIRO DE MOINHOS (BEIRE),41.2481887,-8.322918173550978,NC,217.0,2009-08-15T01:00,24.1,70,18.4,26.8,0.0,0.0,0.0,0.0,0,1013.9,989.0,7,0,12,0,0.0,0.89,2.6,1.5,106,45,6.5,22.0,25.3,20.9,17.2,0.125,0.179,0.226,0.334,0,0.0,0.0,0.0,0.0,0.0,0.0,0.0,0.0,0.0,0.0,0.0,0.0,0.0,Magnoliopsida; Pinus pinaster Aiton; Eucalyptus L'Hér.; Tracheophyta; Vitis vinifera L.; Quercus L.
2009,2009-07-21,Porto,Santo Tirso,Santo Tirso,ESCOLA CONDE SAO BENTO (SANTO TIRSO),41.35107,-8.4734104,NC,35.0,2009-07-21T15:00,22.1,63,14.7,22.3,0.0,0.0,0.0,0.0,2,1013.5,1009.4,50,0,38,91,0.37,0.98,9.8,12.2,246,246,35.3,26.9,22.4,20.2,17.1,0.112,0.17,0.245,0.339,1,3600.0,532.8,189.3,343.5,234.5,532.8,1069.3,563.0,200.0,363.0,234.5,563.0,1130.0,Tracheophyta; Vitis vinifera L.; Magnoliopsida
2009,2009-08-11,Porto,Amarante,Oliveira,LUGAR PINHEIRAL (Cimo do Lugar),41.2577063,-8.2015419,NC,228.0,2009-08-11T13:00,31.2,34,13.4,34.2,0.0,0.0,0.0,0.0,0,1017.3,991.7,0,0,0,0,0.68,3.01,3.4,4.5,72,76,18.0,31.2,22.4,19.8,17.0,0.143,0.194,0.232,0.336,1,3600.0,914.2,805.3,108.9,900.1,914.2,1191.4,915.0,806.0,109.0,900.1,915.0,1192.5,Magnoliopsida; Eucalyptus L'Hér.; Tracheophyta
2009,2009-03-13,Porto,TROFA,Covelas,R.RINDO (Campos de Rindo),41.3008521,-8.5349796,NC,115.0,2009-03-13T03:00,7.7,86,5.5,5.3,0.0,0.0,0.0,0.0,0,1020.5,1006.3,0,0,0,0,0.0,0.15,9.0,11.4,95,108,19.8,9.1,12.0,11.1,10.5,0.33,0.343,0.36,0.401,0,0.0,0.0,0.0,0.0,0.0,0.0,0.0,0.0,0.0,0.0,0.0,0.0,0.0,Magnoliopsida; Pinus pinaster Aiton; Vitis vinifera L.; Quercus L.; Tracheophyta; Eucalyptus L'Hér.; Olea europaea L.; ; Pinales
2009,2009-08-13,Porto,Penafiel,Duas Igrejas,Perafita,41.1864654,-8.2690378,NC,403.0,2009-08-13T11:00,29.9,39,14.6,32.1,0.0,0.0,0.0,0.0,1,1015.1,970.2,25,0,41,2,0.53,2.55,2.7,3.5,113,114,15.1,29.5,22.5,19.4,16.1,0.109,0.199,0.245,0.335,1,3600.0,765.0,650.6,114.4,784.4,765.0,1105.2,722.0,614.0,108.0,784.4,722.0,1043.1,Eucalyptus L'Hér.; Tracheophyta; Magnoliopsida
2009,2009-03-11,Porto,Vila Nova de Gaia,São Félix Da Marinha,Rua Leira do Monte,41.0305323,-8.6290322,NC,26.0,2009-03-11T07:00,7.4,78,3.9,4.8,0.0,0.0,0.0,0.0,1,1022.7,1019.5,30,0,0,99,0.0,0.22,7.9,10.4,74,76,15.5,8.7,11.6,11.9,11.6,0.314,0.326,0.324,0.37,1,0.0,0.0,0.0,0.0,0.0,0.0,13.4,0.0,0.0,0.0,0.0,0.0,0.0,Eucalyptus L'Hér.; Magnoliopsida; Tracheophyta; Pinales; Pinus pinaster Aiton
2009,2009-08-14,Porto,Penafiel,Paço de Sousa,Alvite,41.1611633,-8.3310803,NC,182.0,2009-08-14T08:00,25.4,68,19.1,28.1,0.0,0.0,0.0,0.0,0,1013.7,992.8,2,2,0,0,0.17,1.03,4.3,7.2,95,108,13.0,24.0,23.7,20.9,17.4,0.13,0.183,0.228,0.334,1,3600.0,339.8,255.2,84.6,611.3,339.8,556.4,265.0,199.0,66.0,611.3,265.0,433.9,Tracheophyta; Eucalyptus L'Hér.; Magnoliopsida
2009,2009-08-04,Porto,Gondomar,São Pedro da Cova,LG. PASSAL (SÃO PEDRO DA COVA),41.146305850000005,-8.513812231973976,NC,128.0,2009-08-04T14:00,25.5,62,17.8,27.2,0.0,0.0,0.0,0.0,2,1016.4,1001.6,73,49,0,96,0.49,1.22,13.9,17.2,301,303,24.5,28.3,21.6,19.9,17.6,0.184,0.189,0.213,0.337,1,3600.0,700.4,384.3,316.2,441.8,700.4,1155.9,720.0,395.0,325.0,441.8,720.0,1188.2,Magnoliopsida; Eucalyptus L'Hér.; Tracheophyta; Vitis vinifera L.; Pinus pinaster Aiton
2009,2009-03-12,Porto,Santo Tirso,Rebordões,S.JOÃO CARVALHINHO (REBORDÕES),41.35577895,-8.429935983976033,NC,112.0,2009-03-12T19:00,18.1,56,9.1,17.0,0.0,0.0,0.0,0.0,0,1020.6,1007.3,0,0,0,0,0.05,0.92,6.2,5.5,353,349,9.7,14.5,13.3,10.7,10.1,0.315,0.339,0.357,0.404,0,214.53,0.0,0.0,0.0,0.0,0.0,0.0,17.0,9.0,8.0,100.1,17.0,64.4,Tracheophyta; Magnoliopsida; Eucalyptus L'Hér.; Vitis vinifera L.
2009,2009-07-21,Porto,Marco de Canaveses,Soalhães,SAO SALVADOR (São Salvador),41.1453478,-8.1157077,NC,282.0,2009-07-21T16:00,22.5,57,13.5,22.4,0.0,0.0,0.0,0.0,1,1013.1,980.7,40,0,24,87,0.35,1.17,8.5,10.7,258,258,29.2,27.4,22.7,19.4,15.9,0.111,0.185,0.255,0.344,1,3600.0,459.7,197.0,262.7,289.8,459.7,900.6,504.0,216.0,288.0,289.8,504.0,987.5,Magnoliopsida; Tracheophyta; Quercus L.; Eucalyptus L'Hér.; Pinus pinaster Aiton; Vitis vinifera L.; Castanea sativa Mill.; Pinales; 
2009,2009-07-21,Porto,Vila Nova de Gaia,Pedroso,Rua Nova das Alheiras,41.064143,-8.5572235,NC,131.0,2009-07-21T18:00,20.8,65,14.1,21.0,0.3,0.3,0.0,0.0,51,1012.6,997.3,34,0,15,85,0.22,0.85,8.3,10.2,252,252,28.8,25.8,22.8,20.1,16.9,0.128,0.16,0.233,0.345,1,3600.0,282.8,195.7,87.1,553.3,282.8,468.5,354.0,245.0,109.0,553.3,354.0,586.6,Magnoliopsida; Eucalyptus L'Hér.; Tracheophyta
2009,2009-08-13,Porto,Felgueiras,Sendim,CASAL (Casa da Fonte),41.38367325,-8.1645395125,NC,473.0,2009-08-13T18:00,28.6,48,16.6,30.2,0.1,0.1,0.0,0.0,51,1014.0,961.4,23,0,10,56,0.15,2.02,4.7,6.9,302,313,21.2,29.4,24.4,19.4,16.0,0.126,0.203,0.251,0.334,1,3600.0,110.0,73.1,36.9,259.9,110.0,374.7,146.0,97.0,49.0,259.9,146.0,497.4,Vitis vinifera L.; Pinus pinaster Aiton; Eucalyptus L'Hér.; Tracheophyta; Magnoliopsida
2009,2009-08-15,Porto,Vila Nova de Gaia,Sandim,TRAV. GOUJEVA (SANDIM),41.03179875,-8.511874666518008,NC,151.0,2009-08-15T14:00,28.6,49,17.0,30.0,0.0,0.0,0.0,0.0,0,1015.5,998.3,19,6,16,12,0.6,1.99,16.4,20.4,310,311,36.0,34.6,26.3,21.9,18.2,0.115,0.129,0.166,0.302,1,3600.0,771.7,569.8,201.9,675.3,771.7,1125.4,795.0,587.0,208.0,675.3,795.0,1159.3,Eucalyptus L'Hér.; Tracheophyta; Magnoliopsida
2009,2009-07-21,Porto,Maia,Águas Santas,A3 KM 6 (A3-S-N Km 6),41.2077591,-8.5727501,NC,123.0,2009-07-21T19:00,20.1,70,14.4,20.1,0.0,0.0,0.0,0.0,0,1012.4,998.0,18,0,13,33,0.11,0.72,9.9,12.6,237,233,20.9,23.8,22.6,20.1,16.9,0.132,0.161,0.232,0.34,1,3600.0,91.9,42.7,49.2,253.0,91.9,223.6,142.0,66.0,76.0,253.0,142.0,345.7,Tracheophyta; Pinus pinaster Aiton; Magnoliopsida; Eucalyptus L'Hér.; 
2009,2009-08-15,Porto,Amarante,Real,Ramalhada,41.2668833,-8.072193852545904,Desconhecida,87.0,2009-08-15T14:00,31.2,48,19.0,34.4,0.1,0.1,0.0,0.0,51,1015.0,1005.1,7,0,8,7,0.64,2.34,11.5,14.4,290,292,28.8,34.7,26.2,21.9,18.1,0.12,0.186,0.237,0.332,1,3600.0,798.6,640.4,158.2,761.7,798.6,1121.4,823.0,660.0,163.0,761.7,823.0,1155.6,Magnoliopsida; Tracheophyta; Eucalyptus L'Hér.; Vitis vinifera L.; Pinus pinaster Aiton
2009,2009-08-11,Porto,Marco de Canaveses,Manhuncelos,L.BOI MORTO (Boi Morto),41.1491999,-8.140302,NC,370.0,2009-08-11T15:00,31.5,31,12.2,33.1,0.0,0.0,0.0,0.0,0,1016.5,975.3,0,0,0,0,0.61,3.21,5.3,6.2,332,339,20.5,33.4,23.7,20.3,17.1,0.139,0.17,0.212,0.335,1,3600.0,764.5,655.4,109.1,859.7,764.5,1015.3,813.0,697.0,116.0,859.7,813.0,1079.7,Magnoliopsida; Pinus pinaster Aiton; Eucalyptus L'Hér.; Tracheophyta; Vitis vinifera L.; ; Quercus L.
2009,2009-08-13,Porto,Maia,Pedrouços,RUA BORRALHA (Rua da Borralha),41.1878015,-8.5872773,NC,140.0,2009-08-13T14:00,32.2,44,18.4,35.3,0.0,0.0,0.0,0.0,0,1013.8,998.1,8,2,8,4,0.64,2.68,10.0,11.6,285,286,19.1,34.4,25.2,20.9,17.8,0.128,0.172,0.217,0.331,1,3600.0,777.2,640.2,137.0,754.1,777.2,1131.4,800.0,659.0,141.0,754.1,800.0,1164.6,Tracheophyta; Magnoliopsida; 
2009,2009-08-06,Porto,Marco de Canaveses,Alpendurada e Matos,VILA CETIM (Vila Cete),41.0866803,-8.2483748,NC,142.0,2009-08-06T13:00,23.4,60,15.2,24.3,0.0,0.0,0.0,0.0,2,1019.7,1003.2,79,83,7,0,0.48,1.16,12.8,15.5,302,306,27.0,26.5,21.9,19.9,17.4,0.183,0.221,0.247,0.337,1,3600.0,733.8,463.8,269.9,511.5,733.8,1205.8,734.0,464.0,270.0,511.5,734.0,1206.2,Tracheophyta; Vitis vinifera L.; Pinus pinaster Aiton; Magnoliopsida; Castanea sativa Mill.; Eucalyptus L'Hér.
2009,2009-08-06,Porto,Maia,Nogueira,R. MANUEL SOUSA MARQUES (Rua Manuel Sousa Marques),41.2269524,-8.5875852,NC,77.0,2009-08-06T23:00,17.5,87,15.3,17.6,0.0,0.0,0.0,0.0,0,1020.8,1011.6,0,0,0,0,0.01,0.26,11.3,18.7,323,332,21.6,19.7,22.1,20.3,17.9,0.168,0.197,0.225,0.334,0,0.0,0.0,0.0,0.0,0.0,0.0,0.0,0.0,0.0,0.0,0.0,0.0,0.0,Magnoliopsida; Eucalyptus L'Hér.; Tracheophyta; Pinus pinaster Aiton; 
2009,2009-08-14,Porto,Paredes,Lordelo,Parteira,41.2327379,-8.4330482,NC,235.0,2009-08-14T09:00,27.1,59,18.5,29.7,0.0,0.0,0.0,0.0,0,1013.9,987.2,0,0,0,0,0.31,1.46,3.4,4.9,108,107,10.8,26.2,23.7,20.7,17.2,0.135,0.164,0.208,0.334,1,3600.0,529.2,433.9,95.4,741.4,529.2,780.1,455.0,373.0,82.0,741.4,455.0,670.6,Magnoliopsida; Pinus pinaster Aiton; Eucalyptus L'Hér.; Tracheophyta; Vitis vinifera L.
2009,2009-03-13,Porto,Lousada,Caíde de Rei,LG. MOURO (CAIDE DE REI),41.26795235,-8.22517144999999,NC,255.0,2009-03-13T15:00,21.0,48,9.5,20.5,0.0,0.0,0.0,0.0,0,1020.3,990.6,0,0,0,0,0.41,1.3,7.6,9.4,273,272,22.0,19.0,11.9,9.6,9.0,0.319,0.345,0.364,0.405,1,3600.0,614.7,531.5,83.2,903.9,614.7,814.4,665.0,575.0,90.0,903.9,665.0,881.1,Eucalyptus L'Hér.; Tracheophyta; Magnoliopsida
2009,2009-08-14,Porto,Amarante,Vila Garcia,Herdade,41.3115133,-8.0796338,NC,247.0,2009-08-14T10:00,29.6,45,16.6,31.6,0.0,0.0,0.0,0.0,0,1014.4,986.6,0,0,0,0,0.47,2.27,5.8,7.6,97,98,17.6,28.4,23.6,20.5,17.0,0.124,0.191,0.239,0.333,1,3600.0,699.2,594.6,104.6,820.3,699.2,966.3,635.0,540.0,95.0,820.3,635.0,877.6,Tracheophyta; Eucalyptus L'Hér.; Pinus pinaster Aiton; Magnoliopsida; Vitis vinifera L.; 
2009,2009-03-13,Porto,Santo Tirso,Sequeiró,MONTES ALTOS (Montes de Pisões),41.35107,-8.4734104,NC,35.0,2009-03-13T16:00,20.0,59,11.7,19.3,0.0,0.0,0.0,0.0,0,1020.4,1016.2,0,0,0,0,0.31,0.96,8.4,10.5,277,278,16.6,19.3,13.9,11.7,11.1,0.305,0.332,0.358,0.397,1,3600.0,461.5,389.3,72.3,847.1,461.5,636.4,530.0,447.0,83.0,847.1,530.0,730.9,Tracheophyta; Vitis vinifera L.; Magnoliopsida
2009,2009-08-11,Porto,Vila Nova de Gaia,Crestuma,R. CIMA (Raza de Cima),41.0672014,-8.51628885774278,NC,167.0,2009-08-11T17:00,29.6,44,16.2,29.3,0.0,0.0,0.0,0.0,0,1016.0,997.1,0,0,0,0,0.45,2.31,17.0,22.4,328,330,33.8,32.3,24.9,20.5,17.7,0.131,0.164,0.206,0.334,1,3600.0,443.1,369.8,73.3,777.5,443.1,633.5,520.0,434.0,86.0,777.5,520.0,743.5,Eucalyptus L'Hér.; Pinus pinaster Aiton; Magnoliopsida; Tracheophyta
2009,2009-08-12,Porto,Lousada,Macieira,PERTO DA SRA. DA APARECIDA (Senhora da Aparecida),41.2904579,-8.244309535049862,NC,224.0,2009-08-12T04:00,17.9,86,15.5,18.8,0.0,0.0,0.0,0.0,0,1016.6,990.3,4,0,6,0,0.0,0.29,6.8,13.3,93,88,16.6,19.0,22.8,19.9,17.0,0.139,0.192,0.231,0.335,0,0.0,0.0,0.0,0.0,0.0,0.0,0.0,0.0,0.0,0.0,0.0,0.0,0.0,Vitis vinifera L.; Tracheophyta; Magnoliopsida
2009,2009-08-12,Porto,Lousada,Aveleda,AVELEDA,41.27919145,-8.25271355,NC,212.0,2009-08-12T15:00,33.2,33,14.8,34.7,0.0,0.0,0.0,0.0,0,1015.5,991.8,18,0,29,3,0.57,3.4,6.6,7.9,299,300,17.3,33.6,24.3,20.3,17.3,0.114,0.204,0.248,0.335,1,3600.0,657.3,539.8,117.5,710.4,657.3,1012.3,699.0,574.0,125.0,710.4,699.0,1076.5,Vitis vinifera L.; Magnoliopsida; Tracheophyta; Pinus pinaster Aiton; Eucalyptus L'Hér.
2009,2009-08-14,Porto,Penafiel,Portela,Monte,41.1077057,-8.2950347,NC,181.0,2009-08-14T13:00,33.4,35,15.9,36.3,0.0,0.0,0.0,0.0,0,1013.4,993.2,0,0,0,0,0.7,3.33,7.5,8.4,287,290,20.9,34.9,25.2,21.1,17.6,0.118,0.185,0.237,0.333,1,3600.0,883.2,758.3,124.9,853.4,883.2,1184.6,884.0,759.0,125.0,853.4,884.0,1185.7,Tracheophyta; Vitis vinifera L.; Magnoliopsida; Eucalyptus L'Hér.
2009,2009-08-15,Porto,Vila Nova de Gaia,Pedroso,RUA RIO DA COSTA (Rua Rio de Valadarinhos),41.064143,-8.5572235,NC,131.0,2009-08-15T01:00,21.1,91,19.6,24.4,0.0,0.0,0.0,0.0,0,1013.9,998.6,10,1,16,0,0.0,0.23,2.7,7.2,337,354,10.4,22.8,25.8,21.5,18.0,0.123,0.165,0.217,0.336,0,0.0,0.0,0.0,0.0,0.0,0.0,0.0,0.0,0.0,0.0,0.0,0.0,0.0,Magnoliopsida; Eucalyptus L'Hér.; Tracheophyta
2009,2009-08-14,Porto,Gondomar,Baguim Do Monte (rio Tinto),R DA MORENA (Rio Tinto),41.1856584,-8.5478074,NC,89.0,2009-08-14T15:00,31.5,46,18.6,34.0,0.0,0.0,0.0,0.0,0,1013.1,1003.0,0,0,0,0,0.6,2.49,12.4,14.9,306,307,25.2,35.7,26.6,21.8,18.3,0.11,0.165,0.213,0.329,1,3600.0,706.0,597.9,108.1,790.3,706.0,1008.6,751.0,636.0,115.0,790.3,751.0,1072.8,Tracheophyta; Magnoliopsida
2009,2009-08-14,Porto,Felgueiras,Revinhade,REVINHADE (REVINHA DE CASA NOVA),41.3503099,-8.26845642501457,NC,372.0,2009-08-14T14:00,31.7,35,14.2,33.3,0.0,0.0,0.0,0.0,0,1013.3,972.1,3,0,5,0,0.6,3.05,7.2,8.5,297,298,19.4,32.6,23.7,19.7,16.3,0.123,0.209,0.261,0.336,1,3600.0,741.6,604.7,136.9,717.2,741.6,1124.1,764.0,623.0,141.0,717.2,764.0,1158.1,Tracheophyta; Eucalyptus L'Hér.; Vitis vinifera L.; Magnoliopsida
2009,2009-08-07,Porto,Amarante,Oliveira,LUGAR DE PINHEIRAL (Cimo do Lugar),41.2577063,-8.2015419,NC,228.0,2009-08-07T17:00,23.1,59,14.7,22.8,0.0,0.0,0.0,0.0,0,1017.7,991.4,0,0,0,0,0.35,1.16,12.4,16.6,292,294,29.2,26.4,21.7,19.4,16.8,0.18,0.213,0.236,0.337,1,3600.0,458.6,375.6,83.0,773.2,458.6,646.2,536.0,439.0,97.0,773.2,536.0,755.2,Magnoliopsida; Eucalyptus L'Hér.; Tracheophyta
2009,2009-08-12,Porto,Gondomar,Baguim Do Monte (rio Tinto),RUA QUINTA DA MISSILVA (Rio Tinto),41.1856584,-8.5478074,NC,89.0,2009-08-12T18:00,29.4,53,18.7,31.0,0.0,0.0,0.0,0.0,0,1015.2,1005.1,19,0,17,30,0.24,1.94,10.5,16.5,319,324,25.6,31.8,26.3,21.2,18.2,0.114,0.171,0.215,0.33,1,3600.0,196.7,141.3,55.4,486.1,196.7,387.2,259.0,186.0,73.0,486.1,259.0,509.8,Tracheophyta; Magnoliopsida
2009,2009-08-13,Porto,Santo Tirso,Refojos de Riba de Ave,Represas,41.2920945,-8.4471657,NC,216.0,2009-08-13T18:00,29.6,48,17.5,31.1,0.0,0.0,0.0,0.0,0,1013.2,988.9,5,0,6,4,0.23,2.14,8.2,11.2,319,327,19.1,31.0,25.8,20.6,17.3,0.107,0.194,0.24,0.333,1,3600.0,183.8,136.9,46.9,479.2,183.8,380.8,243.0,181.0,62.0,479.2,243.0,503.4,Tracheophyta; Magnoliopsida; Pinus pinaster Aiton; Vitis vinifera L.; Eucalyptus L'Hér.
2009,2009-08-13,Porto,Santo Tirso,Refojos de Riba de Ave,Granja,41.2900911,-8.449605690885416,NC,179.0,2009-08-13T22:00,25.8,67,19.2,29.1,0.0,0.0,0.0,0.0,0,1014.7,994.2,2,0,3,0,0.0,1.1,1.1,3.1,108,111,9.0,24.7,25.8,20.9,17.5,0.107,0.194,0.24,0.333,0,0.0,0.0,0.0,0.0,0.0,0.0,0.0,0.0,0.0,0.0,0.0,0.0,0.0,Tracheophyta; Magnoliopsida; Pinus pinaster Aiton; Vitis vinifera L.; Eucalyptus L'Hér.
2009,2009-08-12,Porto,TROFA,Coronado (são Romão),MONTE CABRITO (Monte),41.2651514,-8.574618,NC,145.0,2009-08-12T08:00,24.5,66,17.7,26.1,0.0,0.0,0.0,0.0,0,1016.5,999.8,0,0,0,0,0.19,1.05,8.5,16.6,78,91,19.1,22.7,22.7,20.3,17.6,0.123,0.188,0.227,0.332,1,3600.0,344.3,261.1,83.2,622.9,344.3,558.4,269.0,204.0,65.0,622.9,269.0,436.3,Eucalyptus L'Hér.; Tracheophyta; Magnoliopsida; Pinales
2009,2009-03-13,Porto,Felgueiras,Idães,LG. SANTANA (IDÃES),41.33916045,-8.250937848621906,NC,339.0,2009-03-13T11:00,19.2,46,7.3,18.7,0.0,0.0,0.0,0.0,0,1022.2,982.6,0,0,0,0,0.36,1.21,2.1,2.4,211,207,13.0,15.2,9.7,9.2,8.6,0.327,0.346,0.363,0.405,1,3600.0,672.1,578.9,93.2,899.5,672.1,891.5,620.0,534.0,86.0,899.5,620.0,822.4,Pinus pinaster Aiton; Tracheophyta; Eucalyptus L'Hér.; Magnoliopsida; Vitis vinifera L.
2009,2009-08-07,Porto,Lousada,Barrosas (santo Estêvão),LG. BOAVISTA (BARROSAS),41.3304749,-8.278377873955424,NC,382.0,2009-08-07T22:00,17.3,83,14.3,18.2,0.0,0.0,0.0,0.0,0,1018.3,973.7,17,0,0,56,0.0,0.34,3.3,2.9,193,263,10.1,18.5,20.7,18.5,15.9,0.168,0.231,0.254,0.338,0,0.0,0.0,0.0,0.0,0.0,0.0,0.0,0.0,0.0,0.0,0.0,0.0,0.0,Magnoliopsida; Eucalyptus L'Hér.; Quercus L.; Tracheophyta
2009,2009-03-13,Porto,Paços de Ferreira,Ferreira,L.GILDE (Gilde),41.2661016,-8.338605,NC,357.0,2009-03-13T01:00,5.1,89,3.5,2.9,0.0,0.0,0.0,0.0,0,1021.4,977.8,0,0,0,0,0.0,0.09,4.7,7.2,99,96,14.0,7.4,10.5,9.1,8.5,0.327,0.348,0.363,0.405,0,0.0,0.0,0.0,0.0,0.0,0.0,0.0,0.0,0.0,0.0,0.0,0.0,0.0,Eucalyptus L'Hér.; Tracheophyta; Magnoliopsida; Quercus L.; Pinus pinaster Aiton; 
2009,2009-08-14,Porto,Baião,Grilo,LAVRE (Lavra),41.1392744,-8.0770423,NC,481.0,2009-08-14T02:00,23.1,73,18.0,25.8,0.0,0.0,0.0,0.0,0,1014.5,960.0,0,0,0,0,0.0,0.76,1.6,1.3,63,326,4.7,20.8,24.3,20.2,16.5,0.143,0.162,0.209,0.334,0,0.0,0.0,0.0,0.0,0.0,0.0,0.0,0.0,0.0,0.0,0.0,0.0,0.0,Tracheophyta; Magnoliopsida; Pinus pinaster Aiton; Castanea sativa Mill.; 
2009,2009-08-12,Porto,Gondomar,Medas,REBENTAO (MEDAS),41.0567753,-8.4328366,NC,103.0,2009-08-12T23:00,26.6,64,19.2,29.9,0.0,0.0,0.0,0.0,0,1015.6,1003.8,6,0,10,0,0.0,1.26,1.6,4.6,27,51,8.6,24.0,25.9,21.2,18.1,0.124,0.176,0.221,0.333,0,0.0,0.0,0.0,0.0,0.0,0.0,0.0,0.0,0.0,0.0,0.0,0.0,0.0,Eucalyptus L'Hér.; Magnoliopsida; Pinus pinaster Aiton; Tracheophyta
2009,2009-08-12,Porto,Marco de Canaveses,Vila Boa de Quires,LUG. S. SEBASTIÃO (VILA BOA DE QUIRES),41.200721,-8.203458,NC,308.0,2009-08-12T23:00,26.0,60,17.6,28.2,0.0,0.0,0.0,0.0,0,1015.9,980.9,5,0,9,0,0.01,1.35,3.8,3.9,107,68,8.6,22.5,24.2,19.7,16.5,0.125,0.196,0.24,0.334,0,0.0,0.0,0.0,0.0,0.0,0.0,0.0,0.0,0.0,0.0,0.0,0.0,0.0,Pinus pinaster Aiton; Tracheophyta; Eucalyptus L'Hér.; Magnoliopsida; Vitis vinifera L.; Quercus L.; Pinales; 
2009,2009-08-14,Porto,Vila Nova de Gaia,Canidelo,RUA CERRO (Rua Circular do Cerro),41.1241881,-8.6485236,NC,52.0,2009-08-14T17:00,29.1,53,18.6,30.0,0.0,0.0,0.0,0.0,0,1012.6,1006.7,1,0,1,1,0.37,1.89,15.7,19.5,328,335,27.4,33.0,26.9,21.9,18.5,0.124,0.165,0.217,0.336,1,3600.0,361.8,270.0,91.7,578.6,361.8,622.2,426.0,318.0,108.0,578.6,426.0,732.8,Magnoliopsida; Tracheophyta
2009,2009-08-14,Porto,Amarante,Real,Ermida,41.2887281,-8.1964066,Desconhecida,373.0,2009-08-14T01:00,23.7,70,17.8,25.9,0.0,0.0,0.0,0.0,0,1014.4,971.9,0,0,0,0,0.0,0.89,3.9,4.2,124,160,7.2,20.9,24.1,19.8,16.3,0.109,0.196,0.244,0.334,0,0.0,0.0,0.0,0.0,0.0,0.0,0.0,0.0,0.0,0.0,0.0,0.0,0.0,Eucalyptus L'Hér.; Tracheophyta; Magnoliopsida; Vitis vinifera L.
2009,2009-08-15,Porto,Paredes,Cete,ALTO MONTE (Alto da Parteira),41.1782871,-8.3649391,NC,151.0,2009-08-15T03:00,23.1,78,19.1,26.0,0.0,0.0,0.0,0.0,0,1013.5,996.0,5,1,7,0,0.0,0.62,3.6,4.6,360,342,8.6,21.6,25.5,21.5,17.8,0.132,0.161,0.207,0.334,0,0.0,0.0,0.0,0.0,0.0,0.0,0.0,0.0,0.0,0.0,0.0,0.0,0.0,Magnoliopsida; Pinus pinaster Aiton; Eucalyptus L'Hér.; Tracheophyta; Vitis vinifera L.
2009,2009-08-08,Porto,Lousada,Macieira,São Gonçalo,41.28549005,-8.24540774533476,NC,230.0,2009-08-08T12:00,25.3,54,15.4,28.2,0.0,0.0,0.0,0.0,1,1015.8,989.5,29,0,0,96,0.56,1.48,4.9,6.2,343,353,18.4,27.4,20.8,19.6,16.9,0.158,0.226,0.252,0.337,1,3600.0,850.7,632.9,217.8,708.0,850.7,1189.3,828.0,616.0,212.0,708.0,828.0,1157.6,Vitis vinifera L.; Magnoliopsida; Tracheophyta; Pinus pinaster Aiton; Eucalyptus L'Hér.
2009,2009-08-13,Porto,Amarante,Telões,L.SARDÃO (Casa do Sardão),41.2933712,-8.097429097698791,NC,172.0,2009-08-13T00:00,25.9,63,18.4,28.5,0.0,0.0,0.0,0.0,0,1015.8,996.1,9,0,15,0,0.01,1.23,3.9,3.6,112,84,9.4,22.5,24.9,20.6,17.4,0.125,0.196,0.24,0.334,0,0.0,0.0,0.0,0.0,0.0,0.0,0.0,0.0,0.0,0.0,0.0,0.0,0.0,Magnoliopsida; Pinus pinaster Aiton; Tracheophyta; Vitis vinifera L.; Eucalyptus L'Hér.; 
2009,2009-08-14,Porto,Paredes,Lordelo,Parteira,41.2327379,-8.4330482,NC,235.0,2009-08-14T12:00,31.8,39,16.2,35.5,0.0,0.0,0.0,0.0,0,1013.7,987.4,0,0,0,0,0.63,2.86,2.9,2.5,277,278,13.7,33.0,24.5,20.7,17.2,0.133,0.163,0.208,0.334,1,3600.0,871.6,748.3,123.3,849.5,871.6,1174.2,848.0,728.0,120.0,849.5,848.0,1142.4,Magnoliopsida; Pinus pinaster Aiton; Eucalyptus L'Hér.; Tracheophyta; Vitis vinifera L.
2009,2009-08-08,Porto,Paredes,Parada de Todeia,LUGAR DE REDONDO (Lugar),41.1690637,-8.3770562,NC,191.0,2009-08-08T15:00,26.0,54,15.9,26.3,0.0,0.0,0.0,0.0,0,1014.4,992.6,16,7,2,27,0.5,1.56,17.2,21.9,327,330,32.4,28.5,21.8,19.8,17.2,0.169,0.189,0.216,0.337,1,3600.0,654.6,484.1,170.5,626.8,654.6,1027.6,695.0,514.0,181.0,626.8,695.0,1090.9,Magnoliopsida; Pinus pinaster Aiton; Eucalyptus L'Hér.; Tracheophyta; Vitis vinifera L.
2009,2009-08-09,Porto,Matosinhos,Leça Do Balio,RUA ESTAÇÃO DO ARAUJO (Rua da Estação Velha),41.2129235,-8.628658,NC,63.0,2009-08-09T01:00,18.2,76,13.9,16.3,0.0,0.0,0.0,0.0,0,1015.4,1007.9,17,0,0,58,0.05,0.5,22.0,34.2,1,8,36.7,20.0,22.3,20.4,18.1,0.153,0.19,0.223,0.334,0,0.0,0.0,0.0,0.0,0.0,0.0,0.0,0.0,0.0,0.0,0.0,0.0,0.0,Tracheophyta; Magnoliopsida
2009,2009-08-15,Porto,Gondomar,Gondomar (são Cosme),RUA CENTRAL DE ERMENTAO (GONDOMAR),41.13527305,-8.534103623752394,NC,121.0,2009-08-15T19:00,24.6,65,17.5,25.9,0.0,0.0,0.0,0.0,0,1015.7,1001.7,7,0,12,0,0.11,1.09,9.7,13.0,315,321,19.4,28.9,26.8,22.0,18.2,0.123,0.152,0.201,0.332,1,3600.0,55.2,34.6,20.6,391.9,55.2,117.6,115.0,72.0,43.0,391.9,115.0,245.0,Magnoliopsida; Tracheophyta; Eucalyptus L'Hér.
2009,2009-08-15,Porto,Vila do Conde,Macieira da Maia,RUA COMENDADOR (MACIEIRA DA MAIA),41.3406101,-8.673505187207983,NC,48.0,2009-08-15T23:00,19.8,90,18.2,21.3,0.0,0.0,0.0,0.0,0,1017.4,1011.7,1,1,0,0,0.0,0.22,10.1,16.2,333,343,18.7,22.6,25.4,21.9,18.3,0.096,0.179,0.232,0.329,0,0.0,0.0,0.0,0.0,0.0,0.0,0.0,0.0,0.0,0.0,0.0,0.0,0.0,Eucalyptus L'Hér.; Magnoliopsida
2009,2009-08-15,Porto,Amarante,Salvador do Monte,Monte,41.23979935,-8.095584015425107,NC,283.0,2009-08-15T15:00,30.1,47,17.6,32.5,0.0,0.0,0.0,0.0,0,1015.4,983.6,4,0,3,7,0.53,2.26,7.9,9.8,294,298,24.5,34.4,25.9,21.3,17.3,0.115,0.178,0.231,0.33,1,3600.0,644.1,477.0,167.1,635.7,644.1,1000.7,686.0,508.0,178.0,635.7,686.0,1065.8,Eucalyptus L'Hér.; Magnoliopsida; Pinus pinaster Aiton; Vitis vinifera L.; Tracheophyta; 
2009,2009-08-14,Porto,Marco de Canaveses,Vila Boa de Quires,QUATRO IRMAOS (Quatro Irmãos),41.2028475,-8.2047635,NC,275.0,2009-08-14T12:00,32.1,36,15.0,35.7,0.0,0.0,0.0,0.0,0,1013.9,983.3,0,0,0,0,0.63,3.08,1.1,1.3,108,124,15.5,32.4,24.0,20.4,16.8,0.123,0.19,0.238,0.333,1,3600.0,883.8,766.6,117.1,870.1,883.8,1174.6,860.0,746.0,114.0,870.1,860.0,1143.0,Pinus pinaster Aiton; Tracheophyta; Eucalyptus L'Hér.; Magnoliopsida; Vitis vinifera L.; Quercus L.; Pinales; 
2009,2009-08-15,Porto,Paços de Ferreira,Ferreira,LG. CAMINHO SANTIAGO (FERREIRA),41.2663712,-8.3445627,NC,331.0,2009-08-15T23:00,21.1,78,17.2,23.4,0.0,0.0,0.0,0.0,0,1017.4,979.2,7,0,12,0,0.0,0.54,2.1,1.8,211,191,6.5,22.8,25.0,20.5,16.7,0.101,0.189,0.243,0.333,0,0.0,0.0,0.0,0.0,0.0,0.0,0.0,0.0,0.0,0.0,0.0,0.0,0.0,Eucalyptus L'Hér.; Tracheophyta; Magnoliopsida; Quercus L.; Pinus pinaster Aiton; 
2009,2009-08-12,Porto,Marco de Canaveses,Vila Boa de Quires,Quatro Irmãos,41.2028475,-8.2047635,NC,275.0,2009-08-12T15:00,33.4,31,13.9,34.6,0.0,0.0,0.0,0.0,0,1015.5,984.9,18,0,29,3,0.57,3.54,6.6,7.9,299,300,17.3,33.2,23.9,19.8,16.7,0.126,0.197,0.241,0.334,1,3600.0,657.3,539.8,117.5,710.0,657.3,1012.7,699.0,574.0,125.0,710.0,699.0,1077.0,Pinus pinaster Aiton; Tracheophyta; Eucalyptus L'Hér.; Magnoliopsida; Vitis vinifera L.; Quercus L.; Pinales; 
2009,2009-08-13,Porto,Marco de Canaveses,Vila Boa de Quires,L.VURIS (VILA BOA DE QUIRES),41.200721,-8.203458,NC,308.0,2009-08-13T04:00,19.7,84,16.9,21.4,0.0,0.0,0.0,0.0,0,1014.6,978.9,4,0,6,0,0.0,0.37,4.8,5.4,103,90,11.5,19.6,23.2,19.8,16.5,0.125,0.196,0.24,0.334,0,0.0,0.0,0.0,0.0,0.0,0.0,0.0,0.0,0.0,0.0,0.0,0.0,0.0,Pinus pinaster Aiton; Tracheophyta; Eucalyptus L'Hér.; Magnoliopsida; Vitis vinifera L.; Quercus L.; Pinales; 
2009,2009-07-26,Porto,Amarante,Vila Caiz,LG BELMONTE (VILA CAIZ),41.2363821,-8.1443453,NC,327.0,2009-07-26T01:00,15.0,99,14.9,16.2,0.0,0.0,0.0,0.0,3,1021.1,982.4,90,100,0,0,0.0,0.01,2.8,1.4,140,270,6.5,16.1,19.9,18.9,15.9,0.262,0.265,0.248,0.34,0,0.0,0.0,0.0,0.0,0.0,0.0,0.0,0.0,0.0,0.0,0.0,0.0,0.0,Magnoliopsida; Pinus pinaster Aiton; Tracheophyta; Vitis vinifera L.; Eucalyptus L'Hér.; 
2009,2009-08-14,Porto,Marco de Canaveses,Sande,Montedeiras,41.1044716,-8.1815849,NC,279.0,2009-08-14T21:00,27.6,57,18.5,30.3,0.0,0.0,0.0,0.0,0,1013.7,982.2,7,0,11,0,0.01,1.57,3.2,4.3,333,360,7.9,26.3,26.2,20.9,17.2,0.118,0.182,0.236,0.334,0,0.0,0.0,0.0,0.0,0.0,0.0,0.0,0.0,0.0,0.0,0.0,0.0,0.0,Tracheophyta; Pinus pinaster Aiton; Vitis vinifera L.; Eucalyptus L'Hér.; Castanea sativa Mill.; Magnoliopsida; 
2009,2009-08-14,Porto,Gondomar,São Pedro da Cova,Cavada,41.1644674,-8.5385463,NC,101.0,2009-08-14T15:00,31.4,46,18.5,33.9,0.0,0.0,0.0,0.0,0,1013.1,1001.7,0,0,0,0,0.6,2.48,12.4,14.9,306,307,25.2,35.6,26.5,21.7,18.2,0.11,0.165,0.213,0.329,1,3600.0,706.0,597.9,108.1,790.3,706.0,1008.6,751.0,636.0,115.0,790.3,751.0,1072.8,Tracheophyta; Magnoliopsida
2009,2009-07-26,Porto,Vila Nova de Gaia,Oliveira do Douro,R DE SANTIAGO (Rua do Centro de Recr Pop de Sao Tiago),41.122296,-8.5819411,NC,100.0,2009-07-26T02:00,15.2,99,15.0,16.1,0.0,0.0,0.0,0.0,2,1020.6,1008.6,60,67,0,0,0.0,0.02,5.5,10.0,349,345,14.8,17.5,20.6,20.0,17.3,0.259,0.232,0.233,0.344,0,0.0,0.0,0.0,0.0,0.0,0.0,0.0,0.0,0.0,0.0,0.0,0.0,0.0,Magnoliopsida; Tracheophyta
2009,2009-08-12,Porto,Penafiel,Santa Marta,PORTELA MONTE (PORTELA),41.2068873,-8.2538497,NC,413.0,2009-08-12T09:00,26.0,50,14.7,26.1,0.0,0.0,0.0,0.0,0,1017.4,970.7,0,0,0,0,0.34,1.69,10.1,13.7,96,95,25.2,23.7,21.2,19.0,16.0,0.117,0.205,0.247,0.335,1,3600.0,538.2,441.9,96.3,745.8,538.2,789.4,464.0,381.0,83.0,745.8,464.0,680.5,Eucalyptus L'Hér.; Magnoliopsida; Tracheophyta
2009,2009-08-13,Porto,Felgueiras,Torrados,LUG DO ROSSO (TORRADOS),41.3564543,-8.237829418507914,Desconhecida,306.0,2009-08-13T14:00,32.4,36,15.6,34.6,0.0,0.0,0.0,0.0,0,1014.0,980.0,9,0,12,5,0.62,3.1,8.0,9.4,275,277,19.8,33.0,24.0,20.0,16.8,0.123,0.206,0.251,0.334,1,3600.0,755.3,603.9,151.4,713.9,755.3,1127.3,778.0,622.0,156.0,713.9,778.0,1161.1,Tracheophyta; Vitis vinifera L.; Magnoliopsida; Eucalyptus L'Hér.
2009,2009-08-14,Porto,Felgueiras,Pinheiro,PEDRE (Pedra de Galape),41.3684352,-8.152882,NC,497.0,2009-08-14T14:00,31.3,33,13.3,32.7,0.0,0.0,0.0,0.0,0,1013.7,959.0,11,0,18,0,0.58,3.04,5.5,6.3,281,283,17.3,32.5,23.6,19.5,15.9,0.122,0.199,0.25,0.333,1,3600.0,716.9,581.1,135.8,690.1,716.9,1122.5,739.0,599.0,140.0,690.1,739.0,1157.1,Pinus pinaster Aiton; Tracheophyta; Magnoliopsida; Vitis vinifera L.; Eucalyptus L'Hér.
