year,date,district,municipality,parish,local,latitude,longitude,cause,elevation,hourly.time,hourly.temperature_2m,hourly.relative_humidity_2m,hourly.dew_point_2m,hourly.apparent_temperature,hourly.precipitation,hourly.rain,hourly.snowfall,hourly.snow_depth,hourly.weather_code,hourly.pressure_msl,hourly.surface_pressure,hourly.cloud_cover,hourly.cloud_cover_low,hourly.cloud_cover_mid,hourly.cloud_cover_high,hourly.et0_fao_evapotranspiration,hourly.vapour_pressure_deficit,hourly.wind_speed_10m,hourly.wind_speed_100m,hourly.wind_direction_10m,hourly.wind_direction_100m,hourly.wind_gusts_10m,hourly.soil_temperature_0_to_7cm,hourly.soil_temperature_7_to_28cm,hourly.soil_temperature_28_to_100cm,hourly.soil_temperature_100_to_255cm,hourly.soil_moisture_0_to_7cm,hourly.soil_moisture_7_to_28cm,hourly.soil_moisture_28_to_100cm,hourly.soil_moisture_100_to_255cm,hourly.is_day,hourly.sunshine_duration,hourly.shortwave_radiation_instant,hourly.direct_radiation_instant,hourly.diffuse_radiation_instant,hourly.direct_normal_irradiance_instant,hourly.global_tilted_irradiance_instant,hourly.terrestrial_radiation_instant,hourly.shortwave_radiation,hourly.direct_radiation,hourly.diffuse_radiation,hourly.direct_normal_irradiance,hourly.global_tilted_irradiance,hourly.terrestrial_radiation2010,2010-02-14,Porto,Vila Nova de Gaia,Oliveira do Douro,Monte da Virgem,41.11258085,-8.597501604999291,NC,206.0,2010-02-14T17:00,8.1,49,-2.0,3.8,0.0,0.0.1,0.0.2,0.0.3,3,1004.1,979.3,85,0,92,100,0.11,0.55,12.6,21.6,87,93,31.7,7.4,5.6,8.5,11.5,0.371,0.382,0.389,0.411,1,3600.0,128.9,47.4,81.6,253.2,128.9.1,262.6,185.0,68.0,117.0,253.2.1,185.0.1,376.8,scientificNames
2010,2010-08-29,Porto,Baião,Ovil,Queimada,41.1807696,-8.0148831,Desconhecida,543.0,2010-08-29T11:00,25.9,34,9.0,25.3,0.0,0.0,0.0,0.0,0,1018.6,957.7,0,0,0,0,0.53,2.2,10.1,13.3,92,92,30.6,27.7,22.4,21.7,18.4,0.105,0.139,0.208,0.328,1,3600.0,788.9,688.0,100.9,871.8,788.9,1058.4,743.0,648.0,95.0,871.8,743.0,996.9,,,,,,,,,,,,,,,,,,,,,,,,,,,,,,,,,,,,,,,,,,,,,,,,,,,,,,,Tracheophyta; Pinus pinaster Aiton; Magnoliopsida; Eucalyptus L'Hér.; Pinales; Quercus L.; Vitis vinifera L.; 
2010,2010-08-09,Porto,Felgueiras,Idães,TERRADO (Terra Seca),41.3268566,-8.261018678170327,NC,487.0,2010-08-09T21:00,26.4,44,13.1,26.5,0.0,0.0,0.0,0.0,0,1016.4,961.8,9,0,15,0,0.04,1.93,5.5,6.1,293,298,15.5,27.2,26.8,22.2,16.8,0.097,0.14,0.216,0.336,0,0.0,0.0,0.0,0.0,0.0,0.0,0.0,0.0,0.0,0.0,0.0,0.0,0.0,,,,,,,,,,,,,,,,,,,,,,,,,,,,,,,,,,,,,,,,,,,,,,,,,,,,,,,Eucalyptus L'Hér.; Tracheophyta; Vitis vinifera L.; Magnoliopsida; Pinus pinaster Aiton
2010,2010-08-09,Aveiro,Santa Maria da Feira,Mosteiró,Lugar do Monte,40.8968908,-8.529469,Desconhecida,151.0,2010-08-09T21:00,27.3,48,15.3,27.8,0.0,0.0,0.0,0.0,0,1015.9,998.6,10,0,17,0,0.07,1.88,8.3,13.0,355,6,16.9,29.0,28.8,24.2,19.2,0.108,0.138,0.205,0.339,0,0.0,0.0,0.0,0.0,0.0,0.0,0.0,0.0,0.0,0.0,0.0,0.0,0.0,,,,,,,,,,,,,,,,,,,,,,,,,,,,,,,,,,,,,,,,,,,,,,,,,,,,,,,Magnoliopsida; Pinales; Eucalyptus L'Hér.; Tracheophyta; Pinus pinaster Aiton
2010,2010-08-16,Braga,Esposende,Forjães,S. ROQUE (FORJÃES)M2 (São Roque),41.6059765,-8.742398,NC,63.0,2010-08-16T09:00,22.8,46,10.6,21.3,0.0,0.0,0.0,0.0,0,1016.9,1009.5,0,0,0,0,0.32,1.5,11.5,16.0,44,54,26.3,24.2,24.0,23.5,19.5,0.097,0.139,0.21,0.331,1,3600.0,531.7,436.1,95.6,756.4,531.7,769.0,456.0,374.0,82.0,756.4,456.0,659.5,,,,,,,,,,,,,,,,,,,,,,,,,,,,,,,,,,,,,,,,,,,,,,,,,,,,,,,Tracheophyta; Vitis vinifera L.; Pinus pinaster Aiton
2010,2010-08-10,Porto,Felgueiras,Macieira da Lixa,SEIXOSO (Seixo),41.3496108,-8.1492033,NC,406.0,2010-08-10T02:00,25.5,45,12.8,25.7,0.0,0.0,0.0,0.0,1,1016.1,970.2,26,0,43,0,0.03,1.78,4.5,3.6,119,90,10.4,23.2,26.7,22.8,17.4,0.093,0.146,0.228,0.342,0,0.0,0.0,0.0,0.0,0.0,0.0,0.0,0.0,0.0,0.0,0.0,0.0,0.0,,,,,,,,,,,,,,,,,,,,,,,,,,,,,,,,,,,,,,,,,,,,,,,,,,,,,,,Eucalyptus L'Hér.; Tracheophyta; Pinus pinaster Aiton; Magnoliopsida; Vitis vinifera L.
2010,2010-09-04,Aveiro,Albergaria-a-Velha,Albergaria-a-Velha,SOBREIRO,40.6938582,-8.5060594,Desconhecida,126.0,2010-09-04T17:00,26.2,54,16.2,26.3,0.0,0.0,0.0,0.0,0,1015.1,1000.6,1,0,0,4,0.32,1.55,14.3,18.3,313,315,32.4,32.7,25.5,23.6,20.8,0.066,0.087,0.114,0.234,1,3600.0,342.1,277.1,65.0,736.9,342.1,505.9,421.0,341.0,80.0,736.9,421.0,622.5,,,,,,,,,,,,,,,,,,,,,,,,,,,,,,,,,,,,,,,,,,,,,,,,,,,,,,,Tracheophyta; Eucalyptus L'Hér.
2010,2010-08-29,Vila Real,Vila Pouca de Aguiar,Telões,Souto,41.438268,-7.6775023,NC,674.0,2010-08-29T11:00,25.4,36,9.1,25.3,0.0,0.0,0.0,0.0,0,1019.5,944.4,0,0,0,0,0.52,2.09,7.6,9.8,95,96,24.5,27.7,22.3,21.6,18.3,0.108,0.142,0.216,0.333,1,3600.0,789.0,688.2,100.7,872.1,789.0,1058.5,744.0,649.0,95.0,872.1,744.0,998.1,,,,,,,,,,,,,,,,,,,,,,,,,,,,,,,,,,,,,,,,,,,,,,,,,,,,,,,Quercus L.; Tracheophyta; Magnoliopsida
2010,2010-08-17,Viana do Castelo,Viana do Castelo,Subportela,SUBPORTELA - MONTE (Ribeira de Subportela),41.6939987,-8.7268604,Desconhecida,11.0,2010-08-17T17:00,23.3,55,13.7,21.3,0.0,0.0,0.0,0.0,0,1017.1,1015.8,0,0,0,0,0.36,1.29,22.1,29.8,326,330,40.3,30.1,25.4,23.2,19.7,0.081,0.151,0.232,0.341,1,3600.0,429.9,357.0,72.9,778.3,429.9,612.1,507.0,421.0,86.0,778.3,507.0,721.9,,,,,,,,,,,,,,,,,,,,,,,,,,,,,,,,,,,,,,,,,,,,,,,,,,,,,,,Tracheophyta; Magnoliopsida; Eucalyptus L'Hér.; Vitis vinifera L.
2010,2010-08-17,Aveiro,Oliveira de Azeméis,Pindelo,Pereiro,40.8606006,-8.4306914,Desconhecida,361.0,2010-08-17T08:00,22.3,55,12.7,22.8,0.0,0.0,0.0,0.0,0,1018.7,977.2,1,0,2,0,0.15,1.23,2.5,4.0,180,180,10.4,22.5,24.0,23.3,18.8,0.098,0.14,0.214,0.335,1,3600.0,337.2,253.2,84.0,618.1,337.2,546.7,261.0,196.0,65.0,618.1,261.0,423.1,,,,,,,,,,,,,,,,,,,,,,,,,,,,,,,,,,,,,,,,,,,,,,,,,,,,,,,Eucalyptus L'Hér.; Tracheophyta; Magnoliopsida
2010,2010-08-17,Lisboa,Amadora,Brandoa,ENCOSTA DA BRANDOA (Rua Encosta),38.7676069,-9.2146272,Desconhecida,92.0,2010-08-17T00:00,19.8,75,15.2,20.2,0.0,0.0,0.0,0.0,0,1017.8,1006.9,0,0,0,0,0.02,0.58,9.2,13.6,334,349,18.7,21.6,25.1,24.2,20.5,0.117,0.165,0.227,0.329,0,0.0,0.0,0.0,0.0,0.0,0.0,0.0,0.0,0.0,0.0,0.0,0.0,0.0,,,,,,,,,,,,,,,,,,,,,,,,,,,,,,,,,,,,,,,,,,,,,,,,,,,,,,,Tracheophyta
2010,2010-08-29,Faro,São Brás de Alportel,São Brás de Alportel,Desbarato (Desbarate),37.19555795,-7.89076299096229,NC,296.0,2010-08-29T12:00,31.4,35,14.3,33.5,0.0,0.0,0.0,0.0,0,1015.3,982.2,0,0,0,0,0.66,2.96,7.9,9.2,141,135,24.5,40.4,30.6,28.7,24.5,0.08,0.144,0.174,0.261,1,3600.0,886.5,773.5,113.0,883.5,886.5,1174.4,863.0,753.0,110.0,883.5,863.0,1143.2,,,,,,,,,,,,,,,,,,,,,,,,,,,,,,,,,,,,,,,,,,,,,,,,,,,,,,,Quercus suber L.; Magnoliopsida; Pinus pinaster Aiton; Quercus rotundifolia Lam.; Tracheophyta
2010,2010-09-04,Braga,Cabeceiras de Basto,Rio Douro,L. ASNELA (RIO DOURO) M6 (GONDIÃES),41.5565621,-7.984128259352389,Desconhecida,747.0,2010-09-04T14:00,27.8,33,10.1,28.6,0.0,0.0,0.0,0.0,0,1016.2,934.2,1,0,0,4,0.59,2.5,6.3,7.8,246,248,22.3,31.5,22.2,20.7,17.7,0.112,0.144,0.218,0.334,1,3600.0,786.2,691.8,94.4,900.8,786.2,1033.1,816.0,718.0,98.0,900.8,816.0,1072.2,,,,,,,,,,,,,,,,,,,,,,,,,,,,,,,,,,,,,,,,,,,,,,,,,,,,,,,Magnoliopsida; Pinus pinaster Aiton; Tracheophyta; Eucalyptus L'Hér.
2010,2010-08-31,Coimbra,Oliveira do Hospital,Alvoco das Várzeas,ALVOCO DAS VÁRZEAS,40.2822652,-7.818352,Natural,950.0,2010-08-31T14:00,29.8,26,8.0,28.5,0.2,0.2,0.0,0.0,51,1009.9,908.3,34,0,15,85,0.66,3.12,14.8,19.4,179,179,38.2,34.5,25.6,22.5,18.6,0.096,0.141,0.21,0.33,1,3600.0,783.2,644.3,138.9,811.4,783.2,1066.2,812.0,668.0,144.0,811.4,812.0,1105.3,,,,,,,,,,,,,,,,,,,,,,,,,,,,,,,,,,,,,,,,,,,,,,,,,,,,,,,Pinus pinaster Aiton; Magnoliopsida; Eucalyptus L'Hér.; Quercus L.; Tracheophyta; Acacia Mill.; 
2010,2010-08-31,Porto,Lousada,Sousela,LG. QUINTA (PILADO),41.3017441,-8.3101787,NC,256.0,2010-08-31T16:00,33.7,23,9.8,32.0,0.1,0.1,0.0,0.0,51,1007.0,978.8,45,0,30,89,0.47,4.01,11.3,14.8,207,206,30.6,34.7,26.2,22.9,19.8,0.099,0.137,0.202,0.325,1,3600.0,433.2,304.5,128.7,545.3,433.2,749.7,488.0,343.0,145.0,545.3,488.0,844.5,,,,,,,,,,,,,,,,,,,,,,,,,,,,,,,,,,,,,,,,,,,,,,,,,,,,,,,Vitis vinifera L.; Eucalyptus L'Hér.; Tracheophyta; Pinus pinaster Aiton; Magnoliopsida
2010,2010-09-12,Lisboa,Vila Franca de Xira,São João dos Montes,QUINTA DA COCHOA (Bairro da Quinta da Figueira),38.95160115,-9.058406471474944,Desconhecida,177.0,2010-09-12T11:00,27.1,46,14.4,28.7,0.0,0.0,0.0,0.0,1,1015.9,995.7,26,0,0,88,0.47,1.95,4.7,5.8,99,97,15.8,32.0,24.3,24.3,22.6,0.083,0.152,0.203,0.308,1,3600.0,722.4,554.9,167.5,731.5,722.4,1024.5,677.0,520.0,157.0,731.5,677.0,960.1,,,,,,,,,,,,,,,,,,,,,,,,,,,,,,,,,,,,,,,,,,,,,,,,,,,,,,,Magnoliopsida; Tracheophyta; Pinus pinaster Aiton; Vitis vinifera L.; Olea europaea L.; Eucalyptus L'Hér.; Pinales; 
2010,2010-08-19,Bragança,Mirandela,Mascarenhas,MASCARENHAS,41.559675,-7.138687862084934,NC,362.0,2010-08-19T17:00,30.4,25,8.1,28.7,0.0,0.0,0.0,0.0,0,1012.0,971.8,0,0,0,0,0.4,3.26,8.6,11.3,292,292,24.8,34.5,26.6,24.2,19.7,0.115,0.152,0.19,0.337,1,3600.0,407.4,340.5,66.9,790.0,407.4,575.7,487.0,407.0,80.0,790.0,487.0,688.1,,,,,,,,,,,,,,,,,,,,,,,,,,,,,,,,,,,,,,,,,,,,,,,,,,,,,,,Olea europaea L.; Tracheophyta; Pinus pinaster Aiton; Magnoliopsida
2010,2010-08-29,Porto,Marco de Canaveses,Vila Boa de Quires,Gaia,41.2028475,-8.2047635,NC,275.0,2010-08-29T12:00,29.9,30,10.6,30.4,0.0,0.0,0.0,0.0,0,1017.1,986.1,0,0,0,0,0.63,2.94,8.7,10.8,95,94,27.0,30.4,23.2,22.3,19.4,0.122,0.14,0.209,0.329,1,3600.0,852.9,750.2,102.8,892.6,852.9,1127.2,830.0,730.0,100.0,892.6,830.0,1096.9,,,,,,,,,,,,,,,,,,,,,,,,,,,,,,,,,,,,,,,,,,,,,,,,,,,,,,,Pinus pinaster Aiton; Tracheophyta; Eucalyptus L'Hér.; Magnoliopsida; Vitis vinifera L.; Quercus L.; Pinales; 
2010,2010-09-03,Braga,Póvoa de Lanhoso,Monsul,NEGRELOS (MONSUL) (Negrelos),41.61630265,-8.307589145930823,NC,96.0,2010-09-03T23:00,18.9,90,17.2,20.9,0.0,0.0,0.0,0.0,2,1017.2,1005.9,63,38,0,95,0.0,0.23,4.2,7.7,340,349,13.0,21.3,24.8,23.2,20.4,0.103,0.137,0.199,0.323,0,0.0,0.0,0.0,0.0,0.0,0.0,0.0,0.0,0.0,0.0,0.0,0.0,0.0,,,,,,,,,,,,,,,,,,,,,,,,,,,,,,,,,,,,,,,,,,,,,,,,,,,,,,,Tracheophyta; Pinus pinaster Aiton; Magnoliopsida; Quercus L.
2010,2010-09-20,Braga,Vila Verde,Aboim da Nóbrega,L. CASTELO (ABOIM NOBREGA) M3 (ABOIM DA NOBREGA),41.755104,-8.37449322690776,NC,518.0,2010-09-20T15:00,23.3,48,11.8,22.3,0.0,0.0,0.0,0.0,0,1012.5,954.2,7,1,10,0,0.37,1.48,11.1,14.3,241,242,29.5,26.5,20.4,20.0,18.9,0.129,0.156,0.205,0.324,1,3600.0,473.3,377.9,95.4,634.4,473.3,808.1,516.0,412.0,104.0,634.4,516.0,881.0,,,,,,,,,,,,,,,,,,,,,,,,,,,,,,,,,,,,,,,,,,,,,,,,,,,,,,,Magnoliopsida; Tracheophyta; Quercus L.; Pinus pinaster Aiton; Acacia Mill.
2010,2010-08-31,Porto,Gondomar,Foz do Sousa,RUA DOS NAMORADOS-ZEBREIROS (Rua do Padre Dehon),41.103053,-8.4818908,NC,66.0,2010-08-31T13:00,35.0,21,9.6,33.8,0.0,0.0,0.0,0.0,1,1007.2,999.9,33,0,6,97,0.71,4.44,15.2,20.6,194,184,22.3,35.8,27.3,23.9,20.9,0.122,0.134,0.179,0.332,1,3600.0,752.8,525.5,227.3,626.8,752.8,1125.5,755.0,527.0,228.0,626.8,755.0,1128.8,,,,,,,,,,,,,,,,,,,,,,,,,,,,,,,,,,,,,,,,,,,,,,,,,,,,,,,Eucalyptus L'Hér.; Pinus pinaster Aiton; Magnoliopsida; Tracheophyta
2010,2010-07-30,Porto,Paredes,Besteiros,S. DOMINGOS (São Domingos),41.219534,-8.3595015,NC,299.0,2010-07-30T18:00,30.5,39,14.9,30.5,0.0,0.0,0.0,0.0,0,1011.5,978.1,0,0,0,0,0.33,2.67,11.4,15.9,305,309,26.3,33.4,27.2,21.7,16.8,0.12,0.138,0.209,0.351,1,3600.0,287.9,229.7,58.2,692.1,287.9,440.4,366.0,292.0,74.0,692.1,366.0,559.9,,,,,,,,,,,,,,,,,,,,,,,,,,,,,,,,,,,,,,,,,,,,,,,,,,,,,,,Magnoliopsida; Pinus pinaster Aiton; Eucalyptus L'Hér.; Tracheophyta; Vitis vinifera L.; Quercus L.
2010,2010-08-29,Porto,Marco de Canaveses,Paredes de Viadores,LG. MAGEIRAS,41.1349745,-8.1251255,NC,308.0,2010-08-29T14:00,32.3,27,10.8,33.9,0.0,0.0,0.0,0.0,0,1016.2,981.9,0,0,0,0,0.62,3.54,3.1,3.9,21,22,16.2,34.5,24.3,22.6,19.6,0.111,0.139,0.207,0.331,1,3600.0,808.7,712.1,96.6,894.2,808.7,1068.2,837.0,737.0,100.0,894.2,837.0,1105.5,,,,,,,,,,,,,,,,,,,,,,,,,,,,,,,,,,,,,,,,,,,,,,,,,,,,,,,Magnoliopsida; Pinus pinaster Aiton; Eucalyptus L'Hér.; Tracheophyta; Vitis vinifera L.; 
2010,2010-08-10,Porto,Felgueiras,Borba de Godim,CIDRAL CIMA (Cidral),41.3219949,-8.1424064,NC,386.0,2010-08-10T04:00,25.1,47,13.0,25.3,0.0,0.0,0.0,0.0,1,1015.9,972.1,32,0,54,0,0.04,1.69,5.9,5.4,137,176,10.1,22.4,26.4,22.9,17.5,0.093,0.146,0.228,0.342,0,0.0,0.0,0.0,0.0,0.0,0.0,0.0,0.0,0.0,0.0,0.0,0.0,0.0,,,,,,,,,,,,,,,,,,,,,,,,,,,,,,,,,,,,,,,,,,,,,,,,,,,,,,,Vitis vinifera L.; Tracheophyta; Magnoliopsida
2010,2010-09-01,Aveiro,Arouca,Alvarenga,Srª dos Aflitos (SENHORA DOS AFLITOS),40.9662166,-8.1727407,Desconhecida,338.0,2010-09-01T22:00,17.9,82,14.8,18.8,0.0,0.0,0.0,0.0,0,1012.5,973.3,0,0,0,0,0.0,0.37,4.1,7.2,285,297,11.2,21.8,25.7,23.2,19.9,0.104,0.137,0.203,0.327,0,0.0,0.0,0.0,0.0,0.0,0.0,0.0,0.0,0.0,0.0,0.0,0.0,0.0,,,,,,,,,,,,,,,,,,,,,,,,,,,,,,,,,,,,,,,,,,,,,,,,,,,,,,,Tracheophyta; Magnoliopsida; Quercus L.; Eucalyptus L'Hér.; Castanea sativa Mill.; Pinus pinaster Aiton
2010,2010-09-02,Leiria,Figueiró dos Vinhos,Campelo,Ribeira Velha,40.0000943,-8.2535281,Natural,480.0,2010-09-02T02:00,15.0,98,14.7,15.8,0.0,0.0,0.0,0.0,0,1012.4,956.7,8,7,2,0,0.0,0.04,5.4,10.8,323,330,12.6,19.2,25.4,23.9,20.1,0.099,0.134,0.182,0.311,0,0.0,0.0,0.0,0.0,0.0,0.0,0.0,0.0,0.0,0.0,0.0,0.0,0.0,,,,,,,,,,,,,,,,,,,,,,,,,,,,,,,,,,,,,,,,,,,,,,,,,,,,,,,Eucalyptus L'Hér.; Magnoliopsida; Tracheophyta; Olea europaea L.
2010,2010-08-29,Vila Real,Ribeira de Pena,Cerva,Agunchos,41.4838087,-7.8880876,Desconhecida,287.0,2010-08-29T15:00,32.4,31,13.1,33.9,0.0,0.0,0.0,0.0,0,1015.9,983.9,0,0,0,0,0.58,3.35,5.3,6.6,332,338,18.7,35.3,25.0,23.0,19.9,0.112,0.139,0.209,0.33,1,3600.0,702.0,613.4,88.6,878.0,702.0,937.1,753.0,658.0,95.0,878.0,753.0,1005.3,,,,,,,,,,,,,,,,,,,,,,,,,,,,,,,,,,,,,,,,,,,,,,,,,,,,,,,Magnoliopsida; Pinus pinaster Aiton; Vitis vinifera L.; Tracheophyta
2010,2010-08-17,Porto,Felgueiras,Moure,LG. MONTE (Pé do Monte),41.3528045,-8.1754517,NC,306.0,2010-08-17T17:00,27.4,33,9.6,25.5,0.0,0.0,0.0,0.0,0,1016.7,982.1,0,0,0,0,0.4,2.45,12.3,16.5,291,293,33.5,32.5,26.2,23.3,18.6,0.097,0.137,0.206,0.33,1,3600.0,415.3,337.6,77.7,748.6,415.3,601.9,492.0,400.0,92.0,748.6,492.0,713.1,,,,,,,,,,,,,,,,,,,,,,,,,,,,,,,,,,,,,,,,,,,,,,,,,,,,,,,Magnoliopsida; Tracheophyta; Pinus pinaster Aiton; Eucalyptus L'Hér.; Vitis vinifera L.
2010,2010-08-16,Braga,Celorico de Basto,Arnóia,SOUTO MAIOR(ARNOIA)M3 (Souto),41.39054365,-8.006846020187858,NC,220.0,2010-08-16T21:00,25.9,39,10.8,25.2,0.0,0.0,0.0,0.0,0,1016.8,991.6,0,0,0,0,0.06,2.05,6.5,10.2,341,352,16.9,26.4,26.6,23.9,19.2,0.092,0.142,0.219,0.337,0,0.0,0.0,0.0,0.0,0.0,0.0,0.0,0.0,0.0,0.0,0.0,0.0,0.0,,,,,,,,,,,,,,,,,,,,,,,,,,,,,,,,,,,,,,,,,,,,,,,,,,,,,,,Tracheophyta; Pinus pinaster Aiton; Magnoliopsida
2010,2010-08-18,Porto,Santo Tirso,Negrelos (são Tomé),Mourinha,41.3488993,-8.403043,NC,145.0,2010-08-18T12:00,22.3,72,17.1,22.8,0.0,0.0,0.0,0.0,3,1016.3,999.4,89,99,0,0,0.25,0.74,13.6,16.8,310,312,31.3,25.6,24.2,23.6,19.3,0.114,0.137,0.194,0.335,1,0.0,362.9,28.8,334.1,33.1,362.9,1162.1,353.0,28.0,325.0,33.1,353.0,1130.5,,,,,,,,,,,,,,,,,,,,,,,,,,,,,,,,,,,,,,,,,,,,,,,,,,,,,,,Magnoliopsida; Tracheophyta; Vitis vinifera L.; Quercus suber L.
2010,2010-09-02,Porto,Penafiel,Rio de Moinhos,BARRAGEM (Barral),41.1169039,-8.27507040257782,Desconhecida,236.0,2010-09-02T10:00,22.0,67,15.6,22.6,0.0,0.0,0.0,0.0,1,1015.8,988.5,38,42,0,0,0.33,0.87,8.9,10.6,339,342,28.4,25.0,23.3,23.1,20.0,0.105,0.138,0.205,0.327,1,3600.0,587.9,419.3,168.6,619.3,587.9,909.9,530.0,378.0,152.0,619.3,530.0,820.2,,,,,,,,,,,,,,,,,,,,,,,,,,,,,,,,,,,,,,,,,,,,,,,,,,,,,,,Eucalyptus L'Hér.; Tracheophyta; Magnoliopsida; Vitis vinifera L.
2010,2010-08-21,Braga,Vila Nova de Famalicão,Arnoso (Santa Eulália),OLHEIRO(ARNOSO STA EULALIA)M2 (Olheiro),41.4703906,-8.519674283264415,NC,112.0,2010-08-21T17:00,28.3,51,17.2,28.9,0.0,0.0,0.0,0.0,0,1019.9,1007.1,7,6,3,0,0.33,1.88,13.2,17.3,315,318,27.4,32.4,25.6,23.3,19.6,0.099,0.137,0.204,0.328,1,3600.0,320.2,205.9,114.3,468.4,320.2,587.5,381.0,245.0,136.0,468.4,381.0,699.1,,,,,,,,,,,,,,,,,,,,,,,,,,,,,,,,,,,,,,,,,,,,,,,,,,,,,,,Eucalyptus L'Hér.; Magnoliopsida; Pinus pinaster Aiton; Tracheophyta
2010,2010-08-09,Vila Real,Vila Pouca de Aguiar,Afonsim,Cabanes,41.5263648,-7.6813848,Desconhecida,975.0,2010-08-09T09:00,24.3,39,9.3,23.1,0.0,0.0,0.0,0.0,1,1018.4,911.6,28,0,47,0,0.28,1.86,7.1,9.7,229,228,30.6,24.6,23.0,20.3,15.0,0.123,0.142,0.216,0.349,1,3600.0,416.7,272.4,144.3,451.1,416.7,803.6,361.0,236.0,125.0,451.1,361.0,696.2,,,,,,,,,,,,,,,,,,,,,,,,,,,,,,,,,,,,,,,,,,,,,,,,,,,,,,,Magnoliopsida; Tracheophyta; Pinus pinaster Aiton; Quercus L.
2010,2010-08-09,Aveiro,Oliveira de Azeméis,Loureiro,Graciosa,40.7815404,-8.5169147,Desconhecida,96.0,2010-08-09T22:00,27.2,51,16.1,28.2,0.0,0.0,0.0,0.0,0,1015.6,1004.6,14,0,24,0,0.05,1.77,7.0,15.2,348,7,15.5,28.4,29.0,24.5,19.6,0.093,0.13,0.198,0.32,0,0.0,0.0,0.0,0.0,0.0,0.0,0.0,0.0,0.0,0.0,0.0,0.0,0.0,,,,,,,,,,,,,,,,,,,,,,,,,,,,,,,,,,,,,,,,,,,,,,,,,,,,,,,Magnoliopsida; Eucalyptus L'Hér.; Pinus pinaster Aiton
2010,2010-08-16,Braga,Guimarães,Airão (são João Baptista),ALTO DO MONTE (AIRÃO)M3 (Alto),41.45541,-8.4200301,NC,302.0,2010-08-16T17:00,30.1,26,8.6,28.0,0.0,0.0,0.0,0.0,0,1016.3,982.4,0,0,0,0,0.44,3.14,11.6,15.7,324,328,27.4,34.3,26.0,23.1,18.4,0.097,0.14,0.215,0.335,1,3600.0,431.5,358.8,72.8,786.2,431.5,608.8,510.0,424.0,86.0,786.2,510.0,719.4,,,,,,,,,,,,,,,,,,,,,,,,,,,,,,,,,,,,,,,,,,,,,,,,,,,,,,,Eucalyptus L'Hér.; Tracheophyta; Vitis vinifera L.; Magnoliopsida; Pinus pinaster Aiton
2010,2010-08-16,Aveiro,Aveiro,Esgueira,Mataduços Junto a Capela,40.6433409,-8.6403931,Desconhecida,17.0,2010-08-16T14:00,31.2,26,9.3,30.3,0.0,0.0,0.0,0.0,0,1015.8,1013.9,0,0,0,0,0.74,3.37,17.0,20.3,324,333,30.2,41.6,26.5,24.6,20.8,0.043,0.062,0.099,0.214,1,3600.0,860.2,757.3,102.9,895.8,860.2,1127.7,886.0,780.0,106.0,895.8,886.0,1161.5,,,,,,,,,,,,,,,,,,,,,,,,,,,,,,,,,,,,,,,,,,,,,,,,,,,,,,,Tracheophyta; Magnoliopsida
2010,2010-09-02,Porto,Paços de Ferreira,Sanfins de Ferreira,Bustelo,41.3266496,-8.3721821,NC,434.0,2010-09-02T11:00,22.6,61,14.6,23.8,0.0,0.0,0.0,0.0,0,1015.9,966.5,7,8,0,0,0.43,1.08,7.1,8.5,319,324,24.1,26.8,22.3,21.9,18.8,0.097,0.137,0.202,0.324,1,3600.0,705.9,549.6,156.3,709.8,705.9,1040.5,664.0,517.0,147.0,709.8,664.0,978.8,,,,,,,,,,,,,,,,,,,,,,,,,,,,,,,,,,,,,,,,,,,,,,,,,,,,,,,Magnoliopsida; Eucalyptus L'Hér.; Tracheophyta; Pinus pinaster Aiton
2010,2010-08-18,Évora,Mourão,Mourão,Perimetro Florestal de Mourão,38.3848974,-7.3467228,Desconhecida,206.0,2010-08-18T12:00,28.2,39,12.8,28.3,0.0,0.0,0.0,0.0,1,1015.0,991.6,23,0,1,76,0.53,2.35,10.7,14.0,282,282,26.6,31.0,26.6,27.6,23.0,0.16,0.153,0.196,0.284,1,3600.0,693.8,416.7,277.1,465.2,693.8,1195.6,676.0,406.0,270.0,465.2,676.0,1165.0,,,,,,,,,,,,,,,,,,,,,,,,,,,,,,,,,,,,,,,,,,,,,,,,,,,,,,,Pinus pinea L.; Tracheophyta; Quercus rotundifolia Lam.; Magnoliopsida
2010,2010-08-16,Lisboa,Sintra,Rio de Mouro,RIO DE MOURO,38.7895144,-9.312803990561676,Desconhecida,152.0,2010-08-16T14:00,22.9,58,14.3,24.2,0.0,0.0,0.0,0.0,0,1016.3,998.7,0,0,0,0,0.56,1.16,14.1,16.5,289,293,28.8,28.9,23.3,22.7,19.6,0.12,0.167,0.23,0.333,1,3600.0,879.5,768.7,110.8,892.2,879.5,1149.4,905.0,791.0,114.0,892.2,905.0,1182.7,,,,,,,,,,,,,,,,,,,,,,,,,,,,,,,,,,,,,,,,,,,,,,,,,,,,,,,Tracheophyta; Magnoliopsida; Pinales; ; Pinus pinaster Aiton
2010,2010-09-21,Porto,TROFA,Covelas,VENENDE (Rua de Gramoinhos),41.3008521,-8.5349796,NC,115.0,2010-09-21T10:00,19.8,70,14.2,21.0,0.0,0.0,0.0,0.0,2,1018.4,1004.9,62,69,0,0,0.3,0.7,1.5,1.8,194,180,10.4,22.8,20.8,22.2,21.1,0.139,0.144,0.178,0.32,1,3600.0,566.9,462.7,104.2,759.6,566.9,826.7,506.0,413.0,93.0,759.6,506.0,737.9,,,,,,,,,,,,,,,,,,,,,,,,,,,,,,,,,,,,,,,,,,,,,,,,,,,,,,,Magnoliopsida; Pinus pinaster Aiton; Vitis vinifera L.; Quercus L.; Tracheophyta; Eucalyptus L'Hér.; Olea europaea L.; ; Pinales
2010,2010-08-21,Porto,Vila Nova de Gaia,Grijó,RUA CANITEL (Rua Canicinho),41.030392250000006,-8.583434430828127,NC,110.0,2010-08-21T18:00,24.2,65,17.3,24.8,0.0,0.0,0.0,0.0,0,1019.9,1007.1,8,8,1,0,0.2,1.05,14.0,18.9,316,320,27.7,30.7,26.2,23.8,20.2,0.09,0.115,0.166,0.309,1,3600.0,179.6,113.6,66.0,443.1,179.6,342.7,245.0,155.0,90.0,443.1,245.0,467.6,,,,,,,,,,,,,,,,,,,,,,,,,,,,,,,,,,,,,,,,,,,,,,,,,,,,,,,Magnoliopsida; Tracheophyta; Eucalyptus L'Hér.
2010,2010-07-30,Porto,Felgueiras,Margaride (santa Eulália),Cabreira,41.3667229,-8.203496330346734,NC,298.0,2010-07-30T19:00,30.4,40,15.2,31.0,0.0,0.0,0.0,0.0,0,1011.7,978.4,0,0,0,0,0.18,2.61,8.0,13.5,306,312,25.2,32.9,28.0,22.3,17.0,0.097,0.148,0.234,0.345,1,3600.0,108.0,76.4,31.5,532.9,108.0,190.3,178.0,126.0,52.0,532.9,178.0,313.8,,,,,,,,,,,,,,,,,,,,,,,,,,,,,,,,,,,,,,,,,,,,,,,,,,,,,,,Magnoliopsida; Tracheophyta; Eucalyptus L'Hér.
2010,2010-08-09,Porto,Marco de Canaveses,Tabuado,TORRE NOVÕES (Torre),41.1843748,-8.1228476,NC,230.0,2010-08-09T22:00,28.4,41,13.8,29.4,0.0,0.0,0.0,0.0,0,1016.5,990.4,19,0,32,0,0.0,2.29,0.8,1.9,27,22,7.9,27.2,28.1,23.4,18.2,0.102,0.146,0.226,0.341,0,0.0,0.0,0.0,0.0,0.0,0.0,0.0,0.0,0.0,0.0,0.0,0.0,0.0,,,,,,,,,,,,,,,,,,,,,,,,,,,,,,,,,,,,,,,,,,,,,,,,,,,,,,,Quercus L.; Tracheophyta; Magnoliopsida; Pinus pinaster Aiton; Vitis vinifera L.; Eucalyptus L'Hér.; 
2010,2010-08-16,Braga,Póvoa de Lanhoso,Travassos,L.(TRAVASSOS) (FRIANDE),41.57569275,-8.202529903910126,NC,282.0,2010-08-16T15:00,30.2,26,8.3,31.1,0.0,0.0,0.0,0.0,0,1016.2,984.5,0,0,0,0,0.58,3.2,2.5,3.6,90,90,19.1,35.3,25.7,23.4,18.7,0.094,0.138,0.209,0.332,1,3600.0,759.8,665.9,93.9,890.8,759.8,997.2,809.0,709.0,100.0,890.8,809.0,1061.7,,,,,,,,,,,,,,,,,,,,,,,,,,,,,,,,,,,,,,,,,,,,,,,,,,,,,,,Tracheophyta; Eucalyptus L'Hér.; Magnoliopsida; Vitis vinifera L.
2010,2010-08-17,Porto,Marco de Canaveses,Sande,LAMEIRAS (Lameira),41.1044716,-8.1815849,NC,279.0,2010-08-17T14:00,29.3,38,13.6,29.9,0.0,0.0,0.0,0.0,0,1017.4,985.9,0,0,0,0,0.63,2.52,13.3,16.9,270,270,32.4,34.9,25.6,23.5,19.0,0.099,0.141,0.215,0.338,1,3600.0,789.5,652.7,136.8,779.4,789.5,1117.6,814.0,673.0,141.0,779.4,814.0,1152.3,,,,,,,,,,,,,,,,,,,,,,,,,,,,,,,,,,,,,,,,,,,,,,,,,,,,,,,Tracheophyta; Pinus pinaster Aiton; Vitis vinifera L.; Eucalyptus L'Hér.; Castanea sativa Mill.; Magnoliopsida; 
2010,2010-08-10,Braga,Vila Verde,Goães,RIBEIRA (GOÃES) M3 (Monte da Ribeira),41.68244235,-8.506667096212482,NC,197.0,2010-08-10T04:00,25.5,51,14.6,25.9,0.0,0.0,0.0,0.0,0,1015.5,992.9,15,0,25,0,0.05,1.6,7.7,8.1,41,32,9.4,21.8,26.2,23.2,18.1,0.097,0.142,0.22,0.338,0,0.0,0.0,0.0,0.0,0.0,0.0,0.0,0.0,0.0,0.0,0.0,0.0,0.0,,,,,,,,,,,,,,,,,,,,,,,,,,,,,,,,,,,,,,,,,,,,,,,,,,,,,,,Magnoliopsida; Eucalyptus L'Hér.; Pinus pinaster Aiton; Tracheophyta; Vitis vinifera L.; Quercus L.; 
2010,2010-08-21,Porto,Marco de Canaveses,Tuias,RUA DO GRANJIEIRO (BANHO E CARVALHOSA),41.17549355,-8.16457827943076,NC,213.0,2010-08-21T21:00,22.9,74,18.0,25.2,0.0,0.0,0.0,0.0,0,1021.2,996.5,0,0,0,0,0.0,0.72,3.7,5.0,241,249,10.8,26.2,26.4,23.2,19.3,0.103,0.141,0.213,0.333,0,0.0,0.0,0.0,0.0,0.0,0.0,0.0,0.0,0.0,0.0,0.0,0.0,0.0,,,,,,,,,,,,,,,,,,,,,,,,,,,,,,,,,,,,,,,,,,,,,,,,,,,,,,,Tracheophyta; Magnoliopsida; Pinus pinaster Aiton; Vitis vinifera L.
2010,2010-08-17,Castelo Branco,Covilhã,Boidobra,Quinta das Ferreiras (Quinta Branca),40.254211,-7.4921904,Desconhecida,433.0,2010-08-17T03:00,22.3,52,12.0,21.9,0.0,0.0,0.0,0.0,0,1018.2,968.7,8,0,0,27,0.04,1.29,6.6,6.8,68,93,10.1,20.4,26.6,25.6,20.6,0.096,0.155,0.213,0.343,0,0.0,0.0,0.0,0.0,0.0,0.0,0.0,0.0,0.0,0.0,0.0,0.0,0.0,,,,,,,,,,,,,,,,,,,,,,,,,,,,,,,,,,,,,,,,,,,,,,,,,,,,,,,Pinus pinaster Aiton; Tracheophyta; Magnoliopsida; Olea europaea L.; Quercus L.
2010,2010-09-12,Lisboa,Sintra,Casal de Cambra,Casal de Cambra,38.79718845,-9.228319927517482,Desconhecida,230.0,2010-09-12T16:00,27.9,44,14.5,28.4,0.0,0.0,0.0,0.0,0,1014.9,988.8,4,0,0,14,0.41,2.1,6.8,7.6,273,278,19.8,32.4,24.6,22.5,20.9,0.12,0.159,0.215,0.321,1,3600.0,496.5,414.9,81.6,787.0,496.5,712.0,566.0,473.0,93.0,787.0,566.0,811.8,,,,,,,,,,,,,,,,,,,,,,,,,,,,,,,,,,,,,,,,,,,,,,,,,,,,,,,Tracheophyta; Magnoliopsida; ; Eucalyptus L'Hér.
2010,2010-09-12,Viseu,Viseu,São João de Lourosa,COIMBROES (Coimbrães),40.6190443,-7.9039998,Desconhecida,465.0,2010-09-12T17:00,31.3,23,8.0,29.8,0.0,0.0,0.0,0.0,1,1015.8,964.4,26,0,0,87,0.31,3.51,6.7,9.2,36,42,19.4,31.7,24.2,22.1,20.5,0.11,0.147,0.218,0.331,1,3600.0,290.9,223.1,67.8,678.6,290.9,444.1,369.0,283.0,86.0,678.6,369.0,563.3,,,,,,,,,,,,,,,,,,,,,,,,,,,,,,,,,,,,,,,,,,,,,,,,,,,,,,,Tracheophyta; Pinus pinaster Aiton; Magnoliopsida; Vitis vinifera L.
2010,2010-07-30,Porto,Santo Tirso,Aves,ALTO BANDEIRA (Alto Catorze),41.3606851,-8.407702,NC,119.0,2010-07-30T17:00,32.8,34,15.0,32.3,0.0,0.0,0.0,0.0,0,1011.4,998.1,0,0,0,0,0.51,3.28,15.3,19.4,317,320,29.5,36.1,28.1,22.9,17.8,0.103,0.154,0.24,0.348,1,3600.0,477.8,401.8,76.0,785.8,477.8,678.5,553.0,465.0,88.0,785.8,553.0,785.3,,,,,,,,,,,,,,,,,,,,,,,,,,,,,,,,,,,,,,,,,,,,,,,,,,,,,,,Magnoliopsida; Tracheophyta; Pinus pinaster Aiton; Eucalyptus L'Hér.; Vitis vinifera L.; Pinales; Acacia Mill.; 
2010,2010-07-30,Braga,Fafe,Revelhe,CRASTO(REVELHE) (Crasto),41.4850642,-8.15906990010636,NC,382.0,2010-07-30T17:00,32.6,31,13.5,32.2,0.0,0.0,0.0,0.0,0,1011.7,969.6,0,0,0,0,0.47,3.37,10.2,13.0,293,298,22.3,36.2,27.3,21.9,16.5,0.096,0.15,0.237,0.347,1,3600.0,476.3,400.4,75.9,789.6,476.3,673.0,552.0,464.0,88.0,789.6,552.0,779.9,,,,,,,,,,,,,,,,,,,,,,,,,,,,,,,,,,,,,,,,,,,,,,,,,,,,,,,Tracheophyta; Magnoliopsida; Vitis vinifera L.; Pinales
2010,2010-08-16,Braga,Barcelos,Balugães,APARECIDA (BALUGÃES) (Aparecida),41.6486244,-8.6373566,Desconhecida,111.0,2010-08-16T18:00,28.6,36,11.9,26.7,0.0,0.0,0.0,0.0,0,1016.0,1003.3,0,0,0,0,0.34,2.52,16.8,25.9,332,339,35.6,32.3,26.6,23.6,19.3,0.095,0.138,0.206,0.33,1,3600.0,238.3,179.7,58.6,646.1,238.3,371.0,317.0,239.0,78.0,646.1,317.0,493.5,,,,,,,,,,,,,,,,,,,,,,,,,,,,,,,,,,,,,,,,,,,,,,,,,,,,,,,Tracheophyta; Eucalyptus L'Hér.; Pinus pinaster Aiton; Magnoliopsida
2010,2010-08-17,Porto,Paredes,Baltar,ZONA INDUSTRIAL (VILA COVA DE CARROS),41.1914064,-8.3792902,Desconhecida,288.0,2010-08-17T14:00,27.8,39,12.6,28.1,0.0,0.0,0.0,0.0,0,1017.4,984.8,0,0,0,0,0.61,2.27,13.3,16.9,270,270,32.4,33.5,25.2,23.0,18.5,0.118,0.134,0.183,0.338,1,3600.0,789.7,652.9,136.8,779.6,789.7,1117.7,814.0,673.0,141.0,779.6,814.0,1152.1,,,,,,,,,,,,,,,,,,,,,,,,,,,,,,,,,,,,,,,,,,,,,,,,,,,,,,,Magnoliopsida; Pinus pinaster Aiton; Eucalyptus L'Hér.; Tracheophyta; Vitis vinifera L.
2010,2010-08-29,Porto,Penafiel,Guilhufe,Gandra,41.19863835,-8.306141403902867,NC,204.0,2010-08-29T17:00,31.8,33,13.4,31.4,0.0,0.0,0.0,0.0,0,1015.3,992.4,0,0,0,0,0.39,3.15,10.2,13.7,312,315,22.0,33.4,25.5,22.7,19.8,0.128,0.137,0.194,0.329,1,3600.0,369.4,305.1,64.3,760.9,369.4,537.9,448.0,370.0,78.0,760.9,448.0,652.3,,,,,,,,,,,,,,,,,,,,,,,,,,,,,,,,,,,,,,,,,,,,,,,,,,,,,,,Tracheophyta; Vitis vinifera L.; Eucalyptus L'Hér.; Magnoliopsida
2010,2010-08-29,Braga,Póvoa de Lanhoso,Sobradelo da Goma,L. PENAS (SOBRADELO GOMA) M6 (FRIANDE),41.5647303,-8.1806548,NC,268.0,2010-08-29T18:00,29.8,40,14.8,30.3,0.0,0.0,0.0,0.0,0,1015.7,985.5,0,0,0,0,0.22,2.51,7.1,13.1,294,302,22.0,30.8,25.1,22.5,19.6,0.129,0.138,0.199,0.324,1,3600.0,178.3,135.8,42.5,630.7,178.3,288.9,256.0,195.0,61.0,630.7,256.0,414.8,,,,,,,,,,,,,,,,,,,,,,,,,,,,,,,,,,,,,,,,,,,,,,,,,,,,,,,Magnoliopsida; Tracheophyta; Eucalyptus L'Hér.
2010,2010-09-12,Porto,Maia,Gemunde,Bajouca,41.2774141,-8.6338482,NC,105.0,2010-09-12T20:00,26.0,53,15.8,26.1,0.0,0.0,0.0,0.0,0,1016.9,1004.8,9,0,0,31,0.09,1.57,13.0,22.4,28,33,20.9,25.3,24.2,22.1,20.8,0.167,0.149,0.192,0.323,0,0.0,0.0,0.0,0.0,0.0,0.0,0.0,0.0,0.0,0.0,0.0,0.0,0.0,,,,,,,,,,,,,,,,,,,,,,,,,,,,,,,,,,,,,,,,,,,,,,,,,,,,,,,Eucalyptus L'Hér.; Tracheophyta; Pinus pinaster Aiton
2010,2010-09-21,Vila Real,Mondim de Basto,Ermelo,FONTE DO TRIGO,41.3601833,-7.8891793,Desconhecida,396.0,2010-09-21T13:00,24.1,47,12.1,25.3,0.0,0.0,0.0,0.0,0,1017.1,972.0,6,5,3,0,0.5,1.58,5.0,5.7,240,235,19.8,27.2,20.0,20.8,20.1,0.152,0.148,0.199,0.319,1,3600.0,751.6,650.5,101.1,868.7,751.6,1016.3,758.0,656.0,102.0,868.7,758.0,1025.0,,,,,,,,,,,,,,,,,,,,,,,,,,,,,,,,,,,,,,,,,,,,,,,,,,,,,,,Magnoliopsida; Pinus pinaster Aiton; Pinales
2010,2010-08-05,Vila Real,Montalegre,Vila da Ponte,Bustelo,41.7435513,-7.8993107,NC,934.0,2010-08-05T13:00,24.2,35,8.0,24.5,0.0,0.0,0.0,0.0,0,1015.8,913.4,0,0,0,0,0.65,1.95,9.8,12.5,36,39,31.0,29.2,21.7,19.9,14.7,0.104,0.18,0.27,0.362,1,3600.0,942.0,836.1,105.9,924.7,942.0,1201.9,943.0,837.0,106.0,924.7,943.0,1203.1,,,,,,,,,,,,,,,,,,,,,,,,,,,,,,,,,,,,,,,,,,,,,,,,,,,,,,,Tracheophyta; Quercus L.; Magnoliopsida
2010,2010-08-17,Porto,Paredes,Sobreira,Santa Comba,41.1464669,-8.388977,Desconhecida,104.0,2010-08-17T14:00,28.9,41,14.5,29.8,0.0,0.0,0.0,0.0,0,1017.7,1005.8,0,0,0,0,0.64,2.34,14.6,18.0,286,286,29.5,35.0,26.5,24.3,19.9,0.108,0.137,0.201,0.337,1,3600.0,814.0,690.8,123.2,824.7,814.0,1117.7,839.0,712.0,127.0,824.7,839.0,1152.1,,,,,,,,,,,,,,,,,,,,,,,,,,,,,,,,,,,,,,,,,,,,,,,,,,,,,,,Magnoliopsida; Pinus pinaster Aiton; Eucalyptus L'Hér.; Tracheophyta; Vitis vinifera L.
2010,2010-08-17,Porto,Vila do Conde,Guilhabreu,RUA SRA.AMPARO (Senhora do Amparo),41.2953795,-8.6304019,NC,149.0,2010-08-17T04:00,18.7,76,14.3,19.2,0.0,0.0,0.0,0.0,0,1016.9,999.3,0,0,0,0,0.01,0.52,5.7,4.8,35,48,13.3,20.5,25.4,23.6,19.3,0.103,0.138,0.204,0.336,0,0.0,0.0,0.0,0.0,0.0,0.0,0.0,0.0,0.0,0.0,0.0,0.0,0.0,,,,,,,,,,,,,,,,,,,,,,,,,,,,,,,,,,,,,,,,,,,,,,,,,,,,,,,Pinus pinaster Aiton; Tracheophyta; Eucalyptus L'Hér.; Magnoliopsida
2010,2010-08-16,Porto,Penafiel,Novelas,ESTRADA Nº 106 (Estrada),41.2239974,-8.2921689,NC,167.0,2010-08-16T15:00,30.9,26,9.4,31.5,0.0,0.0,0.0,0.0,0,1016.1,997.2,0,0,0,0,0.61,3.29,6.0,7.3,343,351,22.0,34.9,25.7,23.8,19.2,0.109,0.138,0.202,0.337,1,3600.0,758.7,663.8,94.8,886.1,758.7,999.4,808.0,707.0,101.0,886.1,808.0,1064.4,,,,,,,,,,,,,,,,,,,,,,,,,,,,,,,,,,,,,,,,,,,,,,,,,,,,,,,Tracheophyta; Vitis vinifera L.; Magnoliopsida
2010,2010-08-10,Aveiro,Ovar,Cortegaça,R. Mourao (ESMORIZ),40.9496537,-8.6416471066761,Desconhecida,6.0,2010-08-10T05:00,23.3,73,18.2,25.3,0.0,0.0,0.0,0.0,0,1015.1,1014.4,8,0,14,0,0.02,0.77,6.9,4.7,332,356,13.7,23.7,28.2,24.6,19.8,0.098,0.107,0.144,0.297,0,0.0,0.0,0.0,0.0,0.0,0.0,0.0,0.0,0.0,0.0,0.0,0.0,0.0,,,,,,,,,,,,,,,,,,,,,,,,,,,,,,,,,,,,,,,,,,,,,,,,,,,,,,,Tracheophyta; Pinus pinaster Aiton; Eucalyptus L'Hér.; Magnoliopsida
2010,2010-08-20,Braga,Cabeceiras de Basto,Vilar de Cunhas,L. CUNHAS (VILAR CUNHAS)M3 (GONDIÃES),41.57199585,-7.857542748734664,Desconhecida,797.0,2010-08-20T08:00,19.7,67,13.4,20.5,0.0,0.0,0.0,0.0,0,1020.1,930.3,0,0,0,0,0.14,0.76,2.6,4.2,56,70,11.2,20.0,21.0,20.7,16.9,0.11,0.161,0.247,0.351,1,3600.0,333.7,253.8,79.9,620.7,333.7,546.3,259.0,197.0,62.0,620.7,259.0,424.0,,,,,,,,,,,,,,,,,,,,,,,,,,,,,,,,,,,,,,,,,,,,,,,,,,,,,,,Magnoliopsida; Vitis vinifera L.; Pinus pinaster Aiton
2010,2010-08-20,Porto,Gondomar,Medas,Pombal,41.0663709,-8.4523493,NC,75.0,2010-08-20T12:00,26.6,55,16.8,28.3,0.0,0.0,0.0,0.0,0,1020.6,1011.9,11,12,0,0,0.55,1.58,13.9,16.3,323,329,26.6,31.4,24.3,24.2,20.2,0.116,0.134,0.186,0.338,1,3600.0,816.4,633.4,183.0,730.2,816.4,1158.9,794.0,616.0,178.0,730.2,794.0,1127.1,,,,,,,,,,,,,,,,,,,,,,,,,,,,,,,,,,,,,,,,,,,,,,,,,,,,,,,Tracheophyta; Eucalyptus L'Hér.; Pinus pinaster Aiton; Magnoliopsida
2010,2010-08-04,Porto,Felgueiras,Lagares,Penido,41.3673676,-8.2225278,NC,281.0,2010-08-04T21:00,23.7,52,13.4,23.6,0.0,0.0,0.0,0.0,1,1014.8,982.6,25,0,0,84,0.05,1.4,7.9,13.4,309,336,17.6,26.8,27.3,23.1,17.6,0.097,0.144,0.225,0.341,0,0.0,0.0,0.0,0.0,0.0,0.0,0.0,0.0,0.0,0.0,0.0,0.0,0.0,,,,,,,,,,,,,,,,,,,,,,,,,,,,,,,,,,,,,,,,,,,,,,,,,,,,,,,Magnoliopsida; Vitis vinifera L.; Tracheophyta
2010,2010-08-05,Coimbra,Lousã,Foz De Arouce,Ponte Velha,40.179857,-8.2657099,NC,92.0,2010-08-05T16:00,32.3,27,11.1,30.3,0.0,0.0,0.0,0.0,0,1011.8,1001.5,0,0,0,0,0.66,3.52,21.4,28.4,333,336,40.0,39.1,27.2,23.5,19.1,0.053,0.07,0.098,0.22,1,3600.0,644.4,557.4,87.0,850.4,644.4,871.2,711.0,615.0,96.0,850.4,711.0,961.2,,,,,,,,,,,,,,,,,,,,,,,,,,,,,,,,,,,,,,,,,,,,,,,,,,,,,,,Pinus pinaster Aiton; Tracheophyta; Magnoliopsida; Eucalyptus L'Hér.; Pinales; Acacia Mill.; Quercus L.; Olea europaea L.; 
2010,2010-08-17,Porto,Amarante,Salvador do Monte,SALVADOR (SALVADOR DO MONTE),41.23979935,-8.095584015425107,NC,283.0,2010-08-17T22:00,19.3,74,14.5,20.0,0.0,0.0,0.0,0.0,0,1017.6,984.6,1,0,0,2,0.0,0.58,5.2,8.7,245,253,11.9,23.1,26.1,23.5,18.9,0.095,0.142,0.217,0.336,0,0.0,0.0,0.0,0.0,0.0,0.0,0.0,0.0,0.0,0.0,0.0,0.0,0.0,,,,,,,,,,,,,,,,,,,,,,,,,,,,,,,,,,,,,,,,,,,,,,,,,,,,,,,Eucalyptus L'Hér.; Magnoliopsida; Pinus pinaster Aiton; Vitis vinifera L.; Tracheophyta; 
2010,2010-08-17,Vila Real,Boticas,Codessoso,Codessoso (CODECOSO),41.6586361,-7.702948700964028,NC,743.0,2010-08-17T06:00,17.4,63,10.4,17.2,0.0,0.0,0.0,0.0,0,1019.0,934.4,0,0,0,0,0.03,0.73,2.5,6.1,135,152,7.6,15.2,21.2,20.8,16.6,0.111,0.163,0.246,0.35,1,0.0,6.1,3.0,3.0,34.9,1.5,57.2,2.0,1.0,1.0,17.3,2.0,18.8,,,,,,,,,,,,,,,,,,,,,,,,,,,,,,,,,,,,,,,,,,,,,,,,,,,,,,,Tracheophyta; Magnoliopsida; Pinus pinaster Aiton; Quercus L.
2010,2010-08-16,Viana do Castelo,Viana do Castelo,Serreleis,S. SILVESTRE (São Silvestre),41.7220152,-8.746109,Desconhecida,268.0,2010-08-16T12:00,27.8,33,10.0,29.4,0.0,0.0,0.0,0.0,0,1017.1,986.7,0,0,0,0,0.61,2.5,3.1,5.2,69,78,22.0,31.7,23.8,22.8,18.6,0.099,0.139,0.211,0.333,1,3600.0,894.6,787.7,106.9,902.9,894.6,1163.7,870.0,766.0,104.0,902.9,870.0,1131.7,,,,,,,,,,,,,,,,,,,,,,,,,,,,,,,,,,,,,,,,,,,,,,,,,,,,,,,Eucalyptus L'Hér.; Magnoliopsida; Tracheophyta
2010,2010-08-21,Bragança,Bragança,Castrelos,EN 103 - PONTE DE CASTRELOS (FRANÇA),41.8333458,-6.8851662,NC,730.0,2010-08-21T23:00,23.4,52,12.9,23.3,0.0,0.0,0.0,0.0,0,1020.2,938.5,7,0,12,0,0.04,1.38,6.6,10.0,315,296,12.6,25.3,26.5,22.3,17.9,0.116,0.136,0.198,0.344,0,0.0,0.0,0.0,0.0,0.0,0.0,0.0,0.0,0.0,0.0,0.0,0.0,0.0,,,,,,,,,,,,,,,,,,,,,,,,,,,,,,,,,,,,,,,,,,,,,,,,,,,,,,,Magnoliopsida; Tracheophyta; Castanea sativa Mill.; Quercus L.
2010,2010-08-05,Porto,Santo Tirso,Refojos de Riba de Ave,R. NOVA (Aldeia Nova),41.2920945,-8.4471657,NC,216.0,2010-08-05T13:00,29.3,32,10.7,30.1,0.0,0.0,0.0,0.0,0,1013.9,989.5,0,0,0,0,0.71,2.79,10.9,13.3,8,13,22.0,34.2,25.6,23.3,18.1,0.093,0.146,0.229,0.343,1,3600.0,934.8,826.8,108.0,910.8,934.8,1206.6,935.0,827.0,108.0,910.8,935.0,1206.9,,,,,,,,,,,,,,,,,,,,,,,,,,,,,,,,,,,,,,,,,,,,,,,,,,,,,,,Tracheophyta; Magnoliopsida; Pinus pinaster Aiton; Vitis vinifera L.; Eucalyptus L'Hér.
2010,2010-08-24,Vila Real,Chaves,São Pedro De Agostém,Sesmil,41.6871579,-7.4774352,NC,487.0,2010-08-24T02:00,18.6,88,16.7,20.0,0.0,0.0,0.0,0.0,2,1015.9,959.9,72,80,0,0,0.0,0.25,7.1,10.7,255,258,14.8,20.9,23.7,22.5,18.3,0.118,0.139,0.203,0.342,0,0.0,0.0,0.0,0.0,0.0,0.0,0.0,0.0,0.0,0.0,0.0,0.0,0.0,,,,,,,,,,,,,,,,,,,,,,,,,,,,,,,,,,,,,,,,,,,,,,,,,,,,,,,Magnoliopsida; Vitis vinifera L.; Pinus pinaster Aiton; Quercus L.
2010,2010-08-04,Porto,Penafiel,Recezinhos (são Martinho),FÔFO (BUSTÊLO),41.2726266,-8.2833754,Desconhecida,290.0,2010-08-04T23:00,20.0,69,14.1,20.3,0.0,0.0,0.0,0.0,0,1015.1,981.5,8,0,0,27,0.02,0.72,7.1,12.3,336,357,14.8,23.2,26.6,22.9,17.5,0.092,0.147,0.231,0.344,0,0.0,0.0,0.0,0.0,0.0,0.0,0.0,0.0,0.0,0.0,0.0,0.0,0.0,,,,,,,,,,,,,,,,,,,,,,,,,,,,,,,,,,,,,,,,,,,,,,,,,,,,,,,Eucalyptus L'Hér.; Tracheophyta
2010,2010-08-16,Aveiro,Oliveira de Azeméis,Pindelo,Salgueiros,40.871781,-8.4431906,Desconhecida,246.0,2010-08-16T14:00,30.2,27,9.4,31.3,0.0,0.0,0.0,0.0,0,1015.7,988.0,0,0,0,0,0.66,3.11,5.9,6.7,317,324,25.2,35.1,25.4,23.7,19.2,0.102,0.138,0.206,0.335,1,3600.0,862.8,761.8,100.9,903.9,862.8,1124.4,889.0,785.0,104.0,903.9,889.0,1158.5,,,,,,,,,,,,,,,,,,,,,,,,,,,,,,,,,,,,,,,,,,,,,,,,,,,,,,,Magnoliopsida; Eucalyptus L'Hér.; Tracheophyta; Pinus pinaster Aiton
2010,2010-08-18,Aveiro,Ovar,Maceda,F. Estanislau (ARADA),40.9148096,-8.6285648,Desconhecida,28.0,2010-08-18T09:00,21.2,76,16.8,20.9,0.0,0.0,0.0,0.0,2,1017.3,1014.0,70,78,0,0,0.19,0.6,17.9,24.2,345,349,31.7,23.7,25.1,24.6,20.3,0.098,0.107,0.137,0.292,1,3600.0,344.7,181.1,163.6,315.0,344.7,767.5,295.0,155.0,140.0,315.0,295.0,656.9,,,,,,,,,,,,,,,,,,,,,,,,,,,,,,,,,,,,,,,,,,,,,,,,,,,,,,,Pinus pinaster Aiton; Tracheophyta; Magnoliopsida; Eucalyptus L'Hér.
2010,2010-08-17,Porto,Santo Tirso,Vilarinho,COSTEIRAS (Costeira),41.3604512,-8.3352657,NC,187.0,2010-08-17T18:00,25.6,41,11.6,24.5,0.0,0.0,0.0,0.0,0,1016.9,995.4,0,0,0,0,0.26,1.93,11.2,15.0,291,294,30.6,30.6,26.6,23.5,19.0,0.097,0.138,0.208,0.331,1,3600.0,232.0,179.0,53.0,659.6,232.0,362.2,311.0,240.0,71.0,659.6,311.0,485.6,,,,,,,,,,,,,,,,,,,,,,,,,,,,,,,,,,,,,,,,,,,,,,,,,,,,,,,Eucalyptus L'Hér.; Tracheophyta; Pinus pinaster Aiton; Magnoliopsida
2010,2010-08-31,Porto,Paços de Ferreira,Lamoso,RUA DAS FLORES (Rua do Comércio),41.3216738,-8.3533209,NC,374.0,2010-08-31T22:00,22.8,58,14.0,23.1,0.0,0.0,0.0,0.0,1,1008.4,966.0,28,0,31,31,0.03,1.17,6.4,8.4,128,149,11.5,24.0,25.7,22.2,19.1,0.099,0.137,0.202,0.325,0,0.0,0.0,0.0,0.0,0.0,0.0,0.0,0.0,0.0,0.0,0.0,0.0,0.0,,,,,,,,,,,,,,,,,,,,,,,,,,,,,,,,,,,,,,,,,,,,,,,,,,,,,,,Magnoliopsida; Eucalyptus L'Hér.; Pinus pinaster Aiton; Tracheophyta; Quercus suber L.; 
2010,2010-08-22,Braga,Cabeceiras de Basto,Faia,AMPARO (FAIA) (Amparo),41.48809505,-7.982393051049669,NC,195.0,2010-08-22T00:00,21.1,86,18.7,23.8,0.0,0.0,0.0,0.0,1,1021.3,998.5,22,25,0,0,0.0,0.35,3.5,7.0,246,258,10.1,24.0,27.1,23.9,19.8,0.095,0.137,0.205,0.328,0,0.0,0.0,0.0,0.0,0.0,0.0,0.0,0.0,0.0,0.0,0.0,0.0,0.0,,,,,,,,,,,,,,,,,,,,,,,,,,,,,,,,,,,,,,,,,,,,,,,,,,,,,,,Magnoliopsida; Tracheophyta; Eucalyptus L'Hér.
2010,2010-09-12,Viseu,Vila Nova de Paiva,Vila Cova à Coelheira,CASCANO (Cascana),40.8777559,-7.802428,Desconhecida,734.0,2010-09-12T23:00,21.2,45,8.8,18.4,0.0,0.0,0.0,0.0,0,1021.5,938.7,4,0,0,12,0.11,1.38,16.6,30.9,60,64,37.8,21.6,22.9,20.9,19.1,0.132,0.14,0.202,0.328,0,0.0,0.0,0.0,0.0,0.0,0.0,0.0,0.0,0.0,0.0,0.0,0.0,0.0,,,,,,,,,,,,,,,,,,,,,,,,,,,,,,,,,,,,,,,,,,,,,,,,,,,,,,,Magnoliopsida; Pinus pinaster Aiton; Tracheophyta
2010,2010-09-13,Aveiro,Albergaria-a-Velha,Albergaria-a-Velha,Alto de Assilhó (Alto das Lavoiras),40.690328,-8.479538190307041,Desconhecida,121.0,2010-09-13T00:00,25.4,40,11.0,23.2,0.0,0.0,0.0,0.0,0,1017.5,1003.5,0,0,0,0,0.15,1.93,16.6,35.7,72,74,30.2,23.4,24.7,22.6,21.1,0.088,0.089,0.113,0.231,0,0.0,0.0,0.0,0.0,0.0,0.0,0.0,0.0,0.0,0.0,0.0,0.0,0.0,,,,,,,,,,,,,,,,,,,,,,,,,,,,,,,,,,,,,,,,,,,,,,,,,,,,,,,Tracheophyta; Eucalyptus L'Hér.
2010,2010-08-05,Braga,Celorico de Basto,Gémeos,LOUREIRO (GEMEOS) M7 (Azenha do Loureiro),41.388259,-8.000059,NC,226.0,2010-08-05T17:00,30.8,26,8.9,29.1,0.0,0.0,0.0,0.0,0,1012.1,986.8,0,0,0,0,0.45,3.29,9.3,12.3,347,353,20.9,35.2,27.0,23.5,18.1,0.093,0.149,0.234,0.345,1,3600.0,469.9,396.2,73.7,806.9,469.9,652.6,548.0,462.0,86.0,806.9,548.0,761.0,,,,,,,,,,,,,,,,,,,,,,,,,,,,,,,,,,,,,,,,,,,,,,,,,,,,,,,Tracheophyta; Pinus pinaster Aiton; Magnoliopsida; Pinales; Vitis vinifera L.
2010,2010-08-05,Aveiro,Ovar,São João,Cimo de Vila,40.8730429,-8.5917777,Desconhecida,48.0,2010-08-05T00:00,19.9,74,15.1,18.0,0.0,0.0,0.0,0.0,0,1014.7,1009.0,12,0,0,39,0.07,0.61,25.3,39.2,349,353,40.0,22.7,27.2,23.7,19.1,0.098,0.108,0.15,0.301,0,0.0,0.0,0.0,0.0,0.0,0.0,0.0,0.0,0.0,0.0,0.0,0.0,0.0,,,,,,,,,,,,,,,,,,,,,,,,,,,,,,,,,,,,,,,,,,,,,,,,,,,,,,,Eucalyptus L'Hér.; Magnoliopsida; Tracheophyta; Pinus pinaster Aiton; Acacia Mill.; 
2010,2010-08-09,Porto,Paredes,Parada de Todeia,LG DE CHÃOS (CETE),41.1690637,-8.3770562,Desconhecida,191.0,2010-08-09T11:00,31.4,34,13.7,33.5,0.0,0.0,0.0,0.0,0,1016.2,994.7,19,0,6,51,0.51,3.04,1.3,1.5,326,14,8.3,33.1,26.3,23.4,18.4,0.119,0.135,0.193,0.344,1,3600.0,748.0,608.1,139.8,726.4,748.0,1113.9,706.0,574.0,132.0,726.4,706.0,1051.5,,,,,,,,,,,,,,,,,,,,,,,,,,,,,,,,,,,,,,,,,,,,,,,,,,,,,,,Magnoliopsida; Pinus pinaster Aiton; Eucalyptus L'Hér.; Tracheophyta; Vitis vinifera L.
2010,2010-08-17,Aveiro,Águeda,Lamas do Vouga,Marnel (MACINHATA DO VOUGA),40.5945686,-8.4641855,Desconhecida,80.0,2010-08-17T11:00,26.9,47,14.7,28.9,0.0,0.0,0.0,0.0,0,1018.6,1009.4,0,0,0,0,0.53,1.86,5.8,6.6,248,241,21.6,32.3,25.2,24.0,20.0,0.06,0.077,0.11,0.231,1,3600.0,812.8,704.6,108.2,855.9,812.8,1098.5,766.0,664.0,102.0,855.9,766.0,1035.2,,,,,,,,,,,,,,,,,,,,,,,,,,,,,,,,,,,,,,,,,,,,,,,,,,,,,,,Eucalyptus L'Hér.; Pinus pinaster Aiton; Tracheophyta
2010,2010-08-20,Viana do Castelo,Viana do Castelo,Moreira de Geraz do Lima,CALVARIO - MOREIRA GERAZ DO LIMA (MOREIRA DE GERAZ DO LIMA),41.72042285,-8.68048110506025,Desconhecida,7.0,2010-08-20T15:00,24.1,66,17.4,25.3,0.0,0.0,0.0,0.0,0,1020.7,1019.9,12,13,0,0,0.45,1.01,15.8,19.5,317,322,33.1,31.3,23.9,23.0,20.0,0.083,0.151,0.231,0.339,1,3600.0,673.1,500.4,172.7,678.6,673.1,985.2,717.0,533.0,184.0,678.6,717.0,1049.5,,,,,,,,,,,,,,,,,,,,,,,,,,,,,,,,,,,,,,,,,,,,,,,,,,,,,,,Vitis vinifera L.; Tracheophyta; Magnoliopsida; Pinus pinaster Aiton
2010,2010-08-16,Aveiro,Albergaria-a-Velha,Valmaior,Rendo,40.6994201,-8.4615215,Desconhecida,30.0,2010-08-16T17:00,30.4,32,11.8,27.2,0.0,0.0,0.0,0.0,0,1015.7,1012.3,1,0,2,0,0.53,2.96,26.0,35.6,326,332,45.4,36.4,27.4,24.6,20.4,0.065,0.087,0.123,0.245,1,3600.0,429.8,358.8,71.1,779.2,429.8,614.3,508.0,424.0,84.0,779.2,508.0,726.0,,,,,,,,,,,,,,,,,,,,,,,,,,,,,,,,,,,,,,,,,,,,,,,,,,,,,,,Tracheophyta; Eucalyptus L'Hér.; Magnoliopsida
2010,2010-08-05,Braga,Barcelos,Manhente,MANHENTE,41.554493,-8.5736868,NC,60.0,2010-08-05T19:00,26.6,37,10.7,23.0,0.0,0.0,0.0,0.0,0,1012.6,1005.7,0,0,0,0,0.3,2.21,26.2,41.0,344,349,43.2,30.1,26.9,23.6,18.7,0.095,0.143,0.222,0.339,1,3600.0,99.0,69.3,29.7,531.2,99.0,173.5,170.0,119.0,51.0,531.2,170.0,297.8,,,,,,,,,,,,,,,,,,,,,,,,,,,,,,,,,,,,,,,,,,,,,,,,,,,,,,,Tracheophyta; Pinus pinaster Aiton; Eucalyptus L'Hér.
2010,2010-08-20,Aveiro,Sever do Vouga,Dornelas,Lugar de Decide (Dornelas),40.787108700000005,-8.381791317784282,Desconhecida,562.0,2010-08-20T15:00,28.2,44,14.8,29.9,0.0,0.0,0.0,0.0,0,1020.3,957.7,0,0,0,0,0.57,2.15,8.9,10.7,302,303,29.2,33.9,24.1,22.5,18.5,0.1,0.138,0.209,0.333,1,3600.0,732.9,631.7,101.2,854.6,732.9,987.5,782.0,674.0,108.0,854.6,782.0,1053.7,,,,,,,,,,,,,,,,,,,,,,,,,,,,,,,,,,,,,,,,,,,,,,,,,,,,,,,Tracheophyta; Pinus pinaster Aiton; Eucalyptus L'Hér.; Magnoliopsida
2010,2010-08-17,Porto,Gondomar,Foz do Sousa,Compostela,41.103053,-8.4818908,NC,66.0,2010-08-17T09:00,24.3,60,16.0,25.4,0.0,0.0,0.0,0.0,0,1018.7,1011.0,0,0,0,0,0.29,1.23,6.6,7.4,319,331,17.6,26.7,25.5,24.5,20.1,0.113,0.134,0.188,0.34,1,3600.0,514.5,416.5,98.0,720.6,514.5,771.2,441.0,357.0,84.0,720.6,441.0,661.1,,,,,,,,,,,,,,,,,,,,,,,,,,,,,,,,,,,,,,,,,,,,,,,,,,,,,,,Eucalyptus L'Hér.; Pinus pinaster Aiton; Magnoliopsida; Tracheophyta
2010,2010-08-17,Porto,TROFA,Bougado (santiago),ALTO DAS COELHAS (Alto Catorze),41.3302367,-8.5724918,NC,31.0,2010-08-17T11:00,26.6,50,15.2,28.5,0.0,0.0,0.0,0.0,0,1018.5,1014.9,3,1,0,6,0.53,1.75,7.7,8.1,311,328,20.9,31.0,25.7,24.3,20.1,0.103,0.138,0.204,0.336,1,3600.0,815.2,699.5,115.7,856.3,815.2,1090.1,768.0,659.0,109.0,856.3,768.0,1027.0,,,,,,,,,,,,,,,,,,,,,,,,,,,,,,,,,,,,,,,,,,,,,,,,,,,,,,,Tracheophyta; Magnoliopsida; Pinales
2010,2010-08-18,Lisboa,Torres Vedras,Turcifal,CSL BARBAS (Casal Barbas),39.0421904,-9.2661803,Desconhecida,90.0,2010-08-18T12:00,22.4,71,17.0,22.4,0.0,0.0,0.0,0.0,2,1017.3,1006.8,72,80,0,0,0.39,0.78,20.0,26.4,346,349,41.4,28.2,24.3,24.0,20.9,0.087,0.16,0.225,0.337,1,3600.0,663.4,342.0,321.4,385.7,663.4,1183.8,644.0,332.0,312.0,385.7,644.0,1149.1,,,,,,,,,,,,,,,,,,,,,,,,,,,,,,,,,,,,,,,,,,,,,,,,,,,,,,,Tracheophyta; Castanea sativa Mill.; Vitis vinifera L.; Magnoliopsida; Pinales; Eucalyptus L'Hér.; 
2010,2010-08-25,Setúbal,Seixal,Aldeia de Paio Pires,R RODRIGO SARMENTO BEIRO PICORINO (CORROIOS),38.6119995,-9.07313725926883,NC,5.0,2010-08-25T13:00,31.9,35,14.7,35.2,0.0,0.0,0.0,0.0,0,1015.9,1015.3,0,0,0,0,0.67,3.06,3.7,2.6,299,344,14.8,39.0,25.7,24.4,21.8,0.054,0.063,0.101,0.216,1,3600.0,892.2,785.3,106.9,892.5,892.2,1178.1,893.0,786.0,107.0,892.5,893.0,1179.1,,,,,,,,,,,,,,,,,,,,,,,,,,,,,,,,,,,,,,,,,,,,,,,,,,,,,,,Tracheophyta; Magnoliopsida; Pinus pinaster Aiton
2010,2010-08-22,Aveiro,Santa Maria da Feira,São João de Ver,Aires (Nac.1),40.954172,-8.5534047,Desconhecida,161.0,2010-08-22T01:00,17.4,98,17.0,18.9,0.0,0.0,0.0,0.0,2,1021.3,1002.2,59,66,0,0,0.0,0.05,6.9,11.9,317,325,15.1,20.6,25.1,23.5,19.9,0.09,0.115,0.166,0.309,0,0.0,0.0,0.0,0.0,0.0,0.0,0.0,0.0,0.0,0.0,0.0,0.0,0.0,,,,,,,,,,,,,,,,,,,,,,,,,,,,,,,,,,,,,,,,,,,,,,,,,,,,,,,Tracheophyta; Pinus pinaster Aiton; Eucalyptus L'Hér.; Quercus suber L.; Magnoliopsida
2010,2010-08-22,Lisboa,Mafra,Venda do Pinheiro,CASÃO (AZUEIRA),38.92848,-9.2384452,Desconhecida,259.0,2010-08-22T02:00,17.8,89,15.9,17.7,0.0,0.0,0.0,0.0,1,1020.5,990.0,49,54,0,0,0.01,0.23,14.3,21.1,332,335,24.1,20.6,25.4,23.6,20.4,0.089,0.158,0.22,0.327,0,0.0,0.0,0.0,0.0,0.0,0.0,0.0,0.0,0.0,0.0,0.0,0.0,0.0,,,,,,,,,,,,,,,,,,,,,,,,,,,,,,,,,,,,,,,,,,,,,,,,,,,,,,,Tracheophyta; Eucalyptus L'Hér.; Pinus pinaster Aiton; Pinales; Magnoliopsida
2010,2010-08-09,Viseu,Castro Daire,Gosende,Codeçal,41.0083477,-7.9058671,Desconhecida,1004.0,2010-08-09T10:00,26.3,36,9.9,25.9,0.0,0.0,0.0,0.0,0,1017.8,908.8,17,0,4,48,0.4,2.2,3.5,4.7,24,23,13.3,27.6,23.2,20.4,15.1,0.114,0.144,0.221,0.346,1,3600.0,623.9,480.0,143.9,648.4,623.9,985.1,568.0,437.0,131.0,648.4,568.0,896.9,,,,,,,,,,,,,,,,,,,,,,,,,,,,,,,,,,,,,,,,,,,,,,,,,,,,,,,Tracheophyta; Magnoliopsida; Pinales
2010,2010-08-31,Leiria,Alcobaça,Aljubarrota (Prazeres),Lameira,39.5461855,-8.9385563,Desconhecida,151.0,2010-08-31T10:00,31.0,25,8.8,27.9,0.0,0.0,0.0,0.0,1,1008.4,991.5,25,0,10,64,0.54,3.35,18.8,24.7,137,136,40.7,30.7,26.0,23.7,21.0,0.083,0.129,0.176,0.285,1,3600.0,609.4,474.9,134.6,691.0,609.4,922.6,548.0,427.0,121.0,691.0,548.0,829.6,,,,,,,,,,,,,,,,,,,,,,,,,,,,,,,,,,,,,,,,,,,,,,,,,,,,,,,Magnoliopsida; Pinus pinaster Aiton; Eucalyptus L'Hér.; Tracheophyta; Olea europaea L.
2010,2010-08-25,Aveiro,Vale de Cambra,Macieira de Cambra,Porto Novo,40.8480592,-8.3880687,Desconhecida,278.0,2010-08-25T09:00,24.3,57,15.2,25.3,0.0,0.0,0.0,0.0,0,1018.5,986.6,0,0,0,0,0.28,1.3,4.7,5.8,351,4,15.1,24.3,22.5,23.4,20.2,0.129,0.137,0.201,0.326,1,3600.0,504.0,417.1,86.9,746.4,504.0,748.1,429.0,355.0,74.0,746.4,429.0,636.7,,,,,,,,,,,,,,,,,,,,,,,,,,,,,,,,,,,,,,,,,,,,,,,,,,,,,,,Tracheophyta; Pinus pinaster Aiton; Eucalyptus L'Hér.
2010,2010-08-09,Braga,Guimarães,Lordelo,MONTE (LORDELO) (Bouça do Monte),41.3725051,-8.3787227,NC,139.0,2010-08-09T12:00,32.3,35,14.8,34.7,0.0,0.0,0.0,0.0,1,1016.1,1000.4,26,0,12,61,0.62,3.14,5.4,5.8,262,263,14.4,34.7,26.6,23.8,18.6,0.102,0.146,0.225,0.341,1,3600.0,826.3,654.7,171.6,734.4,826.3,1186.3,804.0,637.0,167.0,734.4,804.0,1154.3,,,,,,,,,,,,,,,,,,,,,,,,,,,,,,,,,,,,,,,,,,,,,,,,,,,,,,,Tracheophyta; Acacia Mill.; Eucalyptus L'Hér.; Magnoliopsida; Vitis vinifera L.
2010,2010-08-18,Castelo Branco,Belmonte,Caria,Monte do Bispo,40.2658686,-7.3251813,Desconhecida,525.0,2010-08-18T13:00,28.2,38,12.4,29.9,0.0,0.0,0.0,0.0,0,1013.7,955.4,4,0,0,15,0.6,2.38,5.3,6.5,298,304,19.4,33.7,24.7,24.2,19.8,0.102,0.157,0.215,0.345,1,3600.0,824.1,681.6,142.5,771.0,824.1,1180.2,827.0,684.0,143.0,771.0,827.0,1184.4,,,,,,,,,,,,,,,,,,,,,,,,,,,,,,,,,,,,,,,,,,,,,,,,,,,,,,,Magnoliopsida; Tracheophyta; Olea europaea L.; Vitis vinifera L.; Quercus L.; Castanea sativa Mill.; Pinus pinaster Aiton; Acacia Mill.; Quercus suber L.; Pinales; Eucalyptus L'Hér.; 
2010,2010-08-09,Aveiro,Castelo de Paiva,Paraíso,Sabariz,41.0205298,-8.3087691,Desconhecida,283.0,2010-08-09T12:00,33.2,33,14.6,35.7,0.0,0.0,0.0,0.0,1,1016.3,984.8,25,0,9,65,0.63,3.43,4.5,5.5,256,259,16.2,36.0,27.0,23.7,18.6,0.101,0.145,0.228,0.343,1,3600.0,829.4,655.7,173.7,733.3,829.4,1189.9,807.0,638.0,169.0,733.3,807.0,1157.8,,,,,,,,,,,,,,,,,,,,,,,,,,,,,,,,,,,,,,,,,,,,,,,,,,,,,,,Eucalyptus L'Hér.; Magnoliopsida; Pinales; Tracheophyta
2010,2010-08-17,Aveiro,Oliveira de Azeméis,São Roque,Samil,40.8621825,-8.477207286534295,Desconhecida,191.0,2010-08-17T14:00,27.6,44,14.2,28.6,0.0,0.0,0.0,0.0,0,1018.0,996.2,0,0,0,1,0.62,2.07,13.6,16.2,282,283,33.1,34.2,26.1,24.0,19.6,0.106,0.136,0.195,0.333,1,3600.0,823.0,697.8,125.2,830.2,823.0,1121.8,848.0,719.0,129.0,830.2,848.0,1155.8,,,,,,,,,,,,,,,,,,,,,,,,,,,,,,,,,,,,,,,,,,,,,,,,,,,,,,,Eucalyptus L'Hér.; Pinus pinaster Aiton; Tracheophyta; Magnoliopsida; Vitis vinifera L.
2010,2010-08-10,Porto,Gondomar,Foz do Sousa,LG COMPOSTELA (VALBOM),41.119341,-8.50547,NC,95.0,2010-08-10T04:00,25.7,63,18.2,28.7,0.0,0.0,0.0,0.0,0,1015.2,1004.2,16,0,26,0,0.0,1.22,0.4,4.3,180,175,10.4,24.0,27.7,24.3,19.2,0.114,0.136,0.197,0.345,0,0.0,0.0,0.0,0.0,0.0,0.0,0.0,0.0,0.0,0.0,0.0,0.0,0.0,,,,,,,,,,,,,,,,,,,,,,,,,,,,,,,,,,,,,,,,,,,,,,,,,,,,,,,Pinus pinaster Aiton; Eucalyptus L'Hér.; Tracheophyta; Magnoliopsida
2010,2010-08-30,Porto,Valongo,Alfena,RUA FONTENÁRIO (ALFENA),41.22144345,-8.47176603571262,NC,183.0,2010-08-30T17:00,34.3,24,10.7,33.1,0.0,0.0,0.0,0.0,0,1011.2,990.9,0,0,0,0,0.41,4.12,9.6,12.7,340,345,14.4,35.4,26.5,22.9,20.1,0.111,0.136,0.19,0.328,1,3600.0,369.2,304.9,64.3,763.5,369.2,536.0,448.0,370.0,78.0,763.5,448.0,650.4,,,,,,,,,,,,,,,,,,,,,,,,,,,,,,,,,,,,,,,,,,,,,,,,,,,,,,,Magnoliopsida; Eucalyptus L'Hér.; Tracheophyta; Pinus pinaster Aiton
2010,2010-08-17,Braga,Vila Nova de Famalicão,Arnoso (Santa Maria),L. ALTINHO (ARNOSO STª MARIA) (ARNOSO),41.4675071,-8.497075093328993,NC,151.0,2010-08-17T12:00,28.1,37,11.9,29.3,0.0,0.0,0.0,0.0,0,1017.8,1000.5,2,0,0,7,0.63,2.41,8.7,9.8,263,262,23.8,32.5,25.1,23.5,19.1,0.098,0.138,0.207,0.33,1,3600.0,892.5,782.5,110.0,897.2,892.5,1163.9,868.0,761.0,107.0,897.2,868.0,1131.9,,,,,,,,,,,,,,,,,,,,,,,,,,,,,,,,,,,,,,,,,,,,,,,,,,,,,,,Eucalyptus L'Hér.; Tracheophyta; Vitis vinifera L.
2010,2010-08-20,Porto,Paredes,Mouriz,Igreja,41.1997684,-8.351836,NC,160.0,2010-08-20T17:00,26.5,55,16.7,27.1,0.0,0.0,0.0,0.0,0,1020.2,1001.8,0,0,0,0,0.35,1.55,12.0,15.5,309,314,32.0,31.8,25.4,23.5,19.5,0.121,0.134,0.181,0.337,1,3600.0,394.3,302.6,91.6,684.6,394.3,590.7,469.0,360.0,109.0,684.6,469.0,702.6,,,,,,,,,,,,,,,,,,,,,,,,,,,,,,,,,,,,,,,,,,,,,,,,,,,,,,,Magnoliopsida; Pinus pinaster Aiton; Eucalyptus L'Hér.; Tracheophyta; Vitis vinifera L.; Quercus L.
2010,2010-08-17,Leiria,Bombarral,Vale Covo,Vale Pato,39.2542019,-9.172156,Desconhecida,69.0,2010-08-17T15:00,25.1,57,15.9,25.6,0.0,0.0,0.0,0.0,0,1017.8,1009.8,12,0,14,11,0.52,1.37,18.6,23.2,328,332,37.1,34.5,24.4,22.8,19.9,0.047,0.066,0.115,0.218,1,3600.0,732.1,618.4,113.7,808.9,732.1,1020.3,779.0,658.0,121.0,808.9,779.0,1085.6,,,,,,,,,,,,,,,,,,,,,,,,,,,,,,,,,,,,,,,,,,,,,,,,,,,,,,,Magnoliopsida; Tracheophyta; Olea europaea L.; Vitis vinifera L.
2010,2010-08-10,Braga,Braga,Este (são Mamede),PICAPAU(ESTE S. MAMEDE)M1 (CRESPOS),41.5699243,-8.351779715856757,NC,343.0,2010-08-10T07:00,25.6,46,13.3,26.4,0.0,0.0,0.0,0.0,0,1016.5,977.5,2,0,3,0,0.05,1.76,1.4,2.5,360,315,8.3,22.0,25.3,22.8,17.6,0.098,0.148,0.234,0.346,1,3299.73,144.5,86.1,58.5,351.1,137.4,326.2,89.0,53.0,36.0,333.8,89.0,200.9,,,,,,,,,,,,,,,,,,,,,,,,,,,,,,,,,,,,,,,,,,,,,,,,,,,,,,,Magnoliopsida; Tracheophyta; Eucalyptus L'Hér.; Pinus pinaster Aiton
2010,2010-08-30,Porto,Penafiel,Paço de Sousa,R. PADRE GAIATO (Rua Padre José Monteiro Aguiar),41.1662682,-8.3459799,Desconhecida,135.0,2010-08-30T22:00,25.8,47,13.6,25.9,0.0,0.0,0.0,0.0,1,1010.6,995.2,27,0,0,90,0.06,1.77,7.4,12.3,61,58,15.1,25.6,26.9,23.3,20.3,0.122,0.137,0.193,0.329,0,0.0,0.0,0.0,0.0,0.0,0.0,0.0,0.0,0.0,0.0,0.0,0.0,0.0,,,,,,,,,,,,,,,,,,,,,,,,,,,,,,,,,,,,,,,,,,,,,,,,,,,,,,,Tracheophyta; Eucalyptus L'Hér.; Magnoliopsida; Vitis vinifera L.
2010,2010-08-18,Aveiro,Vale de Cambra,Macieira de Cambra,Quinta Davide,40.8480592,-8.3880687,Desconhecida,278.0,2010-08-18T15:00,23.8,65,16.9,23.7,0.0,0.0,0.0,0.0,2,1015.4,983.5,71,79,0,0,0.36,1.02,17.4,22.6,322,323,40.7,28.5,24.9,24.0,19.7,0.102,0.137,0.205,0.33,1,3600.0,485.2,276.8,208.3,370.9,485.2,996.5,517.0,295.0,222.0,370.9,517.0,1061.9,,,,,,,,,,,,,,,,,,,,,,,,,,,,,,,,,,,,,,,,,,,,,,,,,,,,,,,Tracheophyta; Pinus pinaster Aiton; Eucalyptus L'Hér.
2010,2010-09-13,Vila Real,Chaves,Vidago,Junto ao Hotel (ANELHE),41.6619716,-7.585966969767078,NC,331.0,2010-09-13T15:00,30.1,33,12.0,30.7,0.0,0.0,0.0,0.0,0,1022.2,984.9,0,0,0,0,0.51,2.87,5.5,7.3,79,81,20.5,32.3,23.8,22.3,20.6,0.144,0.14,0.192,0.332,1,3600.0,627.2,543.4,83.8,867.6,627.2,846.4,681.0,590.0,91.0,867.6,681.0,919.0,,,,,,,,,,,,,,,,,,,,,,,,,,,,,,,,,,,,,,,,,,,,,,,,,,,,,,,Magnoliopsida; Tracheophyta; Vitis vinifera L.; Pinus pinaster Aiton
2010,2010-08-10,Vila Real,Ribeira de Pena,Cerva,Quintela,41.4656603,-7.8447739,Desconhecida,338.0,2010-08-10T13:00,33.1,30,13.1,34.0,0.0,0.0,0.0,0.0,0,1017.7,980.2,0,0,0,0,0.76,3.54,13.8,17.9,279,279,37.4,36.6,27.4,23.8,18.3,0.099,0.15,0.236,0.346,1,3600.0,914.9,813.0,101.9,907.8,914.9,1192.2,916.0,814.0,102.0,907.8,916.0,1193.6,,,,,,,,,,,,,,,,,,,,,,,,,,,,,,,,,,,,,,,,,,,,,,,,,,,,,,,Magnoliopsida; Pinus pinaster Aiton; Vitis vinifera L.; Tracheophyta
2010,2010-08-17,Braga,Cabeceiras de Basto,Rio Douro,MOSCOSO (RIO DOURO) (Moscoso),41.5565621,-7.984128259352389,Desconhecida,747.0,2010-08-17T11:00,25.6,34,8.5,25.7,0.0,0.0,0.0,0.0,0,1019.0,936.2,0,0,0,0,0.55,2.17,6.6,8.4,225,227,23.8,28.5,21.9,20.9,16.5,0.097,0.15,0.234,0.345,1,3600.0,833.6,730.9,102.7,892.1,833.6,1093.3,787.0,690.0,97.0,892.1,787.0,1032.2,,,,,,,,,,,,,,,,,,,,,,,,,,,,,,,,,,,,,,,,,,,,,,,,,,,,,,,Magnoliopsida; Pinus pinaster Aiton; Tracheophyta; Eucalyptus L'Hér.
2010,2010-08-17,Évora,Mourão,Mourão,Perimetro Florestal de Mourão,38.3848974,-7.3467228,Desconhecida,206.0,2010-08-17T15:00,28.7,37,12.6,28.8,0.0,0.0,0.0,0.0,2,1017.1,993.7,73,0,73,98,0.36,2.47,4.7,5.8,360,4,16.6,32.1,27.9,27.8,23.0,0.163,0.153,0.196,0.284,1,3600.0,422.7,139.3,283.4,184.6,422.7,1007.3,452.0,149.0,303.0,184.6,452.0,1077.1,,,,,,,,,,,,,,,,,,,,,,,,,,,,,,,,,,,,,,,,,,,,,,,,,,,,,,,Pinus pinea L.; Tracheophyta; Quercus rotundifolia Lam.; Magnoliopsida
2010,2010-08-10,Lisboa,Cascais,Alcabideche,VARANDAS CASCAIS (ALCABIDECHE),38.73146925,-9.410701803202649,Desconhecida,119.0,2010-08-10T13:00,25.3,59,16.8,27.6,0.0,0.0,0.0,0.0,0,1017.0,1003.3,0,0,0,0,0.6,1.31,13.6,16.0,343,351,25.6,35.5,25.8,22.5,19.5,0.078,0.125,0.181,0.283,1,3600.0,917.1,809.0,108.1,882.3,917.1,1220.5,916.0,808.0,108.0,882.3,916.0,1219.0,,,,,,,,,,,,,,,,,,,,,,,,,,,,,,,,,,,,,,,,,,,,,,,,,,,,,,,Tracheophyta; Eucalyptus L'Hér.; Magnoliopsida; Pinus pinea L.; Pinus pinaster Aiton; Pinales; Vitis vinifera L.; 
2010,2010-08-17,Porto,TROFA,Covelas,Monte,41.3008521,-8.5349796,NC,115.0,2010-08-17T14:00,28.2,39,13.1,28.6,0.0,0.0,0.0,0.0,0,1017.7,1004.5,0,0,0,0,0.63,2.31,14.6,18.0,286,286,29.5,34.0,26.2,24.0,19.6,0.116,0.135,0.189,0.337,1,3600.0,814.2,691.0,123.3,825.4,814.2,1117.2,839.0,712.0,127.0,825.4,839.0,1151.2,,,,,,,,,,,,,,,,,,,,,,,,,,,,,,,,,,,,,,,,,,,,,,,,,,,,,,,Magnoliopsida; Pinus pinaster Aiton; Vitis vinifera L.; Quercus L.; Tracheophyta; Eucalyptus L'Hér.; Olea europaea L.; ; Pinales
2010,2010-09-03,Aveiro,Oliveira de Azeméis,Travanca,Srª das Flores (Selores),40.8050212,-8.471859189328358,Desconhecida,291.0,2010-09-03T16:00,27.9,44,14.7,27.0,0.0,0.0,0.0,0.0,0,1016.6,983.7,0,0,0,0,0.48,2.08,18.4,23.4,321,323,39.6,33.4,25.3,23.7,20.6,0.098,0.135,0.192,0.319,1,3600.0,532.8,453.1,79.6,824.8,532.8,738.6,602.0,512.0,90.0,824.8,602.0,834.6,,,,,,,,,,,,,,,,,,,,,,,,,,,,,,,,,,,,,,,,,,,,,,,,,,,,,,,Magnoliopsida; Eucalyptus L'Hér.; Tracheophyta; Pinus pinaster Aiton
2010,2010-08-30,Braga,Vila Verde,Freiriz,L. REGADAS(FREIRIZ) M3 (ABOIM DA NOBREGA),41.64094665,-8.508353493902348,NC,97.0,2010-08-30T21:00,26.3,53,15.9,26.6,0.0,0.0,0.0,0.0,1,1010.6,999.5,24,0,0,80,0.09,1.61,12.0,16.8,33,28,17.3,26.2,26.3,22.8,20.1,0.115,0.137,0.199,0.323,0,0.0,0.0,0.0,0.0,0.0,0.0,0.0,0.0,0.0,0.0,0.0,0.0,0.0,,,,,,,,,,,,,,,,,,,,,,,,,,,,,,,,,,,,,,,,,,,,,,,,,,,,,,,Pinus pinaster Aiton; Eucalyptus L'Hér.; Tracheophyta
2010,2010-08-25,Porto,Penafiel,Duas Igrejas,Perafita,41.1864654,-8.2690378,Desconhecida,403.0,2010-08-25T17:00,27.6,52,17.0,28.9,0.0,0.0,0.0,0.0,0,1016.0,970.7,0,0,0,0,0.34,1.75,7.6,9.7,275,272,24.5,30.8,23.7,22.0,18.6,0.131,0.139,0.209,0.33,1,3600.0,379.0,310.8,68.2,744.2,379.0,559.3,456.0,374.0,82.0,744.2,456.0,672.9,,,,,,,,,,,,,,,,,,,,,,,,,,,,,,,,,,,,,,,,,,,,,,,,,,,,,,,Eucalyptus L'Hér.; Tracheophyta; Magnoliopsida
2010,2010-08-25,Porto,Gondomar,São Pedro da Cova,RUA DO LODEIRO (Rua do Padre Dehon),41.1473685,-8.5074154,NC,78.0,2010-08-25T17:00,27.6,60,19.1,29.4,0.0,0.0,0.0,0.0,0,1015.7,1006.7,1,1,0,0,0.34,1.49,10.8,13.0,296,298,23.4,32.5,25.4,23.6,20.6,0.136,0.134,0.184,0.336,1,3600.0,380.8,311.6,69.2,737.9,380.8,565.4,457.0,374.0,83.0,737.9,457.0,678.6,,,,,,,,,,,,,,,,,,,,,,,,,,,,,,,,,,,,,,,,,,,,,,,,,,,,,,,Magnoliopsida; Eucalyptus L'Hér.; Tracheophyta; Vitis vinifera L.; Pinus pinaster Aiton
2010,2010-08-31,Porto,Penafiel,Marecos,Igreja,41.186518,-8.2971088,Desconhecida,223.0,2010-08-31T01:00,21.3,57,12.5,20.9,0.0,0.0,0.0,0.0,1,1010.1,984.4,30,0,0,100,0.04,1.09,7.9,17.3,93,88,19.1,22.5,25.9,22.8,19.8,0.122,0.137,0.193,0.329,0,0.0,0.0,0.0,0.0,0.0,0.0,0.0,0.0,0.0,0.0,0.0,0.0,0.0,,,,,,,,,,,,,,,,,,,,,,,,,,,,,,,,,,,,,,,,,,,,,,,,,,,,,,,Tracheophyta; Eucalyptus L'Hér.; Vitis vinifera L.; Magnoliopsida
2010,2010-08-10,Porto,Paços de Ferreira,Freamunde,RUA S. MARTINHO (SANFINS DE FERREIRA),41.2885918,-8.3401591,NC,357.0,2010-08-10T09:00,27.7,40,13.1,28.2,0.0,0.0,0.0,0.0,0,1017.3,977.0,0,0,0,0,0.33,2.21,3.6,4.3,264,265,13.7,28.6,25.7,22.9,17.6,0.092,0.143,0.222,0.339,1,3600.0,543.7,448.6,95.1,754.4,543.7,791.5,469.0,387.0,82.0,754.4,469.0,682.8,,,,,,,,,,,,,,,,,,,,,,,,,,,,,,,,,,,,,,,,,,,,,,,,,,,,,,,Tracheophyta; Eucalyptus L'Hér.; Magnoliopsida; Pinus pinaster Aiton; 
2010,2010-08-20,Vila Real,Vila Real,Vilarinho de Samardã,bouça do rio,41.3821798,-7.7041655,Desconhecida,666.0,2010-08-20T18:00,27.0,42,13.1,27.0,0.0,0.0,0.0,0.0,0,1020.0,946.1,0,0,0,0,0.23,2.07,6.9,9.2,276,281,25.9,30.7,24.6,21.5,17.4,0.118,0.136,0.197,0.341,1,3600.0,213.3,166.5,46.7,660.6,213.3,336.9,292.0,228.0,64.0,660.6,292.0,461.2,,,,,,,,,,,,,,,,,,,,,,,,,,,,,,,,,,,,,,,,,,,,,,,,,,,,,,,Magnoliopsida; Vitis vinifera L.; Tracheophyta
2010,2010-08-31,Porto,Marco de Canaveses,Vila Boa de Quires,Gaia,41.2028475,-8.2047635,Desconhecida,275.0,2010-08-31T13:00,32.2,24,9.2,31.7,0.0,0.0,0.0,0.0,1,1008.2,977.7,20,0,0,68,0.68,3.63,12.1,16.1,117,117,36.0,32.8,24.9,22.5,19.5,0.11,0.139,0.206,0.328,1,3600.0,811.2,664.7,146.5,794.5,811.2,1123.2,814.0,667.0,147.0,794.5,814.0,1127.1,,,,,,,,,,,,,,,,,,,,,,,,,,,,,,,,,,,,,,,,,,,,,,,,,,,,,,,Pinus pinaster Aiton; Tracheophyta; Eucalyptus L'Hér.; Magnoliopsida; Vitis vinifera L.; Quercus L.; Pinales; 
2010,2010-09-13,Viseu,Viseu,Silgueiros,SILGUEIROS,40.560728,-7.937813540549341,Desconhecida,330.0,2010-09-13T15:00,32.2,30,12.3,33.2,0.0,0.0,0.0,0.0,0,1020.6,983.7,0,0,0,0,0.47,3.37,2.2,2.9,81,90,15.1,34.8,25.3,23.1,21.5,0.104,0.147,0.218,0.33,1,3600.0,593.6,494.0,99.5,774.2,593.6,862.5,644.0,536.0,108.0,774.2,644.0,935.7,,,,,,,,,,,,,,,,,,,,,,,,,,,,,,,,,,,,,,,,,,,,,,,,,,,,,,,Pinus pinaster Aiton; Pinales; Magnoliopsida; Tracheophyta; Olea europaea L.; Vitis vinifera L.
2010,2010-08-09,Braga,Vila Nova de Famalicão,Calendário,L. DO OUTEIRO (CALENDÁRIO)M2 (JOANE),41.40125265,-8.522439559428536,NC,82.0,2010-08-09T13:00,32.7,36,15.6,35.1,0.0,0.0,0.0,0.0,0,1016.1,1006.8,10,0,9,17,0.69,3.17,9.0,10.5,265,266,24.1,35.9,27.1,23.9,18.9,0.114,0.139,0.204,0.341,1,3600.0,862.8,711.9,151.0,791.8,862.8,1196.3,863.0,712.0,151.0,791.8,863.0,1196.5,,,,,,,,,,,,,,,,,,,,,,,,,,,,,,,,,,,,,,,,,,,,,,,,,,,,,,,Tracheophyta; Magnoliopsida
2010,2010-08-29,Portalegre,Portalegre,Urra,S.TIAGO/CAIA,39.4005097,-7.4174073,Desconhecida,771.0,2010-08-29T16:00,34.5,14,2.8,32.0,0.0,0.0,0.0,0.0,0,1013.3,930.8,0,0,0,0,0.53,4.72,8.6,10.8,2,4,23.0,40.5,28.9,25.6,21.1,0.084,0.136,0.182,0.275,1,3600.0,549.8,469.2,80.6,828.2,549.8,759.9,621.0,530.0,91.0,828.2,621.0,858.4,,,,,,,,,,,,,,,,,,,,,,,,,,,,,,,,,,,,,,,,,,,,,,,,,,,,,,,Pinus pinaster Aiton; Quercus L.; Magnoliopsida; Tracheophyta; Olea europaea L.
2010,2010-08-25,Lisboa,Sintra,Sintra (são Pedro De Penaferrim),MONSERRATE - SERRA DE SINTRA (Parque de Monserrate),38.7693037,-9.393216066576992,Desconhecida,238.0,2010-08-25T18:00,25.5,56,16.2,25.8,0.0,0.0,0.0,0.0,0,1014.8,987.6,0,0,0,0,0.23,1.43,12.7,16.4,331,334,28.1,31.5,25.8,23.1,20.5,0.085,0.158,0.223,0.336,1,3600.0,203.1,155.7,47.4,632.9,203.1,329.5,283.0,217.0,66.0,632.9,283.0,459.1,,,,,,,,,,,,,,,,,,,,,,,,,,,,,,,,,,,,,,,,,,,,,,,,,,,,,,,Eucalyptus L'Hér.; Tracheophyta; Pinus pinaster Aiton; Pinales; Magnoliopsida
2010,2010-08-10,Castelo Branco,Fundão,Vale de Prazeres,Catrao (Catraia),40.1106704,-7.4310164,Desconhecida,534.0,2010-08-10T01:00,24.3,63,16.8,26.0,0.0,0.0,0.0,0.0,0,1015.7,955.6,4,0,6,0,0.01,1.12,4.3,6.2,355,21,9.0,25.1,29.1,25.6,19.4,0.12,0.162,0.221,0.349,0,0.0,0.0,0.0,0.0,0.0,0.0,0.0,0.0,0.0,0.0,0.0,0.0,0.0,,,,,,,,,,,,,,,,,,,,,,,,,,,,,,,,,,,,,,,,,,,,,,,,,,,,,,,Eucalyptus L'Hér.; Tracheophyta; Olea europaea L.; Pinus pinaster Aiton; Magnoliopsida; Quercus suber L.; Quercus L.; Vitis vinifera L.; 
2010,2010-09-13,Porto,Vila Nova de Gaia,Vilar de Andorinho,RUA ESCULTOR ALVES DE SOUSA (Rua de Escultor Fernandes de Sá),41.1032455,-8.5767749,NC,155.0,2010-09-13T16:00,29.9,40,15.0,29.9,0.0,0.0,0.0,0.0,0,1021.0,1003.3,0,0,0,0,0.44,2.52,11.9,14.7,325,329,22.7,31.8,24.9,22.0,20.7,0.164,0.147,0.194,0.332,1,3600.0,470.1,394.1,76.0,787.0,470.1,676.6,538.0,451.0,87.0,787.0,538.0,774.4,,,,,,,,,,,,,,,,,,,,,,,,,,,,,,,,,,,,,,,,,,,,,,,,,,,,,,,Magnoliopsida; Tracheophyta
2010,2010-09-13,Guarda,Gouveia,Melo,Sangas,40.5190805,-7.5333746,Desconhecida,573.0,2010-09-13T00:00,21.3,50,10.5,19.2,0.0,0.0,0.0,0.0,0,1020.4,955.2,0,0,0,0,0.1,1.27,15.6,30.8,56,60,39.2,22.5,25.2,23.2,21.3,0.078,0.146,0.219,0.33,0,0.0,0.0,0.0,0.0,0.0,0.0,0.0,0.0,0.0,0.0,0.0,0.0,0.0,,,,,,,,,,,,,,,,,,,,,,,,,,,,,,,,,,,,,,,,,,,,,,,,,,,,,,,Magnoliopsida; Tracheophyta; Pinus pinaster Aiton; Pinales; Olea europaea L.; 
2010,2010-08-10,Porto,Felgueiras,Macieira da Lixa,Passarias,41.3496108,-8.1492033,NC,406.0,2010-08-10T13:00,31.8,29,11.6,32.4,0.0,0.0,0.0,0.0,0,1017.9,972.8,0,0,0,0,0.74,3.32,12.8,16.1,286,286,33.1,36.4,26.7,22.8,17.4,0.093,0.146,0.227,0.342,1,3600.0,915.1,809.2,105.9,902.8,915.1,1193.1,916.0,810.0,106.0,902.8,916.0,1194.3,,,,,,,,,,,,,,,,,,,,,,,,,,,,,,,,,,,,,,,,,,,,,,,,,,,,,,,Eucalyptus L'Hér.; Tracheophyta; Pinus pinaster Aiton; Magnoliopsida; Vitis vinifera L.
2010,2010-08-31,Porto,Felgueiras,Rande,Monte,41.3308088,-8.2277133,NC,214.0,2010-08-31T12:00,31.7,25,9.2,30.5,0.0,0.0,0.0,0.0,0,1009.1,985.2,12,0,0,41,0.68,3.5,15.5,20.7,102,103,38.9,31.8,25.3,22.9,19.8,0.12,0.137,0.192,0.328,1,3600.0,818.0,681.3,136.7,817.6,818.0,1118.7,796.0,663.0,133.0,817.6,796.0,1088.7,,,,,,,,,,,,,,,,,,,,,,,,,,,,,,,,,,,,,,,,,,,,,,,,,,,,,,,Magnoliopsida; Tracheophyta; Eucalyptus L'Hér.; Vitis vinifera L.
2010,2010-08-17,Guarda,Trancoso,Moreira de Rei,MOREIRA DE REI,40.828176,-7.3206711,Desconhecida,780.0,2010-08-17T21:00,20.6,51,10.1,19.5,0.0,0.0,0.0,0.0,0,1017.1,929.6,10,0,11,11,0.04,1.19,7.4,15.8,247,253,20.2,24.5,25.6,22.6,17.8,0.119,0.134,0.181,0.315,0,0.0,0.0,0.0,0.0,0.0,0.0,0.0,0.0,0.0,0.0,0.0,0.0,0.0,,,,,,,,,,,,,,,,,,,,,,,,,,,,,,,,,,,,,,,,,,,,,,,,,,,,,,,Pinales; Magnoliopsida; Olea europaea L.; Pinus pinaster Aiton; Castanea sativa Mill.; Acacia Mill.; Tracheophyta; Quercus L.; 
2010,2010-08-17,Porto,Gondomar,Foz do Sousa,R. STº OVIDIO (VALBOM),41.119341,-8.50547,NC,95.0,2010-08-17T21:00,19.5,80,16.1,20.0,0.0,0.0,0.0,0.0,0,1017.5,1006.3,1,0,0,4,0.02,0.44,11.5,17.8,316,324,24.1,24.6,27.1,24.4,19.9,0.113,0.134,0.187,0.34,0,0.0,0.0,0.0,0.0,0.0,0.0,0.0,0.0,0.0,0.0,0.0,0.0,0.0,,,,,,,,,,,,,,,,,,,,,,,,,,,,,,,,,,,,,,,,,,,,,,,,,,,,,,,Pinus pinaster Aiton; Eucalyptus L'Hér.; Tracheophyta; Magnoliopsida
2010,2010-07-28,Porto,Lousada,Vilar do Torno e Alentém,r. soutelo (Val),41.2820939,-8.2173313,NC,255.0,2010-07-28T02:00,21.3,63,13.9,21.6,0.0,0.0,0.0,0.0,0,1014.6,985.1,0,0,0,0,0.03,0.95,6.6,9.0,103,92,13.3,22.4,26.5,21.7,16.9,0.091,0.158,0.247,0.351,0,0.0,0.0,0.0,0.0,0.0,0.0,0.0,0.0,0.0,0.0,0.0,0.0,0.0,,,,,,,,,,,,,,,,,,,,,,,,,,,,,,,,,,,,,,,,,,,,,,,,,,,,,,,Eucalyptus L'Hér.; Tracheophyta; Vitis vinifera L.; Pinus pinaster Aiton; Quercus L.
2010,2010-08-10,Vila Real,Ribeira de Pena,Cerva,Asnela,41.4715565,-7.8739423,Desconhecida,342.0,2010-08-10T13:00,32.8,29,12.5,33.6,0.0,0.0,0.0,0.0,0,1017.7,979.7,0,0,0,0,0.76,3.53,13.8,17.9,279,279,37.4,36.6,27.2,23.5,18.0,0.096,0.146,0.229,0.343,1,3600.0,914.9,813.0,101.9,907.8,914.9,1192.2,916.0,814.0,102.0,907.8,916.0,1193.6,,,,,,,,,,,,,,,,,,,,,,,,,,,,,,,,,,,,,,,,,,,,,,,,,,,,,,,Tracheophyta; Pinus pinaster Aiton; Magnoliopsida
2010,2010-07-27,Braga,Vila Verde,Carreiras (santiago),MOURENTA (CARREIRAS SANTIAGO) (Mourenta),41.6620022,-8.484243214605964,NC,173.0,2010-07-27T18:00,32.4,37,15.8,32.9,0.0,0.0,0.0,0.0,0,1013.7,994.3,0,0,0,0,0.34,3.06,9.4,14.6,313,322,22.0,34.7,27.5,21.4,17.0,0.097,0.156,0.247,0.351,1,3600.0,300.6,241.1,59.5,706.5,300.6,452.6,379.0,304.0,75.0,706.5,379.0,570.7,,,,,,,,,,,,,,,,,,,,,,,,,,,,,,,,,,,,,,,,,,,,,,,,,,,,,,,Tracheophyta; Magnoliopsida; Eucalyptus L'Hér.
2010,2010-08-30,Porto,Paredes,Rebordosa,TV. TELHA (Forno da Telha),41.2202567,-8.4112601,Desconhecida,216.0,2010-08-30T20:00,29.3,38,13.5,29.2,0.0,0.0,0.0,0.0,0,1010.3,986.0,5,0,0,17,0.11,2.53,8.1,15.3,21,19,16.2,29.3,26.9,22.8,19.8,0.132,0.134,0.176,0.331,0,0.0,0.0,0.0,0.0,0.0,0.0,0.0,0.0,0.0,0.0,0.0,0.0,1.5,,,,,,,,,,,,,,,,,,,,,,,,,,,,,,,,,,,,,,,,,,,,,,,,,,,,,,,Magnoliopsida; Pinus pinaster Aiton; Eucalyptus L'Hér.; Tracheophyta; Vitis vinifera L.
2010,2010-09-01,Viseu,Castro Daire,Mões,Canado,40.8727639,-7.8450076,Natural,693.0,2010-09-01T02:00,18.9,70,13.4,19.2,0.0,0.0,0.0,0.0,0,1008.6,930.7,9,0,6,18,0.01,0.65,5.8,8.6,202,213,15.5,21.1,24.8,22.4,18.8,0.125,0.14,0.208,0.334,0,0.0,0.0,0.0,0.0,0.0,0.0,0.0,0.0,0.0,0.0,0.0,0.0,0.0,,,,,,,,,,,,,,,,,,,,,,,,,,,,,,,,,,,,,,,,,,,,,,,,,,,,,,,Magnoliopsida; Tracheophyta
2010,2010-08-09,Aveiro,Albergaria-a-Velha,Branca,Soutelo,40.7451386,-8.513711,Desconhecida,97.0,2010-08-09T14:00,34.4,33,15.9,36.1,0.0,0.0,0.0,0.0,1,1015.3,1004.4,22,0,7,58,0.57,3.62,7.2,8.2,307,308,21.2,40.0,28.2,24.0,19.4,0.066,0.088,0.13,0.251,1,3600.0,658.1,354.8,303.3,411.5,658.1,1147.3,677.0,365.0,312.0,411.5,677.0,1180.3,,,,,,,,,,,,,,,,,,,,,,,,,,,,,,,,,,,,,,,,,,,,,,,,,,,,,,,Magnoliopsida; Eucalyptus L'Hér.; Tracheophyta; Pinus pinaster Aiton
2010,2010-08-31,Aveiro,Oliveira de Azeméis,Pinheiro da Bemposta,Rua da Mota (VILA DE CUCUJÃES),40.7845673,-8.4822234,Desconhecida,175.0,2010-08-31T14:00,35.1,21,9.3,32.9,0.0,0.0,0.0,0.0,1,1007.5,988.2,29,0,4,90,0.57,4.5,13.9,18.2,190,188,30.6,36.3,27.4,23.4,20.5,0.093,0.126,0.179,0.304,1,3600.0,514.2,308.3,205.9,388.3,514.2,1066.1,532.0,319.0,213.0,388.3,532.0,1103.1,,,,,,,,,,,,,,,,,,,,,,,,,,,,,,,,,,,,,,,,,,,,,,,,,,,,,,,Tracheophyta; Magnoliopsida; Eucalyptus L'Hér.
2010,2010-08-10,Bragança,Mogadouro,Penas Roias,pena roias (Pena),41.3916281,-6.6540572,NC,723.0,2010-08-10T09:00,27.1,42,13.0,26.9,0.0,0.0,0.0,0.0,0,1017.9,938.1,0,0,0,0,0.35,2.08,7.9,10.3,240,245,19.1,27.9,25.0,22.7,17.3,0.133,0.164,0.224,0.346,1,3600.0,523.4,399.1,124.2,651.4,523.4,815.6,455.0,347.0,108.0,651.4,455.0,709.1,,,,,,,,,,,,,,,,,,,,,,,,,,,,,,,,,,,,,,,,,,,,,,,,,,,,,,,Magnoliopsida
2010,2010-08-10,Aveiro,Albergaria-a-Velha,Frossos,Areeiros (Alto dos Barreiros),40.6593513,-8.5359631,Desconhecida,30.0,2010-08-10T12:00,33.6,33,15.0,34.7,0.0,0.0,0.0,0.0,0,1017.7,1014.3,0,0,0,0,0.73,3.49,15.0,16.9,312,320,25.9,39.1,28.5,24.5,19.9,0.066,0.088,0.129,0.251,1,3600.0,890.4,782.5,108.0,875.0,890.4,1190.3,866.0,761.0,105.0,875.0,866.0,1157.7,,,,,,,,,,,,,,,,,,,,,,,,,,,,,,,,,,,,,,,,,,,,,,,,,,,,,,,Eucalyptus L'Hér.; Magnoliopsida; Tracheophyta; Pinus pinaster Aiton; Acacia Mill.; 
2010,2010-08-18,Viana do Castelo,Viana do Castelo,Montaria,SILVAREIRA - MONTARIA (Moinho da Silvareira),41.7909521,-8.7282473,Desconhecida,290.0,2010-08-18T13:00,21.1,73,16.1,21.8,0.0,0.0,0.0,0.0,2,1016.2,982.7,58,65,0,0,0.37,0.68,11.2,14.5,303,305,33.5,25.5,22.6,22.0,18.3,0.099,0.14,0.213,0.333,1,3600.0,596.5,314.7,281.8,360.4,596.5,1166.0,597.0,315.0,282.0,360.4,597.0,1166.9,,,,,,,,,,,,,,,,,,,,,,,,,,,,,,,,,,,,,,,,,,,,,,,,,,,,,,,Tracheophyta; Magnoliopsida; Eucalyptus L'Hér.
2010,2010-08-10,Braga,Braga,Pedralva,CODEÇOSA (PEDRALVA) M2 (Codeçosa),41.57719105,-8.322675272587194,NC,478.0,2010-08-10T10:00,29.2,32,10.6,29.0,0.0,0.0,0.0,0.0,0,1017.8,964.6,0,0,0,0,0.49,2.77,6.8,8.6,270,270,23.4,30.3,25.3,22.6,17.2,0.099,0.147,0.231,0.344,1,3600.0,709.9,605.5,104.4,825.4,709.9,976.4,646.0,551.0,95.0,825.4,646.0,888.5,,,,,,,,,,,,,,,,,,,,,,,,,,,,,,,,,,,,,,,,,,,,,,,,,,,,,,,Magnoliopsida; Eucalyptus L'Hér.; Pinus pinaster Aiton; Tracheophyta; Pinales
2010,2010-08-17,Vila Real,Ribeira de Pena,Canedo,Alijo,41.6196405,-7.7315489,NC,524.0,2010-08-17T15:00,30.4,26,8.6,30.2,0.0,0.0,0.0,0.0,0,1016.0,958.1,1,0,1,0,0.61,3.23,8.3,10.8,272,272,24.5,35.6,24.8,22.6,18.1,0.089,0.163,0.248,0.35,1,3600.0,731.2,629.0,102.2,851.0,731.2,986.4,780.0,671.0,109.0,851.0,780.0,1052.3,,,,,,,,,,,,,,,,,,,,,,,,,,,,,,,,,,,,,,,,,,,,,,,,,,,,,,,Magnoliopsida; Pinus pinaster Aiton; Tracheophyta
2010,2010-08-31,Porto,Gondomar,São Pedro da Cova,LG. TARDARIZ (SÃO PEDRO DA COVA),41.146305850000005,-8.513812231973976,NC,128.0,2010-08-31T12:00,33.4,23,9.3,32.5,0.0,0.0,0.0,0.0,0,1008.4,994.1,15,0,0,51,0.7,3.98,14.7,19.2,115,116,30.6,33.8,26.6,23.5,20.5,0.122,0.134,0.18,0.333,1,3600.0,824.6,699.1,125.4,838.1,824.6,1119.9,802.0,680.0,122.0,838.1,802.0,1089.3,,,,,,,,,,,,,,,,,,,,,,,,,,,,,,,,,,,,,,,,,,,,,,,,,,,,,,,Magnoliopsida; Eucalyptus L'Hér.; Tracheophyta; Vitis vinifera L.; Pinus pinaster Aiton
2010,2010-08-31,Porto,Gondomar,Lomba,QUINTA COLMEIA (Quinta),41.0617409,-8.4108172,NC,76.0,2010-08-31T14:00,35.2,22,10.2,33.0,0.0,0.0,0.0,0.0,1,1007.1,998.7,29,0,6,83,0.54,4.43,15.6,20.5,218,208,27.7,35.7,27.3,23.9,20.9,0.115,0.136,0.191,0.329,1,3600.0,433.8,227.0,206.7,287.1,433.8,1061.5,449.0,235.0,214.0,287.1,449.0,1098.8,,,,,,,,,,,,,,,,,,,,,,,,,,,,,,,,,,,,,,,,,,,,,,,,,,,,,,,Magnoliopsida; Eucalyptus L'Hér.; Vitis vinifera L.; Pinus pinaster Aiton; Tracheophyta; 
2010,2010-08-26,Aveiro,Arouca,Alvarenga,Miudal,40.9662166,-8.1727407,Desconhecida,338.0,2010-08-26T01:00,18.9,93,17.8,20.9,0.0,0.0,0.0,0.0,1,1015.6,976.4,30,3,0,91,0.0,0.15,5.8,6.8,150,183,15.8,20.4,24.2,22.8,19.6,0.126,0.139,0.21,0.331,0,0.0,0.0,0.0,0.0,0.0,0.0,0.0,0.0,0.0,0.0,0.0,0.0,0.0,,,,,,,,,,,,,,,,,,,,,,,,,,,,,,,,,,,,,,,,,,,,,,,,,,,,,,,Tracheophyta; Magnoliopsida; Quercus L.; Eucalyptus L'Hér.; Castanea sativa Mill.; Pinus pinaster Aiton
2010,2010-09-01,Porto,Vila do Conde,Gião,RUA STº ESTEVÃO (RIO MAU),41.32628365,-8.67446281139501,NC,89.0,2010-09-01T03:00,18.3,99,18.1,20.5,0.0,0.0,0.0,0.0,3,1008.3,997.8,100,90,33,7,0.0,0.02,5.2,6.2,205,216,12.6,21.8,26.0,23.1,20.4,0.093,0.139,0.208,0.327,0,0.0,0.0,0.0,0.0,0.0,0.0,0.0,0.0,0.0,0.0,0.0,0.0,0.0,,,,,,,,,,,,,,,,,,,,,,,,,,,,,,,,,,,,,,,,,,,,,,,,,,,,,,,Eucalyptus L'Hér.; Tracheophyta; Magnoliopsida
2010,2010-08-09,Aveiro,Santa Maria da Feira,Romariz,Cerejeira,40.9324415,-8.4613771,Desconhecida,266.0,2010-08-09T14:00,32.6,34,14.7,33.5,0.0,0.0,0.0,0.0,1,1015.8,986.1,23,0,12,54,0.62,3.24,11.3,13.0,297,298,26.6,36.4,27.2,23.4,18.4,0.107,0.138,0.205,0.339,1,3600.0,718.3,467.5,250.8,543.4,718.3,1144.9,739.0,481.0,258.0,543.4,739.0,1178.0,,,,,,,,,,,,,,,,,,,,,,,,,,,,,,,,,,,,,,,,,,,,,,,,,,,,,,,Tracheophyta; Eucalyptus L'Hér.; Pinales
2010,2010-08-18,Vila Real,Boticas,Beça,Seirrãos,41.6947701,-7.7043784,NC,795.0,2010-08-18T19:00,20.2,64,13.2,19.8,0.0,0.0,0.0,0.0,0,1014.0,925.1,2,0,0,7,0.09,0.85,9.4,15.1,320,322,32.4,22.9,22.1,20.4,16.3,0.113,0.162,0.245,0.349,1,3522.41,47.0,29.8,17.2,341.5,46.4,91.6,112.0,71.0,41.0,428.7,112.0,218.4,,,,,,,,,,,,,,,,,,,,,,,,,,,,,,,,,,,,,,,,,,,,,,,,,,,,,,,Pinus pinaster Aiton; Magnoliopsida; Tracheophyta
2010,2010-09-04,Porto,Gondomar,São Pedro da Cova,RAMPA ETELVINA CABRAL (SÃO PEDRO DA COVA),41.146305850000005,-8.513812231973976,NC,128.0,2010-09-04T01:00,18.3,95,17.4,20.4,0.0,0.0,0.0,0.0,2,1016.6,1001.5,52,29,0,87,0.0,0.11,3.7,6.1,349,357,12.2,20.5,24.8,23.7,20.7,0.118,0.134,0.178,0.331,0,0.0,0.0,0.0,0.0,0.0,0.0,0.0,0.0,0.0,0.0,0.0,0.0,0.0,,,,,,,,,,,,,,,,,,,,,,,,,,,,,,,,,,,,,,,,,,,,,,,,,,,,,,,Magnoliopsida; Eucalyptus L'Hér.; Tracheophyta; Vitis vinifera L.; Pinus pinaster Aiton
2010,2010-09-13,Braga,Vila Verde,Freiriz,L. ESQUINHEIRO (FREIRIZ) (ABOIM DA NOBREGA),41.64094665,-8.508353493902348,NC,97.0,2010-09-13T09:00,24.3,51,13.4,23.3,0.0,0.0,0.0,0.0,0,1021.3,1010.0,0,0,0,0,0.29,1.5,14.4,21.7,103,101,29.9,22.8,22.3,21.8,20.7,0.16,0.159,0.194,0.317,1,3600.0,441.8,354.4,87.4,711.5,441.8,673.1,369.0,296.0,73.0,711.5,369.0,562.2,,,,,,,,,,,,,,,,,,,,,,,,,,,,,,,,,,,,,,,,,,,,,,,,,,,,,,,Pinus pinaster Aiton; Eucalyptus L'Hér.; Tracheophyta
2010,2010-07-26,Aveiro,Águeda,Macinhata do Vouga,Serém,40.6553986,-8.4535347,Desconhecida,53.0,2010-07-26T10:00,30.3,30,10.7,28.5,0.0,0.0,0.0,0.0,0,1013.7,1007.7,0,0,0,0,0.59,3.04,18.4,26.0,84,86,39.2,31.1,26.0,22.2,18.6,0.066,0.094,0.149,0.265,1,3600.0,744.7,640.6,104.0,839.3,744.7,1012.0,680.0,585.0,95.0,839.3,680.0,924.1,,,,,,,,,,,,,,,,,,,,,,,,,,,,,,,,,,,,,,,,,,,,,,,,,,,,,,,Tracheophyta; Magnoliopsida; Eucalyptus L'Hér.; Pinus pinaster Aiton
2010,2010-08-31,Viseu,Vila Nova de Paiva,Touro,Touro,40.8961681,-7.7356518,Natural,800.0,2010-08-31T15:00,30.7,24,7.6,28.3,0.3,0.3,0.0,0.0,51,1008.8,922.7,34,0,12,91,0.57,3.38,15.3,19.8,199,199,37.4,33.0,24.5,21.8,18.1,0.127,0.136,0.192,0.334,1,3600.0,585.9,416.6,169.3,601.9,585.9,929.3,630.0,448.0,182.0,601.9,630.0,999.3,,,,,,,,,,,,,,,,,,,,,,,,,,,,,,,,,,,,,,,,,,,,,,,,,,,,,,,Magnoliopsida; Pinus pinaster Aiton; Tracheophyta; Eucalyptus L'Hér.; Quercus L.; 
2010,2010-08-10,Bragança,Miranda do Douro,Vila Chã de Braciosa,Freixiosa,41.5000816,-6.271331,NC,680.0,2010-08-10T11:00,30.9,31,11.7,30.6,0.0,0.0,0.0,0.0,0,1017.3,943.0,0,0,0,0,0.63,3.1,13.5,18.2,261,262,36.7,31.5,25.5,22.9,17.8,0.141,0.186,0.248,0.355,1,3600.0,801.4,671.7,129.7,796.3,801.4,1122.9,760.0,637.0,123.0,796.3,760.0,1064.8,,,,,,,,,,,,,,,,,,,,,,,,,,,,,,,,,,,,,,,,,,,,,,,,,,,,,,,Tracheophyta; Quercus L.; Magnoliopsida; Olea europaea L.; Vitis vinifera L.; Castanea sativa Mill.; Pinales; Quercus suber L.; 
2010,2010-08-17,Porto,Santo Tirso,Lamelas,LG. RONDAES (SANTO TIRSO),41.2831955,-8.479998688262267,NC,211.0,2010-08-17T21:00,19.0,77,14.9,18.9,0.0,0.0,0.0,0.0,0,1017.5,992.8,1,0,0,4,0.02,0.5,11.5,17.8,316,324,24.1,23.7,26.1,23.4,19.0,0.116,0.135,0.189,0.336,0,0.0,0.0,0.0,0.0,0.0,0.0,0.0,0.0,0.0,0.0,0.0,0.0,0.0,,,,,,,,,,,,,,,,,,,,,,,,,,,,,,,,,,,,,,,,,,,,,,,,,,,,,,,Pinus pinaster Aiton; Eucalyptus L'Hér.; Tracheophyta; Vitis vinifera L.; Magnoliopsida
2010,2010-09-01,Porto,Felgueiras,Rande,CIMO VILA (Cimo de Vila),41.3308088,-8.2277133,NC,214.0,2010-09-01T12:00,26.0,52,15.5,28.1,0.0,0.0,0.0,0.0,0,1009.5,985.2,6,7,0,0,0.55,1.6,7.9,9.4,270,268,28.4,31.3,25.2,23.0,19.9,0.119,0.137,0.192,0.328,1,3600.0,815.9,681.3,134.6,820.8,815.9,1114.9,794.0,663.0,131.0,820.8,794.0,1085.0,,,,,,,,,,,,,,,,,,,,,,,,,,,,,,,,,,,,,,,,,,,,,,,,,,,,,,,Magnoliopsida; Tracheophyta; Eucalyptus L'Hér.; Vitis vinifera L.
2010,2010-07-28,Porto,Gondomar,Lomba,L.MONTE MÊDA (MELRES),41.0617409,-8.4108172,NC,76.0,2010-07-28T08:00,28.7,41,14.1,29.2,0.0,0.0,0.0,0.0,0,1015.3,1006.6,0,0,0,0,0.24,2.33,5.8,13.3,97,103,16.6,25.9,26.3,22.7,18.2,0.11,0.151,0.234,0.353,1,3600.0,379.6,294.9,84.6,644.2,379.6,607.2,305.0,237.0,68.0,644.2,305.0,487.9,,,,,,,,,,,,,,,,,,,,,,,,,,,,,,,,,,,,,,,,,,,,,,,,,,,,,,,Magnoliopsida; Eucalyptus L'Hér.; Vitis vinifera L.; Pinus pinaster Aiton; Tracheophyta; 
2010,2010-08-26,Lisboa,ODIVELAS,Caneças,CANEÇAS (Canejas),38.8159778,-9.2219504,Desconhecida,229.0,2010-08-26T13:00,27.6,45,14.6,29.8,0.0,0.0,0.0,0.0,0,1015.8,989.8,2,0,0,5,0.6,2.02,7.6,8.7,267,263,27.0,32.3,24.5,22.7,20.2,0.119,0.162,0.222,0.326,1,3600.0,844.4,641.6,202.9,732.9,844.4,1172.5,845.0,642.0,203.0,732.9,845.0,1173.3,,,,,,,,,,,,,,,,,,,,,,,,,,,,,,,,,,,,,,,,,,,,,,,,,,,,,,,Eucalyptus L'Hér.; Tracheophyta; Magnoliopsida; Olea europaea L.; Pinus pinea L.; 
2010,2010-09-18,Porto,Gondomar,Fânzeres,LG. CAL (FANZERES),41.1712712,-8.54277892397772,NC,113.0,2010-09-18T13:00,25.0,41,11.0,25.6,0.0,0.0,0.0,0.0,0,1015.4,1002.4,4,1,6,0,0.5,1.86,6.0,7.6,65,71,18.4,28.3,22.1,22.5,21.2,0.137,0.143,0.185,0.32,1,3600.0,722.2,575.2,147.0,751.3,722.2,1037.4,727.0,579.0,148.0,751.3,727.0,1044.3,,,,,,,,,,,,,,,,,,,,,,,,,,,,,,,,,,,,,,,,,,,,,,,,,,,,,,,Magnoliopsida; Tracheophyta
2010,2010-08-31,Viseu,Castro Daire,Mões,Granja,40.8642533,-7.8849214,Natural,649.0,2010-08-31T15:00,30.8,28,10.1,29.8,0.3,0.3,0.0,0.0,51,1008.5,938.0,33,0,9,93,0.58,3.21,12.3,16.3,187,186,34.2,34.3,25.4,22.4,18.9,0.123,0.138,0.205,0.332,1,3600.0,636.5,493.2,143.3,710.5,636.5,932.0,684.0,530.0,154.0,710.5,684.0,1001.5,,,,,,,,,,,,,,,,,,,,,,,,,,,,,,,,,,,,,,,,,,,,,,,,,,,,,,,Pinus pinaster Aiton; Tracheophyta; Magnoliopsida; Castanea sativa Mill.
2010,2010-08-31,Leiria,Castanheira de Pêra,Castanheira de Pêra,Carregal Cimeiro,39.9820945,-8.2260373,Natural,505.0,2010-08-31T11:00,30.7,22,6.5,27.2,0.0,0.0,0.0,0.0,1,1010.1,954.6,23,0,2,73,0.62,3.45,20.7,28.9,130,130,46.8,31.5,26.9,23.9,20.1,0.097,0.134,0.184,0.314,1,3600.0,677.1,442.2,234.9,558.2,677.1,1063.5,637.0,416.0,221.0,558.2,637.0,1000.5,,,,,,,,,,,,,,,,,,,,,,,,,,,,,,,,,,,,,,,,,,,,,,,,,,,,,,,Magnoliopsida; Eucalyptus L'Hér.; Olea europaea L.; Tracheophyta; Pinus pinaster Aiton
2010,2010-08-09,Porto,Paços de Ferreira,Modelos,RUA DO CALVARIO (Rua do Comércio),41.2753354,-8.378054356149981,NC,306.0,2010-08-09T15:00,31.4,35,14.3,32.2,0.0,0.0,0.0,0.0,0,1015.4,981.2,6,0,5,10,0.58,2.97,10.6,13.2,288,287,28.8,36.5,27.0,23.0,17.9,0.093,0.143,0.222,0.34,1,3600.0,663.0,500.1,162.9,649.7,663.0,1024.3,704.0,531.0,173.0,649.7,704.0,1087.6,,,,,,,,,,,,,,,,,,,,,,,,,,,,,,,,,,,,,,,,,,,,,,,,,,,,,,,Tracheophyta; Magnoliopsida
2010,2010-08-09,Viseu,Vila Nova de Paiva,Touro,Póvoa,40.900362,-7.7108113,Desconhecida,847.0,2010-08-09T15:00,31.0,32,12.4,30.8,0.0,0.0,0.0,0.0,1,1015.9,924.5,26,0,7,71,0.51,3.05,8.6,10.4,270,270,24.8,34.4,25.7,21.4,16.1,0.124,0.141,0.213,0.347,1,3600.0,572.5,369.4,203.1,481.8,572.5,1020.4,609.0,393.0,216.0,481.8,609.0,1085.4,,,,,,,,,,,,,,,,,,,,,,,,,,,,,,,,,,,,,,,,,,,,,,,,,,,,,,,Magnoliopsida; Pinus pinaster Aiton; Tracheophyta; Eucalyptus L'Hér.; Quercus L.; 
2010,2010-08-10,Aveiro,Albergaria-a-Velha,Albergaria-a-Velha,Zona Industrial Jt ao Parque Biomassa (RIBEIRA DE FRÁGOAS),40.690328,-8.479538190307041,Desconhecida,121.0,2010-08-10T15:00,33.1,29,12.9,33.3,0.0,0.0,0.0,0.0,0,1016.5,1002.9,0,0,0,0,0.69,3.58,14.3,17.6,315,317,32.0,40.1,28.8,24.0,19.3,0.066,0.088,0.129,0.25,1,3600.0,763.3,666.4,96.9,864.7,763.3,1025.9,811.0,708.0,103.0,864.7,811.0,1090.0,,,,,,,,,,,,,,,,,,,,,,,,,,,,,,,,,,,,,,,,,,,,,,,,,,,,,,,Tracheophyta; Eucalyptus L'Hér.
2010,2010-08-09,Porto,Vila Nova de Gaia,Vilar de Andorinho,RUA COLECTIVIDADES (Rua das Colectividades),41.1013799,-8.58787,NC,207.0,2010-08-09T15:00,31.4,38,15.2,32.2,0.2,0.2,0.0,0.0,51,1015.4,992.1,16,0,8,37,0.57,2.87,12.3,15.0,310,312,29.9,36.3,27.3,23.4,18.4,0.103,0.139,0.207,0.341,1,3600.0,647.1,467.2,179.9,605.5,647.1,1026.7,687.0,496.0,191.0,605.5,687.0,1090.1,,,,,,,,,,,,,,,,,,,,,,,,,,,,,,,,,,,,,,,,,,,,,,,,,,,,,,,Tracheophyta; Magnoliopsida; Pinus pinaster Aiton; Pinus pinea L.
2010,2010-09-01,Castelo Branco,Idanha-a-Nova,Penha Garcia,Ribeirinha,40.0422569,-7.0163521,Natural,536.0,2010-09-01T08:00,21.9,63,14.6,22.9,0.3,0.3,0.0,0.0,51,1009.8,949.4,36,12,26,31,0.13,0.97,4.0,5.4,95,98,26.6,24.0,26.2,25.7,21.8,0.125,0.154,0.205,0.334,1,3600.0,273.8,187.8,86.0,486.3,273.8,518.8,207.0,142.0,65.0,486.3,207.0,392.2,,,,,,,,,,,,,,,,,,,,,,,,,,,,,,,,,,,,,,,,,,,,,,,,,,,,,,,Tracheophyta; Olea europaea L.; Pinus pinaster Aiton; Quercus rotundifolia Lam.; Magnoliopsida; Castanea sativa Mill.; Quercus suber L.; Eucalyptus L'Hér.; Pinus pinea L.; 
2010,2010-09-01,Bragança,Vimioso,Pinelo,Falgueiras-Pinelo,41.6370907,-6.5521095,Desconhecida,601.0,2010-09-01T14:00,25.7,52,15.2,27.4,0.0,0.0,0.0,0.0,1,1009.1,942.5,29,18,10,22,0.47,1.57,5.4,7.2,217,217,24.1,29.2,24.3,22.8,19.4,0.176,0.154,0.201,0.338,1,3600.0,646.3,464.6,181.8,601.2,646.3,1038.0,672.0,483.0,189.0,601.2,672.0,1079.2,,,,,,,,,,,,,,,,,,,,,,,,,,,,,,,,,,,,,,,,,,,,,,,,,,,,,,,Tracheophyta; Olea europaea L.; Magnoliopsida
2010,2010-08-18,Vila Real,Ribeira de Pena,Cerva,Formoselos,41.472873,-7.8475324,Desconhecida,328.0,2010-08-18T21:00,19.3,85,16.6,20.9,0.0,0.0,0.0,0.0,0,1015.2,977.2,8,9,0,0,0.0,0.34,4.7,10.2,274,280,16.2,22.6,24.9,23.5,19.1,0.102,0.145,0.226,0.34,0,0.0,0.0,0.0,0.0,0.0,0.0,0.0,0.0,0.0,0.0,0.0,0.0,0.0,,,,,,,,,,,,,,,,,,,,,,,,,,,,,,,,,,,,,,,,,,,,,,,,,,,,,,,Magnoliopsida; Pinus pinaster Aiton; Tracheophyta
2010,2010-08-18,Vila Real,Ribeira de Pena,Cerva,S. JOÃO (São João),41.472873,-7.8475324,NC,328.0,2010-08-18T23:00,17.8,93,16.6,19.4,0.0,0.0,0.0,0.0,0,1015.2,977.0,6,7,0,0,0.0,0.15,4.7,6.9,266,276,12.2,20.2,24.6,23.5,19.1,0.102,0.145,0.226,0.34,0,0.0,0.0,0.0,0.0,0.0,0.0,0.0,0.0,0.0,0.0,0.0,0.0,0.0,,,,,,,,,,,,,,,,,,,,,,,,,,,,,,,,,,,,,,,,,,,,,,,,,,,,,,,Magnoliopsida; Pinus pinaster Aiton; Tracheophyta
2010,2010-07-28,Porto,Gondomar,Foz do Sousa,R. NOVA XIEIRA (VALBOM),41.119341,-8.50547,NC,95.0,2010-07-28T04:00,21.5,75,16.8,23.1,0.0,0.0,0.0,0.0,0,1014.7,1003.6,0,0,0,0,0.01,0.65,5.2,8.4,78,83,12.6,22.5,27.1,22.5,18.1,0.115,0.142,0.219,0.354,0,0.0,0.0,0.0,0.0,0.0,0.0,0.0,0.0,0.0,0.0,0.0,0.0,0.0,,,,,,,,,,,,,,,,,,,,,,,,,,,,,,,,,,,,,,,,,,,,,,,,,,,,,,,Pinus pinaster Aiton; Eucalyptus L'Hér.; Tracheophyta; Magnoliopsida
2010,2010-08-10,Lisboa,Cadaval,Alguber,Venda do Freixo,39.2767815,-9.0216348,NC,106.0,2010-08-10T14:00,35.2,28,14.2,36.3,0.0,0.0,0.0,0.0,0,1016.4,1004.5,0,0,0,0,0.79,4.08,14.7,18.3,338,340,32.8,41.9,30.0,25.0,20.5,0.089,0.157,0.219,0.317,1,3600.0,876.3,770.3,106.0,883.6,876.3,1160.4,901.0,792.0,109.0,883.6,901.0,1193.2,,,,,,,,,,,,,,,,,,,,,,,,,,,,,,,,,,,,,,,,,,,,,,,,,,,,,,,Magnoliopsida; Eucalyptus L'Hér.; Tracheophyta; 
2010,2010-09-02,Bragança,Carrazeda de Ansiães,Pereiros,PEREIROS,41.3156837,-7.2973825,NC,500.0,2010-09-02T20:00,23.6,48,12.1,23.1,0.0,0.0,0.0,0.0,0,1014.7,958.2,0,0,0,0,0.06,1.5,8.0,15.6,297,310,19.8,25.6,25.8,23.7,19.9,0.166,0.151,0.172,0.318,0,0.0,0.0,0.0,0.0,0.0,0.0,0.0,0.0,0.0,0.0,0.0,0.0,0.0,,,,,,,,,,,,,,,,,,,,,,,,,,,,,,,,,,,,,,,,,,,,,,,,,,,,,,,Magnoliopsida; Tracheophyta; Pinus pinaster Aiton
2010,2010-08-10,Braga,Fafe,Medelo,ORDEM (MEDELO) (Ordem),41.4722022,-8.1599158,NC,381.0,2010-08-10T11:00,30.9,29,11.0,31.3,0.0,0.0,0.0,0.0,0,1017.5,975.0,0,0,0,0,0.62,3.16,9.1,11.3,261,263,23.0,33.3,26.1,23.1,17.6,0.096,0.141,0.219,0.338,1,3600.0,837.7,734.9,102.7,880.9,837.7,1110.5,791.0,694.0,97.0,880.9,791.0,1048.7,,,,,,,,,,,,,,,,,,,,,,,,,,,,,,,,,,,,,,,,,,,,,,,,,,,,,,,Tracheophyta; Magnoliopsida; Pinales
2010,2010-09-18,Porto,Amarante,Mancelos,CAMINHO DE MONTINCHOL (Manhufe),41.2894833,-8.155317,NC,471.0,2010-09-18T14:00,22.9,42,9.3,22.9,0.0,0.0,0.0,0.0,0,1015.4,962.0,2,0,3,0,0.47,1.62,5.8,7.6,83,85,26.3,25.7,19.8,20.5,19.3,0.17,0.146,0.191,0.314,1,3600.0,685.9,566.2,119.7,798.6,685.9,960.7,716.0,591.0,125.0,798.6,716.0,1002.9,,,,,,,,,,,,,,,,,,,,,,,,,,,,,,,,,,,,,,,,,,,,,,,,,,,,,,,Tracheophyta; Magnoliopsida; Eucalyptus L'Hér.; Pinus pinaster Aiton; Vitis vinifera L.; 
2010,2010-08-18,Leiria,Leiria,Bidoeira de Cima,Bidoeira de Cima,39.853491,-8.756429,Desconhecida,93.0,2010-08-18T00:00,16.7,98,16.4,16.9,0.0,0.0,0.0,0.0,3,1018.4,1007.3,84,91,0,6,0.0,0.03,13.4,19.3,329,333,27.0,18.7,24.2,22.6,19.5,0.048,0.06,0.088,0.205,0,0.0,0.0,0.0,0.0,0.0,0.0,0.0,0.0,0.0,0.0,0.0,0.0,0.0,,,,,,,,,,,,,,,,,,,,,,,,,,,,,,,,,,,,,,,,,,,,,,,,,,,,,,,Tracheophyta; Pinus pinaster Aiton; Eucalyptus L'Hér.; Magnoliopsida; Acacia Mill.
2010,2010-07-28,Braga,Vila Verde,Carreiras (são Miguel),L. CACHADA (CARREIRAS S. MIGUEL) (ABOIM DA NOBREGA),41.6560713,-8.4914409,NC,129.0,2010-07-28T07:00,22.7,78,18.8,25.0,0.0,0.0,0.0,0.0,0,1015.5,1000.5,0,0,0,0,0.08,0.6,7.1,6.5,75,96,13.3,22.5,25.6,21.8,17.3,0.097,0.156,0.247,0.351,1,3600.0,192.0,127.5,64.5,460.3,192.0,367.3,128.0,85.0,43.0,460.3,128.0,244.9,,,,,,,,,,,,,,,,,,,,,,,,,,,,,,,,,,,,,,,,,,,,,,,,,,,,,,,Pinus pinaster Aiton; Eucalyptus L'Hér.; Magnoliopsida; Tracheophyta
2010,2010-08-04,Porto,Amarante,Candemil,Espinheiro,41.2473904,-7.9681332,Desconhecida,430.0,2010-08-04T23:00,21.5,60,13.5,21.9,0.0,0.0,0.0,0.0,0,1015.3,966.2,12,0,0,41,0.02,1.02,5.3,9.0,332,355,16.2,23.1,26.4,22.6,17.1,0.096,0.149,0.233,0.345,0,0.0,0.0,0.0,0.0,0.0,0.0,0.0,0.0,0.0,0.0,0.0,0.0,0.0,,,,,,,,,,,,,,,,,,,,,,,,,,,,,,,,,,,,,,,,,,,,,,,,,,,,,,,Magnoliopsida; Quercus L.; Tracheophyta; Eucalyptus L'Hér.; Pinus pinaster Aiton; 
2010,2010-08-06,Aveiro,Castelo de Paiva,Pedorido,Arejinha,41.0155525,-8.2972892,Desconhecida,315.0,2010-08-06T11:00,28.3,26,7.0,26.6,0.0,0.0,0.0,0.0,0,1014.2,978.8,0,0,0,0,0.64,2.85,16.0,21.0,82,83,41.8,29.8,24.9,23.1,18.1,0.099,0.148,0.233,0.346,1,3600.0,856.6,751.8,104.8,890.6,856.6,1122.3,809.0,710.0,99.0,890.6,809.0,1059.9,,,,,,,,,,,,,,,,,,,,,,,,,,,,,,,,,,,,,,,,,,,,,,,,,,,,,,,Eucalyptus L'Hér.; Magnoliopsida; Pinales
2010,2010-09-04,Faro,Olhão,Moncarapacho,FUSETA,37.0602131,-7.7517906,Desconhecida,5.0,2010-09-04T10:00,27.9,55,18.0,30.6,0.0,0.0,0.0,0.0,0,1016.3,1015.7,0,0,0,0,0.42,1.69,3.4,3.9,122,124,13.3,30.3,27.3,27.2,24.2,0.107,0.15,0.213,0.299,1,3600.0,668.4,560.7,107.7,797.6,668.4,945.6,602.0,505.0,97.0,797.6,602.0,851.7,,,,,,,,,,,,,,,,,,,,,,,,,,,,,,,,,,,,,,,,,,,,,,,,,,,,,,,Magnoliopsida; Vitis vinifera L.; Tracheophyta; Ceratonia siliqua L.; Olea europaea L.; 
2010,2010-09-01,Braga,Vieira do Minho,Mosteiro,QUINTA S.ROQUE(MOSTEIRO) (Alto da Quinta),41.6198062,-8.1351963,NC,351.0,2010-09-01T14:00,25.3,53,15.0,26.0,0.0,0.0,0.0,0.0,0,1009.4,969.8,19,13,5,13,0.48,1.53,12.3,15.5,267,266,34.9,32.1,25.1,22.6,19.5,0.109,0.137,0.197,0.322,1,3600.0,665.4,494.5,170.9,632.5,665.4,1050.1,689.0,512.0,177.0,632.5,689.0,1087.4,,,,,,,,,,,,,,,,,,,,,,,,,,,,,,,,,,,,,,,,,,,,,,,,,,,,,,,Pinus pinaster Aiton; Quercus L.
2010,2010-08-10,Braga,Esposende,Forjães,E.N.103 (FORJAES) (FORJÃES),41.6059765,-8.742398,NC,63.0,2010-08-10T13:00,29.8,32,11.3,29.7,0.0,0.0,0.0,0.0,0,1017.8,1010.6,0,0,0,0,0.72,2.85,16.4,20.5,320,329,29.5,34.9,26.7,23.7,19.0,0.097,0.141,0.216,0.335,1,3600.0,919.1,814.1,105.0,909.2,919.1,1191.8,919.0,814.0,105.0,909.2,919.0,1191.8,,,,,,,,,,,,,,,,,,,,,,,,,,,,,,,,,,,,,,,,,,,,,,,,,,,,,,,Tracheophyta; Vitis vinifera L.; Pinus pinaster Aiton
2010,2010-09-04,Aveiro,Vale de Cambra,São Pedro de Castelões,Lugar de Decide,40.8390621,-8.402303678879736,NC,216.0,2010-09-04T12:00,27.8,46,15.2,30.0,0.0,0.0,0.0,0.0,0,1016.7,992.1,13,0,0,44,0.57,2.02,7.3,8.2,290,293,24.1,32.3,24.5,24.0,20.9,0.096,0.134,0.184,0.313,1,3600.0,815.2,676.4,138.8,820.5,815.2,1108.9,793.0,658.0,135.0,820.5,793.0,1078.8,,,,,,,,,,,,,,,,,,,,,,,,,,,,,,,,,,,,,,,,,,,,,,,,,,,,,,,Tracheophyta; Eucalyptus L'Hér.
2010,2010-09-01,Porto,Amarante,Vila Garcia,LABORIZ,41.3115133,-8.0796338,NC,247.0,2010-09-01T16:00,23.8,56,14.5,23.4,0.0,0.0,0.0,0.0,0,1009.8,981.6,8,1,9,7,0.33,1.29,12.7,16.5,305,306,36.4,29.9,25.7,22.8,19.7,0.113,0.139,0.205,0.327,1,3600.0,400.8,254.5,146.3,459.4,400.8,744.1,452.0,287.0,165.0,459.4,452.0,839.1,,,,,,,,,,,,,,,,,,,,,,,,,,,,,,,,,,,,,,,,,,,,,,,,,,,,,,,Tracheophyta; Eucalyptus L'Hér.; Pinus pinaster Aiton; Magnoliopsida; Vitis vinifera L.; 
2010,2010-08-06,Aveiro,Arouca,Urrô,Merujal,40.916294,-8.2904033,Desconhecida,275.0,2010-08-06T22:00,24.9,39,10.1,23.9,0.0,0.0,0.0,0.0,0,1013.2,981.9,0,0,0,0,0.06,1.91,7.2,8.7,72,52,13.0,25.9,27.0,23.1,18.1,0.102,0.143,0.221,0.343,0,0.0,0.0,0.0,0.0,0.0,0.0,0.0,0.0,0.0,0.0,0.0,0.0,0.0,,,,,,,,,,,,,,,,,,,,,,,,,,,,,,,,,,,,,,,,,,,,,,,,,,,,,,,Eucalyptus L'Hér.; Magnoliopsida; Vitis vinifera L.; Pinus pinaster Aiton
2010,2010-08-17,Porto,Baião,Campelo,Louredo,41.16536145,-8.037270901747142,Desconhecida,613.0,2010-08-17T22:00,18.2,66,11.7,17.7,0.0,0.0,0.0,0.0,0,1017.8,947.7,7,0,2,18,0.02,0.71,6.6,13.5,241,245,16.2,22.1,24.8,22.0,17.4,0.11,0.136,0.198,0.341,0,0.0,0.0,0.0,0.0,0.0,0.0,0.0,0.0,0.0,0.0,0.0,0.0,0.0,,,,,,,,,,,,,,,,,,,,,,,,,,,,,,,,,,,,,,,,,,,,,,,,,,,,,,,Tracheophyta; Pinus pinaster Aiton; Magnoliopsida; Eucalyptus L'Hér.; Pinales; Quercus L.; Vitis vinifera L.; 
2010,2010-08-04,Aveiro,Águeda,Águeda,Catraia de Assequins,40.5783153,-8.4150609,Desconhecida,87.0,2010-08-04T22:00,22.0,70,16.2,22.2,0.0,0.0,0.0,0.0,1,1014.7,1004.5,24,0,0,79,0.05,0.79,13.3,25.2,341,346,29.5,25.8,28.2,24.3,19.3,0.098,0.14,0.213,0.334,0,0.0,0.0,0.0,0.0,0.0,0.0,0.0,0.0,0.0,0.0,0.0,0.0,0.0,,,,,,,,,,,,,,,,,,,,,,,,,,,,,,,,,,,,,,,,,,,,,,,,,,,,,,,Tracheophyta; Magnoliopsida; Eucalyptus L'Hér.; Pinus pinaster Aiton
2010,2010-08-10,Aveiro,Oliveira de Azeméis,Santiago De Riba-ul,Ouriçosa ( Rua Padre Manuel P. da Silva Gomes),40.8431067,-8.468516409995193,Desconhecida,223.0,2010-08-10T15:00,32.1,30,12.2,32.1,0.0,0.0,0.0,0.0,0,1016.9,991.9,0,0,0,0,0.68,3.35,14.5,18.1,314,316,34.6,37.5,28.2,23.7,18.8,0.092,0.13,0.197,0.319,1,3600.0,766.3,669.3,97.0,869.1,766.3,1025.2,814.0,711.0,103.0,869.1,814.0,1089.0,,,,,,,,,,,,,,,,,,,,,,,,,,,,,,,,,,,,,,,,,,,,,,,,,,,,,,,Tracheophyta; Pinus pinaster Aiton; Eucalyptus L'Hér.
2010,2010-08-10,Porto,Matosinhos,Custóias,TV AVILHÓ (Travessa de Avilhó),41.1933128,-8.640897,NC,111.0,2010-08-10T15:00,31.3,30,11.4,31.0,0.0,0.0,0.0,0.0,0,1016.8,1004.2,1,0,0,2,0.67,3.21,14.8,18.3,313,315,28.4,35.9,27.7,23.8,19.0,0.113,0.139,0.21,0.344,1,3600.0,772.4,675.3,97.0,877.6,772.4,1024.4,820.0,717.0,103.0,877.6,820.0,1087.6,,,,,,,,,,,,,,,,,,,,,,,,,,,,,,,,,,,,,,,,,,,,,,,,,,,,,,,Tracheophyta
2010,2010-08-10,Porto,Vila Nova de Gaia,Crestuma,RUA VESSADA (Rua da Vessada),41.0380368,-8.4900418,NC,144.0,2010-08-10T16:00,31.9,27,10.6,30.5,0.0,0.0,0.0,0.0,0,1017.0,1000.8,0,0,0,0,0.61,3.46,15.9,20.2,322,325,32.4,37.8,29.1,24.1,19.1,0.104,0.117,0.161,0.314,1,3600.0,625.2,537.4,87.8,839.2,625.2,852.5,691.0,594.0,97.0,839.2,691.0,942.2,,,,,,,,,,,,,,,,,,,,,,,,,,,,,,,,,,,,,,,,,,,,,,,,,,,,,,,Tracheophyta; Quercus L.; Pinus pinea L.; Eucalyptus L'Hér.; Magnoliopsida; Vitis vinifera L.
2010,2010-08-09,Aveiro,Sever do Vouga,Rocas do Vouga,Covelo,40.7599485,-8.3439116,Desconhecida,384.0,2010-08-09T14:00,32.5,33,14.4,33.9,0.0,0.0,0.0,0.0,1,1016.0,973.5,28,0,9,74,0.58,3.26,7.2,8.6,264,268,23.0,36.3,26.9,23.0,18.0,0.1,0.144,0.224,0.342,1,3600.0,685.9,416.8,269.1,484.1,685.9,1145.8,706.0,429.0,277.0,484.1,706.0,1179.4,,,,,,,,,,,,,,,,,,,,,,,,,,,,,,,,,,,,,,,,,,,,,,,,,,,,,,,Eucalyptus L'Hér.; Tracheophyta
2010,2010-08-10,Porto,Gondomar,Fânzeres,ESTRADA D MIGUEL (Estrada),41.1548538,-8.5535287,NC,55.0,2010-08-10T17:00,30.5,30,11.0,28.8,0.0,0.0,0.0,0.0,0,1016.6,1010.3,0,0,0,0,0.48,3.06,14.4,18.8,323,328,28.1,34.7,28.5,24.1,19.4,0.113,0.139,0.21,0.344,1,3600.0,452.7,378.4,74.3,786.1,452.7,640.8,530.0,443.0,87.0,786.1,530.0,750.2,,,,,,,,,,,,,,,,,,,,,,,,,,,,,,,,,,,,,,,,,,,,,,,,,,,,,,,Magnoliopsida; Tracheophyta; Eucalyptus L'Hér.
2010,2010-09-18,Porto,Marco de Canaveses,Torrão,RUA JOSE LUIS ABREU,41.06780035,-8.27659524137066,Desconhecida,27.0,2010-09-18T23:00,19.0,72,13.9,19.5,0.0,0.0,0.0,0.0,0,1015.5,1012.3,0,0,0,0,0.01,0.62,5.1,10.4,51,46,13.3,19.7,23.3,23.2,21.9,0.161,0.144,0.186,0.321,0,0.0,0.0,0.0,0.0,0.0,0.0,0.0,0.0,0.0,0.0,0.0,0.0,0.0,,,,,,,,,,,,,,,,,,,,,,,,,,,,,,,,,,,,,,,,,,,,,,,,,,,,,,,Eucalyptus L'Hér.; Tracheophyta; Pinus pinaster Aiton; Vitis vinifera L.; Magnoliopsida; Castanea sativa Mill.; Quercus L.; 
2010,2010-09-19,Porto,Póvoa de Varzim,Argivai,RUA VIEIRA DE DEUS (Rua Virginia Campos),41.3756541,-8.7341865,NC,33.0,2010-09-19T12:00,26.0,42,12.2,27.6,0.0,0.0,0.0,0.0,0,1015.2,1011.4,0,0,0,0,0.5,1.94,2.6,5.4,196,160,20.2,28.2,21.9,22.3,21.1,0.108,0.143,0.191,0.312,1,3600.0,766.7,661.9,104.8,870.2,766.7,1031.2,746.0,644.0,102.0,870.2,746.0,1003.3,,,,,,,,,,,,,,,,,,,,,,,,,,,,,,,,,,,,,,,,,,,,,,,,,,,,,,,Tracheophyta; Eucalyptus L'Hér.; Pinus pinaster Aiton
2010,2010-09-02,Setúbal,Seixal,Aldeia de Paio Pires,RECTA DE COINA (CORROIOS),38.6119995,-9.07313725926883,NC,5.0,2010-09-02T22:00,19.9,79,16.1,19.6,0.0,0.0,0.0,0.0,0,1016.3,1015.7,0,0,0,0,0.04,0.49,16.6,26.9,347,352,29.9,22.3,26.3,24.9,22.2,0.052,0.062,0.097,0.213,0,0.0,0.0,0.0,0.0,0.0,0.0,0.0,0.0,0.0,0.0,0.0,0.0,0.0,,,,,,,,,,,,,,,,,,,,,,,,,,,,,,,,,,,,,,,,,,,,,,,,,,,,,,,Tracheophyta; Magnoliopsida; Pinus pinaster Aiton
2010,2010-08-10,Leiria,Alcobaça,Pataias,Alva de Pataias,39.669411,-8.9943568,NC,127.0,2010-08-10T14:00,26.9,51,16.0,28.1,0.0,0.0,0.0,0.0,0,1017.4,1002.8,0,0,0,0,0.62,1.72,18.0,22.1,340,348,28.4,37.3,25.6,22.0,18.9,0.049,0.064,0.108,0.219,1,3600.0,869.4,763.4,106.0,878.8,869.4,1156.5,894.0,785.0,109.0,878.8,894.0,1189.2,,,,,,,,,,,,,,,,,,,,,,,,,,,,,,,,,,,,,,,,,,,,,,,,,,,,,,,Pinus pinaster Aiton; Tracheophyta
2010,2010-09-02,Bragança,Vinhais,Moimenta,O Torno- Moimenta (PNM),41.9508583,-6.9744425,Desconhecida,895.0,2010-09-02T21:00,19.1,57,10.3,18.0,0.0,0.0,0.0,0.0,0,1017.9,917.7,3,0,0,9,0.04,0.96,8.6,13.4,345,346,19.8,21.2,22.8,21.1,17.1,0.261,0.212,0.257,0.393,0,0.0,0.0,0.0,0.0,0.0,0.0,0.0,0.0,0.0,0.0,0.0,0.0,0.0,,,,,,,,,,,,,,,,,,,,,,,,,,,,,,,,,,,,,,,,,,,,,,,,,,,,,,,Tracheophyta; Quercus L.; Magnoliopsida; Castanea sativa Mill.
2010,2010-09-01,Viseu,Vila Nova de Paiva,Touro,Touro,40.8961681,-7.7356518,Desconhecida,800.0,2010-09-01T15:00,25.6,37,9.7,23.9,0.0,0.0,0.0,0.0,1,1008.4,921.0,22,0,20,33,0.43,2.07,11.2,13.7,225,225,27.4,30.6,24.3,21.9,18.2,0.129,0.136,0.192,0.334,1,3600.0,511.2,369.0,142.2,536.2,511.2,924.2,550.0,397.0,153.0,536.2,550.0,994.4,,,,,,,,,,,,,,,,,,,,,,,,,,,,,,,,,,,,,,,,,,,,,,,,,,,,,,,Magnoliopsida; Pinus pinaster Aiton; Tracheophyta; Eucalyptus L'Hér.; Quercus L.; 
