year,date,district,municipality,parish,local,latitude,longitude,cause,elevation,hourly.time,hourly.temperature_2m,hourly.relative_humidity_2m,hourly.dew_point_2m,hourly.apparent_temperature,hourly.precipitation,hourly.rain,hourly.snowfall,hourly.snow_depth,hourly.weather_code,hourly.pressure_msl,hourly.surface_pressure,hourly.cloud_cover,hourly.cloud_cover_low,hourly.cloud_cover_mid,hourly.cloud_cover_high,hourly.et0_fao_evapotranspiration,hourly.vapour_pressure_deficit,hourly.wind_speed_10m,hourly.wind_speed_100m,hourly.wind_direction_10m,hourly.wind_direction_100m,hourly.wind_gusts_10m,hourly.soil_temperature_0_to_7cm,hourly.soil_temperature_7_to_28cm,hourly.soil_temperature_28_to_100cm,hourly.soil_temperature_100_to_255cm,hourly.soil_moisture_0_to_7cm,hourly.soil_moisture_7_to_28cm,hourly.soil_moisture_28_to_100cm,hourly.soil_moisture_100_to_255cm,hourly.is_day,hourly.sunshine_duration,hourly.shortwave_radiation_instant,hourly.direct_radiation_instant,hourly.diffuse_radiation_instant,hourly.direct_normal_irradiance_instant,hourly.global_tilted_irradiance_instant,hourly.terrestrial_radiation_instant,hourly.shortwave_radiation,hourly.direct_radiation,hourly.diffuse_radiation,hourly.direct_normal_irradiance,hourly.global_tilted_irradiance,hourly.terrestrial_radiation2010,2010-02-14,Porto,Vila Nova de Gaia,Oliveira do Douro,Monte da Virgem,41.11258085,-8.597501604999291,NC,206.0,2010-02-14T17:00,8.1,49,-2.0,3.8,0.0,0.0.1,0.0.2,0.0.3,3,1004.1,979.3,85,0,92,100,0.11,0.55,12.6,21.6,87,93,31.7,7.4,5.6,8.5,11.5,0.371,0.382,0.389,0.411,1,3600.0,128.9,47.4,81.6,253.2,128.9.1,262.6,185.0,68.0,117.0,253.2.1,185.0.1,376.8,scientificNames
2010,2010-02-14,Porto,Vila do Conde,Azurara,EN 104 (AZURARA),41.34352715,-8.742769885784753,NC,3.0,2010-02-14T17:00,9.3,50,-0.6,5.0,0.0,0.0,0.0,0.0,2,1004.9,1004.5,61,0,52,100,0.12,0.58,14.3,21.6,102,105,30.2,8.6,7.0,9.8,12.7,0.365,0.379,0.385,0.412,1,3600.0,134.7,53.8,81.0,287.5,134.7,262.3,193.0,77.0,116.0,287.5,193.0,375.8,,,,,,,,,,,,,,,,,,,,,,,,,,,,,,,,,,,,,,,,,,,,,,,,,,,,,,,Tracheophyta
2010,2010-07-17,Castelo Branco,Castelo Branco,Castelo Branco,Monte do Verdulho - Sapateira,39.8266322,-7.4919318,Desconhecida,410.0,2010-07-17T16:00,32.8,23,9.1,33.2,0.0,0.0,0.0,0.0,0,1016.2,970.9,0,0,0,0,0.55,3.81,3.8,4.6,311,315,16.6,39.0,26.9,23.2,17.5,0.107,0.161,0.224,0.359,1,3600.0,672.0,577.3,94.7,844.7,672.0,904.9,738.0,634.0,104.0,844.7,738.0,993.7,,,,,,,,,,,,,,,,,,,,,,,,,,,,,,,,,,,,,,,,,,,,,,,,,,,,,,,Tracheophyta; Olea europaea L.; Magnoliopsida
2010,2010-05-03,Braga,Guimarães,Briteiros (santo Estêvão),CAMPO FUTEBOL (Bouça do Campo),41.5143371,-8.3128998,NC,154.0,2010-05-03T17:00,15.1,44,3.0,9.9,0.0,0.0,0.0,0.0,1,1018.6,1000.2,28,4,41,0,0.3,0.96,24.5,35.0,2,4,51.5,17.3,14.9,14.2,11.2,0.266,0.308,0.351,0.404,1,3600.0,427.2,315.5,111.7,689.2,427.2,616.4,505.0,373.0,132.0,689.2,505.0,728.7,,,,,,,,,,,,,,,,,,,,,,,,,,,,,,,,,,,,,,,,,,,,,,,,,,,,,,,Tracheophyta; Magnoliopsida; Eucalyptus L'Hér.
2010,2010-04-28,Porto,Marco de Canaveses,Soalhães,RAMALHÃES (Ramalhada),41.1603957,-8.0979057,NC,397.0,2010-04-28T18:00,23.9,61,16.0,25.5,0.0,0.0,0.0,0.0,1,1015.0,969.9,43,0,21,100,0.14,1.15,2.9,3.8,353,343,10.8,21.4,18.0,13.1,9.6,0.316,0.347,0.375,0.407,1,3600.0,149.1,58.0,91.1,225.4,149.1,347.5,203.0,79.0,124.0,225.4,203.0,473.2,,,,,,,,,,,,,,,,,,,,,,,,,,,,,,,,,,,,,,,,,,,,,,,,,,,,,,,Magnoliopsida; Tracheophyta; Quercus L.; Eucalyptus L'Hér.; Pinus pinaster Aiton; Vitis vinifera L.; Castanea sativa Mill.; Pinales; 
2010,2010-03-12,Porto,Gondomar,São Pedro da Cova,RUA EDUARDO CASTRO GANDRA (SÃO PEDRO DA COVA),41.146305850000005,-8.513812231973976,NC,128.0,2010-03-12T13:00,11.8,48,1.2,9.6,0.0,0.0,0.0,0.0,2,1021.6,1006.1,71,49,45,1,0.33,0.72,7.2,8.8,3,9,15.8,13.0,8.7,9.9,11.2,0.37,0.381,0.401,0.422,1,3600.0,678.5,504.1,174.4,707.6,678.5,987.5,677.0,503.0,174.0,707.6,677.0,985.3,,,,,,,,,,,,,,,,,,,,,,,,,,,,,,,,,,,,,,,,,,,,,,,,,,,,,,,Magnoliopsida; Eucalyptus L'Hér.; Tracheophyta; Vitis vinifera L.; Pinus pinaster Aiton
2010,2010-04-28,Bragança,Mirandela,Romeu,ROMEU,41.5390273,-7.0463439,NC,436.0,2010-04-28T19:00,23.2,66,16.5,25.1,0.0,0.0,0.0,0.0,2,1014.9,965.4,56,0,43,100,0.05,0.97,2.4,4.9,153,197,12.6,20.3,17.9,12.7,9.2,0.291,0.33,0.35,0.387,1,248.87,23.2,4.1,19.1,47.2,22.0,76.2,62.0,11.0,51.0,69.1,62.0,204.0,,,,,,,,,,,,,,,,,,,,,,,,,,,,,,,,,,,,,,,,,,,,,,,,,,,,,,,Pinus pinaster Aiton; Olea europaea L.; Tracheophyta; Magnoliopsida; Quercus suber L.
2010,2010-07-11,Porto,Lousada,Meinedo,RUA DA SANTANA (Igreja),41.2517314,-8.2505324,NC,210.0,2010-07-11T21:00,18.1,82,15.1,18.9,0.0,0.0,0.0,0.0,2,1019.2,994.5,58,33,0,93,0.0,0.37,6.5,12.2,289,294,19.4,22.6,24.5,21.6,15.8,0.119,0.182,0.272,0.362,0,0.0,0.0,0.0,0.0,0.0,0.0,0.0,0.0,0.0,0.0,0.0,0.0,0.0,,,,,,,,,,,,,,,,,,,,,,,,,,,,,,,,,,,,,,,,,,,,,,,,,,,,,,,Magnoliopsida; Tracheophyta; Vitis vinifera L.
2010,2010-07-17,Aveiro,Águeda,Valongo do Vouga,Sobreiro,40.5985506,-8.447881782405853,Desconhecida,72.0,2010-07-17T21:00,23.0,65,16.0,24.0,0.0,0.0,0.0,0.0,0,1018.2,1009.8,0,0,0,0,0.03,0.98,6.8,16.0,328,346,19.4,25.3,24.7,22.0,17.9,0.102,0.159,0.246,0.35,0,0.0,0.0,0.0,0.0,0.0,0.0,0.0,0.0,0.0,0.0,0.0,0.0,0.0,,,,,,,,,,,,,,,,,,,,,,,,,,,,,,,,,,,,,,,,,,,,,,,,,,,,,,,Eucalyptus L'Hér.; Vitis vinifera L.; Tracheophyta; Pinus pinaster Aiton
2010,2010-03-14,Vila Real,Mondim de Basto,Ermelo,Barreiro (P.N. Alvão) (Barreiro),41.3601833,-7.8891793,NC,396.0,2010-03-14T17:00,12.0,46,0.6,9.1,0.0,0.0,0.0,0.0,0,1026.9,979.5,0,0,0,0,0.18,0.76,6.2,8.7,83,83,27.7,11.1,7.0,7.2,8.8,0.351,0.369,0.391,0.42,1,3600.0,284.8,231.3,53.5,789.3,284.8,405.6,367.0,298.0,69.0,789.3,367.0,522.7,,,,,,,,,,,,,,,,,,,,,,,,,,,,,,,,,,,,,,,,,,,,,,,,,,,,,,,Magnoliopsida; Pinus pinaster Aiton; Pinales
2010,2010-03-12,Aveiro,Santa Maria da Feira,São João de Ver,Quinta do Arieiro,40.9667658,-8.5177672,Desconhecida,287.0,2010-03-12T18:00,10.2,57,2.1,6.7,0.0,0.0,0.0,0.0,2,1022.0,987.3,65,26,70,0,0.09,0.53,11.7,20.5,317,321,28.8,10.5,8.9,9.0,10.2,0.362,0.377,0.399,0.422,1,3600.0,69.3,40.2,29.1,378.0,69.3,147.3,131.0,76.0,55.0,378.0,131.0,278.7,,,,,,,,,,,,,,,,,,,,,,,,,,,,,,,,,,,,,,,,,,,,,,,,,,,,,,,Tracheophyta; Eucalyptus L'Hér.; Pinales; Magnoliopsida
2010,2010-05-03,Braga,Vila Verde,Atães,Monte,41.7122035,-8.4076889,Desconhecida,193.0,2010-05-03T18:00,13.3,52,3.6,7.5,0.0,0.0,0.0,0.0,0,1021.3,998.1,9,10,0,0,0.21,0.74,29.5,39.8,8,9,58.7,16.0,14.7,14.0,10.9,0.268,0.31,0.352,0.404,1,3600.0,241.3,179.7,61.6,648.1,241.3,373.3,321.0,239.0,82.0,648.1,321.0,496.5,,,,,,,,,,,,,,,,,,,,,,,,,,,,,,,,,,,,,,,,,,,,,,,,,,,,,,,Tracheophyta; Magnoliopsida; Quercus L.; Pinus pinaster Aiton; Eucalyptus L'Hér.
2010,2010-03-15,Braga,Celorico de Basto,Carvalho,L. DE CALVELO (CARVALHO),41.3794834,-8.071291706396416,NC,537.0,2010-03-15T10:00,6.9,56,-1.2,2.9,0.0,0.0,0.0,0.0,1,1028.2,963.4,24,0,0,80,0.19,0.43,11.5,15.5,92,91,31.7,3.8,3.4,6.1,7.9,0.358,0.368,0.39,0.42,1,3600.0,563.6,466.2,97.4,850.8,563.6,758.4,492.0,407.0,85.0,850.8,492.0,662.0,,,,,,,,,,,,,,,,,,,,,,,,,,,,,,,,,,,,,,,,,,,,,,,,,,,,,,,Tracheophyta; Eucalyptus L'Hér.; Olea europaea L.; Pinus pinaster Aiton; Magnoliopsida
2010,2010-02-15,Braga,Vila Verde,Sabariz,L. DO MATO (SABARIZ),41.6595798,-8.4170523,Desconhecida,57.0,2010-02-15T13:00,8.1,56,-0.1,2.3,0.0,0.0,0.0,0.0,2,993.3,986.5,73,14,80,40,0.17,0.48,25.2,33.5,91,91,47.9,7.1,5.6,8.3,11.5,0.378,0.382,0.396,0.414,1,3600.0,352.0,162.9,189.1,279.4,352.0,817.8,350.0,162.0,188.0,279.4,350.0,813.1,,,,,,,,,,,,,,,,,,,,,,,,,,,,,,,,,,,,,,,,,,,,,,,,,,,,,,,Eucalyptus L'Hér.; Pinus pinaster Aiton; Tracheophyta; Vitis vinifera L.
2010,2010-03-13,Faro,Portimão,Portimão,EN 266 - Rasmalho (PORTIMÃO),37.1446488,-8.5374891,NC,4.0,2010-03-13T16:00,16.0,44,3.7,11.9,0.0,0.0,0.0,0.0,0,1025.2,1024.7,4,4,0,0,0.33,1.02,19.0,22.6,341,343,34.2,16.5,13.0,13.7,15.6,0.354,0.379,0.402,0.309,1,3600.0,503.1,425.5,77.6,864.6,503.1,681.7,577.0,488.0,89.0,864.6,577.0,781.8,,,,,,,,,,,,,,,,,,,,,,,,,,,,,,,,,,,,,,,,,,,,,,,,,,,,,,,Tracheophyta; Magnoliopsida
2010,2010-05-04,Aveiro,Vagos,Sosa,Estrada Nacional 333 - Fontão (Estrada),40.5442612,-8.658884,Desconhecida,47.0,2010-05-04T12:00,16.0,38,1.6,12.6,0.0,0.0,0.0,0.0,1,1019.3,1013.7,34,0,57,0,0.48,1.14,22.3,27.0,14,16,39.6,19.6,15.0,15.8,13.2,0.11,0.177,0.209,0.275,1,3600.0,922.7,763.9,158.7,845.9,922.7,1215.5,901.0,746.0,155.0,845.9,901.0,1187.0,,,,,,,,,,,,,,,,,,,,,,,,,,,,,,,,,,,,,,,,,,,,,,,,,,,,,,,Magnoliopsida; Tracheophyta; Eucalyptus L'Hér.; Pinus pinaster Aiton
2010,2010-05-03,Porto,Paredes,Aguiar de Sousa,AGUIAR (AGUIAR DE SOUSA),41.1283153,-8.4464168,NC,163.0,2010-05-03T23:00,9.4,62,2.5,5.0,0.0,0.0,0.0,0.0,0,1021.5,1001.6,0,0,0,0,0.05,0.44,17.8,29.7,8,11,33.5,12.0,15.0,14.8,11.9,0.29,0.322,0.365,0.405,0,0.0,0.0,0.0,0.0,0.0,0.0,0.0,0.0,0.0,0.0,0.0,0.0,0.0,,,,,,,,,,,,,,,,,,,,,,,,,,,,,,,,,,,,,,,,,,,,,,,,,,,,,,,Magnoliopsida; Pinus pinaster Aiton; Eucalyptus L'Hér.; Tracheophyta; Vitis vinifera L.; Quercus L.; Quercus suber L.
2010,2010-05-03,Porto,Gondomar,Gondomar (são Cosme),RUA JOÃO FRANÇA (Rua de João de Deus),41.1579359,-8.559713,NC,81.0,2010-05-03T11:00,15.7,46,4.1,12.0,0.0,0.0,0.0,0.0,2,1019.4,1009.7,51,45,17,0,0.4,0.97,22.5,29.7,12,14,44.6,16.8,14.7,15.2,12.5,0.309,0.33,0.365,0.403,1,3600.0,790.1,623.4,166.7,736.2,790.1,1140.4,749.0,591.0,158.0,736.2,749.0,1081.1,,,,,,,,,,,,,,,,,,,,,,,,,,,,,,,,,,,,,,,,,,,,,,,,,,,,,,,Magnoliopsida; Tracheophyta; Eucalyptus L'Hér.
2010,2010-03-13,Braga,Fafe,Antime,L. RIBEIRO (Monte de Ribeiros),41.4381425,-8.1604835,NC,361.0,2010-03-13T18:00,9.9,56,1.4,6.5,0.0,0.0,0.0,0.0,0,1026.2,982.6,15,17,0,0,0.09,0.54,10.5,22.1,329,334,28.8,9.7,7.8,7.6,9.0,0.354,0.371,0.392,0.421,1,3600.0,77.9,42.6,35.3,407.1,77.9,145.0,148.0,81.0,67.0,407.1,148.0,275.6,,,,,,,,,,,,,,,,,,,,,,,,,,,,,,,,,,,,,,,,,,,,,,,,,,,,,,,Pinales; Magnoliopsida; Tracheophyta; Eucalyptus L'Hér.
2010,2010-05-05,Porto,Vila Nova de Gaia,Gulpilhares,AV. FRANCELOS (Avenida de Francelos),41.0834876,-8.6463201,NC,31.0,2010-05-05T05:00,7.3,76,3.4,3.2,0.0,0.0,0.0,0.0,0,1018.0,1014.2,0,0,0,0,0.02,0.24,17.4,25.9,27,32,23.4,10.1,14.0,15.3,13.0,0.294,0.322,0.364,0.404,0,0.0,0.0,0.0,0.0,0.0,0.0,0.0,0.0,0.0,0.0,0.0,0.0,0.0,,,,,,,,,,,,,,,,,,,,,,,,,,,,,,,,,,,,,,,,,,,,,,,,,,,,,,,Tracheophyta; Eucalyptus L'Hér.; Magnoliopsida
2010,2010-03-12,Braga,Braga,Aveleda,MONTE (AVELEDA) (MONTE ALTO),41.52266255,-8.461768751261598,Desconhecida,152.0,2010-03-12T16:00,12.5,45,0.9,9.4,0.0,0.0,0.0,0.0,2,1021.2,1002.8,55,3,86,1,0.21,0.79,7.4,9.2,309,315,19.1,12.4,8.7,9.0,10.3,0.359,0.375,0.393,0.421,1,3600.0,343.4,214.7,128.6,474.8,343.4,626.7,395.0,247.0,148.0,474.8,395.0,721.0,,,,,,,,,,,,,,,,,,,,,,,,,,,,,,,,,,,,,,,,,,,,,,,,,,,,,,,Vitis vinifera L.; Tracheophyta; Magnoliopsida; Eucalyptus L'Hér.
2010,2010-02-16,Braga,Cabeceiras de Basto,Cabeceiras de Basto,LAPELA (CABECEIRAS) (Lapela),41.5654887,-8.010196481857573,Desconhecida,706.0,2010-02-16T21:00,4.0,91,2.7,1.8,0.3,0.3,0.0,0.0,51,988.8,907.0,100,100,62,23,0.0,0.07,3.4,7.4,32,67,10.4,3.8,3.8,4.6,8.1,0.385,0.386,0.398,0.415,0,0.0,0.0,0.0,0.0,0.0,0.0,0.0,0.0,0.0,0.0,0.0,0.0,0.0,,,,,,,,,,,,,,,,,,,,,,,,,,,,,,,,,,,,,,,,,,,,,,,,,,,,,,,Pinus pinaster Aiton; Magnoliopsida; Eucalyptus L'Hér.
2010,2010-03-13,Leiria,Leiria,Monte Redondo,Santo Aleixo,39.9109195,-8.820836,Desconhecida,44.0,2010-03-13T15:00,13.3,54,4.2,9.8,0.0,0.0,0.0,0.0,0,1026.3,1020.9,2,2,0,0,0.32,0.7,19.3,23.6,346,348,34.6,15.8,11.3,11.0,12.2,0.221,0.245,0.293,0.291,1,3600.0,632.5,534.3,98.2,883.3,632.5,837.9,683.0,577.0,106.0,883.3,683.0,904.9,,,,,,,,,,,,,,,,,,,,,,,,,,,,,,,,,,,,,,,,,,,,,,,,,,,,,,,Tracheophyta; Pinus pinaster Aiton; Eucalyptus L'Hér.; Magnoliopsida; Acacia Mill.
2010,2010-01-26,Aveiro,Sever do Vouga,Rocas do Vouga,Quinta do Linheiro,40.7599485,-8.3439116,Desconhecida,384.0,2010-01-26T19:00,7.5,54,-1.3,3.1,0.0,0.0,0.0,0.0,0,1023.1,976.6,0,0,0,0,0.05,0.48,14.3,31.7,62,64,44.3,7.0,7.5,9.7,12.0,0.379,0.389,0.402,0.423,0,0.0,0.0,0.0,0.0,0.0,0.0,0.0,0.0,0.0,0.0,0.0,0.0,0.0,,,,,,,,,,,,,,,,,,,,,,,,,,,,,,,,,,,,,,,,,,,,,,,,,,,,,,,Eucalyptus L'Hér.; Tracheophyta
2010,2010-07-14,Vila Real,Vila Pouca de Aguiar,Vreia de Jales,LAMEIRO DE ALÉM,41.4363303,-7.5917163,Desconhecida,861.0,2010-07-14T12:00,18.0,53,8.3,15.4,0.0,0.0,0.0,0.0,3,1016.4,919.6,100,95,0,94,0.32,0.97,14.9,20.4,262,262,41.4,21.7,19.5,18.9,13.3,0.159,0.181,0.261,0.365,1,3178.17,486.6,154.7,331.9,165.9,486.6,1233.8,475.0,151.0,324.0,165.9,475.0,1204.4,,,,,,,,,,,,,,,,,,,,,,,,,,,,,,,,,,,,,,,,,,,,,,,,,,,,,,,Magnoliopsida; Tracheophyta; Pinus pinaster Aiton
2010,2010-06-29,Vila Real,Vila Real,Vila Real (são Pedro),QUINTA DA RAPOSEIRA,41.7029974,-7.5139338,Desconhecida,447.0,2010-06-29T01:00,16.7,87,14.4,17.3,0.0,0.0,0.0,0.0,0,1019.6,967.5,13,0,1,42,0.0,0.25,5.6,10.9,345,351,13.0,18.2,21.3,17.8,13.2,0.267,0.254,0.299,0.375,0,0.0,0.0,0.0,0.0,0.0,0.0,0.0,0.0,0.0,0.0,0.0,0.0,0.0,,,,,,,,,,,,,,,,,,,,,,,,,,,,,,,,,,,,,,,,,,,,,,,,,,,,,,,Pinus pinaster Aiton; Tracheophyta; Vitis vinifera L.; Magnoliopsida; Quercus L.
2010,2010-03-14,Porto,Vila do Conde,Modivas,ESTRADA CEE (Estrada),41.30120835,-8.706321831395915,NC,47.0,2010-03-14T04:00,4.0,80,0.9,-0.1,0.0,0.0,0.0,0.0,0,1028.5,1022.6,0,0,0,0,0.01,0.16,14.8,24.4,39,45,25.9,5.9,9.0,10.1,11.4,0.354,0.369,0.395,0.42,0,0.0,0.0,0.0,0.0,0.0,0.0,0.0,0.0,0.0,0.0,0.0,0.0,0.0,,,,,,,,,,,,,,,,,,,,,,,,,,,,,,,,,,,,,,,,,,,,,,,,,,,,,,,Eucalyptus L'Hér.; Tracheophyta
2010,2010-05-03,Aveiro,Santa Maria da Feira,Pigeiros,Varzea,40.9508111,-8.492238,Desconhecida,192.0,2010-05-03T11:00,15.3,46,3.8,11.7,0.0,0.0,0.0,0.0,1,1019.1,996.2,27,30,0,0,0.41,0.93,22.2,29.2,8,10,47.5,16.9,14.3,14.9,12.0,0.271,0.293,0.329,0.376,1,3600.0,827.0,694.1,132.9,818.1,827.0,1142.5,784.0,658.0,126.0,818.1,784.0,1083.1,,,,,,,,,,,,,,,,,,,,,,,,,,,,,,,,,,,,,,,,,,,,,,,,,,,,,,,Eucalyptus L'Hér.; Pinales; Magnoliopsida; Tracheophyta
2010,2010-02-26,Évora,Estremoz,Veiros,ANTIGA EN 18 (VEIROS),38.95302235,-7.5085155211530115,NC,309.0,2010-02-26T15:00,13.1,75,8.8,11.4,0.3,0.3,0.0,0.0,51,1011.7,975.2,100,77,100,100,0.12,0.37,9.4,13.4,187,188,25.6,12.9,11.1,10.6,12.5,0.41,0.416,0.419,0.345,1,0.0,170.5,8.3,162.3,15.2,170.5,755.2,186.0,9.0,177.0,15.2,186.0,823.7,,,,,,,,,,,,,,,,,,,,,,,,,,,,,,,,,,,,,,,,,,,,,,,,,,,,,,,Olea europaea L.; Magnoliopsida; Tracheophyta; Quercus suber L.
2010,2010-05-03,Setúbal,Setúbal,Setúbal (são Sebastião),JT AV DESCOBERTAS (Carrascal do Alvide),38.52734715,-8.85704211645389,NC,26.0,2010-05-03T14:00,19.5,41,5.8,16.7,0.0,0.0,0.0,0.0,0,1016.3,1013.2,0,0,0,0,0.55,1.34,24.8,31.9,347,349,43.2,22.4,17.4,17.2,14.7,0.126,0.17,0.215,0.232,1,3600.0,924.4,816.9,107.4,942.1,924.4,1167.7,955.0,844.0,111.0,942.1,955.0,1206.4,,,,,,,,,,,,,,,,,,,,,,,,,,,,,,,,,,,,,,,,,,,,,,,,,,,,,,,Tracheophyta; Pinus pinaster Aiton; Olea europaea L.; Magnoliopsida
2010,2010-06-29,Vila Real,Vila Real,Vila Real (são Pedro),Quinta da Raposeira,41.7029974,-7.5139338,Desconhecida,447.0,2010-06-29T09:00,23.5,67,17.0,25.2,0.0,0.0,0.0,0.0,0,1021.0,970.0,0,0,0,0,0.36,0.95,5.4,6.8,70,72,18.4,23.5,20.1,17.8,13.2,0.265,0.254,0.299,0.375,1,3600.0,627.4,519.0,108.3,773.4,627.4,888.2,556.0,460.0,96.0,773.4,556.0,787.1,,,,,,,,,,,,,,,,,,,,,,,,,,,,,,,,,,,,,,,,,,,,,,,,,,,,,,,Pinus pinaster Aiton; Tracheophyta; Vitis vinifera L.; Magnoliopsida; Quercus L.
2010,2010-01-30,Évora,Mora,Mora,EN 02 (JUNTO HERDADE DA CHAMINÉ,38.9506546,-8.185014421221748,Desconhecida,61.0,2010-01-30T01:00,7.5,94,6.6,5.1,0.0,0.0,0.0,0.0,1,1014.7,1007.2,29,32,1,0,0.0,0.06,10.5,22.7,308,319,16.9,7.6,9.1,11.4,15.4,0.215,0.23,0.258,0.173,0,0.0,0.0,0.0,0.0,0.0,0.0,0.0,0.0,0.0,0.0,0.0,0.0,0.0,,,,,,,,,,,,,,,,,,,,,,,,,,,,,,,,,,,,,,,,,,,,,,,,,,,,,,,Quercus suber L.; Pinus pinea L.; Magnoliopsida
2010,2010-05-04,Lisboa,Cascais,Cascais,RIBEIRA VINHAS (Praia da Ribeira de Cascais),38.71502635,-9.456762952650216,Desconhecida,68.0,2010-05-04T09:00,12.5,54,3.5,7.1,0.0,0.0,0.0,0.0,0,1018.9,1010.7,0,0,0,0,0.25,0.66,26.4,33.4,17,18,46.1,15.1,15.8,16.9,14.9,0.167,0.236,0.262,0.32,1,3600.0,602.4,498.4,104.1,806.0,602.4,832.3,521.0,431.0,90.0,806.0,521.0,719.8,,,,,,,,,,,,,,,,,,,,,,,,,,,,,,,,,,,,,,,,,,,,,,,,,,,,,,,Pinus pinea L.; Tracheophyta; Magnoliopsida; Pinus pinaster Aiton
2010,2010-05-04,Bragança,Vimioso,Vimioso,Quinta da Furna/estrada de Vila Chã- (VIMIOSO),41.5841737,-6.520837935830336,Desconhecida,735.0,2010-05-04T14:00,12.2,34,-3.3,7.4,0.0,0.0,0.0,0.0,1,1016.8,931.8,41,0,69,0,0.4,0.94,22.9,31.8,22,22,49.3,13.7,10.5,11.7,8.5,0.283,0.312,0.361,0.377,1,3600.0,757.0,472.5,284.5,563.5,757.0,1128.6,785.0,490.0,295.0,563.5,785.0,1170.4,,,,,,,,,,,,,,,,,,,,,,,,,,,,,,,,,,,,,,,,,,,,,,,,,,,,,,,Olea europaea L.; Tracheophyta; Pinus pinaster Aiton; Vitis vinifera L.
2010,2010-06-29,Braga,Guimarães,Gémeos,LARGO DA IGREJA(GEMEOS) (CASTELÕES),41.40135035,-8.255283927635988,NC,313.0,2010-06-29T10:00,26.6,49,15.1,29.3,0.0,0.0,0.0,0.0,0,1019.8,984.2,0,0,0,0,0.49,1.78,1.6,2.0,153,135,13.7,26.3,21.0,18.3,13.8,0.144,0.227,0.297,0.37,1,3600.0,781.7,662.2,119.4,832.6,781.7,1052.6,720.0,610.0,110.0,832.6,720.0,969.6,,,,,,,,,,,,,,,,,,,,,,,,,,,,,,,,,,,,,,,,,,,,,,,,,,,,,,,Vitis vinifera L.; Eucalyptus L'Hér.; Tracheophyta; Magnoliopsida; Pinus pinaster Aiton
2010,2010-03-16,Vila Real,Mondim de Basto,Bilhó,Anta,41.4063569,-7.8524363,NC,632.0,2010-03-16T11:00,10.8,53,1.7,8.0,0.0,0.0,0.0,0.0,2,1024.1,949.6,69,0,75,79,0.25,0.61,6.6,8.4,99,100,21.6,7.4,4.2,5.9,7.7,0.353,0.364,0.387,0.419,1,3600.0,556.4,293.9,262.5,445.8,556.4,911.7,515.0,272.0,243.0,445.8,515.0,843.9,,,,,,,,,,,,,,,,,,,,,,,,,,,,,,,,,,,,,,,,,,,,,,,,,,,,,,,Magnoliopsida; Pinus pinaster Aiton; Vitis vinifera L.; Pinales; Tracheophyta
2010,2010-07-14,Lisboa,Sintra,São Marcos,RUA DA SOCIEDADE RECREATIVA - SAO MARCOS (Rua de Diogo Cão),38.7496403,-9.296861,Desconhecida,149.0,2010-07-14T17:00,20.8,61,13.1,18.1,0.0,0.0,0.0,0.0,0,1017.4,1000.0,18,0,0,60,0.35,0.95,26.1,33.8,337,339,44.3,24.9,22.1,20.7,17.6,0.143,0.196,0.26,0.348,1,3600.0,510.9,408.2,102.7,747.6,510.9,722.7,587.0,469.0,118.0,747.6,587.0,830.4,,,,,,,,,,,,,,,,,,,,,,,,,,,,,,,,,,,,,,,,,,,,,,,,,,,,,,,Tracheophyta; Magnoliopsida; 
2010,2010-03-13,Braga,Celorico de Basto,Carvalho,Poça de Pedra,41.3857262,-8.047076446852284,NC,300.0,2010-03-13T18:00,10.2,55,1.6,6.7,0.0,0.0,0.0,0.0,0,1025.9,989.6,3,3,0,0,0.09,0.56,11.5,23.1,319,326,28.4,9.6,7.6,7.8,9.3,0.357,0.373,0.395,0.421,1,3600.0,77.9,41.6,36.3,396.8,77.9,145.1,148.0,79.0,69.0,396.8,148.0,275.8,,,,,,,,,,,,,,,,,,,,,,,,,,,,,,,,,,,,,,,,,,,,,,,,,,,,,,,Olea europaea L.; Magnoliopsida; Tracheophyta; Pinus pinaster Aiton; Vitis vinifera L.
2010,2010-07-11,Braga,Vila Verde,Valdreu,MIXÕES DE BAIXO (VALDREU) (Mixões de Baixo),41.7263368,-8.316646445788313,NC,254.0,2010-07-11T23:00,15.1,97,14.6,16.1,0.0,0.0,0.0,0.0,3,1019.6,989.4,100,99,0,92,0.0,0.05,3.3,4.6,283,288,12.2,19.2,23.0,21.0,15.5,0.159,0.209,0.296,0.37,0,0.0,0.0,0.0,0.0,0.0,0.0,0.0,0.0,0.0,0.0,0.0,0.0,0.0,,,,,,,,,,,,,,,,,,,,,,,,,,,,,,,,,,,,,,,,,,,,,,,,,,,,,,,Tracheophyta; Eucalyptus L'Hér.; Magnoliopsida; Acacia Mill.; Quercus L.
2010,2010-04-10,Viseu,Tarouca,Vila Chã da Beira,VILA CHA DA BEIRA,41.0258316,-7.6875348474997,Desconhecida,811.0,2010-04-10T19:00,14.9,42,2.1,11.6,0.0,0.0,0.0,0.0,0,1015.6,923.3,0,0,0,0,0.08,0.99,10.1,20.5,55,59,23.4,13.6,11.6,8.5,7.7,0.337,0.355,0.388,0.411,1,2293.81,1.3,0.8,0.4,9.6,0.9,2.6,66.0,43.0,23.0,318.8,66.0,135.6,,,,,,,,,,,,,,,,,,,,,,,,,,,,,,,,,,,,,,,,,,,,,,,,,,,,,,,Magnoliopsida; Castanea sativa Mill.; Pinus pinaster Aiton; Tracheophyta; Pinales
2010,2010-04-29,Porto,Lousada,Meinedo,REGUENDO (Reguengo),41.2517314,-8.2505324,NC,210.0,2010-04-29T22:00,11.6,95,10.8,11.0,0.0,0.0,0.0,0.0,0,1018.3,993.0,19,21,0,0,0.0,0.07,5.8,7.9,266,294,14.0,14.7,17.4,14.5,10.8,0.307,0.333,0.365,0.407,0,0.0,0.0,0.0,0.0,0.0,0.0,0.0,0.0,0.0,0.0,0.0,0.0,0.0,,,,,,,,,,,,,,,,,,,,,,,,,,,,,,,,,,,,,,,,,,,,,,,,,,,,,,,Magnoliopsida; Tracheophyta; Vitis vinifera L.
2010,2010-03-14,Braga,Vila Nova de Famalicão,Vila Nova de Famalicão,L. DA VALAÍDA (Vila Nova de Famalicão),41.4143764,-8.522835161985839,Desconhecida,111.0,2010-03-14T19:00,10.3,66,4.2,8.0,0.0,0.0,0.0,0.0,0,1027.4,1013.8,0,0,0,0,0.03,0.43,6.1,10.7,320,327,13.7,10.6,9.9,9.4,10.7,0.349,0.363,0.386,0.419,0,368.47,0.0,0.0,0.0,0.0,0.0,0.0,20.0,11.0,9.0,118.1,20.0,68.8,,,,,,,,,,,,,,,,,,,,,,,,,,,,,,,,,,,,,,,,,,,,,,,,,,,,,,,Tracheophyta; Eucalyptus L'Hér.
2010,2010-03-14,Braga,Fafe,Armil,S. SALVADOR (ARMIL),41.4165865,-8.19842119713909,NC,233.0,2010-03-14T21:00,5.3,79,1.9,2.7,0.0,0.0,0.0,0.0,0,1027.9,999.0,0,0,0,0,0.0,0.19,6.0,5.4,57,48,12.2,6.4,8.5,8.4,9.7,0.344,0.362,0.387,0.419,0,0.0,0.0,0.0,0.0,0.0,0.0,0.0,0.0,0.0,0.0,0.0,0.0,0.0,,,,,,,,,,,,,,,,,,,,,,,,,,,,,,,,,,,,,,,,,,,,,,,,,,,,,,,Tracheophyta; Pinus pinaster Aiton; Magnoliopsida; Eucalyptus L'Hér.; Pinales
2010,2010-04-10,Porto,Lousada,Ordem,Lugar da Igreja,41.283539,-8.3036055,NC,207.0,2010-04-10T20:00,15.8,54,6.6,13.6,0.0,0.0,0.0,0.0,0,1015.5,991.0,0,0,0,0,0.05,0.83,9.5,13.3,37,49,20.2,14.0,14.0,10.8,10.0,0.324,0.357,0.394,0.42,0,0.0,0.0,0.0,0.0,0.0,0.0,0.0,0.0,0.0,0.0,0.0,0.0,0.0,,,,,,,,,,,,,,,,,,,,,,,,,,,,,,,,,,,,,,,,,,,,,,,,,,,,,,,Tracheophyta; Eucalyptus L'Hér.; Magnoliopsida
2010,2010-05-04,Aveiro,Santa Maria da Feira,Romariz,Mouquim,40.9332277,-8.4615868,Desconhecida,268.0,2010-05-04T17:00,16.5,33,0.2,11.1,0.0,0.0,0.0,0.0,0,1017.5,985.9,1,0,1,0,0.34,1.26,23.3,31.9,351,354,41.0,17.5,14.5,14.3,11.7,0.271,0.313,0.363,0.403,1,3600.0,439.0,337.5,101.5,732.1,439.0,620.4,519.0,399.0,120.0,732.1,519.0,733.5,,,,,,,,,,,,,,,,,,,,,,,,,,,,,,,,,,,,,,,,,,,,,,,,,,,,,,,Tracheophyta; Eucalyptus L'Hér.; Pinales
2010,2010-07-15,Setúbal,Setúbal,São Lourenço,Casais da Serra,38.4757481,-9.0295171,Desconhecida,121.0,2010-07-15T15:00,23.4,47,11.6,22.2,0.0,0.0,0.0,0.0,0,1017.5,1003.4,0,0,0,0,0.58,1.52,22.9,29.9,327,329,45.0,34.0,24.2,22.7,19.1,0.045,0.076,0.127,0.233,1,3600.0,852.8,744.9,107.9,899.4,852.8,1096.3,901.0,787.0,114.0,899.4,901.0,1158.3,,,,,,,,,,,,,,,,,,,,,,,,,,,,,,,,,,,,,,,,,,,,,,,,,,,,,,,Magnoliopsida; Tracheophyta; Pinus pinea L.; Vitis vinifera L.; Pinus pinaster Aiton
2010,2010-04-10,Bragança,Macedo de Cavaleiros,Murçós,Murçós (MURÇOS),41.6796397,-6.9827118,NC,694.0,2010-04-10T21:00,10.6,61,3.3,7.7,0.0,0.0,0.0,0.0,0,1017.4,936.5,0,0,0,0,0.03,0.5,9.2,18.5,39,63,20.5,10.9,11.8,8.6,7.6,0.329,0.349,0.382,0.411,0,0.0,0.0,0.0,0.0,0.0,0.0,0.0,0.0,0.0,0.0,0.0,0.0,0.0,,,,,,,,,,,,,,,,,,,,,,,,,,,,,,,,,,,,,,,,,,,,,,,,,,,,,,,Castanea sativa Mill.; Tracheophyta; Quercus L.; Magnoliopsida; Vitis vinifera L.; Olea europaea L.
2010,2010-01-08,Vila Real,Murça,Fiolhoso,Fonte Fria,41.4067513,-7.4780471,NC,546.0,2010-01-08T18:00,1.3,52,-7.5,-3.0,0.0,0.0,0.0,0.0,0,1018.1,951.6,0,0,0,0,0.04,0.32,8.7,21.6,330,336,28.8,2.4,3.5,7.6,12.3,0.386,0.394,0.407,0.325,0,0.0,0.0,0.0,0.0,0.0,0.0,0.0,2.0,0.0,2.0,0.0,2.0,13.3,,,,,,,,,,,,,,,,,,,,,,,,,,,,,,,,,,,,,,,,,,,,,,,,,,,,,,,Magnoliopsida; Vitis vinifera L.; Tracheophyta; Pinus pinaster Aiton; Quercus L.; Olea europaea L.; Castanea sativa Mill.; 
2010,2010-04-11,Porto,Penafiel,Castelões,RUA DE PENOUÇOS (Rua de P. F. P. Meades),41.2310904,-8.1850549,Desconhecida,219.0,2010-04-11T02:00,7.6,79,4.1,5.0,0.0,0.0,0.0,0.0,0,1014.1,987.5,0,0,0,0,0.01,0.22,8.3,18.1,85,67,20.9,9.0,12.3,10.8,9.9,0.336,0.359,0.395,0.417,0,0.0,0.0,0.0,0.0,0.0,0.0,0.0,0.0,0.0,0.0,0.0,0.0,0.0,,,,,,,,,,,,,,,,,,,,,,,,,,,,,,,,,,,,,,,,,,,,,,,,,,,,,,,Tracheophyta; Eucalyptus L'Hér.; Vitis vinifera L.; Magnoliopsida
2010,2010-06-19,Lisboa,ODIVELAS,Pontinha,URMEIRA JTO ESCOLA DA PAIÃ (Aldeia),38.7670657,-9.1996189,NC,96.0,2010-06-19T15:00,20.8,58,12.4,18.8,0.0,0.0,0.0,0.0,0,1017.8,1006.5,0,0,0,0,0.49,1.02,29.2,37.8,336,338,48.2,24.6,20.0,18.6,16.5,0.166,0.224,0.284,0.348,1,3600.0,842.0,725.6,116.4,872.6,842.0,1101.6,890.0,767.0,123.0,872.6,890.0,1164.4,,,,,,,,,,,,,,,,,,,,,,,,,,,,,,,,,,,,,,,,,,,,,,,,,,,,,,,Pinus pinea L.; Olea europaea L.; Tracheophyta; Magnoliopsida; 
2010,2010-03-16,Braga,Fafe,Freitas,L. SANTO ANTONIO (FREITAS),41.517727,-8.220231994344001,Desconhecida,405.0,2010-03-16T21:00,10.3,65,4.1,8.4,0.0,0.0,0.0,0.0,0,1024.0,975.4,0,0,0,0,0.0,0.43,3.7,5.4,11,312,12.6,7.1,8.6,7.4,8.7,0.333,0.353,0.383,0.418,0,0.0,0.0,0.0,0.0,0.0,0.0,0.0,0.0,0.0,0.0,0.0,0.0,0.0,,,,,,,,,,,,,,,,,,,,,,,,,,,,,,,,,,,,,,,,,,,,,,,,,,,,,,,Magnoliopsida; Vitis vinifera L.; Eucalyptus L'Hér.; Tracheophyta; Pinales; Pinus pinaster Aiton
2010,2010-07-16,Bragança,Vila FLor,Freixiel,FREIXIEL,41.316009,-7.2477,NC,336.0,2010-07-16T06:00,15.5,82,12.3,15.5,0.0,0.0,0.0,0.0,2,1019.0,979.4,61,68,0,0,0.02,0.33,4.5,7.3,241,259,13.7,17.7,22.0,22.1,16.6,0.157,0.198,0.251,0.354,1,0.0,34.0,9.1,24.9,66.8,19.6,179.8,15.0,4.0,11.0,38.4,15.0,79.3,,,,,,,,,,,,,,,,,,,,,,,,,,,,,,,,,,,,,,,,,,,,,,,,,,,,,,,Vitis vinifera L.; Pinus pinaster Aiton; Magnoliopsida; Tracheophyta; Pinales; Quercus suber L.
2010,2010-05-01,Vila Real,Santa Marta de Penaguião,Fontes,Justos,41.2323071,-7.8465061,NC,712.0,2010-05-01T11:00,14.9,64,8.2,13.6,0.2,0.2,0.0,0.0,51,1014.6,933.1,94,100,7,0,0.27,0.61,5.5,7.1,328,330,20.2,16.9,13.3,12.5,8.8,0.318,0.337,0.371,0.405,1,3600.0,504.9,210.8,294.1,249.6,504.9,1138.4,479.0,200.0,279.0,249.6,479.0,1080.1,,,,,,,,,,,,,,,,,,,,,,,,,,,,,,,,,,,,,,,,,,,,,,,,,,,,,,,Tracheophyta; Magnoliopsida; Pinus pinaster Aiton; Pinales; Vitis vinifera L.
2010,2010-03-14,Porto,Gondomar,Fânzeres,AV.CONDUTA (FANZERES),41.1712712,-8.54277892397772,NC,113.0,2010-03-14T12:00,11.7,49,1.3,8.6,0.0,0.0,0.0,0.0,0,1028.6,1014.8,0,0,0,0,0.34,0.71,15.4,20.1,79,80,38.2,11.5,8.2,9.6,11.1,0.355,0.369,0.394,0.42,1,3600.0,767.9,671.3,96.6,944.9,767.9,983.7,739.0,646.0,93.0,944.9,739.0,946.6,,,,,,,,,,,,,,,,,,,,,,,,,,,,,,,,,,,,,,,,,,,,,,,,,,,,,,,Magnoliopsida; Tracheophyta
2010,2010-07-16,Porto,Felgueiras,Macieira da Lixa,Boavista,41.3496108,-8.1492033,NC,406.0,2010-07-16T11:00,20.9,65,14.2,20.7,0.2,0.2,0.0,0.0,51,1020.6,973.8,89,99,0,0,0.32,0.86,10.5,13.6,308,310,32.4,23.0,19.9,19.7,15.0,0.118,0.184,0.271,0.361,1,3600.0,517.7,199.3,318.4,227.6,517.7,1159.3,491.0,189.0,302.0,227.6,491.0,1099.5,,,,,,,,,,,,,,,,,,,,,,,,,,,,,,,,,,,,,,,,,,,,,,,,,,,,,,,Eucalyptus L'Hér.; Tracheophyta; Pinus pinaster Aiton; Magnoliopsida; Vitis vinifera L.
2010,2010-07-16,Setúbal,Seixal,Aldeia de Paio Pires,"BAIRRO DA CUSENA, (Bairro 1º de Maio)",38.6119995,-9.07313725926883,NC,5.0,2010-07-16T15:00,26.8,53,16.3,27.6,0.0,0.0,0.0,0.0,0,1018.2,1017.6,0,0,0,0,0.6,1.66,20.4,26.9,315,322,38.2,33.2,24.0,22.7,19.3,0.054,0.074,0.124,0.231,1,3600.0,818.7,709.9,108.9,858.3,818.7,1095.0,865.0,750.0,115.0,858.3,865.0,1156.9,,,,,,,,,,,,,,,,,,,,,,,,,,,,,,,,,,,,,,,,,,,,,,,,,,,,,,,Tracheophyta; Magnoliopsida; Pinus pinaster Aiton
2010,2010-05-05,Porto,Paredes,Bitarães,RUA DE TELES (BITARÃES),41.2289699,-8.3229881,NC,216.0,2010-05-05T19:00,15.5,54,6.3,13.7,0.0,0.0,0.0,0.0,0,1012.2,986.7,0,0,0,0,0.08,0.8,6.2,12.2,306,315,17.3,16.3,14.6,13.7,11.2,0.266,0.306,0.355,0.403,1,3600.0,68.3,45.5,22.8,493.3,68.3,124.2,138.0,92.0,46.0,493.3,138.0,250.9,,,,,,,,,,,,,,,,,,,,,,,,,,,,,,,,,,,,,,,,,,,,,,,,,,,,,,,Magnoliopsida; Pinus pinaster Aiton; Eucalyptus L'Hér.; Tracheophyta; Vitis vinifera L.
2010,2010-07-19,Porto,Gondomar,Covelo,L.CRUZ (Cruz),41.103053,-8.4818908,NC,66.0,2010-07-19T16:00,27.2,54,17.2,26.3,0.0,0.0,0.0,0.0,0,1018.6,1011.0,0,0,0,0,0.54,1.64,29.6,39.3,328,332,50.0,32.2,25.1,21.6,17.7,0.126,0.152,0.236,0.36,1,3600.0,679.6,583.7,95.9,850.1,679.6,909.3,744.0,639.0,105.0,850.1,744.0,995.4,,,,,,,,,,,,,,,,,,,,,,,,,,,,,,,,,,,,,,,,,,,,,,,,,,,,,,,Eucalyptus L'Hér.; Pinus pinaster Aiton; Magnoliopsida; Tracheophyta
2010,2010-04-25,Porto,Amarante,Freixo de Cima,LUGAR DE MEIOS (Cimo do Lugar),41.3116144,-8.1353228,NC,400.0,2010-04-25T17:00,21.0,53,11.1,19.9,0.0,0.0,0.0,0.0,0,1022.6,976.4,3,0,0,10,0.31,1.16,9.7,12.5,318,321,25.2,20.7,15.9,11.9,9.2,0.35,0.374,0.376,0.409,1,3600.0,402.4,324.6,77.8,749.2,402.4,585.8,481.0,388.0,93.0,749.2,481.0,700.2,,,,,,,,,,,,,,,,,,,,,,,,,,,,,,,,,,,,,,,,,,,,,,,,,,,,,,,Eucalyptus L'Hér.; Tracheophyta; Pinus pinaster Aiton; Magnoliopsida; Vitis vinifera L.; 
2010,2010-06-19,Lisboa,ODIVELAS,Pontinha,ENCOSTA DO Bº MENINO DE DEUS (Encosta da Sa·de),38.7670657,-9.1996189,NC,96.0,2010-06-19T18:00,19.4,65,12.5,15.5,0.0,0.0,0.0,0.0,0,1017.4,1006.1,1,1,0,0,0.26,0.8,31.9,43.4,340,341,50.8,22.6,20.4,18.6,16.5,0.164,0.224,0.283,0.348,1,3600.0,325.8,256.8,69.0,698.7,325.8,486.8,406.0,320.0,86.0,698.7,406.0,606.7,,,,,,,,,,,,,,,,,,,,,,,,,,,,,,,,,,,,,,,,,,,,,,,,,,,,,,,Pinus pinea L.; Olea europaea L.; Tracheophyta; Magnoliopsida; 
2010,2010-03-14,Braga,Guimarães,São Torcato,L. DE CABANAS (SÃO TORCATO),41.48619595,-8.256837325287776,NC,283.0,2010-03-14T13:00,12.4,44,0.5,9.7,0.0,0.0,0.0,0.0,0,1027.7,993.6,0,0,0,0,0.38,0.81,13.7,18.8,85,83,41.4,11.6,6.7,8.1,9.4,0.349,0.365,0.389,0.42,1,3600.0,792.1,697.0,95.1,971.4,792.1,993.5,791.0,696.0,95.0,971.4,791.0,992.0,,,,,,,,,,,,,,,,,,,,,,,,,,,,,,,,,,,,,,,,,,,,,,,,,,,,,,,Magnoliopsida; Pinus pinaster Aiton; Tracheophyta; Vitis vinifera L.
2010,2010-06-22,Braga,Fafe,São Gens,POVOAÇÃO (S. GENS) (Povoação),41.4468161,-8.13452635762129,NC,429.0,2010-06-22T15:00,27.6,35,10.5,29.5,0.0,0.0,0.0,0.0,0,1017.2,969.0,1,0,0,3,0.62,2.42,3.1,3.8,45,49,19.4,27.0,19.0,15.6,12.6,0.197,0.271,0.312,0.375,1,3600.0,833.3,729.3,104.0,892.5,833.3,1082.0,881.0,771.0,110.0,892.5,881.0,1143.9,,,,,,,,,,,,,,,,,,,,,,,,,,,,,,,,,,,,,,,,,,,,,,,,,,,,,,,Tracheophyta; Eucalyptus L'Hér.; Magnoliopsida; Pinales
2010,2010-04-11,Vila Real,Vila Real,Vila Cova,VILA COVA,41.31846755,-7.864255629027781,Desconhecida,924.0,2010-04-11T09:00,12.0,54,3.0,9.1,0.0,0.0,0.0,0.0,0,1014.3,909.0,0,0,0,0,0.22,0.64,8.9,12.2,76,76,26.3,10.2,8.1,7.4,6.4,0.35,0.361,0.392,0.416,1,3600.0,528.1,439.7,88.4,809.8,528.1,740.1,448.0,373.0,75.0,809.8,448.0,627.8,,,,,,,,,,,,,,,,,,,,,,,,,,,,,,,,,,,,,,,,,,,,,,,,,,,,,,,Magnoliopsida; Tracheophyta; Pinus pinaster Aiton
2010,2010-07-15,Braga,Vieira do Minho,Anissó,MONTE (ANISSÓ) (Cabeço da Vessada do Monte),41.6039112,-8.1701743,NC,518.0,2010-07-15T14:00,20.6,50,9.9,21.3,0.0,0.0,0.0,0.0,0,1017.8,958.6,0,0,0,0,0.57,1.21,11.0,14.0,281,282,34.9,26.1,19.4,19.2,14.6,0.147,0.198,0.285,0.366,1,3600.0,919.3,811.2,108.1,905.7,919.3,1185.6,944.0,833.0,111.0,905.7,944.0,1217.4,,,,,,,,,,,,,,,,,,,,,,,,,,,,,,,,,,,,,,,,,,,,,,,,,,,,,,,Pinus pinaster Aiton; Magnoliopsida; Tracheophyta; Quercus L.; Eucalyptus L'Hér.
2010,2010-03-14,Porto,Amarante,Ataíde,L.CALÇADA (Calçada),41.2491607,-8.194932,NC,225.0,2010-03-14T14:00,12.5,46,1.0,9.8,0.0,0.0,0.0,0.0,0,1027.2,1000.0,0,0,0,0,0.37,0.79,13.4,17.8,82,82,36.4,11.9,7.0,8.3,9.8,0.354,0.369,0.392,0.42,1,3600.0,744.2,651.5,92.7,957.5,744.2,942.1,771.0,675.0,96.0,957.5,771.0,976.0,,,,,,,,,,,,,,,,,,,,,,,,,,,,,,,,,,,,,,,,,,,,,,,,,,,,,,,Magnoliopsida; Eucalyptus L'Hér.; Tracheophyta; Vitis vinifera L.
2010,2010-03-14,Braga,Fafe,Golães,SAMOÇA(GOLAES) (Samoça),41.4650753,-8.196132750072195,Desconhecida,339.0,2010-03-14T16:00,13.1,43,0.8,10.4,0.0,0.0,0.0,0.0,0,1026.6,986.0,0,0,0,0,0.27,0.86,4.5,5.7,119,108,21.2,12.7,7.7,7.9,9.2,0.346,0.365,0.389,0.42,1,3600.0,475.7,403.5,72.2,880.8,475.7,634.3,547.0,464.0,83.0,880.8,547.0,729.4,,,,,,,,,,,,,,,,,,,,,,,,,,,,,,,,,,,,,,,,,,,,,,,,,,,,,,,Pinales; Eucalyptus L'Hér.; Magnoliopsida
2010,2010-07-19,Lisboa,ODIVELAS,Pontinha,ESTRADA PAIA- ODIVELAS PARQUE (Estrada do Forte),38.7670657,-9.1996189,Desconhecida,96.0,2010-07-19T22:00,18.4,83,15.4,16.0,0.0,0.0,0.0,0.0,0,1019.2,1007.8,4,4,0,0,0.04,0.37,28.7,42.0,342,344,50.0,21.1,23.6,21.7,18.5,0.121,0.181,0.25,0.338,0,0.0,0.0,0.0,0.0,0.0,0.0,0.0,0.0,0.0,0.0,0.0,0.0,0.0,,,,,,,,,,,,,,,,,,,,,,,,,,,,,,,,,,,,,,,,,,,,,,,,,,,,,,,Pinus pinea L.; Olea europaea L.; Tracheophyta; Magnoliopsida; 
2010,2010-03-14,Lisboa,Sintra,Belas,Monte Arroio,38.7759197,-9.2639449,Desconhecida,147.0,2010-03-14T16:00,14.3,45,2.6,10.8,0.0,0.0,0.0,0.0,0,1024.9,1007.2,0,0,0,0,0.3,0.9,13.4,17.4,59,60,29.9,15.2,12.3,12.4,13.7,0.334,0.359,0.403,0.358,1,3600.0,503.9,428.7,75.2,875.0,503.9,678.3,576.0,490.0,86.0,875.0,576.0,775.3,,,,,,,,,,,,,,,,,,,,,,,,,,,,,,,,,,,,,,,,,,,,,,,,,,,,,,,Pinus pinaster Aiton; Tracheophyta; Pinales; Eucalyptus L'Hér.; Magnoliopsida; 
2010,2010-01-30,Porto,Marco de Canaveses,Soalhães,EIRÓ (Eira Velha),41.1603957,-8.0979057,NC,397.0,2010-01-30T20:00,5.7,93,4.7,3.5,0.0,0.0,0.0,0.0,2,1013.2,965.3,80,67,32,0,0.0,0.06,5.8,12.0,263,279,20.9,5.6,5.9,7.3,10.8,0.377,0.38,0.395,0.42,0,0.0,0.0,0.0,0.0,0.0,0.0,0.0,0.0,0.0,0.0,0.0,0.0,0.0,,,,,,,,,,,,,,,,,,,,,,,,,,,,,,,,,,,,,,,,,,,,,,,,,,,,,,,Magnoliopsida; Tracheophyta; Quercus L.; Eucalyptus L'Hér.; Pinus pinaster Aiton; Vitis vinifera L.; Castanea sativa Mill.; Pinales; 
2010,2010-04-30,Bragança,Miranda do Douro,Paradela,Castralhouço-Paradela PNDI (PARADELA),41.5000816,-6.271331,Desconhecida,680.0,2010-04-30T20:00,15.0,61,7.6,12.9,0.0,0.0,0.0,0.0,3,1011.5,933.7,85,5,88,93,0.06,0.67,10.5,19.5,276,282,24.1,16.0,16.1,12.9,8.8,0.321,0.341,0.366,0.391,0,0.0,0.0,0.0,0.0,0.0,0.0,0.0,2.0,0.0,2.0,0.0,2.0,24.9,,,,,,,,,,,,,,,,,,,,,,,,,,,,,,,,,,,,,,,,,,,,,,,,,,,,,,,Pinus pinaster Aiton; Magnoliopsida; Tracheophyta; Olea europaea L.; Pinales; Vitis vinifera L.; Quercus L.; Castanea sativa Mill.; 
2010,2010-07-19,Porto,Valongo,Alfena,D. SEBASTIÃO (ALFENA),41.22144345,-8.47176603571262,NC,183.0,2010-07-19T17:00,25.5,59,16.9,25.1,0.0,0.0,0.0,0.0,0,1017.4,996.4,2,0,0,6,0.41,1.35,20.9,28.1,318,320,40.0,30.6,24.6,20.9,16.8,0.112,0.158,0.243,0.357,1,3600.0,502.8,421.9,80.9,793.4,502.8,704.3,578.0,485.0,93.0,793.4,578.0,809.6,,,,,,,,,,,,,,,,,,,,,,,,,,,,,,,,,,,,,,,,,,,,,,,,,,,,,,,Magnoliopsida; Eucalyptus L'Hér.; Tracheophyta; Pinus pinaster Aiton
2010,2010-01-27,Porto,Amarante,Travanca,Tropeços,41.2824416,-8.060305059803397,NC,120.0,2010-01-27T11:00,7.7,59,0.3,4.1,0.0,0.0,0.0,0.0,0,1023.4,1008.6,0,0,0,0,0.16,0.43,10.6,14.6,35,40,32.0,5.4,5.5,10.0,12.6,0.385,0.392,0.404,0.423,1,3600.0,436.0,357.2,78.9,830.2,436.0,606.9,387.0,317.0,70.0,830.2,387.0,538.7,,,,,,,,,,,,,,,,,,,,,,,,,,,,,,,,,,,,,,,,,,,,,,,,,,,,,,,Tracheophyta; Magnoliopsida; Eucalyptus L'Hér.; Vitis vinifera L.; Pinus pinaster Aiton; 
2010,2010-06-23,Porto,Felgueiras,Pinheiro,Oro,41.3684352,-8.152882,NC,497.0,2010-06-23T12:00,27.4,38,12.0,29.5,0.0,0.0,0.0,0.0,0,1015.6,960.1,0,0,0,0,0.67,2.24,6.2,8.0,97,98,26.6,26.0,18.8,15.6,12.4,0.198,0.27,0.319,0.376,1,3600.0,969.7,854.1,115.6,905.1,969.7,1249.4,948.0,835.0,113.0,905.1,948.0,1221.5,,,,,,,,,,,,,,,,,,,,,,,,,,,,,,,,,,,,,,,,,,,,,,,,,,,,,,,Pinus pinaster Aiton; Tracheophyta; Magnoliopsida; Vitis vinifera L.; Eucalyptus L'Hér.
2010,2010-07-20,Porto,Lousada,Covas,L.IGREJA (Lugar da Igreja),41.2681682,-8.3287022,NC,346.0,2010-07-20T12:00,22.9,53,12.9,23.7,0.0,0.0,0.0,0.0,0,1016.2,976.6,7,0,0,23,0.57,1.31,14.5,18.5,293,294,35.3,28.4,22.4,20.2,15.7,0.097,0.169,0.259,0.357,1,3600.0,931.9,812.9,119.1,878.9,931.9,1225.0,908.0,792.0,116.0,878.9,908.0,1193.5,,,,,,,,,,,,,,,,,,,,,,,,,,,,,,,,,,,,,,,,,,,,,,,,,,,,,,,Tracheophyta; Magnoliopsida; Eucalyptus L'Hér.
2010,2010-05-04,Braga,Fafe,Vinhós,CARVALHO(VINHOS) (Carvalho),41.4831406,-8.1758748,NC,398.0,2010-05-04T17:00,14.1,39,0.4,9.3,0.0,0.0,0.0,0.0,0,1018.5,971.6,0,0,0,0,0.3,0.98,18.4,25.6,11,14,41.8,16.1,12.9,13.0,10.1,0.248,0.299,0.348,0.403,1,3600.0,441.4,339.1,102.3,741.5,441.4,615.4,522.0,401.0,121.0,741.5,522.0,727.8,,,,,,,,,,,,,,,,,,,,,,,,,,,,,,,,,,,,,,,,,,,,,,,,,,,,,,,Eucalyptus L'Hér.; Magnoliopsida; Pinales; Pinus pinaster Aiton; Vitis vinifera L.; Pinus pinea L.; Tracheophyta
2010,2010-05-04,Coimbra,Oliveira do Hospital,Lourosa,campo (Campa),40.3088877,-7.9435882,Desconhecida,343.0,2010-05-04T17:00,16.4,31,-0.8,12.3,0.0,0.0,0.0,0.0,0,1016.0,975.9,3,0,5,0,0.33,1.29,13.3,18.0,2,3,34.6,17.5,14.2,14.1,11.3,0.246,0.301,0.354,0.4,1,3600.0,447.4,370.7,76.7,813.7,447.4,613.2,531.0,440.0,91.0,813.7,531.0,727.8,,,,,,,,,,,,,,,,,,,,,,,,,,,,,,,,,,,,,,,,,,,,,,,,,,,,,,,Tracheophyta; Olea europaea L.; Pinus pinaster Aiton; Magnoliopsida; Eucalyptus L'Hér.; Quercus L.; 
2010,2010-04-12,Aveiro,Oliveira de Azeméis,Fajões,Sr. da Ribeira (Senhora da Ribeira),40.9039653,-8.4251446,Desconhecida,321.0,2010-04-12T22:00,12.9,49,2.5,9.2,0.0,0.0,0.0,0.0,0,1006.9,969.2,8,0,3,19,0.07,0.75,13.4,28.1,82,86,33.8,12.9,14.2,11.8,10.4,0.311,0.34,0.385,0.415,0,0.0,0.0,0.0,0.0,0.0,0.0,0.0,0.0,0.0,0.0,0.0,0.0,0.0,,,,,,,,,,,,,,,,,,,,,,,,,,,,,,,,,,,,,,,,,,,,,,,,,,,,,,,Tracheophyta; Pinus pinaster Aiton; Magnoliopsida; Eucalyptus L'Hér.
2010,2010-07-26,Porto,Baião,Ovil,Outoreça,41.1737046,-8.0098684,Desconhecida,548.0,2010-07-26T03:00,19.1,52,9.2,17.7,0.0,0.0,0.0,0.0,0,1016.3,953.6,0,0,0,0,0.05,1.05,8.6,22.7,88,90,37.8,19.5,23.3,19.8,15.3,0.097,0.164,0.251,0.353,0,0.0,0.0,0.0,0.0,0.0,0.0,0.0,0.0,0.0,0.0,0.0,0.0,0.0,,,,,,,,,,,,,,,,,,,,,,,,,,,,,,,,,,,,,,,,,,,,,,,,,,,,,,,Tracheophyta; Pinus pinaster Aiton; Magnoliopsida; Eucalyptus L'Hér.; Pinales; Quercus L.; Vitis vinifera L.; 
2010,2010-07-20,Viana do Castelo,Viana do Castelo,Neiva,Mosteiro,41.6406844,-8.7769108,Desconhecida,78.0,2010-07-20T17:00,22.1,72,16.7,22.4,0.0,0.0,0.0,0.0,3,1015.2,1006.1,100,100,57,99,0.22,0.75,13.9,18.8,295,296,31.0,26.8,23.4,21.0,17.2,0.109,0.166,0.253,0.353,1,3600.0,271.7,101.0,170.7,189.7,271.7,705.4,312.0,116.0,196.0,189.7,312.0,809.9,,,,,,,,,,,,,,,,,,,,,,,,,,,,,,,,,,,,,,,,,,,,,,,,,,,,,,,Tracheophyta; Eucalyptus L'Hér.; Magnoliopsida
2010,2010-07-03,Braga,Póvoa de Lanhoso,Verim,LAGIDO (VERIM) (Lagido),41.6335702,-8.3037858,NC,109.0,2010-07-03T02:00,17.2,94,16.3,18.3,0.0,0.0,0.0,0.0,0,1015.2,1002.3,4,3,2,0,0.0,0.11,7.7,14.1,349,354,14.4,18.8,21.4,19.8,15.2,0.141,0.221,0.302,0.371,0,0.0,0.0,0.0,0.0,0.0,0.0,0.0,0.0,0.0,0.0,0.0,0.0,0.0,,,,,,,,,,,,,,,,,,,,,,,,,,,,,,,,,,,,,,,,,,,,,,,,,,,,,,,Tracheophyta; Magnoliopsida; Vitis vinifera L.; Eucalyptus L'Hér.
2010,2010-04-13,Porto,Lousada,Figueiras,RUA MOTARES (FIGUEIRAS),41.2759878,-8.323929027234763,NC,272.0,2010-04-13T14:00,16.7,47,5.4,15.0,0.0,0.0,0.0,0.0,1,1006.6,974.9,23,4,5,55,0.46,1.0,14.8,19.6,103,104,42.1,17.1,12.2,11.0,9.7,0.305,0.34,0.383,0.418,1,3600.0,821.4,668.7,152.7,841.6,821.4,1081.5,850.0,692.0,158.0,841.6,850.0,1119.2,,,,,,,,,,,,,,,,,,,,,,,,,,,,,,,,,,,,,,,,,,,,,,,,,,,,,,,Tracheophyta; Magnoliopsida; Pinus pinaster Aiton; Eucalyptus L'Hér.
2010,2010-07-17,Aveiro,Santa Maria da Feira,Lourosa,Junto ao Campo de treinos de Lourosa (CANEDO),40.9730294,-8.5374294,Desconhecida,247.0,2010-07-17T17:00,26.7,44,13.3,25.0,0.0,0.0,0.0,0.0,0,1018.6,990.4,0,0,0,0,0.47,1.97,20.1,27.0,331,333,39.6,30.4,22.8,20.5,16.6,0.118,0.13,0.203,0.332,1,3600.0,515.1,435.0,80.0,814.9,515.1,706.8,592.0,500.0,92.0,814.9,592.0,812.4,,,,,,,,,,,,,,,,,,,,,,,,,,,,,,,,,,,,,,,,,,,,,,,,,,,,,,,Pinus pinaster Aiton; Tracheophyta; Magnoliopsida; Eucalyptus L'Hér.
2010,2010-06-21,Setúbal,Moita,Gaio-Rosário,ESTRADA DO ROSARIO (GAIO-ROSÁRIO),38.67494195,-9.007814860787253,NC,11.0,2010-06-21T23:00,19.3,56,10.3,17.7,0.0,0.0,0.0,0.0,0,1017.8,1016.5,0,0,0,0,0.06,0.98,11.6,23.7,338,347,23.8,22.2,23.4,21.5,20.1,0.189,0.199,0.239,0.285,0,0.0,0.0,0.0,0.0,0.0,0.0,0.0,0.0,0.0,0.0,0.0,0.0,0.0,,,,,,,,,,,,,,,,,,,,,,,,,,,,,,,,,,,,,,,,,,,,,,,,,,,,,,,Tracheophyta; Magnoliopsida
2010,2010-07-20,Porto,Lousada,Covas,Paços,41.2681682,-8.3287022,NC,346.0,2010-07-20T18:00,21.6,66,14.9,20.8,0.0,0.0,0.0,0.0,3,1014.6,974.9,88,95,0,9,0.21,0.89,16.4,22.6,303,304,38.2,26.9,23.6,20.2,15.7,0.097,0.168,0.258,0.356,1,3600.0,222.2,143.9,78.3,406.7,222.2,468.7,278.0,180.0,98.0,406.7,278.0,586.3,,,,,,,,,,,,,,,,,,,,,,,,,,,,,,,,,,,,,,,,,,,,,,,,,,,,,,,Tracheophyta; Magnoliopsida; Eucalyptus L'Hér.
2010,2010-07-20,Porto,Vila Nova de Gaia,Avintes,RUA CANDIDO DOS REIS (Rua de Francisco Candido Portugal),41.0980132,-8.536709808946833,NC,74.0,2010-07-20T21:00,19.5,92,18.1,20.2,0.0,0.0,0.0,0.0,3,1014.9,1006.2,89,98,0,2,0.0,0.19,15.9,22.0,322,325,28.8,23.4,24.4,21.7,17.7,0.126,0.151,0.235,0.359,0,0.0,0.0,0.0,0.0,0.0,0.0,0.0,0.0,0.0,0.0,0.0,0.0,0.0,,,,,,,,,,,,,,,,,,,,,,,,,,,,,,,,,,,,,,,,,,,,,,,,,,,,,,,Magnoliopsida; Eucalyptus L'Hér.; Tracheophyta
2010,2010-04-13,Braga,Celorico de Basto,Canedo de Basto,L. CERDEIRINHAS (CANEDO BASTO) (CANEDO DE BASTO),41.4455172,-7.956957651243487,NC,259.0,2010-04-13T15:00,16.8,47,5.5,14.6,0.0,0.0,0.0,0.0,1,1006.1,975.9,28,0,22,50,0.4,1.01,13.3,17.5,103,104,38.9,17.3,12.4,11.0,9.6,0.31,0.342,0.384,0.417,1,3600.0,652.3,500.4,151.9,717.3,652.3,949.6,700.0,537.0,163.0,717.3,700.0,1019.1,,,,,,,,,,,,,,,,,,,,,,,,,,,,,,,,,,,,,,,,,,,,,,,,,,,,,,,Tracheophyta; Eucalyptus L'Hér.; Magnoliopsida; Pinus pinaster Aiton; Vitis vinifera L.
2010,2010-03-13,Setúbal,Alcochete,Alcochete,TRASEIRAS DA ESCOLA SECUNDARIA DE ALCOCHETE (ALCOCHETE),38.74885805,-8.972979556538611,NC,0.0,2010-03-13T11:00,12.7,63,5.8,10.6,0.0,0.0,0.0,0.0,0,1027.3,1027.3,11,12,0,0,0.28,0.55,9.1,11.7,9,9,25.6,13.5,11.8,12.8,13.6,0.293,0.303,0.328,0.285,1,3600.0,643.9,506.0,137.9,758.6,643.9,924.1,593.0,466.0,127.0,758.6,593.0,851.0,,,,,,,,,,,,,,,,,,,,,,,,,,,,,,,,,,,,,,,,,,,,,,,,,,,,,,,Tracheophyta
2010,2010-07-17,Porto,Amarante,Real,MANINHO (Marancinho),41.2668833,-8.072193852545904,NC,87.0,2010-07-17T18:00,29.1,40,14.1,28.7,0.0,0.0,0.0,0.0,0,1018.3,1008.3,0,0,0,0,0.35,2.41,11.7,16.9,315,320,27.0,30.3,23.6,21.2,17.1,0.123,0.181,0.267,0.36,1,3600.0,323.7,261.2,62.5,731.7,323.7,472.7,404.0,326.0,78.0,731.7,404.0,589.9,,,,,,,,,,,,,,,,,,,,,,,,,,,,,,,,,,,,,,,,,,,,,,,,,,,,,,,Magnoliopsida; Tracheophyta; Eucalyptus L'Hér.; Vitis vinifera L.; Pinus pinaster Aiton
2010,2010-07-20,Porto,Lousada,Meinedo,LG. QUINTA (Alto Vale da  Abrunheira),41.2517314,-8.2505324,NC,210.0,2010-07-20T23:00,18.8,93,17.6,20.8,0.0,0.0,0.0,0.0,3,1014.4,989.8,100,98,19,0,0.0,0.15,5.0,7.6,291,295,17.6,22.0,24.1,21.1,16.7,0.099,0.168,0.258,0.356,0,0.0,0.0,0.0,0.0,0.0,0.0,0.0,0.0,0.0,0.0,0.0,0.0,0.0,,,,,,,,,,,,,,,,,,,,,,,,,,,,,,,,,,,,,,,,,,,,,,,,,,,,,,,Magnoliopsida; Tracheophyta; Vitis vinifera L.
2010,2010-06-29,Porto,Gondomar,São Pedro da Cova,RUA PEDRA VERDE (SÃO PEDRO DA COVA),41.146305850000005,-8.513812231973976,NC,128.0,2010-06-29T23:00,21.0,83,18.0,23.7,0.0,0.0,0.0,0.0,0,1019.2,1004.2,0,0,0,0,0.0,0.43,1.4,4.8,360,13,13.0,21.7,24.2,19.8,15.5,0.148,0.203,0.275,0.373,0,0.0,0.0,0.0,0.0,0.0,0.0,0.0,0.0,0.0,0.0,0.0,0.0,0.0,,,,,,,,,,,,,,,,,,,,,,,,,,,,,,,,,,,,,,,,,,,,,,,,,,,,,,,Magnoliopsida; Eucalyptus L'Hér.; Tracheophyta; Vitis vinifera L.; Pinus pinaster Aiton
2010,2010-05-03,Porto,Penafiel,Paço de Sousa,VALE (Vala),41.1662682,-8.3459799,Desconhecida,135.0,2010-05-03T16:00,16.8,38,2.6,12.0,0.0,0.0,0.0,0.0,0,1018.0,1002.0,13,0,22,0,0.41,1.18,25.9,36.0,358,1,48.2,18.6,15.3,14.8,11.7,0.289,0.32,0.361,0.404,1,3600.0,622.2,508.9,113.3,819.6,622.2,836.0,692.0,566.0,126.0,819.6,692.0,929.9,,,,,,,,,,,,,,,,,,,,,,,,,,,,,,,,,,,,,,,,,,,,,,,,,,,,,,,Tracheophyta; Eucalyptus L'Hér.; Magnoliopsida; Vitis vinifera L.
2010,2010-04-13,Braga,Celorico de Basto,Caçarilhe,L. VISO(CAÇARILHE) (CAÇARILHE),41.4229801,-8.044302450060265,Desconhecida,592.0,2010-04-13T13:00,13.3,52,3.6,11.0,0.0,0.0,0.0,0.0,1,1007.8,939.6,32,3,1,96,0.41,0.74,17.3,23.9,102,101,52.2,14.7,10.2,9.4,8.0,0.326,0.345,0.383,0.415,1,3600.0,864.6,674.3,190.2,803.0,864.6,1143.1,868.0,677.0,191.0,803.0,868.0,1147.6,,,,,,,,,,,,,,,,,,,,,,,,,,,,,,,,,,,,,,,,,,,,,,,,,,,,,,,Pinus pinaster Aiton; Magnoliopsida; Pinales; Tracheophyta
2010,2010-03-13,Braga,Vila Nova de Famalicão,Cruz,L. CORRELOS(CRUZ) (CRUZ),41.443545,-8.4942266,Desconhecida,218.0,2010-03-13T11:00,10.0,54,1.2,7.3,0.0,0.0,0.0,0.0,0,1028.6,1002.0,0,0,0,0,0.28,0.56,8.6,11.3,33,37,20.5,9.9,7.0,8.7,10.1,0.364,0.373,0.391,0.42,1,3600.0,675.8,579.3,96.5,904.1,675.8,887.7,623.0,534.0,89.0,904.1,623.0,818.3,,,,,,,,,,,,,,,,,,,,,,,,,,,,,,,,,,,,,,,,,,,,,,,,,,,,,,,Eucalyptus L'Hér.; Pinus pinaster Aiton; Tracheophyta
2010,2010-07-03,Porto,Marco de Canaveses,Paços de Gaiolo,FANDINHAES (Fandinhães),41.1063543,-8.1293913,Desconhecida,495.0,2010-07-03T14:00,27.1,49,15.6,29.7,0.0,0.0,0.0,0.0,0,1016.0,960.6,16,0,27,0,0.59,1.82,6.5,7.6,264,262,21.2,29.3,21.5,18.5,13.9,0.176,0.212,0.282,0.373,1,3600.0,806.0,655.1,150.9,724.0,806.0,1197.2,828.0,673.0,155.0,724.0,828.0,1229.9,,,,,,,,,,,,,,,,,,,,,,,,,,,,,,,,,,,,,,,,,,,,,,,,,,,,,,,Magnoliopsida; Pinus pinaster Aiton; Tracheophyta; Quercus suber L.; Vitis vinifera L.; Eucalyptus L'Hér.; Olea europaea L.; 
2010,2010-06-23,Porto,Santo Tirso,Água Longa,RUA POUSÃO (SANTO TIRSO),41.2603698,-8.4972609,NC,120.0,2010-06-23T22:00,19.1,85,16.5,20.7,0.0,0.0,0.0,0.0,1,1014.9,1000.8,21,0,1,68,0.0,0.33,5.0,5.4,240,233,10.8,21.4,22.4,18.1,14.8,0.185,0.239,0.287,0.374,0,0.0,0.0,0.0,0.0,0.0,0.0,0.0,0.0,0.0,0.0,0.0,0.0,0.0,,,,,,,,,,,,,,,,,,,,,,,,,,,,,,,,,,,,,,,,,,,,,,,,,,,,,,,Tracheophyta; Eucalyptus L'Hér.; Pinales; Vitis vinifera L.; Pinus pinaster Aiton
2010,2010-07-17,Lisboa,Sintra,Agualva,"R. ANTONIO ANTUNES, N.º 3 - VIV (Agualva-Cacém)",38.7665167,-9.2984684,Desconhecida,113.0,2010-07-17T17:00,22.8,59,14.5,20.3,0.0,0.0,0.0,0.0,0,1018.4,1005.2,0,0,0,0,0.39,1.13,28.8,38.5,342,344,46.4,26.6,22.7,21.0,18.0,0.126,0.186,0.254,0.343,1,3600.0,517.3,435.6,81.7,802.3,517.3,718.8,595.0,501.0,94.0,802.3,595.0,826.8,,,,,,,,,,,,,,,,,,,,,,,,,,,,,,,,,,,,,,,,,,,,,,,,,,,,,,,Tracheophyta; Magnoliopsida; 
2010,2010-07-19,Aveiro,Santa Maria da Feira,São João de Ver,Quinta do Areiro (Quinta),40.9667658,-8.5177672,Desconhecida,287.0,2010-07-19T19:00,21.9,71,16.4,21.5,0.0,0.0,0.0,0.0,0,1018.1,984.9,4,0,0,13,0.15,0.76,18.0,25.5,323,327,38.9,27.3,24.6,20.6,16.5,0.11,0.167,0.256,0.359,1,3600.0,131.9,93.5,38.3,546.8,131.9,226.6,203.0,144.0,59.0,546.8,203.0,348.8,,,,,,,,,,,,,,,,,,,,,,,,,,,,,,,,,,,,,,,,,,,,,,,,,,,,,,,Tracheophyta; Eucalyptus L'Hér.; Pinales; Magnoliopsida
2010,2010-07-03,Braga,Celorico de Basto,Ourilhe,L. NOVO - OURILHE (Lugar Novo),41.3940516,-8.0212911,NC,386.0,2010-07-03T14:00,27.7,47,15.5,30.5,0.0,0.0,0.0,0.0,0,1015.9,972.5,13,0,22,0,0.59,1.96,5.2,6.2,236,234,17.6,30.0,21.9,18.8,14.0,0.147,0.223,0.295,0.37,1,3600.0,800.1,645.3,154.8,714.5,800.1,1194.9,822.0,663.0,159.0,714.5,822.0,1227.7,,,,,,,,,,,,,,,,,,,,,,,,,,,,,,,,,,,,,,,,,,,,,,,,,,,,,,,Pinus pinaster Aiton; Magnoliopsida; Tracheophyta
2010,2010-07-17,Aveiro,Águeda,Águeda,Alagoa,40.5936103,-8.4494941,Desconhecida,79.0,2010-07-17T17:00,29.0,41,14.5,27.4,0.0,0.0,0.0,0.0,0,1018.0,1009.0,0,0,0,0,0.51,2.35,22.2,29.8,328,330,43.2,32.4,24.3,22.0,17.8,0.102,0.159,0.246,0.351,1,3600.0,508.5,428.5,80.0,803.9,508.5,705.8,585.0,493.0,92.0,803.9,585.0,812.0,,,,,,,,,,,,,,,,,,,,,,,,,,,,,,,,,,,,,,,,,,,,,,,,,,,,,,,Eucalyptus L'Hér.; Vitis vinifera L.; Tracheophyta; Pinus pinaster Aiton; Magnoliopsida
2010,2010-07-19,Braga,Braga,Sequeira,L. MONTE (SEQUEIRA) (CRESPOS),41.532026,-8.4719761,NC,131.0,2010-07-19T16:00,27.7,51,16.5,28.1,0.0,0.0,0.0,0.0,0,1017.7,1002.7,0,0,0,0,0.55,1.84,19.6,26.5,314,317,42.5,32.0,24.5,20.8,16.7,0.107,0.166,0.255,0.355,1,3600.0,675.3,578.4,96.9,844.2,675.3,907.3,739.0,633.0,106.0,844.2,739.0,993.0,,,,,,,,,,,,,,,,,,,,,,,,,,,,,,,,,,,,,,,,,,,,,,,,,,,,,,,Tracheophyta; Magnoliopsida; Pinus pinaster Aiton
2010,2010-04-10,Beja,Ourique,Santana da Serra,Azenha do Monte da Ribeira,37.5009807,-8.3012579,NC,186.0,2010-04-10T20:00,16.0,59,8.0,14.4,0.0,0.0,0.0,0.0,1,1013.0,991.0,24,0,0,80,0.03,0.74,7.7,16.5,139,134,13.3,16.6,16.7,14.3,14.0,0.258,0.292,0.339,0.289,0,0.0,0.0,0.0,0.0,0.0,0.0,0.0,0.0,0.0,0.0,0.0,0.0,0.0,,,,,,,,,,,,,,,,,,,,,,,,,,,,,,,,,,,,,,,,,,,,,,,,,,,,,,,Tracheophyta; Magnoliopsida; Quercus suber L.; Olea europaea L.; Pinus pinea L.
2010,2010-03-13,Porto,Gondomar,Jovim,RUA DAS SANGINHAS (Rua do Padre Dehon),41.1069301,-8.5093383,NC,165.0,2010-03-13T19:00,9.3,69,3.8,5.3,0.0,0.0,0.0,0.0,0,1026.9,1006.7,0,0,0,0,0.05,0.37,17.9,32.6,341,342,40.0,10.1,9.7,9.5,10.9,0.36,0.373,0.396,0.421,0,222.08,0.0,0.0,0.0,0.0,0.0,0.0,18.0,9.0,9.0,98.5,18.0,66.4,,,,,,,,,,,,,,,,,,,,,,,,,,,,,,,,,,,,,,,,,,,,,,,,,,,,,,,Eucalyptus L'Hér.; Vitis vinifera L.; Tracheophyta; Magnoliopsida
2010,2010-04-13,Braga,Vieira do Minho,Tabuaças,L. PEPIM (TABUAÇAS) (TABUAÇAS),41.63730535,-8.169583093725674,NC,514.0,2010-04-13T17:00,15.2,42,2.3,11.8,0.0,0.0,0.0,0.0,2,1005.9,946.8,59,8,49,76,0.22,1.01,11.6,17.9,106,105,38.2,15.1,11.9,9.9,8.4,0.308,0.339,0.381,0.419,1,3600.0,269.6,122.8,146.7,308.5,269.6,541.8,327.0,149.0,178.0,308.5,327.0,657.3,,,,,,,,,,,,,,,,,,,,,,,,,,,,,,,,,,,,,,,,,,,,,,,,,,,,,,,Quercus L.; Magnoliopsida; Pinus pinaster Aiton; Tracheophyta; Eucalyptus L'Hér.
2010,2010-07-20,Setúbal,Palmela,Quinta do Anjo,Pinhal das Formas,38.5674568,-8.9418673,Desconhecida,95.0,2010-07-20T08:00,19.3,72,14.2,16.9,0.0,0.0,0.0,0.0,1,1017.1,1005.9,20,19,0,11,0.18,0.62,25.6,36.1,340,341,48.6,20.6,23.5,22.2,18.7,0.056,0.06,0.093,0.208,1,3600.0,341.1,211.1,129.9,455.2,341.1,614.4,273.0,169.0,104.0,455.2,273.0,491.8,,,,,,,,,,,,,,,,,,,,,,,,,,,,,,,,,,,,,,,,,,,,,,,,,,,,,,,Vitis vinifera L.; Tracheophyta; Olea europaea L.; Quercus suber L.
2010,2010-06-06,Vila Real,Vila Real,Vila Real (nossa Senhora Da Conceição),Translar (Nossa Senhora da Conceição),41.2976935,-7.7457614,NC,445.0,2010-06-06T16:00,23.4,45,10.8,22.2,0.0,0.0,0.0,0.0,0,1018.1,967.5,0,0,0,0,0.45,1.59,13.4,17.4,301,304,37.8,26.7,21.0,17.0,11.9,0.166,0.207,0.269,0.382,1,3600.0,585.8,467.6,118.3,693.1,585.8,896.1,644.0,514.0,130.0,693.1,644.0,985.1,,,,,,,,,,,,,,,,,,,,,,,,,,,,,,,,,,,,,,,,,,,,,,,,,,,,,,,Pinales; Tracheophyta; Magnoliopsida
2010,2010-03-14,Braga,Fafe,Fafe,RUA CIDADE GUIMARÃES (FAFE) (FAFE),41.4468733,-8.180584376446348,NC,343.0,2010-03-14T18:00,11.6,48,1.1,8.9,0.0,0.0,0.0,0.0,0,1026.9,985.7,0,0,0,0,0.08,0.71,5.7,5.8,252,263,9.0,10.4,7.8,7.7,9.1,0.346,0.365,0.389,0.42,1,3600.0,91.4,65.2,26.2,601.7,91.4,150.1,171.0,122.0,49.0,601.7,171.0,280.7,,,,,,,,,,,,,,,,,,,,,,,,,,,,,,,,,,,,,,,,,,,,,,,,,,,,,,,Magnoliopsida; Pinus pinaster Aiton; Tracheophyta; Eucalyptus L'Hér.
2010,2010-07-26,Aveiro,Oliveira de Azeméis,Macieira de Sarnes,Urb. da Pedra Branca,40.905214,-8.4654957,Desconhecida,238.0,2010-07-26T06:00,22.8,41,9.0,19.8,0.0,0.0,0.0,0.0,0,1014.7,987.3,0,0,0,0,0.17,1.63,19.1,34.9,87,89,40.3,22.5,24.7,21.2,17.3,0.109,0.151,0.233,0.352,1,1.04,28.7,12.0,16.7,128.4,13.5,123.5,12.0,5.0,7.0,60.3,12.0,51.6,,,,,,,,,,,,,,,,,,,,,,,,,,,,,,,,,,,,,,,,,,,,,,,,,,,,,,,Magnoliopsida; Eucalyptus L'Hér.; Pinus pinaster Aiton; Tracheophyta; Pinales
2010,2010-06-06,Aveiro,Vagos,Covão do Lobo,Travessa da Rua Vale Formoso-Vila Mar-Cantanhede,40.44098,-8.6438366,Desconhecida,54.0,2010-06-06T16:00,22.5,49,11.4,19.7,0.0,0.0,0.0,0.0,0,1019.3,1013.0,0,0,0,0,0.47,1.38,27.1,34.0,331,333,48.6,27.9,21.5,18.9,14.8,0.07,0.114,0.174,0.274,1,3600.0,646.1,525.8,120.3,767.1,646.1,910.6,709.0,577.0,132.0,767.1,709.0,999.2,,,,,,,,,,,,,,,,,,,,,,,,,,,,,,,,,,,,,,,,,,,,,,,,,,,,,,,Pinus pinaster Aiton; Tracheophyta
2010,2010-04-10,Porto,Lousada,Figueiras,Igreja,41.2681682,-8.3287022,NC,346.0,2010-04-10T23:00,8.5,73,3.9,5.4,0.0,0.0,0.0,0.0,0,1015.6,974.0,0,0,0,0,0.02,0.31,11.3,19.1,73,68,22.0,9.8,12.5,10.0,9.1,0.327,0.356,0.394,0.42,0,0.0,0.0,0.0,0.0,0.0,0.0,0.0,0.0,0.0,0.0,0.0,0.0,0.0,,,,,,,,,,,,,,,,,,,,,,,,,,,,,,,,,,,,,,,,,,,,,,,,,,,,,,,Tracheophyta; Magnoliopsida; Eucalyptus L'Hér.
2010,2010-03-15,Vila Real,Ribeira de Pena,Cerva,Cabriz,41.4701443,-7.8159441,NC,492.0,2010-03-15T15:00,12.5,43,0.4,10.2,0.0,0.0,0.0,0.0,1,1023.8,965.6,28,0,0,94,0.34,0.82,7.2,9.4,93,94,25.9,12.0,6.0,6.5,8.3,0.349,0.366,0.39,0.42,1,3600.0,630.0,520.1,109.9,879.7,630.0,818.1,682.0,563.0,119.0,879.7,682.0,885.6,,,,,,,,,,,,,,,,,,,,,,,,,,,,,,,,,,,,,,,,,,,,,,,,,,,,,,,Magnoliopsida; Pinus pinaster Aiton; Tracheophyta
2010,2010-05-05,Lisboa,Azambuja,Azambuja,Casais de Baixo ( Junto Escola Primaria ),39.0684428,-8.8663753,Desconhecida,7.0,2010-05-05T14:00,18.9,36,3.6,18.1,0.0,0.0,0.0,0.0,0,1014.3,1013.5,0,0,0,0,0.56,1.39,10.7,13.2,348,349,25.6,23.4,16.5,16.6,14.5,0.222,0.318,0.377,0.367,1,3600.0,927.7,818.3,109.4,942.3,927.7,1168.2,958.0,845.0,113.0,942.3,958.0,1206.4,,,,,,,,,,,,,,,,,,,,,,,,,,,,,,,,,,,,,,,,,,,,,,,,,,,,,,,Tracheophyta
2010,2010-07-21,Porto,Felgueiras,Torrados,LG. ESPADANAL (JUGUEIROS),41.3553907,-8.2397668,NC,303.0,2010-07-21T15:00,23.5,46,11.1,23.0,0.0,0.0,0.0,0.0,0,1013.0,978.4,19,1,0,59,0.54,1.57,15.0,19.3,305,307,36.7,29.9,23.3,20.6,16.2,0.106,0.165,0.254,0.354,1,3600.0,765.2,578.9,186.3,718.5,765.2,1067.4,809.0,612.0,197.0,718.5,809.0,1128.4,,,,,,,,,,,,,,,,,,,,,,,,,,,,,,,,,,,,,,,,,,,,,,,,,,,,,,,Tracheophyta; Vitis vinifera L.; Eucalyptus L'Hér.; Magnoliopsida
2010,2010-04-11,Braga,Braga,Escudeiros,R.DA CAZETA (ESCUDEIROS) (ESCUDEIROS),41.4755351,-8.430083150526482,Desconhecida,229.0,2010-04-11T03:00,8.0,77,4.2,5.2,0.0,0.0,0.0,0.0,0,1013.7,986.0,0,0,0,0,0.01,0.25,9.9,20.3,57,57,20.5,9.3,12.2,10.7,9.7,0.332,0.356,0.392,0.421,0,0.0,0.0,0.0,0.0,0.0,0.0,0.0,0.0,0.0,0.0,0.0,0.0,0.0,,,,,,,,,,,,,,,,,,,,,,,,,,,,,,,,,,,,,,,,,,,,,,,,,,,,,,,Eucalyptus L'Hér.; Pinales; Pinus pinaster Aiton; Tracheophyta; Magnoliopsida
2010,2010-07-21,Porto,Santo Tirso,Campo (são Martinho),Escorregadoura,41.3515537,-8.3670459,NC,192.0,2010-07-21T11:00,21.6,61,13.8,22.2,0.0,0.0,0.0,0.0,1,1013.4,991.1,32,27,0,27,0.43,1.01,9.5,11.8,295,297,27.4,25.2,22.1,20.7,16.6,0.117,0.172,0.258,0.356,1,3600.0,717.0,496.3,220.7,571.7,717.0,1149.9,679.0,470.0,209.0,571.7,679.0,1089.0,,,,,,,,,,,,,,,,,,,,,,,,,,,,,,,,,,,,,,,,,,,,,,,,,,,,,,,Magnoliopsida; Tracheophyta; Vitis vinifera L.
2010,2010-06-06,Porto,Amarante,Mancelos,SERRA AGUA E LEITE (Serra),41.2894833,-8.155317,NC,471.0,2010-06-06T22:00,15.0,86,12.7,14.9,0.0,0.0,0.0,0.0,0,1019.4,964.3,0,0,0,1,0.0,0.23,6.5,9.4,251,263,15.5,17.6,19.6,16.1,11.3,0.149,0.237,0.312,0.383,0,0.0,0.0,0.0,0.0,0.0,0.0,0.0,0.0,0.0,0.0,0.0,0.0,0.0,,,,,,,,,,,,,,,,,,,,,,,,,,,,,,,,,,,,,,,,,,,,,,,,,,,,,,,Tracheophyta; Magnoliopsida; Eucalyptus L'Hér.; Pinus pinaster Aiton; Vitis vinifera L.; 
2010,2010-06-06,Setúbal,Almada,Costa da Caparica,"TERRAS DA COSTA, (Terras da Costa)",38.6370804,-9.2274971,NC,2.0,2010-06-06T23:00,16.8,82,13.8,14.7,0.0,0.0,0.0,0.0,0,1019.3,1019.1,1,0,0,2,0.03,0.34,22.9,33.5,344,345,38.5,18.4,21.5,19.9,16.7,0.055,0.116,0.163,0.254,0,0.0,0.0,0.0,0.0,0.0,0.0,0.0,0.0,0.0,0.0,0.0,0.0,0.0,,,,,,,,,,,,,,,,,,,,,,,,,,,,,,,,,,,,,,,,,,,,,,,,,,,,,,,Tracheophyta; Pinus pinea L.
2010,2010-06-29,Porto,Santo Tirso,Vilarinho,R. CALVARIO (AVES),41.3604512,-8.3352657,NC,187.0,2010-06-29T13:00,29.5,41,14.9,32.7,0.0,0.0,0.0,0.0,0,1019.4,998.2,0,0,0,0,0.68,2.45,5.5,6.5,302,304,17.6,30.7,22.5,18.8,14.4,0.145,0.226,0.298,0.37,1,3600.0,918.9,766.1,152.8,809.2,918.9,1252.8,920.0,767.0,153.0,809.2,920.0,1254.3,,,,,,,,,,,,,,,,,,,,,,,,,,,,,,,,,,,,,,,,,,,,,,,,,,,,,,,Eucalyptus L'Hér.; Tracheophyta; Pinus pinaster Aiton; Magnoliopsida
2010,2010-06-29,Aveiro,Santa Maria da Feira,Romariz,Portela,40.9419902,-8.4542019,Desconhecida,263.0,2010-06-29T14:00,29.1,45,16.1,31.3,0.0,0.0,0.0,0.0,0,1019.3,989.5,0,0,0,0,0.68,2.21,13.3,16.1,319,321,24.1,30.7,23.0,19.0,14.9,0.152,0.213,0.284,0.371,1,3600.0,891.0,770.2,120.7,848.5,891.0,1201.3,915.0,791.0,124.0,848.5,915.0,1233.7,,,,,,,,,,,,,,,,,,,,,,,,,,,,,,,,,,,,,,,,,,,,,,,,,,,,,,,Tracheophyta; Eucalyptus L'Hér.; Magnoliopsida
2010,2010-07-20,Porto,TROFA,Covelas,CURVELO (Curvaceira),41.3008521,-8.5349796,NC,115.0,2010-07-20T01:00,17.5,93,16.3,18.1,0.0,0.0,0.0,0.0,0,1017.9,1004.3,2,2,0,0,0.0,0.15,10.9,19.4,314,325,21.6,20.5,24.2,21.3,17.2,0.127,0.154,0.237,0.357,0,0.0,0.0,0.0,0.0,0.0,0.0,0.0,0.0,0.0,0.0,0.0,0.0,0.0,,,,,,,,,,,,,,,,,,,,,,,,,,,,,,,,,,,,,,,,,,,,,,,,,,,,,,,Magnoliopsida; Pinus pinaster Aiton; Vitis vinifera L.; Quercus L.; Tracheophyta; Eucalyptus L'Hér.; Olea europaea L.; ; Pinales
2010,2010-06-07,Aveiro,Oliveira de Azeméis,Pinheiro da Bemposta,Fundo do Lugar,40.7845673,-8.4822234,Desconhecida,175.0,2010-06-07T17:00,19.9,64,13.0,18.7,0.0,0.0,0.0,0.0,3,1015.7,995.2,100,85,0,96,0.26,0.83,14.7,18.7,281,281,36.0,24.4,20.5,18.2,14.1,0.128,0.21,0.289,0.366,1,3600.0,343.0,177.1,165.8,334.8,343.0,702.7,395.0,204.0,191.0,334.8,395.0,809.3,,,,,,,,,,,,,,,,,,,,,,,,,,,,,,,,,,,,,,,,,,,,,,,,,,,,,,,Tracheophyta; Magnoliopsida; Eucalyptus L'Hér.
2010,2010-07-21,Aveiro,Albergaria-a-Velha,Frossos,Vale da Silva (Azenha do Vale Cerejo),40.6593513,-8.5359631,Desconhecida,30.0,2010-07-21T13:00,23.5,50,12.4,22.4,0.0,0.0,0.0,0.0,1,1014.2,1010.7,26,0,0,88,0.58,1.46,24.4,29.7,323,324,43.2,30.7,23.7,22.1,18.4,0.071,0.098,0.156,0.269,1,3600.0,921.2,722.2,199.0,771.9,921.2,1239.4,921.0,722.0,199.0,771.9,921.0,1239.1,,,,,,,,,,,,,,,,,,,,,,,,,,,,,,,,,,,,,,,,,,,,,,,,,,,,,,,Eucalyptus L'Hér.; Magnoliopsida; Tracheophyta; Pinus pinaster Aiton; Acacia Mill.; 
2010,2010-06-30,Porto,Marco de Canaveses,Penha Longa,ESPARIDO,41.1077811,-8.160269,NC,344.0,2010-06-30T16:00,29.0,48,16.9,30.1,0.0,0.0,0.0,0.0,0,1017.2,978.5,11,0,19,0,0.46,2.09,10.5,13.2,297,296,26.3,29.6,23.2,18.6,14.0,0.165,0.235,0.305,0.374,1,3600.0,523.2,380.5,142.7,546.7,523.2,920.9,572.0,416.0,156.0,546.7,572.0,1006.8,,,,,,,,,,,,,,,,,,,,,,,,,,,,,,,,,,,,,,,,,,,,,,,,,,,,,,,Tracheophyta; Magnoliopsida; Pinus pinaster Aiton; Eucalyptus L'Hér.
2010,2010-05-05,Porto,Vila Nova de Gaia,Canelas,Rua da Talhadinha,41.0805427,-8.6006594,NC,126.0,2010-05-05T20:00,14.1,67,8.0,11.7,0.0,0.0,0.0,0.0,0,1012.3,997.3,0,0,0,0,0.05,0.53,12.5,21.3,342,349,22.3,15.4,15.5,14.6,12.4,0.282,0.316,0.362,0.403,0,0.0,0.0,0.0,0.0,0.0,0.0,0.0,12.0,5.0,7.0,59.8,12.0,53.5,,,,,,,,,,,,,,,,,,,,,,,,,,,,,,,,,,,,,,,,,,,,,,,,,,,,,,,Tracheophyta; Magnoliopsida; Eucalyptus L'Hér.
2010,2010-07-08,Porto,Gondomar,Jovim,Cruz,41.1088472,-8.5100537,NC,149.0,2010-07-08T16:00,25.1,68,18.9,26.2,0.0,0.0,0.0,0.0,0,1015.2,998.1,6,2,5,5,0.38,1.01,15.5,18.9,258,256,27.7,30.6,26.3,21.5,16.1,0.153,0.169,0.255,0.367,1,3600.0,501.4,339.5,162.0,487.6,501.4,921.2,548.0,371.0,177.0,487.6,548.0,1006.8,,,,,,,,,,,,,,,,,,,,,,,,,,,,,,,,,,,,,,,,,,,,,,,,,,,,,,,Eucalyptus L'Hér.; Vitis vinifera L.; Tracheophyta; Magnoliopsida
2010,2010-01-27,Santarém,Chamusca,Chamusca,Arrepiado,39.33365205,-8.49101389250971,NC,14.0,2010-01-27T18:00,8.0,44,-3.6,2.5,0.0,0.0,0.0,0.0,0,1018.2,1016.5,0,0,0,0,0.09,0.6,19.8,34.2,57,60,38.5,8.8,9.6,12.4,15.9,0.334,0.35,0.374,0.285,0,1145.9,0.0,0.0,0.0,0.0,0.0,0.0,32.0,18.0,14.0,177.8,32.0,82.4,,,,,,,,,,,,,,,,,,,,,,,,,,,,,,,,,,,,,,,,,,,,,,,,,,,,,,,Vitis vinifera L.
2010,2010-07-20,Porto,Penafiel,Croca,L.PEDRANTIL (Pedrantil),41.2204491,-8.2390371,Desconhecida,360.0,2010-07-20T13:00,23.1,52,12.7,23.5,0.0,0.0,0.0,0.0,0,1016.1,974.9,4,0,0,14,0.59,1.36,16.6,21.6,297,298,40.0,28.2,22.2,19.7,15.5,0.113,0.175,0.262,0.358,1,3600.0,931.7,813.8,118.0,872.2,931.7,1235.8,932.0,814.0,118.0,872.2,932.0,1236.2,,,,,,,,,,,,,,,,,,,,,,,,,,,,,,,,,,,,,,,,,,,,,,,,,,,,,,,Magnoliopsida; Eucalyptus L'Hér.; Vitis vinifera L.; Tracheophyta
2010,2010-07-21,Porto,Felgueiras,Sendim,L.CASAL (Casal),41.38367325,-8.1645395125,Desconhecida,473.0,2010-07-21T09:00,18.0,80,14.4,18.4,0.0,0.0,0.0,0.0,2,1013.4,959.0,59,66,0,0,0.19,0.42,7.1,8.9,285,284,21.2,21.2,21.4,19.6,15.2,0.11,0.173,0.264,0.358,1,3600.0,364.2,130.2,234.1,204.0,364.2,845.2,319.0,114.0,205.0,204.0,319.0,740.2,,,,,,,,,,,,,,,,,,,,,,,,,,,,,,,,,,,,,,,,,,,,,,,,,,,,,,,Vitis vinifera L.; Pinus pinaster Aiton; Eucalyptus L'Hér.; Tracheophyta; Magnoliopsida
2010,2010-05-06,Aveiro,Oliveira de Azeméis,Pinheiro da Bemposta,Bemposta,40.7844512,-8.4814605,Desconhecida,173.0,2010-05-06T13:00,19.5,44,6.8,20.4,0.0,0.0,0.0,0.0,1,1009.5,989.4,30,20,19,3,0.58,1.28,5.4,5.9,312,317,20.5,22.0,14.8,14.6,12.5,0.221,0.282,0.337,0.386,1,3600.0,956.0,848.5,107.6,936.3,956.0,1218.4,960.0,852.0,108.0,936.3,960.0,1223.5,,,,,,,,,,,,,,,,,,,,,,,,,,,,,,,,,,,,,,,,,,,,,,,,,,,,,,,Tracheophyta; Magnoliopsida; Eucalyptus L'Hér.
2010,2010-06-23,Porto,Amarante,Oliveira,Boavista,41.2573611,-8.1989863,NC,213.0,2010-06-23T13:00,29.4,41,14.9,33.6,0.0,0.0,0.0,0.0,0,1014.9,990.8,0,0,0,0,0.71,2.41,2.3,2.4,252,243,15.8,28.8,20.6,17.2,14.0,0.201,0.259,0.302,0.375,1,3600.0,979.0,864.3,114.8,911.7,979.0,1255.2,981.0,866.0,115.0,911.7,981.0,1257.7,,,,,,,,,,,,,,,,,,,,,,,,,,,,,,,,,,,,,,,,,,,,,,,,,,,,,,,Magnoliopsida; Eucalyptus L'Hér.; Tracheophyta
2010,2010-07-08,Faro,Lagoa,Lagoa,Torrinha,37.1452921,-8.4587968,NC,67.0,2010-07-08T21:00,23.0,69,17.1,23.9,0.0,0.0,0.0,0.0,0,1017.6,1009.8,0,0,0,0,0.04,0.87,11.1,17.6,331,337,25.6,27.0,28.4,24.7,19.3,0.088,0.173,0.247,0.31,0,0.0,0.0,0.0,0.0,0.0,0.0,0.0,0.0,0.0,0.0,0.0,0.0,0.0,,,,,,,,,,,,,,,,,,,,,,,,,,,,,,,,,,,,,,,,,,,,,,,,,,,,,,,Tracheophyta; Magnoliopsida; Quercus rotundifolia Lam.
2010,2010-07-20,Porto,Valongo,Alfena,CARCAJAL (ALFENA),41.22144345,-8.47176603571262,NC,183.0,2010-07-20T15:00,23.7,59,15.2,24.0,0.0,0.0,0.0,0.0,1,1015.6,994.5,22,21,1,8,0.52,1.21,19.7,25.0,310,311,38.9,29.6,23.4,21.0,16.9,0.111,0.157,0.242,0.356,1,3600.0,788.3,649.2,139.1,802.3,788.3,1071.8,833.0,686.0,147.0,802.3,833.0,1132.5,,,,,,,,,,,,,,,,,,,,,,,,,,,,,,,,,,,,,,,,,,,,,,,,,,,,,,,Magnoliopsida; Eucalyptus L'Hér.; Tracheophyta; Pinus pinaster Aiton
2010,2010-06-30,Lisboa,Alenquer,Abrigada,ABRIGADA,39.1528371,-9.0219562158227,Desconhecida,81.0,2010-06-30T14:00,29.5,45,16.2,31.5,0.0,0.0,0.0,0.0,0,1017.1,1007.9,0,0,0,0,0.7,2.29,15.1,18.6,322,324,37.4,37.8,25.7,21.9,17.6,0.083,0.181,0.26,0.323,1,3600.0,907.1,772.6,134.5,841.5,907.1,1214.9,931.0,793.0,138.0,841.5,931.0,1247.0,,,,,,,,,,,,,,,,,,,,,,,,,,,,,,,,,,,,,,,,,,,,,,,,,,,,,,,Magnoliopsida; Eucalyptus L'Hér.; Tracheophyta; Vitis vinifera L.
2010,2010-07-20,Porto,Santo Tirso,Monte Córdova,L.GUINCHAES (SEQUEIRO),41.3164414,-8.4320306,NC,357.0,2010-07-20T13:00,22.9,54,13.2,23.7,0.0,0.0,0.0,0.0,0,1015.9,975.1,4,0,0,14,0.59,1.28,15.8,20.6,294,297,38.2,28.8,22.3,20.0,15.7,0.098,0.167,0.256,0.356,1,3600.0,943.0,827.0,116.0,886.6,943.0,1235.5,943.0,827.0,116.0,886.6,943.0,1235.5,,,,,,,,,,,,,,,,,,,,,,,,,,,,,,,,,,,,,,,,,,,,,,,,,,,,,,,Tracheophyta; Vitis vinifera L.; Eucalyptus L'Hér.; Pinus pinaster Aiton; Magnoliopsida
2010,2010-01-30,Vila Real,Vila Real,Borbela,BORBELA,41.3279575,-7.7593653,NC,615.0,2010-01-30T00:00,2.8,99,2.6,0.2,0.0,0.0,0.0,0.0,2,1013.7,939.9,74,81,1,0,0.0,0.01,5.8,14.0,248,269,20.2,3.1,4.2,6.7,10.2,0.38,0.384,0.4,0.418,0,0.0,0.0,0.0,0.0,0.0,0.0,0.0,0.0,0.0,0.0,0.0,0.0,0.0,,,,,,,,,,,,,,,,,,,,,,,,,,,,,,,,,,,,,,,,,,,,,,,,,,,,,,,Magnoliopsida; Tracheophyta; Pinus pinaster Aiton
2010,2010-07-02,Braga,Fafe,São Gens,L. PAREDES (S. GENS) (ABOIM),41.4468161,-8.13452635762129,NC,429.0,2010-07-02T16:00,22.7,64,15.6,23.0,0.0,0.0,0.0,0.0,2,1014.3,965.5,58,37,42,0,0.31,0.98,11.0,14.1,289,289,29.2,25.7,20.9,18.3,13.5,0.133,0.217,0.293,0.369,1,3600.0,407.1,241.5,165.6,347.7,407.1,919.0,445.0,264.0,181.0,347.7,445.0,1004.6,,,,,,,,,,,,,,,,,,,,,,,,,,,,,,,,,,,,,,,,,,,,,,,,,,,,,,,Tracheophyta; Eucalyptus L'Hér.; Magnoliopsida; Pinales
2010,2010-07-20,Porto,Penafiel,Rio de Moinhos,Jugueiros,41.1169039,-8.27507040257782,Desconhecida,236.0,2010-07-20T15:00,23.6,56,14.3,23.3,0.0,0.0,0.0,0.0,0,1016.0,988.8,18,17,0,8,0.53,1.29,21.7,28.4,318,321,48.6,29.7,23.3,20.7,16.6,0.108,0.175,0.265,0.359,1,3600.0,795.4,676.2,119.2,837.1,795.4,1070.0,841.0,715.0,126.0,837.1,841.0,1131.3,,,,,,,,,,,,,,,,,,,,,,,,,,,,,,,,,,,,,,,,,,,,,,,,,,,,,,,Eucalyptus L'Hér.; Tracheophyta; Magnoliopsida; Vitis vinifera L.
2010,2010-04-12,Porto,Paredes,Parada de Todeia,LUGAR DO CHÃOS (Lugar),41.1690637,-8.3770562,NC,191.0,2010-04-12T01:00,9.6,88,7.7,8.2,0.0,0.0,0.0,0.0,0,1005.9,983.0,1,0,2,0,0.0,0.14,5.2,8.7,106,114,13.0,11.2,13.9,11.6,10.5,0.33,0.349,0.388,0.415,0,0.0,0.0,0.0,0.0,0.0,0.0,0.0,0.0,0.0,0.0,0.0,0.0,0.0,,,,,,,,,,,,,,,,,,,,,,,,,,,,,,,,,,,,,,,,,,,,,,,,,,,,,,,Magnoliopsida; Pinus pinaster Aiton; Eucalyptus L'Hér.; Tracheophyta; Vitis vinifera L.
2010,2010-04-14,Aveiro,São João da Madeira,São João da Madeira,R. das Aguas (SÃO JOÃO DA MADEIRA),40.897404,-8.490683816868543,Desconhecida,222.0,2010-04-14T12:00,16.6,62,9.2,14.1,0.0,0.0,0.0,0.0,1,1005.1,979.2,48,36,23,7,0.33,0.73,17.9,24.0,105,107,40.0,15.9,13.0,12.5,11.0,0.365,0.338,0.378,0.412,1,3600.0,622.8,408.0,214.8,482.6,622.8,1150.1,606.0,397.0,209.0,482.6,606.0,1119.1,,,,,,,,,,,,,,,,,,,,,,,,,,,,,,,,,,,,,,,,,,,,,,,,,,,,,,,Tracheophyta
2010,2010-06-23,Braga,Braga,Braga (são Vítor),BAIRRO DA ALEGRIA (S. VITOR) (Bairro),41.5543932,-8.406436719135339,NC,181.0,2010-06-23T17:00,27.3,58,18.4,28.8,0.0,0.0,0.0,0.0,0,1014.1,993.5,17,0,0,57,0.4,1.52,11.3,14.6,287,290,29.2,28.1,22.0,17.1,13.9,0.182,0.264,0.322,0.376,1,3600.0,482.3,376.6,105.7,693.7,482.3,718.7,552.0,431.0,121.0,693.7,552.0,822.6,,,,,,,,,,,,,,,,,,,,,,,,,,,,,,,,,,,,,,,,,,,,,,,,,,,,,,,Tracheophyta
2010,2010-05-06,Aveiro,Santa Maria da Feira,Romariz,Vila Nova,40.9361462,-8.4470603,Desconhecida,267.0,2010-05-06T12:00,17.9,46,6.0,18.9,0.0,0.0,0.0,0.0,0,1010.3,979.2,4,0,0,14,0.54,1.11,2.9,3.1,7,21,16.2,19.8,13.7,14.1,11.9,0.257,0.307,0.362,0.404,1,3600.0,943.5,832.0,111.5,919.8,943.5,1216.3,922.0,813.0,109.0,919.8,922.0,1188.5,,,,,,,,,,,,,,,,,,,,,,,,,,,,,,,,,,,,,,,,,,,,,,,,,,,,,,,Eucalyptus L'Hér.; Tracheophyta; Pinales; Magnoliopsida; Pinus pinaster Aiton
2010,2010-04-12,Porto,Vila Nova de Gaia,Vilar de Andorinho,RUA D. GLORIA CASTRO (Rua da Poça da Varzea),41.1032455,-8.5767749,NC,155.0,2010-04-12T17:00,18.8,45,6.5,16.3,0.0,0.0,0.0,0.0,2,1004.9,986.9,51,0,59,51,0.28,1.2,10.9,17.4,73,77,25.6,18.0,14.9,12.5,11.1,0.33,0.347,0.387,0.412,1,3600.0,354.7,273.8,80.8,682.2,354.7,546.7,430.0,332.0,98.0,682.2,430.0,662.8,,,,,,,,,,,,,,,,,,,,,,,,,,,,,,,,,,,,,,,,,,,,,,,,,,,,,,,Magnoliopsida; Tracheophyta
2010,2010-07-20,Aveiro,Albergaria-a-Velha,Frossos,Junto ao Areiros (RIBEIRA DE FRÁGOAS),40.6593513,-8.5359631,NC,30.0,2010-07-20T15:00,24.5,57,15.4,24.3,0.0,0.0,0.0,0.0,1,1016.2,1012.7,26,27,0,6,0.52,1.32,22.2,28.7,320,321,41.0,31.8,24.3,22.1,18.3,0.067,0.098,0.157,0.27,1,3600.0,767.3,633.0,134.4,779.8,767.3,1075.2,811.0,669.0,142.0,779.8,811.0,1136.4,,,,,,,,,,,,,,,,,,,,,,,,,,,,,,,,,,,,,,,,,,,,,,,,,,,,,,,Eucalyptus L'Hér.; Magnoliopsida; Tracheophyta; Pinus pinaster Aiton; Acacia Mill.; 
2010,2010-06-23,Porto,Gondomar,São Pedro da Cova,BAIRRO DE GANDRA (SÃO PEDRO DA COVA),41.146305850000005,-8.513812231973976,NC,128.0,2010-06-23T19:00,21.7,72,16.4,22.9,0.0,0.0,0.0,0.0,1,1014.3,999.4,28,0,4,84,0.12,0.73,7.4,9.5,293,299,21.2,25.3,22.8,18.2,15.0,0.179,0.237,0.287,0.376,1,3600.0,119.3,60.3,59.0,317.6,119.3,251.5,176.0,89.0,87.0,317.6,176.0,371.0,,,,,,,,,,,,,,,,,,,,,,,,,,,,,,,,,,,,,,,,,,,,,,,,,,,,,,,Magnoliopsida; Eucalyptus L'Hér.; Tracheophyta; Vitis vinifera L.; Pinus pinaster Aiton
2010,2010-04-14,Porto,Vila Nova de Gaia,Gulpilhares,Rua das Fontainhas,41.075126,-8.6354469,NC,65.0,2010-04-14T19:00,16.3,67,10.3,14.4,0.0,0.0,0.0,0.0,2,1002.4,994.7,71,11,52,100,0.07,0.61,13.4,23.5,82,86,20.2,15.8,14.8,13.3,11.8,0.35,0.343,0.38,0.411,1,0.0,8.4,0.2,8.1,2.5,7.1,37.3,38.0,1.0,37.0,6.8,38.0,169.3,,,,,,,,,,,,,,,,,,,,,,,,,,,,,,,,,,,,,,,,,,,,,,,,,,,,,,,Tracheophyta; Magnoliopsida; Eucalyptus L'Hér.
2010,2010-07-21,Porto,Vila Nova de Gaia,Olival,TR. CAPELA (Travessa da Capela),41.0598099,-8.5190368,NC,214.0,2010-07-21T16:00,21.7,50,10.9,19.5,0.0,0.0,0.0,0.0,1,1013.4,988.6,23,1,0,73,0.46,1.29,22.6,29.2,323,325,44.6,28.1,23.1,20.8,16.9,0.127,0.15,0.234,0.359,1,3600.0,660.1,525.0,135.1,767.6,660.1,906.1,723.0,575.0,148.0,767.6,723.0,992.4,,,,,,,,,,,,,,,,,,,,,,,,,,,,,,,,,,,,,,,,,,,,,,,,,,,,,,,Magnoliopsida; Eucalyptus L'Hér.; Tracheophyta
2010,2010-07-21,Porto,Gondomar,São Pedro da Cova,LG. DAS MINAS (SÃO PEDRO DA COVA),41.146305850000005,-8.513812231973976,NC,128.0,2010-07-21T15:00,22.5,50,11.5,21.4,0.0,0.0,0.0,0.0,0,1013.4,998.5,20,0,0,66,0.53,1.37,20.6,26.3,317,320,39.2,29.0,23.4,21.4,17.4,0.128,0.15,0.234,0.359,1,3600.0,788.2,631.1,157.1,780.9,788.2,1070.6,833.0,667.0,166.0,780.9,833.0,1131.5,,,,,,,,,,,,,,,,,,,,,,,,,,,,,,,,,,,,,,,,,,,,,,,,,,,,,,,Magnoliopsida; Eucalyptus L'Hér.; Tracheophyta; Vitis vinifera L.; Pinus pinaster Aiton
2010,2010-04-14,Porto,Gondomar,Fânzeres,RUA MARIA JUSTINA (FANZERES),41.1712712,-8.54277892397772,NC,113.0,2010-04-14T15:00,18.1,56,9.1,15.8,0.0,0.0,0.0,0.0,2,1004.0,990.8,58,38,39,0,0.33,0.92,14.8,20.1,104,105,33.1,17.4,13.7,12.6,11.2,0.33,0.335,0.379,0.412,1,3600.0,498.3,311.7,186.6,441.3,498.3,960.8,534.0,334.0,200.0,441.3,534.0,1029.6,,,,,,,,,,,,,,,,,,,,,,,,,,,,,,,,,,,,,,,,,,,,,,,,,,,,,,,Magnoliopsida; Tracheophyta
2010,2010-07-19,Setúbal,Sesimbra,Quinta do Conde,EN 10 SESIMBRA/LISBOA ANTES DO MODELO (Castelo),38.5726256,-9.049633364542114,NC,28.0,2010-07-19T15:00,27.6,50,16.3,28.7,0.0,0.0,0.0,0.0,0,1017.5,1014.3,0,0,0,0,0.63,1.85,19.0,25.2,307,317,35.3,34.0,24.8,22.4,19.2,0.053,0.066,0.111,0.214,1,3600.0,833.6,724.8,108.8,879.1,833.6,1092.0,881.0,766.0,115.0,879.1,881.0,1154.0,,,,,,,,,,,,,,,,,,,,,,,,,,,,,,,,,,,,,,,,,,,,,,,,,,,,,,,Tracheophyta; Magnoliopsida; Pinus pinaster Aiton
2010,2010-07-03,Braga,Vila Verde,Valdreu,MICHÕES DE BAIXO -(VALDREU) (Mixães de Baixo),41.7263368,-8.316646445788313,NC,254.0,2010-07-03T23:00,20.5,84,17.7,22.2,0.0,0.0,0.0,0.0,1,1019.0,989.4,29,0,0,95,0.0,0.39,7.5,19.1,35,44,24.8,21.1,22.5,19.2,14.6,0.168,0.24,0.317,0.375,0,0.0,0.0,0.0,0.0,0.0,0.0,0.0,0.0,0.0,0.0,0.0,0.0,0.0,,,,,,,,,,,,,,,,,,,,,,,,,,,,,,,,,,,,,,,,,,,,,,,,,,,,,,,Tracheophyta; Eucalyptus L'Hér.; Magnoliopsida; Acacia Mill.; Quercus L.
2010,2010-07-17,Porto,Valongo,Alfena,LG BARREIRO (ALFENA),41.22144345,-8.47176603571262,NC,183.0,2010-07-17T16:00,27.8,41,13.3,27.4,0.0,0.0,0.0,0.0,0,1019.0,998.1,0,0,0,0,0.58,2.21,17.6,22.7,329,333,32.0,30.9,22.7,20.8,16.7,0.12,0.161,0.247,0.358,1,3600.0,692.9,600.5,92.3,871.8,692.9,912.1,758.0,657.0,101.0,871.8,758.0,997.8,,,,,,,,,,,,,,,,,,,,,,,,,,,,,,,,,,,,,,,,,,,,,,,,,,,,,,,Magnoliopsida; Eucalyptus L'Hér.; Tracheophyta; Pinus pinaster Aiton
2010,2010-07-21,Porto,Marco de Canaveses,Penha Longa,REFOJOS (Refojos de Baixo),41.1077811,-8.160269,Desconhecida,344.0,2010-07-21T15:00,22.4,49,11.2,21.8,0.0,0.0,0.0,0.0,0,1013.2,973.8,20,3,0,56,0.51,1.38,15.9,20.7,308,309,41.0,28.8,22.8,20.3,16.1,0.113,0.174,0.264,0.36,1,3600.0,758.4,563.6,194.8,698.7,758.4,1068.5,802.0,596.0,206.0,698.7,802.0,1129.9,,,,,,,,,,,,,,,,,,,,,,,,,,,,,,,,,,,,,,,,,,,,,,,,,,,,,,,Tracheophyta; Magnoliopsida; Pinus pinaster Aiton; Eucalyptus L'Hér.
2010,2010-04-12,Porto,Paredes,Cristelo,Presa do Lobo,41.2363325,-8.3647485,NC,337.0,2010-04-12T14:00,16.5,45,4.5,13.6,0.0,0.0,0.0,0.0,1,1006.1,967.0,38,0,34,59,0.36,1.03,13.0,18.0,90,90,38.5,16.1,12.3,10.4,9.2,0.32,0.345,0.387,0.418,1,3600.0,589.6,350.8,238.7,442.7,589.6,1079.5,610.0,363.0,247.0,442.7,610.0,1116.9,,,,,,,,,,,,,,,,,,,,,,,,,,,,,,,,,,,,,,,,,,,,,,,,,,,,,,,Magnoliopsida; Pinus pinaster Aiton; Eucalyptus L'Hér.; Tracheophyta; Vitis vinifera L.
2010,2010-04-14,Porto,Paredes,Besteiros,L.Sº DOMINGOS (BESTEIROS),41.2086831,-8.336793434705864,NC,186.0,2010-04-14T17:00,16.7,61,9.2,14.4,0.0,0.0,0.0,0.0,2,1003.6,981.9,76,25,49,82,0.18,0.73,14.6,22.3,100,99,37.1,16.1,13.2,11.7,10.3,0.341,0.34,0.379,0.415,1,3600.0,213.1,89.2,123.9,220.6,213.1,550.1,258.0,108.0,150.0,220.6,258.0,666.0,,,,,,,,,,,,,,,,,,,,,,,,,,,,,,,,,,,,,,,,,,,,,,,,,,,,,,,Magnoliopsida; Pinus pinaster Aiton; Eucalyptus L'Hér.; Tracheophyta; Vitis vinifera L.
2010,2010-04-24,Porto,Vila Nova de Gaia,Crestuma,R. ANTº MAGALHAES (Rua de Jose Andrade Magalhaes),41.0672014,-8.51628885774278,NC,167.0,2010-04-24T16:00,17.4,72,12.4,16.1,0.0,0.0,0.0,0.0,1,1018.8,999.0,26,21,2,19,0.24,0.55,14.0,18.1,258,257,30.2,19.2,16.0,13.8,11.4,0.376,0.388,0.388,0.408,1,3600.0,368.0,197.9,170.1,329.8,368.0,811.6,411.0,221.0,190.0,329.8,411.0,906.5,,,,,,,,,,,,,,,,,,,,,,,,,,,,,,,,,,,,,,,,,,,,,,,,,,,,,,,Eucalyptus L'Hér.; Pinus pinaster Aiton; Magnoliopsida; Tracheophyta
2010,2010-04-20,Aveiro,Sever do Vouga,Rocas do Vouga,Ermida,40.72874595,-8.340960555589248,Desconhecida,69.0,2010-04-20T14:00,22.9,47,11.0,21.5,0.0,0.0,0.0,0.0,3,1014.2,1006.2,91,28,81,58,0.39,1.48,12.0,16.3,136,137,30.2,20.7,16.1,14.0,12.0,0.366,0.382,0.374,0.407,1,3600.0,513.4,160.5,352.9,195.7,513.4,1112.0,531.0,166.0,365.0,195.7,531.0,1150.1,,,,,,,,,,,,,,,,,,,,,,,,,,,,,,,,,,,,,,,,,,,,,,,,,,,,,,,Tracheophyta; Magnoliopsida; Eucalyptus L'Hér.
2010,2010-07-19,Porto,Gondomar,São Pedro da Cova,R. ENTRE CAMPOS (SÃO PEDRO DA COVA),41.146305850000005,-8.513812231973976,NC,128.0,2010-07-19T15:00,27.7,51,16.8,28.6,0.0,0.0,0.0,0.0,0,1018.0,1003.3,0,0,0,0,0.62,1.8,20.4,26.7,314,317,38.2,32.4,24.5,21.2,17.3,0.126,0.152,0.237,0.36,1,3600.0,816.8,713.6,103.2,880.4,816.8,1073.5,863.0,754.0,109.0,880.4,863.0,1134.3,,,,,,,,,,,,,,,,,,,,,,,,,,,,,,,,,,,,,,,,,,,,,,,,,,,,,,,Magnoliopsida; Eucalyptus L'Hér.; Tracheophyta; Vitis vinifera L.; Pinus pinaster Aiton
2010,2010-07-04,Lisboa,ODIVELAS,Famões,ENCOSTA DE FAMÕES (Encosta da Sa·de),38.7912413,-9.2108576,Desconhecida,134.0,2010-07-04T13:00,32.4,35,15.1,32.8,0.0,0.0,0.0,0.0,0,1016.5,1001.4,0,0,0,0,0.8,3.14,22.0,29.0,359,7,34.2,32.6,23.0,20.4,17.1,0.126,0.197,0.265,0.344,1,3600.0,955.5,839.4,116.1,875.1,955.5,1269.2,955.0,839.0,116.0,875.1,955.0,1268.5,,,,,,,,,,,,,,,,,,,,,,,,,,,,,,,,,,,,,,,,,,,,,,,,,,,,,,,Pinus pinea L.; Olea europaea L.; Tracheophyta; Magnoliopsida; 
2010,2010-04-12,Portalegre,Gavião,Comenda,JUNTO À ETAR DA COMENDA (COMENDA),39.4136674,-7.799925235643068,Desconhecida,227.0,2010-04-12T15:00,21.6,39,7.0,20.5,0.0,0.0,0.0,0.0,1,1003.3,977.3,21,0,34,2,0.4,1.58,4.7,6.0,293,295,17.6,24.3,16.1,13.1,11.7,0.127,0.214,0.267,0.307,1,3600.0,562.0,407.5,154.5,576.3,562.0,963.1,604.0,438.0,166.0,576.3,604.0,1035.1,,,,,,,,,,,,,,,,,,,,,,,,,,,,,,,,,,,,,,,,,,,,,,,,,,,,,,,Tracheophyta; Olea europaea L.; Magnoliopsida; Pinus pinea L.; Quercus rotundifolia Lam.; Quercus suber L.; Pinus pinaster Aiton; Eucalyptus L'Hér.; 
2010,2010-04-26,Guarda,Fornos de Algodres,Figueiró da Granja,Encostra do Castro (FIGUEIRÓ DA GRANJA),40.6303344,-7.496661450153217,Desconhecida,484.0,2010-04-26T15:00,25.6,43,12.1,27.0,0.0,0.0,0.0,0.0,0,1022.3,967.5,1,0,0,2,0.55,1.88,5.4,7.1,228,225,15.1,25.4,17.6,13.2,10.3,0.33,0.364,0.385,0.394,1,3600.0,746.6,640.2,106.4,871.7,746.6,992.5,800.0,686.0,114.0,871.7,800.0,1063.5,,,,,,,,,,,,,,,,,,,,,,,,,,,,,,,,,,,,,,,,,,,,,,,,,,,,,,,Tracheophyta; Magnoliopsida; Pinus pinaster Aiton; Olea europaea L.; 
2010,2010-04-12,Braga,Guimarães,Mesão Frio,CRUZ D'ARGOLA (Cruz),41.45263235,-8.274040853315277,NC,289.0,2010-04-12T16:00,18.2,41,4.8,15.3,0.0,0.0,0.0,0.0,2,1005.5,972.1,72,0,72,96,0.32,1.23,11.1,16.2,103,102,32.4,17.2,13.3,10.8,9.5,0.313,0.342,0.384,0.42,1,3600.0,434.7,258.7,176.0,460.0,434.7,765.8,489.0,291.0,198.0,460.0,489.0,861.5,,,,,,,,,,,,,,,,,,,,,,,,,,,,,,,,,,,,,,,,,,,,,,,,,,,,,,,Tracheophyta; Magnoliopsida
2010,2010-04-12,Porto,Paredes,Rebordosa,AVª. BOMBEIROS VOLUNTÁRIOS (REBORDOSA),41.2191094,-8.416530009761463,Desconhecida,249.0,2010-04-12T20:00,14.9,49,4.2,12.2,0.0,0.0,0.0,0.0,2,1005.5,976.3,59,0,65,67,0.07,0.87,8.8,21.7,71,79,20.9,14.1,13.9,11.4,10.1,0.329,0.344,0.385,0.415,0,0.0,0.0,0.0,0.0,0.0,0.0,0.0,0.0,0.0,0.0,0.0,0.0,2.5,,,,,,,,,,,,,,,,,,,,,,,,,,,,,,,,,,,,,,,,,,,,,,,,,,,,,,,Magnoliopsida; Pinus pinaster Aiton; Eucalyptus L'Hér.; Tracheophyta; Vitis vinifera L.
2010,2010-05-30,Vila Real,Chaves,São Pedro De Agostém,Vila Nova de Veiga,41.7093016,-7.492719,NC,415.0,2010-05-30T00:00,11.6,96,11.0,11.2,0.0,0.0,0.0,0.0,0,1025.8,976.2,0,0,0,0,0.0,0.06,5.2,10.0,304,311,14.0,13.9,16.4,14.5,11.1,0.281,0.3,0.329,0.39,0,0.0,0.0,0.0,0.0,0.0,0.0,0.0,0.0,0.0,0.0,0.0,0.0,0.0,,,,,,,,,,,,,,,,,,,,,,,,,,,,,,,,,,,,,,,,,,,,,,,,,,,,,,,Vitis vinifera L.; Pinus pinaster Aiton; Magnoliopsida; Tracheophyta
2010,2010-07-09,Faro,Lagos,Lagos (são Sebastião),Telheiro,37.1259776,-8.689132190653574,Desconhecida,3.0,2010-07-09T06:00,19.1,92,17.8,19.7,0.0,0.0,0.0,0.0,0,1018.7,1018.3,12,13,0,0,0.02,0.17,15.1,21.2,357,1,23.8,20.9,24.5,22.8,19.1,0.111,0.144,0.206,0.246,1,0.0,30.6,11.8,18.8,115.2,15.2,135.2,13.0,5.0,8.0,57.2,13.0,57.4,,,,,,,,,,,,,,,,,,,,,,,,,,,,,,,,,,,,,,,,,,,,,,,,,,,,,,,Magnoliopsida; Tracheophyta
2010,2010-04-13,Braga,Fafe,Revelhe,RUA SABUGAL (REVELHE),41.4850642,-8.15906990010636,NC,382.0,2010-04-13T10:00,11.2,53,2.0,6.4,0.0,0.0,0.0,0.0,1,1008.8,963.7,26,0,0,86,0.27,0.62,22.0,31.4,93,93,55.8,11.9,10.7,10.5,9.1,0.315,0.341,0.382,0.419,1,3600.0,665.4,497.1,168.3,725.7,665.4,932.5,601.0,449.0,152.0,725.7,601.0,842.3,,,,,,,,,,,,,,,,,,,,,,,,,,,,,,,,,,,,,,,,,,,,,,,,,,,,,,,Tracheophyta; Magnoliopsida; Vitis vinifera L.; Pinales
2010,2010-04-08,Braga,Fafe,Vinhós,L. carvalho (VINHOS) (VINHÓS),41.4831406,-8.1758748,Desconhecida,398.0,2010-04-08T22:00,8.2,76,4.2,5.5,0.0,0.0,0.0,0.0,0,1022.2,974.2,0,0,0,0,0.01,0.27,9.2,14.1,69,96,17.6,9.5,11.9,9.4,8.9,0.351,0.372,0.402,0.423,0,0.0,0.0,0.0,0.0,0.0,0.0,0.0,0.0,0.0,0.0,0.0,0.0,0.0,,,,,,,,,,,,,,,,,,,,,,,,,,,,,,,,,,,,,,,,,,,,,,,,,,,,,,,Eucalyptus L'Hér.; Magnoliopsida; Pinales; Pinus pinaster Aiton; Vitis vinifera L.; Pinus pinea L.; Tracheophyta
2010,2010-04-28,Lisboa,Sintra,Belas,CARREIRA DE TIRO-DENTRO DAS INSTALAÇÕES GOE (BELAS),38.7756179,-9.2638001,NC,142.0,2010-04-28T11:00,22.5,64,15.3,24.3,0.0,0.0,0.0,0.0,1,1017.3,1000.8,30,0,0,100,0.43,0.99,5.6,8.0,140,144,16.6,22.8,19.0,16.3,14.1,0.309,0.339,0.359,0.364,1,3600.0,717.0,379.2,337.9,448.0,717.0,1142.6,677.0,358.0,319.0,448.0,677.0,1078.8,,,,,,,,,,,,,,,,,,,,,,,,,,,,,,,,,,,,,,,,,,,,,,,,,,,,,,,Pinus pinaster Aiton; Tracheophyta; Pinales; Eucalyptus L'Hér.; Magnoliopsida; 
2010,2010-04-28,Aveiro,Ovar,Válega,Rua da Ascenção - Sargaçal,40.82742785,-8.552567100000001,Desconhecida,84.0,2010-04-28T15:00,26.4,58,17.6,28.6,0.0,0.0,0.0,0.0,1,1015.3,1005.6,40,1,15,100,0.37,1.43,4.1,4.6,315,321,18.0,25.4,19.8,15.5,12.4,0.288,0.326,0.354,0.385,1,3600.0,482.1,181.6,300.5,243.4,482.1,1007.5,515.0,194.0,321.0,243.4,515.0,1076.2,,,,,,,,,,,,,,,,,,,,,,,,,,,,,,,,,,,,,,,,,,,,,,,,,,,,,,,Eucalyptus L'Hér.; Pinus pinaster Aiton; Magnoliopsida
2010,2010-04-11,Porto,Paredes,Gandra,Igreja,41.2018155,-8.4495002,Desconhecida,130.0,2010-04-11T15:00,22.9,38,7.7,22.7,0.0,0.0,0.0,0.0,0,1008.9,993.9,0,0,0,0,0.51,1.75,6.9,8.6,354,360,17.3,20.9,14.5,11.8,10.8,0.33,0.351,0.39,0.416,1,3600.0,727.4,636.9,90.5,914.1,727.4,949.5,780.0,683.0,97.0,914.1,780.0,1018.2,,,,,,,,,,,,,,,,,,,,,,,,,,,,,,,,,,,,,,,,,,,,,,,,,,,,,,,Magnoliopsida; Pinus pinaster Aiton; Eucalyptus L'Hér.; Tracheophyta; Vitis vinifera L.
2010,2010-07-04,Vila Real,Ribeira de Pena,Santo Aleixo De Além-tâmega,SANTO ALEIXO DE ALÉM TÂMEGA,41.55088395,-7.8120785045588,Natural,528.0,2010-07-04T14:00,30.6,43,16.7,34.1,0.0,0.0,0.0,0.0,0,1019.3,960.8,0,0,0,0,0.7,2.48,7.5,9.8,35,36,23.8,30.9,22.2,18.2,13.4,0.169,0.241,0.306,0.373,1,3600.0,899.1,782.3,116.8,868.5,899.1,1191.8,924.0,804.0,120.0,868.5,924.0,1224.9,,,,,,,,,,,,,,,,,,,,,,,,,,,,,,,,,,,,,,,,,,,,,,,,,,,,,,,Tracheophyta; Magnoliopsida; Eucalyptus L'Hér.; Pinus pinaster Aiton
2010,2010-07-21,Porto,Felgueiras,Jugueiros,L.AVELALE (JUGUEIROS),41.3969664,-8.1875708,NC,237.0,2010-07-21T14:00,23.7,47,11.7,24.2,0.0,0.0,0.0,0.0,1,1012.9,985.7,26,7,0,66,0.58,1.56,12.6,15.9,301,303,32.0,30.1,23.3,20.9,16.5,0.104,0.167,0.257,0.355,1,3600.0,846.2,566.8,279.5,636.2,846.2,1180.2,869.0,582.0,287.0,636.2,869.0,1211.9,,,,,,,,,,,,,,,,,,,,,,,,,,,,,,,,,,,,,,,,,,,,,,,,,,,,,,,Magnoliopsida; Eucalyptus L'Hér.; Pinus pinaster Aiton
2010,2010-07-04,Braga,Guimarães,Silvares,GANDRA (SILVARES) (Gandra),41.44506855,-8.339384880388817,NC,132.0,2010-07-04T22:00,25.2,71,19.6,27.6,0.0,0.0,0.0,0.0,0,1018.4,1003.1,0,0,0,0,0.03,0.93,8.4,17.7,20,24,19.4,25.3,25.2,20.1,15.3,0.117,0.203,0.286,0.366,0,0.0,0.0,0.0,0.0,0.0,0.0,0.0,0.0,0.0,0.0,0.0,0.0,0.0,,,,,,,,,,,,,,,,,,,,,,,,,,,,,,,,,,,,,,,,,,,,,,,,,,,,,,,Tracheophyta; Magnoliopsida; Eucalyptus L'Hér.; Quercus L.; Pinus pinaster Aiton
2010,2010-04-12,Porto,Gondomar,Jovim,TRAVESSA NOVA DA FEITEIRA (Vale Travessas),41.1069301,-8.5093383,NC,165.0,2010-04-12T16:00,18.7,45,6.5,15.9,0.0,0.0,0.0,0.0,2,1005.0,985.8,62,0,76,53,0.32,1.19,13.1,18.2,74,76,26.6,18.2,14.5,12.3,10.9,0.325,0.343,0.385,0.413,1,3600.0,428.7,306.0,122.7,540.5,428.7,771.0,482.0,344.0,138.0,540.5,482.0,866.9,,,,,,,,,,,,,,,,,,,,,,,,,,,,,,,,,,,,,,,,,,,,,,,,,,,,,,,Eucalyptus L'Hér.; Vitis vinifera L.; Tracheophyta; Magnoliopsida
2010,2010-04-28,Porto,Paços de Ferreira,Freamunde,LUGAR DE TALHÔ (Lugar de Vila),41.2885918,-8.3401591,NC,357.0,2010-04-28T17:00,23.9,55,14.4,24.7,0.0,0.0,0.0,0.0,1,1015.1,974.4,36,0,10,100,0.22,1.33,4.9,8.9,343,346,13.7,22.0,17.8,13.1,9.8,0.303,0.339,0.367,0.407,1,2966.98,255.6,70.6,185.0,158.9,255.6,600.0,304.0,84.0,220.0,158.9,304.0,713.6,,,,,,,,,,,,,,,,,,,,,,,,,,,,,,,,,,,,,,,,,,,,,,,,,,,,,,,Tracheophyta; Eucalyptus L'Hér.; Magnoliopsida; Pinus pinaster Aiton; 
2010,2010-07-19,Viana do Castelo,Viana do Castelo,Mujães,Mamua,41.6587624,-8.7124886,Desconhecida,74.0,2010-07-19T16:00,25.8,61,17.6,25.6,0.0,0.0,0.0,0.0,0,1018.4,1009.8,0,0,0,0,0.49,1.3,25.5,34.7,327,329,48.6,30.9,24.4,21.1,17.2,0.11,0.17,0.259,0.355,1,3600.0,672.2,576.2,96.0,838.1,672.2,910.4,735.0,630.0,105.0,838.1,735.0,995.5,,,,,,,,,,,,,,,,,,,,,,,,,,,,,,,,,,,,,,,,,,,,,,,,,,,,,,,Magnoliopsida; Tracheophyta; Eucalyptus L'Hér.
2010,2010-04-26,Bragança,Bragança,Gimonde,GIMONDE,41.8003892,-6.693407,NC,513.0,2010-04-26T17:00,24.1,44,11.2,23.7,0.0,0.0,0.0,0.0,0,1022.2,964.0,2,0,0,5,0.32,1.67,5.8,7.6,270,270,15.8,22.3,16.8,12.0,9.2,0.346,0.366,0.367,0.395,1,3600.0,400.5,332.4,68.1,795.2,400.5,564.9,482.0,400.0,82.0,795.2,482.0,679.7,,,,,,,,,,,,,,,,,,,,,,,,,,,,,,,,,,,,,,,,,,,,,,,,,,,,,,,Tracheophyta; Quercus L.; Magnoliopsida
2010,2010-07-04,Lisboa,ODIVELAS,Famões,QUINTA DAS PELES (Azinhaga Quinta Feiteira),38.7912413,-9.2108576,Desconhecida,134.0,2010-07-04T23:00,22.5,68,16.3,20.8,0.0,0.0,0.0,0.0,0,1016.5,1000.9,0,0,0,0,0.1,0.87,26.7,43.0,4,9,45.4,23.5,24.4,20.5,17.1,0.125,0.196,0.265,0.343,0,0.0,0.0,0.0,0.0,0.0,0.0,0.0,0.0,0.0,0.0,0.0,0.0,0.0,,,,,,,,,,,,,,,,,,,,,,,,,,,,,,,,,,,,,,,,,,,,,,,,,,,,,,,Pinus pinea L.; Olea europaea L.; Tracheophyta; Magnoliopsida; 
2010,2010-04-28,Porto,Marco de Canaveses,Paços de Gaiolo,Leiras dos Rossos - Silvares,41.1022563,-8.1114297,Desconhecida,213.0,2010-04-28T17:00,25.7,55,16.0,27.0,0.0,0.0,0.0,0.0,1,1015.1,990.7,36,0,10,100,0.23,1.48,4.9,8.9,343,346,13.7,23.1,18.8,14.0,10.7,0.32,0.348,0.375,0.407,1,2978.83,255.2,70.5,184.7,159.3,255.2,597.7,304.0,84.0,220.0,159.3,304.0,711.9,,,,,,,,,,,,,,,,,,,,,,,,,,,,,,,,,,,,,,,,,,,,,,,,,,,,,,,Magnoliopsida; Pinus pinaster Aiton; Tracheophyta; Quercus suber L.; Vitis vinifera L.; Eucalyptus L'Hér.; Olea europaea L.; 
2010,2010-07-05,Porto,Marco de Canaveses,Vila Boa de Quires,Vilarelho,41.2028475,-8.2047635,NC,275.0,2010-07-05T10:00,29.6,48,17.4,31.7,0.0,0.0,0.0,0.0,0,1019.7,988.6,0,0,0,0,0.53,2.15,9.7,12.6,94,93,30.2,27.9,22.9,19.5,14.6,0.134,0.213,0.289,0.368,1,3600.0,762.0,652.3,109.8,824.5,762.0,1046.7,701.0,600.0,101.0,824.5,701.0,962.8,,,,,,,,,,,,,,,,,,,,,,,,,,,,,,,,,,,,,,,,,,,,,,,,,,,,,,,Pinus pinaster Aiton; Tracheophyta; Eucalyptus L'Hér.; Magnoliopsida; Vitis vinifera L.; Quercus L.; Pinales; 
2010,2010-07-19,Porto,Penafiel,Boelhe,TAMARGA (BUSTÊLO),41.130499,-8.2408074,Desconhecida,219.0,2010-07-19T17:00,28.0,50,16.6,28.3,0.0,0.0,0.0,0.0,0,1017.1,992.2,0,0,0,0,0.45,1.89,14.7,19.8,301,303,36.0,32.3,25.2,20.9,16.7,0.108,0.176,0.267,0.361,1,3600.0,503.1,422.3,80.8,798.6,503.1,700.3,579.0,486.0,93.0,798.6,579.0,806.0,,,,,,,,,,,,,,,,,,,,,,,,,,,,,,,,,,,,,,,,,,,,,,,,,,,,,,,Magnoliopsida; Tracheophyta; Vitis vinifera L.; Eucalyptus L'Hér.
2010,2010-07-19,Aveiro,Albergaria-a-Velha,Frossos,Marridas,40.6642482,-8.5351906,Desconhecida,68.0,2010-07-19T17:00,26.0,56,16.4,24.2,0.0,0.0,0.0,0.0,0,1018.3,1010.4,1,1,0,0,0.44,1.49,28.2,37.7,330,333,49.7,32.4,25.1,21.8,18.0,0.068,0.099,0.157,0.27,1,3600.0,510.1,427.6,82.6,803.6,510.1,704.6,587.0,492.0,95.0,803.6,587.0,810.8,,,,,,,,,,,,,,,,,,,,,,,,,,,,,,,,,,,,,,,,,,,,,,,,,,,,,,,Eucalyptus L'Hér.; Magnoliopsida; Tracheophyta; Pinus pinaster Aiton; Acacia Mill.; 
2010,2010-07-19,Lisboa,ODIVELAS,Famões,FAMÕES LARGO DO MOINHO (FIAIS DA BEIRA),38.7912413,-9.2108576,Desconhecida,134.0,2010-07-19T19:00,20.4,73,15.4,17.6,0.0,0.0,0.0,0.0,0,1018.5,1002.8,0,0,0,0,0.16,0.64,31.7,43.8,341,342,52.9,24.6,23.7,21.4,18.3,0.121,0.181,0.25,0.338,1,3600.0,130.3,92.6,37.7,550.3,130.3,222.8,204.0,145.0,59.0,550.3,204.0,349.0,,,,,,,,,,,,,,,,,,,,,,,,,,,,,,,,,,,,,,,,,,,,,,,,,,,,,,,Pinus pinea L.; Olea europaea L.; Tracheophyta; Magnoliopsida; 
2010,2010-07-21,Porto,Paredes,Beire,RUA CIRCULAR VENDA NOVA (SOBROSA),41.2451216,-8.3240436,NC,192.0,2010-07-21T18:00,21.3,53,11.4,19.3,0.0,0.0,0.0,0.0,1,1012.6,990.3,29,0,0,98,0.27,1.19,16.3,22.4,315,318,36.7,26.6,23.7,20.9,16.7,0.124,0.162,0.248,0.357,1,3600.0,294.5,198.7,95.8,565.0,294.5,466.0,369.0,249.0,120.0,565.0,369.0,583.9,,,,,,,,,,,,,,,,,,,,,,,,,,,,,,,,,,,,,,,,,,,,,,,,,,,,,,,Magnoliopsida; Pinus pinaster Aiton; Eucalyptus L'Hér.; Tracheophyta; Vitis vinifera L.
2010,2010-05-01,Braga,Fafe,Arões (Santa Cristina),SOUTO NOVO( AROES STA CRISTINA) (Cima do Souto),41.44350545,-8.215506883666407,NC,276.0,2010-05-01T19:00,14.8,78,11.0,13.9,0.0,0.0,0.0,0.0,1,1015.8,983.2,35,7,0,97,0.06,0.38,8.7,16.1,294,304,29.9,16.9,16.2,14.1,10.5,0.289,0.318,0.355,0.405,1,3600.0,49.5,22.7,26.8,260.4,49.5,105.8,109.0,50.0,59.0,289.2,109.0,233.0,,,,,,,,,,,,,,,,,,,,,,,,,,,,,,,,,,,,,,,,,,,,,,,,,,,,,,,Eucalyptus L'Hér.; Tracheophyta; Pinales; Magnoliopsida
2010,2010-07-21,Porto,Baião,Loivos da Ribeira,Costa,41.14169,-7.9213587,Desconhecida,210.0,2010-07-21T18:00,22.6,50,11.8,20.8,0.0,0.0,0.0,0.0,1,1012.6,988.4,29,0,0,98,0.28,1.36,16.3,22.4,315,318,36.7,28.5,25.0,21.7,17.2,0.103,0.171,0.259,0.357,1,3600.0,293.8,198.2,95.5,569.2,293.8,461.4,369.0,249.0,120.0,569.2,369.0,579.5,,,,,,,,,,,,,,,,,,,,,,,,,,,,,,,,,,,,,,,,,,,,,,,,,,,,,,,Tracheophyta; Vitis vinifera L.; Eucalyptus L'Hér.; Magnoliopsida; Pinus pinaster Aiton; 
2010,2010-05-09,Bragança,Bragança,Calvelhe,CALVELHE,41.6053227,-6.7083092,NC,660.0,2010-05-09T01:00,9.0,97,8.6,6.5,0.6,0.6,0.0,0.0,53,1001.8,925.4,100,94,26,5,0.0,0.03,14.6,27.1,189,191,34.2,9.9,10.9,11.1,8.9,0.401,0.3,0.324,0.397,0,0.0,0.0,0.0,0.0,0.0,0.0,0.0,0.0,0.0,0.0,0.0,0.0,0.0,,,,,,,,,,,,,,,,,,,,,,,,,,,,,,,,,,,,,,,,,,,,,,,,,,,,,,,Tracheophyta; Magnoliopsida; Olea europaea L.; Castanea sativa Mill.
2010,2010-07-19,Lisboa,Torres Vedras,Campelos,CAMPELOS,39.1919559,-9.23317479665106,Desconhecida,97.0,2010-07-19T20:00,18.6,84,15.8,16.3,0.0,0.0,0.0,0.0,0,1019.2,1007.7,4,4,0,0,0.06,0.35,28.8,41.0,344,345,49.7,23.3,24.4,22.0,18.5,0.082,0.16,0.231,0.312,1,1894.92,0.0,0.0,0.0,0.0,0.0,0.0,45.0,24.0,21.0,196.9,45.0,103.3,,,,,,,,,,,,,,,,,,,,,,,,,,,,,,,,,,,,,,,,,,,,,,,,,,,,,,,Eucalyptus L'Hér.; Tracheophyta; Magnoliopsida; Vitis vinifera L.; Olea europaea L.; Pinus pinaster Aiton; Pinus pinea L.; 
2010,2010-04-14,Braga,Celorico de Basto,Basto (São Clemente),BARROSINHO(BASTO S. CLEMENTE) (Barrocas),41.479005,-8.061231,NC,613.0,2010-04-14T00:00,9.2,46,-1.8,4.8,0.1,0.1,0.0,0.0,51,1008.8,937.2,80,0,84,97,0.06,0.63,13.8,27.8,83,85,48.2,9.3,11.0,9.6,8.0,0.315,0.341,0.381,0.419,0,0.0,0.0,0.0,0.0,0.0,0.0,0.0,0.0,0.0,0.0,0.0,0.0,0.0,,,,,,,,,,,,,,,,,,,,,,,,,,,,,,,,,,,,,,,,,,,,,,,,,,,,,,,Magnoliopsida; Pinus pinaster Aiton; Tracheophyta; Pinales
2010,2010-05-02,Vila Real,Peso da Régua,Vinhós,LUGAR DA RANHA,41.224854,-7.8384052,NC,636.0,2010-05-02T12:00,15.6,55,6.5,14.9,0.0,0.0,0.0,0.0,1,1015.6,942.5,43,43,0,14,0.44,0.81,9.4,11.8,328,329,26.3,17.6,13.4,12.5,8.8,0.324,0.335,0.366,0.404,1,3600.0,825.3,597.3,228.1,667.5,825.3,1205.6,807.0,584.0,223.0,667.5,807.0,1178.8,,,,,,,,,,,,,,,,,,,,,,,,,,,,,,,,,,,,,,,,,,,,,,,,,,,,,,,Magnoliopsida; Tracheophyta; Pinus pinaster Aiton; Olea europaea L.; Pinales; Vitis vinifera L.
2010,2010-05-03,Braga,Póvoa de Lanhoso,Serzedelo,L.(SERZEDELO)* (SERZEDELO),41.6178987,-8.2223489,NC,505.0,2010-05-03T14:00,14.1,43,1.7,10.8,0.0,0.0,0.0,0.0,1,1017.9,958.9,29,14,28,0,0.41,0.92,18.0,24.9,357,358,51.5,16.5,12.7,12.8,9.5,0.284,0.318,0.356,0.405,1,3600.0,751.7,482.8,269.0,571.7,751.7,1137.1,777.0,499.0,278.0,571.7,777.0,1175.3,,,,,,,,,,,,,,,,,,,,,,,,,,,,,,,,,,,,,,,,,,,,,,,,,,,,,,,Pinus pinaster Aiton; Magnoliopsida; Tracheophyta; Eucalyptus L'Hér.
2010,2010-05-30,Setúbal,Setúbal,São Lourenço,"QUINTA PORTO DA VILA, ALDEIA DE IRMAOS (Central Elevatória Quinta do Perú)",38.5173977,-9.023164032092405,NC,90.0,2010-05-30T18:00,23.0,63,15.6,21.8,0.0,0.0,0.0,0.0,0,1023.1,1012.5,0,0,0,0,0.27,1.04,21.5,30.6,339,342,46.4,28.4,22.6,19.1,16.2,0.051,0.121,0.167,0.253,1,3600.0,289.8,226.2,63.6,669.6,289.8,449.6,369.0,288.0,81.0,669.6,369.0,572.6,,,,,,,,,,,,,,,,,,,,,,,,,,,,,,,,,,,,,,,,,,,,,,,,,,,,,,,Magnoliopsida; Tracheophyta; Quercus suber L.; Pinus pinea L.; Pinus pinaster Aiton; Vitis vinifera L.
2010,2010-05-30,Aveiro,Águeda,Macinhata do Vouga,Serem (MACINHATA DO VOUGA),40.6553986,-8.4535347,Desconhecida,53.0,2010-05-30T20:00,19.9,85,17.3,19.6,0.0,0.0,0.0,0.0,0,1024.4,1018.1,0,0,0,0,0.04,0.36,19.6,30.6,347,351,37.1,21.8,20.8,17.4,14.3,0.125,0.167,0.217,0.305,0,1466.63,0.0,0.0,0.0,0.0,0.0,0.0,37.0,19.0,18.0,166.6,37.0,92.8,,,,,,,,,,,,,,,,,,,,,,,,,,,,,,,,,,,,,,,,,,,,,,,,,,,,,,,Tracheophyta; Magnoliopsida; Eucalyptus L'Hér.; Pinus pinaster Aiton
2010,2010-06-29,Porto,Amarante,Candemil,CORBA CHA (Senhora da Corba Chã),41.2473904,-7.9681332,NC,430.0,2010-06-29T12:00,27.7,48,15.6,31.6,0.0,0.0,0.0,0.0,0,1020.1,971.7,0,0,0,0,0.62,1.93,1.1,1.3,18,34,17.3,28.0,21.2,18.0,13.6,0.216,0.239,0.296,0.372,1,3600.0,895.6,760.5,135.1,806.7,895.6,1247.5,875.0,743.0,132.0,806.7,875.0,1218.9,,,,,,,,,,,,,,,,,,,,,,,,,,,,,,,,,,,,,,,,,,,,,,,,,,,,,,,Magnoliopsida; Quercus L.; Tracheophyta; Eucalyptus L'Hér.; Pinus pinaster Aiton; 
2010,2010-05-05,Braga,Póvoa de Lanhoso,Covelas,RITA(COVELAS) (Rita),41.5936786,-8.3311061,NC,245.0,2010-05-05T23:00,8.7,70,3.5,5.9,0.0,0.0,0.0,0.0,0,1013.2,983.6,0,0,0,0,0.01,0.34,8.4,21.6,59,60,20.5,10.9,13.8,13.4,11.0,0.245,0.297,0.347,0.402,0,0.0,0.0,0.0,0.0,0.0,0.0,0.0,0.0,0.0,0.0,0.0,0.0,0.0,,,,,,,,,,,,,,,,,,,,,,,,,,,,,,,,,,,,,,,,,,,,,,,,,,,,,,,Pinus pinaster Aiton; Tracheophyta; Magnoliopsida; Eucalyptus L'Hér.; Pinus pinea L.
2010,2010-04-14,Porto,Santo Tirso,Negrelos (são Mamede),MONTINHO (Monte),41.3543686,-8.3651932,NC,167.0,2010-04-14T15:00,17.2,56,8.2,14.5,0.0,0.0,0.0,0.0,2,1004.3,984.8,63,48,32,1,0.33,0.87,15.6,21.2,109,108,38.5,16.5,12.9,11.8,10.3,0.328,0.339,0.38,0.417,1,3600.0,518.7,321.9,196.9,457.2,518.7,957.8,556.0,345.0,211.0,457.2,556.0,1026.6,,,,,,,,,,,,,,,,,,,,,,,,,,,,,,,,,,,,,,,,,,,,,,,,,,,,,,,Magnoliopsida; Tracheophyta; Vitis vinifera L.
2010,2010-07-19,Lisboa,Loures,Camarate,CASAL VALE MOGOS (Bairro Novo Casal da Serra),38.8031305,-9.1309898,Desconhecida,122.0,2010-07-19T23:00,17.8,82,14.7,15.1,0.0,0.0,0.0,0.0,0,1019.0,1004.5,2,2,0,0,0.05,0.37,28.9,42.9,341,343,48.6,22.0,23.9,22.8,21.0,0.238,0.28,0.321,0.366,0,0.0,0.0,0.0,0.0,0.0,0.0,0.0,0.0,0.0,0.0,0.0,0.0,0.0,,,,,,,,,,,,,,,,,,,,,,,,,,,,,,,,,,,,,,,,,,,,,,,,,,,,,,,Tracheophyta; Olea europaea L.; Magnoliopsida; 
2010,2010-07-09,Porto,Valongo,Alfena,RUA VALE MARINHAS (ALFENA),41.22144345,-8.47176603571262,NC,183.0,2010-07-09T19:00,21.9,70,16.1,21.7,0.0,0.0,0.0,0.0,0,1020.7,999.3,0,0,0,0,0.16,0.79,15.5,21.4,316,319,32.8,26.9,25.4,21.5,15.9,0.135,0.172,0.258,0.363,1,3600.0,145.4,104.3,41.1,557.4,145.4,247.6,216.0,155.0,61.0,557.4,216.0,367.9,,,,,,,,,,,,,,,,,,,,,,,,,,,,,,,,,,,,,,,,,,,,,,,,,,,,,,,Magnoliopsida; Eucalyptus L'Hér.; Tracheophyta; Pinus pinaster Aiton
2010,2010-07-20,Setúbal,Palmela,Quinta do Anjo,QTA DA MARQUESA I-ANTES DA AUTOEUROPA (Quinta da Marquesa),38.5674568,-8.9418673,NC,95.0,2010-07-20T00:00,17.9,79,14.3,16.0,0.0,0.0,0.0,0.0,0,1018.4,1007.1,5,6,0,0,0.04,0.43,22.5,37.8,338,341,41.4,20.1,24.9,22.2,18.7,0.056,0.06,0.093,0.208,0,0.0,0.0,0.0,0.0,0.0,0.0,0.0,0.0,0.0,0.0,0.0,0.0,0.0,,,,,,,,,,,,,,,,,,,,,,,,,,,,,,,,,,,,,,,,,,,,,,,,,,,,,,,Vitis vinifera L.; Tracheophyta; Olea europaea L.; Quercus suber L.
2010,2010-06-29,Viseu,Viseu,Couto de Cima,Sequeiros,40.6744218,-8.0119608,Natural,456.0,2010-06-29T15:00,29.5,40,14.5,31.2,0.0,0.0,0.0,0.0,0,1019.2,968.3,10,0,16,0,0.58,2.48,7.4,8.9,317,320,19.1,30.2,22.9,18.5,14.1,0.195,0.233,0.291,0.369,1,3600.0,723.5,586.4,137.1,715.0,723.5,1085.2,765.0,620.0,145.0,715.0,765.0,1147.5,,,,,,,,,,,,,,,,,,,,,,,,,,,,,,,,,,,,,,,,,,,,,,,,,,,,,,,Pinus pinaster Aiton; Magnoliopsida; Tracheophyta; Eucalyptus L'Hér.
2010,2010-04-27,Porto,Santo Tirso,Monte Córdova,LG. ROXINAS (MONTE CORDOVA),41.3152366,-8.441914383653845,NC,372.0,2010-04-27T18:00,22.7,60,14.7,23.6,0.0,0.0,0.0,0.0,1,1020.0,977.3,30,0,1,99,0.17,1.09,4.5,9.4,284,293,13.7,21.3,17.5,12.7,9.6,0.313,0.347,0.369,0.408,1,3600.0,184.3,85.9,98.4,334.7,184.3,346.7,251.0,117.0,134.0,334.7,251.0,472.2,,,,,,,,,,,,,,,,,,,,,,,,,,,,,,,,,,,,,,,,,,,,,,,,,,,,,,,Pinus pinaster Aiton; Tracheophyta; Vitis vinifera L.; Eucalyptus L'Hér.; Magnoliopsida
2010,2010-06-29,Lisboa,Sintra,Pêro Pinheiro,CASAL GOSMOS (Casal Alentejano),38.83977325,-9.319917216660787,Desconhecida,145.0,2010-06-29T15:00,24.7,60,16.4,25.0,0.0,0.0,0.0,0.0,0,1018.7,1001.9,0,0,0,0,0.56,1.25,23.6,31.6,339,343,38.2,28.1,21.9,19.2,16.7,0.14,0.209,0.272,0.349,1,3600.0,837.4,730.4,107.0,874.6,837.4,1105.1,884.0,771.0,113.0,874.6,884.0,1166.6,,,,,,,,,,,,,,,,,,,,,,,,,,,,,,,,,,,,,,,,,,,,,,,,,,,,,,,Tracheophyta; Magnoliopsida; Pinus pinaster Aiton; Eucalyptus L'Hér.; Vitis vinifera L.; 
2010,2010-07-20,Setúbal,Almada,Sobreda,VALE DE FIGUEIRA - JUNTO BAIRRO FUNDO FUMENTO (Alto do Vale de Rosal),38.6220343,-9.1905996,NC,61.0,2010-07-20T03:00,17.6,87,15.4,15.2,0.0,0.0,0.0,0.0,0,1017.7,1010.4,16,18,0,0,0.03,0.26,29.4,45.8,341,342,48.6,18.5,23.2,21.9,18.9,0.052,0.075,0.127,0.236,0,0.0,0.0,0.0,0.0,0.0,0.0,0.0,0.0,0.0,0.0,0.0,0.0,0.0,,,,,,,,,,,,,,,,,,,,,,,,,,,,,,,,,,,,,,,,,,,,,,,,,,,,,,,Tracheophyta; Magnoliopsida; Pinus pinaster Aiton; Pinales; Eucalyptus L'Hér.
2010,2010-07-05,Bragança,Mirandela,Mirandela,MIRANDELA,41.47803215,-7.180141898960005,NC,236.0,2010-07-05T16:00,35.1,32,15.8,36.7,0.0,0.0,0.0,0.0,0,1018.2,992.0,0,0,0,0,0.62,3.85,9.8,12.4,28,30,25.9,36.2,27.3,21.1,15.3,0.155,0.21,0.257,0.361,1,3600.0,662.6,568.6,94.0,829.7,662.6,906.8,726.0,623.0,103.0,829.7,726.0,993.5,,,,,,,,,,,,,,,,,,,,,,,,,,,,,,,,,,,,,,,,,,,,,,,,,,,,,,,Tracheophyta; Magnoliopsida; Olea europaea L.; Pinus pinaster Aiton
