year,date,district,municipality,parish,local,latitude,longitude,cause,elevation,hourly.time,hourly.temperature_2m,hourly.relative_humidity_2m,hourly.dew_point_2m,hourly.apparent_temperature,hourly.precipitation,hourly.rain,hourly.snowfall,hourly.snow_depth,hourly.weather_code,hourly.pressure_msl,hourly.surface_pressure,hourly.cloud_cover,hourly.cloud_cover_low,hourly.cloud_cover_mid,hourly.cloud_cover_high,hourly.et0_fao_evapotranspiration,hourly.vapour_pressure_deficit,hourly.wind_speed_10m,hourly.wind_speed_100m,hourly.wind_direction_10m,hourly.wind_direction_100m,hourly.wind_gusts_10m,hourly.soil_temperature_0_to_7cm,hourly.soil_temperature_7_to_28cm,hourly.soil_temperature_28_to_100cm,hourly.soil_temperature_100_to_255cm,hourly.soil_moisture_0_to_7cm,hourly.soil_moisture_7_to_28cm,hourly.soil_moisture_28_to_100cm,hourly.soil_moisture_100_to_255cm,hourly.is_day,hourly.sunshine_duration,hourly.shortwave_radiation_instant,hourly.direct_radiation_instant,hourly.diffuse_radiation_instant,hourly.direct_normal_irradiance_instant,hourly.global_tilted_irradiance_instant,hourly.terrestrial_radiation_instant,hourly.shortwave_radiation,hourly.direct_radiation,hourly.diffuse_radiation,hourly.direct_normal_irradiance,hourly.global_tilted_irradiance,hourly.terrestrial_radiation2010,2010-02-14,Porto,Vila Nova de Gaia,Oliveira do Douro,Monte da Virgem,41.11258085,-8.597501604999291,NC,206.0,2010-02-14T17:00,8.1,49,-2.0,3.8,0.0,0.0.1,0.0.2,0.0.3,3,1004.1,979.3,85,0,92,100,0.11,0.55,12.6,21.6,87,93,31.7,7.4,5.6,8.5,11.5,0.371,0.382,0.389,0.411,1,3600.0,128.9,47.4,81.6,253.2,128.9.1,262.6,185.0,68.0,117.0,253.2.1,185.0.1,376.8,scientificNames
2010,2010-08-09,Porto,Gondomar,Foz do Sousa,Esposade,41.0772166,-8.4937951,NC,95.0,2010-08-09T19:00,29.1,44,15.7,29.6,0.0,0.0,0.0,0.0,0,1014.8,1004.0,8,0,14,0,0.17,2.24,9.9,16.1,327,333,22.0,32.3,28.9,24.2,19.2,0.114,0.136,0.196,0.345,1,3600.0,80.9,55.4,25.5,491.5,80.9,150.0,149.0,102.0,47.0,491.5,149.0,276.2,,,,,,,,,,,,,,,,,,,,,,,,,,,,,,,,,,,,,,,,,,,,,,,,,,,,,,,Eucalyptus L'Hér.; Magnoliopsida; Pinus pinaster Aiton; Tracheophyta
2010,2010-08-16,Porto,Santo Tirso,Roriz,LG. COSTA (AVES),41.3515405,-8.3829071,NC,220.0,2010-08-16T14:00,29.6,27,8.5,30.3,0.0,0.0,0.0,0.0,0,1016.0,991.1,0,0,0,0,0.66,3.04,6.8,8.5,3,12,19.8,33.7,25.2,23.3,18.7,0.102,0.142,0.216,0.335,1,3600.0,858.9,758.0,100.9,903.4,858.9,1119.3,885.0,781.0,104.0,903.4,885.0,1153.3,,,,,,,,,,,,,,,,,,,,,,,,,,,,,,,,,,,,,,,,,,,,,,,,,,,,,,,Magnoliopsida; Tracheophyta; Vitis vinifera L.; Quercus suber L.
2010,2010-08-16,Viana do Castelo,Viana do Castelo,Carvoeiro,CARVOEIRO,41.6509939,-8.6789766,Desconhecida,95.0,2010-08-16T10:00,24.4,42,10.8,24.0,0.0,0.0,0.0,0.0,0,1017.4,1006.4,0,0,0,0,0.43,1.76,7.6,8.8,355,12,20.2,26.6,23.7,23.2,19.3,0.097,0.141,0.215,0.334,1,3600.0,697.1,594.5,102.6,831.2,697.1,954.1,632.0,539.0,93.0,831.2,632.0,865.0,,,,,,,,,,,,,,,,,,,,,,,,,,,,,,,,,,,,,,,,,,,,,,,,,,,,,,,Tracheophyta; Eucalyptus L'Hér.; Magnoliopsida; Vitis vinifera L.; Pinus pinaster Aiton; Quercus suber L.
2010,2010-08-13,Aveiro,Vale de Cambra,Arões,Agualva,40.800236,-8.298029,Desconhecida,488.0,2010-08-13T16:00,28.6,25,6.9,27.1,0.0,0.0,0.0,0.0,0,1013.7,959.5,0,0,0,0,0.54,2.92,10.6,13.8,18,20,32.4,33.5,25.7,23.6,18.5,0.099,0.141,0.217,0.338,1,3600.0,628.9,544.1,84.8,863.0,628.9,840.1,697.0,603.0,94.0,863.0,697.0,931.1,,,,,,,,,,,,,,,,,,,,,,,,,,,,,,,,,,,,,,,,,,,,,,,,,,,,,,,Magnoliopsida; Pinus pinaster Aiton; Tracheophyta; Eucalyptus L'Hér.; Vitis vinifera L.
2010,2010-08-19,Santarém,Vila Nova da Barquinha,Tancos,ALMOUROL,39.4593164,-8.3995322,NC,44.0,2010-08-19T07:00,17.4,90,15.8,17.5,0.0,0.0,0.0,0.0,1,1013.4,1008.2,32,36,0,0,0.03,0.19,12.6,20.7,333,337,22.7,18.2,25.5,25.8,22.0,0.044,0.061,0.098,0.216,1,2621.9,115.7,60.6,55.1,280.5,94.3,288.4,63.0,33.0,30.0,228.6,63.0,157.1,,,,,,,,,,,,,,,,,,,,,,,,,,,,,,,,,,,,,,,,,,,,,,,,,,,,,,,Tracheophyta; Eucalyptus L'Hér.; Magnoliopsida; Olea europaea L.; 
2010,2010-08-09,Porto,Marco de Canaveses,Constance,LONGRA (BANHO E CARVALHOSA),41.2168471,-8.1556764,NC,132.0,2010-08-09T21:00,28.2,52,17.4,29.9,0.0,0.0,0.0,0.0,0,1015.6,1000.5,12,0,20,0,0.04,1.84,6.2,9.7,350,4,15.1,29.5,29.0,24.2,19.0,0.101,0.145,0.227,0.342,0,0.0,0.0,0.0,0.0,0.0,0.0,0.0,0.0,0.0,0.0,0.0,0.0,0.0,,,,,,,,,,,,,,,,,,,,,,,,,,,,,,,,,,,,,,,,,,,,,,,,,,,,,,,Vitis vinifera L.; Tracheophyta; Pinus pinaster Aiton; Magnoliopsida; Eucalyptus L'Hér.; ; Pinales
2010,2010-08-29,Lisboa,Cascais,Alcabideche,ADROANA JNT AO RECINTO DA FEIRA (Adroana),38.7395866,-9.388896980082684,Desconhecida,118.0,2010-08-29T03:00,19.0,90,17.2,19.3,0.0,0.0,0.0,0.0,0,1014.8,1000.9,0,0,0,0,0.01,0.23,15.5,27.4,342,346,24.1,19.3,23.2,22.5,20.5,0.078,0.119,0.174,0.277,0,0.0,0.0,0.0,0.0,0.0,0.0,0.0,0.0,0.0,0.0,0.0,0.0,0.0,,,,,,,,,,,,,,,,,,,,,,,,,,,,,,,,,,,,,,,,,,,,,,,,,,,,,,,Tracheophyta; Eucalyptus L'Hér.; Magnoliopsida; Pinus pinea L.; Pinus pinaster Aiton; Pinales; Vitis vinifera L.; 
2010,2010-08-29,Porto,Santo Tirso,Monte Córdova,LG. CAPELA (SEQUEIRO),41.3164414,-8.4320306,NC,357.0,2010-08-29T04:00,16.5,83,13.5,16.3,0.0,0.0,0.0,0.0,0,1015.9,974.2,0,0,0,0,0.01,0.32,9.3,15.5,74,95,20.2,18.0,22.6,21.8,19.0,0.12,0.139,0.206,0.328,0,0.0,0.0,0.0,0.0,0.0,0.0,0.0,0.0,0.0,0.0,0.0,0.0,0.0,,,,,,,,,,,,,,,,,,,,,,,,,,,,,,,,,,,,,,,,,,,,,,,,,,,,,,,Tracheophyta; Vitis vinifera L.; Eucalyptus L'Hér.; Pinus pinaster Aiton; Magnoliopsida
2010,2010-08-12,Vila Real,Valpaços,Carrazedo de Montenegro,Cubo,41.5630537,-7.4312139,NC,747.0,2010-08-12T14:00,27.1,31,8.7,26.6,0.0,0.0,0.0,0.0,0,1017.3,935.1,1,1,0,0,0.65,2.46,13.4,17.0,354,354,38.9,32.3,24.6,22.1,16.8,0.124,0.142,0.208,0.346,1,3600.0,837.8,684.6,153.2,810.8,837.8,1124.8,864.0,706.0,158.0,810.8,864.0,1159.9,,,,,,,,,,,,,,,,,,,,,,,,,,,,,,,,,,,,,,,,,,,,,,,,,,,,,,,Castanea sativa Mill.; Tracheophyta; Pinus pinaster Aiton; Magnoliopsida
2010,2010-08-11,Setúbal,Seixal,Aldeia de Paio Pires,BAIRRO DA CUCENA (Bairro 1º de Maio),38.6119995,-9.07313725926883,NC,5.0,2010-08-11T22:00,25.1,38,9.8,22.4,0.0,0.0,0.0,0.0,0,1017.9,1017.3,0,0,0,0,0.17,1.98,18.7,30.7,360,3,32.4,27.8,30.3,24.9,21.0,0.053,0.065,0.106,0.22,0,0.0,0.0,0.0,0.0,0.0,0.0,0.0,0.0,0.0,0.0,0.0,0.0,0.0,,,,,,,,,,,,,,,,,,,,,,,,,,,,,,,,,,,,,,,,,,,,,,,,,,,,,,,Tracheophyta; Magnoliopsida; Pinus pinaster Aiton
2010,2010-08-16,Braga,Póvoa de Lanhoso,Serzedelo,L. SERZEDELO(SERZEDELO)M6 (FRIANDE),41.6178987,-8.2223489,NC,505.0,2010-08-16T12:00,26.6,30,7.8,25.9,0.0,0.0,0.0,0.0,0,1017.3,960.7,0,0,0,0,0.64,2.42,13.0,17.3,95,95,45.0,29.7,23.4,22.2,17.6,0.098,0.143,0.221,0.339,1,3600.0,903.2,798.4,104.8,913.7,903.2,1165.5,879.0,777.0,102.0,913.7,879.0,1134.4,,,,,,,,,,,,,,,,,,,,,,,,,,,,,,,,,,,,,,,,,,,,,,,,,,,,,,,Pinus pinaster Aiton; Magnoliopsida; Tracheophyta; Eucalyptus L'Hér.
2010,2010-08-17,Setúbal,Barreiro,Santo André,JTO. MODELO QINTA DA LOMBA (LAVRADIO),38.6516005,-9.0846634,NC,0.0,2010-08-17T16:00,28.0,47,15.6,28.1,0.0,0.0,0.0,0.0,1,1016.9,1016.9,39,0,32,66,0.45,2.01,12.8,15.9,292,295,33.5,32.6,27.4,26.4,24.2,0.182,0.187,0.204,0.271,1,3600.0,506.9,361.0,145.8,570.1,506.9,845.1,563.0,401.0,162.0,570.1,563.0,938.7,,,,,,,,,,,,,,,,,,,,,,,,,,,,,,,,,,,,,,,,,,,,,,,,,,,,,,,Pinus pinea L.; Pinus pinaster Aiton; Magnoliopsida; Quercus suber L.; Tracheophyta; Oryza sativa L.; Eucalyptus L'Hér.; Vitis vinifera L.; 
2010,2010-08-21,Bragança,Mirandela,Navalho,NAVALHO,41.3700632,-7.276081057358262,NC,339.0,2010-08-21T12:00,33.8,29,13.2,35.7,0.0,0.0,0.0,0.0,0,1021.3,983.6,5,0,0,17,0.66,3.73,5.9,7.6,169,172,18.0,34.9,25.9,23.7,19.9,0.138,0.159,0.209,0.344,1,3600.0,864.6,737.4,127.2,852.8,864.6,1155.8,843.0,719.0,124.0,852.8,843.0,1126.9,,,,,,,,,,,,,,,,,,,,,,,,,,,,,,,,,,,,,,,,,,,,,,,,,,,,,,,Pinales; Tracheophyta; Magnoliopsida; Castanea sativa Mill.; Eucalyptus L'Hér.; Quercus L.
2010,2010-08-29,Porto,Gondomar,Gondomar (são Cosme),FONTELA (Fontelhas),41.13527305,-8.534103623752394,NC,121.0,2010-08-29T06:00,18.4,80,14.8,18.4,0.0,0.0,0.0,0.0,0,1015.6,1001.3,0,0,0,0,0.02,0.43,11.4,23.0,79,91,22.0,19.2,24.0,23.3,20.5,0.132,0.134,0.182,0.334,1,0.0,0.0,0.0,0.0,0.0,0.0,0.0,0.0,0.0,0.0,0.0,0.0,0.0,,,,,,,,,,,,,,,,,,,,,,,,,,,,,,,,,,,,,,,,,,,,,,,,,,,,,,,Magnoliopsida; Tracheophyta; Eucalyptus L'Hér.
2010,2010-08-17,Braga,Celorico de Basto,Rego,PEDROSO (REGO)M2 (Pedroso),41.42331695,-8.086731512280302,NC,645.0,2010-08-17T13:00,27.2,32,8.9,27.3,0.0,0.0,0.0,0.0,0,1017.8,946.3,0,0,0,0,0.67,2.47,11.6,14.6,254,254,31.0,32.1,22.9,21.3,16.7,0.102,0.144,0.22,0.338,1,3600.0,911.1,809.3,101.8,921.6,911.1,1171.9,913.0,811.0,102.0,921.6,913.0,1174.3,,,,,,,,,,,,,,,,,,,,,,,,,,,,,,,,,,,,,,,,,,,,,,,,,,,,,,,Magnoliopsida; Pinus pinaster Aiton; Tracheophyta; Pinales
2010,2010-08-16,Bragança,Vinhais,Ervedosa,Soutilha,41.711165,-7.079681,Desconhecida,671.0,2010-08-16T15:00,27.5,24,5.3,27.3,0.0,0.0,0.0,0.0,0,1017.4,943.2,0,0,0,0,0.57,2.79,5.0,6.0,111,107,23.4,33.5,24.5,22.8,17.9,0.124,0.14,0.19,0.342,1,3600.0,751.9,658.3,93.6,893.1,751.9,983.3,803.0,703.0,100.0,893.1,803.0,1050.1,,,,,,,,,,,,,,,,,,,,,,,,,,,,,,,,,,,,,,,,,,,,,,,,,,,,,,,Magnoliopsida; Vitis vinifera L.; Olea europaea L.; Tracheophyta; Pinus pinaster Aiton; Quercus suber L.
2010,2010-08-16,Porto,Felgueiras,Moure,Quintã,41.3528045,-8.1754517,NC,306.0,2010-08-16T15:00,29.8,26,8.1,30.2,0.0,0.0,0.0,0.0,0,1015.9,981.6,0,0,0,0,0.6,3.12,5.6,7.1,45,49,21.2,34.7,25.4,23.3,18.6,0.097,0.138,0.207,0.331,1,3600.0,759.5,664.6,94.8,889.1,759.5,997.3,809.0,708.0,101.0,889.1,809.0,1062.3,,,,,,,,,,,,,,,,,,,,,,,,,,,,,,,,,,,,,,,,,,,,,,,,,,,,,,,Magnoliopsida; Tracheophyta; Pinus pinaster Aiton; Eucalyptus L'Hér.; Vitis vinifera L.
2010,2010-08-17,Viana do Castelo,Viana do Castelo,Mujães,Mamua,41.6587624,-8.7124886,Desconhecida,74.0,2010-08-17T19:00,21.4,67,15.0,20.4,0.0,0.0,0.0,0.0,0,1017.5,1008.8,0,0,0,0,0.12,0.84,18.1,26.9,329,334,35.3,27.1,26.0,23.4,19.5,0.097,0.14,0.213,0.332,1,3600.0,59.8,39.4,20.4,451.8,59.8,114.4,126.0,83.0,43.0,459.2,126.0,241.2,,,,,,,,,,,,,,,,,,,,,,,,,,,,,,,,,,,,,,,,,,,,,,,,,,,,,,,Magnoliopsida; Tracheophyta; Eucalyptus L'Hér.
2010,2010-08-16,Porto,Vila Nova de Gaia,Grijó,R. CARRIÇA (Rua da Carriça),41.0283081,-8.5654051,NC,197.0,2010-08-16T16:00,30.2,28,9.9,28.7,0.0,0.0,0.0,0.0,0,1015.6,993.4,2,0,3,0,0.56,3.08,14.0,17.9,337,341,27.4,35.3,26.5,24.0,19.5,0.106,0.136,0.196,0.333,1,3600.0,600.1,508.2,91.9,817.6,600.1,829.1,666.0,564.0,102.0,817.6,666.0,920.2,,,,,,,,,,,,,,,,,,,,,,,,,,,,,,,,,,,,,,,,,,,,,,,,,,,,,,,Magnoliopsida; Tracheophyta; Eucalyptus L'Hér.
2010,2010-08-12,Faro,Olhão,Quelfes,Siroco (MONCARAPACHO),37.064078,-7.802807,NC,29.0,2010-08-12T20:00,27.4,51,16.3,26.2,0.0,0.0,0.0,0.0,0,1012.6,1009.3,0,0,0,0,0.19,1.8,23.5,36.5,328,329,43.9,31.1,31.5,27.2,22.6,0.104,0.157,0.225,0.304,0,0.0,0.0,0.0,0.0,0.0,0.0,0.0,6.0,2.0,4.0,27.1,6.0,39.9,,,,,,,,,,,,,,,,,,,,,,,,,,,,,,,,,,,,,,,,,,,,,,,,,,,,,,,Magnoliopsida; Tracheophyta; Quercus suber L.; Ceratonia siliqua L.; Olea europaea L.; 
2010,2010-08-12,Porto,Penafiel,Abragão,BARRELA CIMA (Barrelas),41.1583743,-8.2247687,Desconhecida,203.0,2010-08-12T03:00,18.7,87,16.5,20.3,0.0,0.0,0.0,0.0,0,1018.7,994.8,9,10,0,0,0.0,0.28,4.4,6.8,325,335,9.4,20.1,26.1,23.8,18.6,0.102,0.144,0.223,0.34,0,0.0,0.0,0.0,0.0,0.0,0.0,0.0,0.0,0.0,0.0,0.0,0.0,0.0,,,,,,,,,,,,,,,,,,,,,,,,,,,,,,,,,,,,,,,,,,,,,,,,,,,,,,,Eucalyptus L'Hér.; Tracheophyta; Magnoliopsida
2010,2010-08-29,Santarém,Chamusca,Carregueira,Galega Velha,39.4188966,-8.4155501,NC,45.0,2010-08-29T11:00,34.1,19,7.6,33.8,0.0,0.0,0.0,0.0,0,1015.4,1010.3,0,0,0,0,0.6,4.32,6.4,7.9,47,51,21.6,37.6,27.0,26.0,22.9,0.042,0.06,0.096,0.211,1,3600.0,804.0,698.7,105.3,872.5,804.0,1074.1,756.0,657.0,99.0,872.5,756.0,1010.0,,,,,,,,,,,,,,,,,,,,,,,,,,,,,,,,,,,,,,,,,,,,,,,,,,,,,,,Tracheophyta; Pinus pinaster Aiton; Magnoliopsida
2010,2010-08-18,Braga,Guimarães,Silvares,R. DAS COSTEIRAS(SILVARES (CASTELÕES),41.4443329,-8.3363725,NC,137.0,2010-08-18T20:00,19.6,80,16.0,20.0,0.0,0.0,0.0,0.0,0,1014.5,998.4,15,17,0,0,0.04,0.46,11.7,18.4,315,318,26.6,23.7,25.0,23.8,19.4,0.1,0.138,0.208,0.331,0,0.0,0.0,0.0,0.0,0.0,0.0,0.0,6.0,2.0,4.0,26.8,6.0,41.2,,,,,,,,,,,,,,,,,,,,,,,,,,,,,,,,,,,,,,,,,,,,,,,,,,,,,,,Tracheophyta; Eucalyptus L'Hér.; Magnoliopsida; Quercus L.; Pinus pinaster Aiton; Pinales
2010,2010-08-19,Aveiro,Sever do Vouga,Pessegueiro do Vouga,Grela,40.70645655,-8.362203624870453,Desconhecida,34.0,2010-08-19T10:00,22.9,62,15.3,24.3,0.0,0.0,0.0,0.0,0,1014.3,1010.3,5,0,0,17,0.39,1.05,5.2,6.0,335,343,23.0,27.0,23.9,24.2,20.4,0.062,0.077,0.11,0.23,1,3600.0,673.8,560.0,113.8,783.8,673.8,954.2,610.0,507.0,103.0,783.8,610.0,863.9,,,,,,,,,,,,,,,,,,,,,,,,,,,,,,,,,,,,,,,,,,,,,,,,,,,,,,,Tracheophyta; Eucalyptus L'Hér.; Magnoliopsida
2010,2010-08-16,Porto,Penafiel,Portela,Areal,41.1077057,-8.2950347,Desconhecida,181.0,2010-08-16T14:00,30.6,28,9.9,31.7,0.0,0.0,0.0,0.0,0,1015.8,995.4,0,0,0,0,0.67,3.17,6.6,7.6,351,360,22.0,34.6,25.5,23.8,19.3,0.1,0.141,0.218,0.337,1,3600.0,859.7,759.8,99.9,903.6,859.7,1121.8,886.0,783.0,103.0,903.6,886.0,1156.0,,,,,,,,,,,,,,,,,,,,,,,,,,,,,,,,,,,,,,,,,,,,,,,,,,,,,,,Tracheophyta; Vitis vinifera L.; Magnoliopsida; Eucalyptus L'Hér.
2010,2010-08-21,Porto,Paredes,Rebordosa,RUA DAS ALMINHAS (VILELA),41.2202567,-8.4112601,NC,216.0,2010-08-21T14:00,31.4,41,16.6,32.7,0.0,0.0,0.0,0.0,0,1020.1,995.7,2,0,3,0,0.61,2.71,14.3,18.1,309,311,25.6,34.7,25.0,23.1,19.3,0.12,0.134,0.181,0.336,1,3600.0,715.3,534.0,181.2,647.4,715.3,1102.5,738.0,551.0,187.0,647.4,738.0,1137.5,,,,,,,,,,,,,,,,,,,,,,,,,,,,,,,,,,,,,,,,,,,,,,,,,,,,,,,Magnoliopsida; Pinus pinaster Aiton; Eucalyptus L'Hér.; Tracheophyta; Vitis vinifera L.
2010,2010-08-29,Porto,Felgueiras,Sendim,Calvário,41.3886903,-8.1773043,NC,432.0,2010-08-29T12:00,28.9,31,10.2,29.5,0.0,0.0,0.0,0.0,0,1017.9,969.6,0,0,0,0,0.62,2.75,7.9,10.1,90,92,27.4,29.6,22.4,21.6,18.6,0.131,0.137,0.198,0.323,1,3600.0,855.8,754.1,101.7,898.5,855.8,1125.7,833.0,734.0,99.0,898.5,833.0,1095.7,,,,,,,,,,,,,,,,,,,,,,,,,,,,,,,,,,,,,,,,,,,,,,,,,,,,,,,Magnoliopsida; Tracheophyta; Eucalyptus L'Hér.; Pinus pinaster Aiton
2010,2010-08-13,Coimbra,Penacova,São Pedro de Alva,Laborins,40.2964666,-8.2110787,Desconhecida,157.0,2010-08-13T13:00,29.9,28,9.6,29.8,0.0,0.0,0.0,0.0,0,1014.1,996.3,0,0,0,0,0.72,3.02,13.7,17.4,5,7,37.1,34.0,26.3,25.1,19.8,0.098,0.136,0.196,0.325,1,3600.0,921.0,812.2,108.9,905.0,921.0,1195.9,922.0,813.0,109.0,905.0,922.0,1197.1,,,,,,,,,,,,,,,,,,,,,,,,,,,,,,,,,,,,,,,,,,,,,,,,,,,,,,,Tracheophyta; Pinus pinaster Aiton; Eucalyptus L'Hér.; Magnoliopsida
2010,2010-08-19,Porto,Felgueiras,Torrados,Espadanal,41.3553907,-8.2397668,NC,303.0,2010-08-19T12:00,25.5,50,14.3,27.5,0.0,0.0,0.0,0.0,0,1014.4,980.0,0,0,0,0,0.59,1.63,8.7,10.2,287,288,24.1,30.7,23.2,23.2,18.8,0.1,0.137,0.205,0.329,1,3600.0,891.1,786.2,104.8,905.6,891.1,1159.5,867.0,765.0,102.0,905.6,867.0,1128.2,,,,,,,,,,,,,,,,,,,,,,,,,,,,,,,,,,,,,,,,,,,,,,,,,,,,,,,Tracheophyta; Vitis vinifera L.; Eucalyptus L'Hér.; Magnoliopsida
2010,2010-08-07,Porto,Paredes,Lordelo,Penhas Altas,41.2364966,-8.415551743176014,Desconhecida,210.0,2010-08-07T17:00,34.0,25,11.1,32.5,0.0,0.0,0.0,0.0,0,1013.7,990.3,0,0,0,0,0.51,3.99,12.6,16.7,323,327,24.1,36.2,27.4,23.1,18.1,0.119,0.135,0.195,0.345,1,3600.0,463.3,390.5,72.8,800.4,463.3,648.9,541.0,456.0,85.0,800.4,541.0,757.7,,,,,,,,,,,,,,,,,,,,,,,,,,,,,,,,,,,,,,,,,,,,,,,,,,,,,,,Magnoliopsida; Pinus pinaster Aiton; Eucalyptus L'Hér.; Tracheophyta; Vitis vinifera L.
2010,2010-08-21,Porto,Paredes,Gondalães,PEDREIRA (Pedreiras),41.2287102,-8.3319853,NC,155.0,2010-08-21T14:00,33.0,39,17.1,34.9,0.0,0.0,0.0,0.0,0,1020.2,1002.7,4,3,3,0,0.6,3.07,10.9,12.9,297,300,25.2,35.8,25.5,23.4,19.6,0.111,0.137,0.198,0.334,1,3600.0,692.0,487.5,204.5,591.0,692.0,1102.5,714.0,503.0,211.0,591.0,714.0,1137.5,,,,,,,,,,,,,,,,,,,,,,,,,,,,,,,,,,,,,,,,,,,,,,,,,,,,,,,Magnoliopsida; Pinus pinaster Aiton; Eucalyptus L'Hér.; Tracheophyta; Vitis vinifera L.; Quercus L.
2010,2010-08-12,Porto,Paredes,Sobrosa,RECTA DO LADÁRIO (SOBROSA),41.2497289,-8.3552315,Desconhecida,315.0,2010-08-12T14:00,27.0,45,14.0,28.2,0.0,0.0,0.0,0.0,0,1016.6,980.9,6,3,5,0,0.63,1.97,13.5,16.8,312,315,33.1,32.2,25.1,23.0,17.9,0.119,0.134,0.189,0.342,1,3600.0,851.8,707.1,144.7,831.2,851.8,1133.2,877.0,728.0,149.0,831.2,877.0,1166.7,,,,,,,,,,,,,,,,,,,,,,,,,,,,,,,,,,,,,,,,,,,,,,,,,,,,,,,Magnoliopsida; Pinus pinaster Aiton; Eucalyptus L'Hér.; Tracheophyta; Vitis vinifera L.
2010,2010-08-17,Vila Real,Alijó,Carlão,GEIA,41.3171049,-7.4087585,Desconhecida,515.0,2010-08-17T11:00,26.6,30,7.7,27.5,0.0,0.0,0.0,0.0,0,1018.7,960.9,0,0,0,0,0.53,2.43,1.1,1.5,198,225,15.8,30.5,23.8,23.2,18.5,0.133,0.146,0.182,0.335,1,3600.0,835.0,732.4,102.7,889.3,835.0,1099.0,789.0,692.0,97.0,889.3,789.0,1038.4,,,,,,,,,,,,,,,,,,,,,,,,,,,,,,,,,,,,,,,,,,,,,,,,,,,,,,,Tracheophyta; Vitis vinifera L.; Pinus pinaster Aiton; Magnoliopsida
2010,2010-08-13,Porto,Vila Nova de Gaia,Serzedo,Estrada da Rainha,41.0572021,-8.6203917,NC,69.0,2010-08-13T19:00,25.2,45,12.5,21.7,0.0,0.0,0.0,0.0,0,1013.1,1005.1,0,0,0,0,0.26,1.75,29.3,45.4,341,345,50.0,29.2,26.7,24.2,19.6,0.113,0.139,0.21,0.347,1,3600.0,71.8,48.4,23.4,489.1,71.8,131.8,141.0,95.0,46.0,489.1,141.0,258.8,,,,,,,,,,,,,,,,,,,,,,,,,,,,,,,,,,,,,,,,,,,,,,,,,,,,,,,Eucalyptus L'Hér.; Tracheophyta; Magnoliopsida; Pinus pinaster Aiton; Acacia Mill.
2010,2010-08-19,Porto,Amarante,Louredo,Santa Cruz,41.2538153,-8.117058,NC,294.0,2010-08-19T13:00,26.6,45,13.8,28.5,0.0,0.0,0.0,0.0,0,1014.2,980.9,0,0,0,0,0.63,1.9,9.5,11.6,295,296,27.0,32.6,23.7,23.2,18.9,0.095,0.141,0.217,0.335,1,3600.0,897.3,790.5,106.8,903.8,897.3,1168.1,899.0,792.0,107.0,903.8,899.0,1170.3,,,,,,,,,,,,,,,,,,,,,,,,,,,,,,,,,,,,,,,,,,,,,,,,,,,,,,,Tracheophyta; Magnoliopsida; Eucalyptus L'Hér.; Pinus pinaster Aiton; Vitis vinifera L.; 
2010,2010-08-18,Braga,Cabeceiras de Basto,Refojos de Basto,CUCANA(REFOJOS DE BASTO) (Cucana),41.5107376,-7.9986954,Desconhecida,352.0,2010-08-18T22:00,17.1,91,15.6,18.3,0.0,0.0,0.0,0.0,0,1015.4,974.4,1,1,0,0,0.0,0.18,5.5,7.5,281,305,11.2,20.8,24.2,23.0,18.6,0.098,0.138,0.208,0.331,0,0.0,0.0,0.0,0.0,0.0,0.0,0.0,0.0,0.0,0.0,0.0,0.0,0.0,,,,,,,,,,,,,,,,,,,,,,,,,,,,,,,,,,,,,,,,,,,,,,,,,,,,,,,Tracheophyta; Vitis vinifera L.; Magnoliopsida; Eucalyptus L'Hér.; Pinus pinaster Aiton
2010,2010-08-29,Guarda,Aguiar da Beira,Aguiar da Beira,LAJE GRANDE,40.81739785,-7.554092011056806,Desconhecida,784.0,2010-08-29T13:00,28.9,26,7.3,28.9,0.0,0.0,0.0,0.0,0,1017.0,931.4,0,0,0,0,0.66,2.95,8.5,10.0,28,30,25.9,31.7,23.4,21.9,18.1,0.109,0.138,0.196,0.326,1,3600.0,874.1,772.5,101.5,912.8,874.1,1135.1,878.0,776.0,102.0,912.8,878.0,1140.2,,,,,,,,,,,,,,,,,,,,,,,,,,,,,,,,,,,,,,,,,,,,,,,,,,,,,,,Tracheophyta; Pinus pinaster Aiton; Magnoliopsida
2010,2010-08-13,Braga,Celorico de Basto,Ribas,GRANJA(RIBAS) M3 (Granja),41.4568185,-8.017551136386082,NC,362.0,2010-08-13T11:00,24.3,38,9.1,23.7,0.0,0.0,0.0,0.0,0,1017.2,975.9,0,0,0,0,0.55,1.89,12.1,15.8,78,78,32.8,28.3,24.4,23.3,18.0,0.094,0.14,0.214,0.335,1,3600.0,844.2,737.2,107.0,889.9,844.2,1103.8,797.0,696.0,101.0,889.9,797.0,1042.2,,,,,,,,,,,,,,,,,,,,,,,,,,,,,,,,,,,,,,,,,,,,,,,,,,,,,,,Magnoliopsida; Tracheophyta; Vitis vinifera L.; Eucalyptus L'Hér.; Pinus pinaster Aiton
2010,2010-08-16,Porto,Paredes,Parada de Todeia,Apeadeiro,41.1600948,-8.3729706,NC,127.0,2010-08-16T18:00,29.5,31,10.8,27.6,0.0,0.0,0.0,0.0,0,1015.5,1001.1,0,0,0,0,0.33,2.83,14.6,22.1,327,332,27.0,32.7,27.1,24.1,19.5,0.118,0.134,0.183,0.339,1,3600.0,233.4,181.0,52.4,658.7,233.4,366.6,312.0,242.0,70.0,658.7,312.0,490.1,,,,,,,,,,,,,,,,,,,,,,,,,,,,,,,,,,,,,,,,,,,,,,,,,,,,,,,Magnoliopsida; Pinus pinaster Aiton; Eucalyptus L'Hér.; Tracheophyta; Vitis vinifera L.
2010,2010-08-12,Viseu,Viseu,Povolide,Povolide,40.6682322,-7.79437530060312,Desconhecida,470.0,2010-08-12T02:00,17.2,70,11.6,16.9,0.0,0.0,0.0,0.0,0,1018.2,963.7,0,0,0,0,0.01,0.6,5.5,9.3,328,324,11.5,20.4,27.9,24.9,19.0,0.082,0.151,0.234,0.344,0,0.0,0.0,0.0,0.0,0.0,0.0,0.0,0.0,0.0,0.0,0.0,0.0,0.0,,,,,,,,,,,,,,,,,,,,,,,,,,,,,,,,,,,,,,,,,,,,,,,,,,,,,,,Magnoliopsida; Tracheophyta; Vitis vinifera L.; Olea europaea L.
2010,2010-08-13,Aveiro,Santa Maria da Feira,Romariz,Goim,40.9432863,-8.4386917,Desconhecida,347.0,2010-08-13T14:00,28.4,27,7.8,28.2,0.0,0.0,0.0,0.0,0,1014.7,975.7,0,0,0,0,0.68,2.81,11.7,15.0,43,44,35.3,33.2,25.1,23.5,18.6,0.099,0.142,0.219,0.338,1,3600.0,880.6,778.7,101.9,916.2,880.6,1132.5,907.0,802.0,105.0,916.2,907.0,1166.4,,,,,,,,,,,,,,,,,,,,,,,,,,,,,,,,,,,,,,,,,,,,,,,,,,,,,,,Eucalyptus L'Hér.; Tracheophyta; Pinales
2010,2010-08-12,Porto,Vila do Conde,Retorta,AE-28 (RIO MAU),41.3524262,-8.7169326,NC,36.0,2010-08-12T22:00,21.7,56,12.5,18.8,0.0,0.0,0.0,0.0,0,1017.1,1012.9,0,0,0,0,0.13,1.15,25.2,39.3,357,2,44.6,24.0,26.0,24.0,19.4,0.094,0.139,0.21,0.332,0,0.0,0.0,0.0,0.0,0.0,0.0,0.0,0.0,0.0,0.0,0.0,0.0,0.0,,,,,,,,,,,,,,,,,,,,,,,,,,,,,,,,,,,,,,,,,,,,,,,,,,,,,,,Magnoliopsida; Eucalyptus L'Hér.
2010,2010-08-12,Aveiro,Estarreja,Canelas,Rua da Mata,40.6909514,-8.5405111,Desconhecida,52.0,2010-08-12T03:00,19.1,88,17.1,18.9,0.0,0.0,0.0,0.0,3,1018.4,1012.2,90,100,0,0,0.02,0.26,19.1,28.3,349,353,31.7,21.1,27.5,24.6,19.9,0.066,0.088,0.127,0.249,0,0.0,0.0,0.0,0.0,0.0,0.0,0.0,0.0,0.0,0.0,0.0,0.0,0.0,,,,,,,,,,,,,,,,,,,,,,,,,,,,,,,,,,,,,,,,,,,,,,,,,,,,,,,Pinus pinaster Aiton; Tracheophyta; Eucalyptus L'Hér.; Magnoliopsida
2010,2010-08-29,Santarém,Cartaxo,Vale da Pedra,Vale da Pedra,39.0996609,-8.7934601,NC,17.0,2010-08-29T14:00,37.6,18,9.3,37.9,0.0,0.0,0.0,0.0,0,1013.8,1011.9,0,0,0,0,0.74,5.3,9.1,11.6,353,355,29.2,39.5,27.5,25.6,22.3,0.135,0.191,0.234,0.334,1,3600.0,832.9,731.3,101.6,895.9,832.9,1094.9,861.0,756.0,105.0,895.9,861.0,1131.9,,,,,,,,,,,,,,,,,,,,,,,,,,,,,,,,,,,,,,,,,,,,,,,,,,,,,,,Magnoliopsida; Quercus suber L.; Tracheophyta; Pinus pinaster Aiton
2010,2010-08-19,Braga,Vila Nova de Famalicão,Gavião,SÁ (GAVIÃO) (ARNOSO),41.4155375,-8.5188293,NC,105.0,2010-08-19T00:00,16.6,96,15.9,18.1,0.0,0.0,0.0,0.0,0,1015.0,1002.5,2,0,0,5,0.0,0.08,3.4,8.7,328,343,11.5,19.8,24.3,23.8,19.5,0.115,0.137,0.194,0.335,0,0.0,0.0,0.0,0.0,0.0,0.0,0.0,0.0,0.0,0.0,0.0,0.0,0.0,,,,,,,,,,,,,,,,,,,,,,,,,,,,,,,,,,,,,,,,,,,,,,,,,,,,,,,Tracheophyta
2010,2010-08-12,Braga,Barcelos,Silveiros,L. S. SALVADOR (SILVEIROS) (Santa Eulália),41.4717836,-8.5762263,NC,107.0,2010-08-12T22:00,21.3,54,11.8,19.8,0.0,0.0,0.0,0.0,0,1016.8,1004.3,0,0,0,0,0.09,1.16,14.4,27.0,3,9,33.5,23.9,25.9,23.7,19.0,0.099,0.14,0.213,0.334,0,0.0,0.0,0.0,0.0,0.0,0.0,0.0,0.0,0.0,0.0,0.0,0.0,0.0,,,,,,,,,,,,,,,,,,,,,,,,,,,,,,,,,,,,,,,,,,,,,,,,,,,,,,,Vitis vinifera L.; Tracheophyta; Pinus pinaster Aiton; Magnoliopsida
2010,2010-08-16,Braga,Fafe,Quinchães,L. PICA ALEM (QUINCHAES)M3 (ABOIM),41.433209950000006,-8.14012539283317,Desconhecida,500.0,2010-08-16T06:00,15.6,56,6.9,12.8,0.0,0.0,0.0,0.0,0,1017.3,959.2,1,0,2,0,0.08,0.78,13.5,25.9,81,81,39.2,17.9,22.9,22.3,17.6,0.102,0.144,0.222,0.339,1,0.0,6.1,0.0,6.1,0.0,1.5,56.1,2.0,0.0,2.0,0.0,2.0,18.3,,,,,,,,,,,,,,,,,,,,,,,,,,,,,,,,,,,,,,,,,,,,,,,,,,,,,,,Magnoliopsida; Tracheophyta; Pinales; Eucalyptus L'Hér.
2010,2010-08-07,Braga,Vieira do Minho,Parada do Bouro,PANDOZES (PARADA BOURO) (Pandoses),41.65048345,-8.244887448171681,NC,145.0,2010-08-07T13:00,35.2,20,8.8,36.8,0.0,0.0,0.0,0.0,0,1014.4,998.3,0,0,0,0,0.73,4.56,4.1,4.6,308,315,17.6,37.3,26.7,23.8,18.6,0.097,0.146,0.23,0.344,1,3600.0,936.6,830.6,106.0,921.9,936.6,1198.3,937.0,831.0,106.0,921.9,937.0,1198.8,,,,,,,,,,,,,,,,,,,,,,,,,,,,,,,,,,,,,,,,,,,,,,,,,,,,,,,Pinus pinaster Aiton; Magnoliopsida; Eucalyptus L'Hér.
2010,2010-08-13,Porto,Maia,Pedrouços,R. ANTº CASTRO MEIRELES (Rua Dom António Castro Meireles),41.199695,-8.5953493,NC,56.0,2010-08-13T15:00,29.7,30,10.2,29.2,0.0,0.0,0.0,0.0,0,1014.5,1008.1,0,0,0,0,0.65,2.92,13.7,16.9,357,360,24.8,33.7,26.0,24.1,19.6,0.113,0.139,0.207,0.342,1,3600.0,772.5,676.5,96.0,889.1,772.5,1014.0,821.0,719.0,102.0,889.1,821.0,1077.7,,,,,,,,,,,,,,,,,,,,,,,,,,,,,,,,,,,,,,,,,,,,,,,,,,,,,,,Tracheophyta; Magnoliopsida; ; Pinus pinaster Aiton; Eucalyptus L'Hér.
2010,2010-08-16,Braga,Guimarães,Souto (são Salvador),TALHÓS (SOUTO) (DONIM),41.51271145,-8.286625258131105,NC,202.0,2010-08-16T13:00,29.6,28,8.9,31.1,0.0,0.0,0.0,0.0,0,1016.5,993.6,0,0,0,0,0.66,3.0,3.7,5.5,61,67,25.2,33.4,25.5,23.9,19.2,0.094,0.138,0.209,0.332,1,3600.0,907.9,801.1,106.9,909.5,907.9,1174.9,909.0,802.0,107.0,909.5,909.0,1176.3,,,,,,,,,,,,,,,,,,,,,,,,,,,,,,,,,,,,,,,,,,,,,,,,,,,,,,,Eucalyptus L'Hér.; Magnoliopsida; Tracheophyta
2010,2010-08-29,Aveiro,Albergaria-a-Velha,Branca,Soutelo,40.7451386,-8.513711,Desconhecida,97.0,2010-08-29T14:00,34.6,25,11.7,35.4,0.0,0.0,0.0,0.0,0,1015.1,1004.2,0,0,0,0,0.69,4.13,9.4,11.4,337,342,25.9,39.2,25.4,23.3,20.7,0.07,0.087,0.118,0.238,1,3600.0,809.4,711.8,97.7,887.5,809.4,1075.7,837.0,736.0,101.0,887.5,837.0,1112.4,,,,,,,,,,,,,,,,,,,,,,,,,,,,,,,,,,,,,,,,,,,,,,,,,,,,,,,Magnoliopsida; Eucalyptus L'Hér.; Tracheophyta; Pinus pinaster Aiton
2010,2010-08-18,Porto,Maia,Folgosa,Outeiro,41.2665781,-8.540036,NC,188.0,2010-08-18T11:00,22.2,72,16.9,23.0,0.0,0.0,0.0,0.0,3,1016.6,994.8,90,100,0,0,0.28,0.75,11.5,14.1,319,322,27.7,25.4,24.0,23.5,19.2,0.116,0.135,0.189,0.336,1,3600.0,441.5,157.1,284.4,192.7,441.5,1088.2,416.0,148.0,268.0,192.7,416.0,1025.3,,,,,,,,,,,,,,,,,,,,,,,,,,,,,,,,,,,,,,,,,,,,,,,,,,,,,,,Magnoliopsida; Eucalyptus L'Hér.; Tracheophyta; Pinus pinaster Aiton; 
2010,2010-08-16,Porto,Vila Nova de Gaia,Sermonde,SILVINHAS (SERMONDE),41.0472436,-8.582256040478136,NC,118.0,2010-08-16T14:00,30.4,28,10.0,31.5,0.0,0.0,0.0,0.0,0,1016.0,1002.6,0,0,0,0,0.66,3.12,6.8,8.5,3,12,19.8,37.8,26.4,24.2,19.8,0.089,0.116,0.168,0.312,1,3600.0,859.2,758.2,101.0,900.0,859.2,1123.9,885.0,781.0,104.0,900.0,885.0,1157.7,,,,,,,,,,,,,,,,,,,,,,,,,,,,,,,,,,,,,,,,,,,,,,,,,,,,,,,Tracheophyta; Eucalyptus L'Hér.; Magnoliopsida
2010,2010-08-18,Viana do Castelo,Viana do Castelo,Mujães,MAMUA - MUJAES (Mamua),41.6587624,-8.7124886,Desconhecida,74.0,2010-08-18T08:00,18.9,86,16.6,20.6,0.0,0.0,0.0,0.0,3,1017.1,1008.3,88,97,1,0,0.07,0.3,4.4,6.6,325,338,17.6,20.9,23.9,23.4,19.6,0.097,0.14,0.213,0.332,1,1378.06,120.4,42.7,77.7,105.9,120.4,538.3,93.0,33.0,60.0,105.9,93.0,415.8,,,,,,,,,,,,,,,,,,,,,,,,,,,,,,,,,,,,,,,,,,,,,,,,,,,,,,,Magnoliopsida; Tracheophyta; Eucalyptus L'Hér.
2010,2010-08-28,Faro,Loulé,Salir,Brazieira do Meio (Brazieira),37.25747595,-8.084270395455398,Desconhecida,273.0,2010-08-28T22:00,24.7,50,13.7,23.6,0.0,0.0,0.0,0.0,0,1014.8,983.6,0,0,0,0,0.12,1.55,16.5,29.3,337,339,32.0,28.6,32.5,29.2,24.9,0.08,0.15,0.187,0.273,0,0.0,0.0,0.0,0.0,0.0,0.0,0.0,0.0,0.0,0.0,0.0,0.0,0.0,,,,,,,,,,,,,,,,,,,,,,,,,,,,,,,,,,,,,,,,,,,,,,,,,,,,,,,Eucalyptus L'Hér.; Magnoliopsida; Quercus suber L.; Pinus pinea L.; Quercus rotundifolia Lam.; Tracheophyta; Ceratonia siliqua L.; Pinus pinaster Aiton; Olea europaea L.; 
2010,2010-08-07,Porto,Marco de Canaveses,Maureles,Monte,41.1809371,-8.1937928,NC,191.0,2010-08-07T13:00,34.9,21,9.5,37.4,0.0,0.0,0.0,0.0,0,1014.4,993.2,0,0,0,0,0.69,4.41,0.4,0.7,90,90,20.2,36.1,25.8,23.3,18.2,0.102,0.148,0.23,0.343,1,3600.0,936.4,832.5,103.9,920.3,936.4,1203.0,937.0,833.0,104.0,920.3,937.0,1203.7,,,,,,,,,,,,,,,,,,,,,,,,,,,,,,,,,,,,,,,,,,,,,,,,,,,,,,,Pinus pinaster Aiton; Tracheophyta; Eucalyptus L'Hér.; Magnoliopsida; Vitis vinifera L.; Quercus L.; Pinales; 
2010,2010-08-16,Porto,Marco de Canaveses,Penha Longa,Piares,41.1077811,-8.160269,NC,344.0,2010-08-16T18:00,29.4,27,8.6,27.7,0.0,0.0,0.0,0.0,0,1015.7,977.1,8,0,13,0,0.28,2.98,9.2,13.5,339,344,24.5,32.1,25.8,23.1,18.4,0.099,0.141,0.216,0.338,1,3600.0,226.9,174.7,52.2,639.9,226.9,364.1,304.0,234.0,70.0,639.9,304.0,487.8,,,,,,,,,,,,,,,,,,,,,,,,,,,,,,,,,,,,,,,,,,,,,,,,,,,,,,,Tracheophyta; Magnoliopsida; Pinus pinaster Aiton; Eucalyptus L'Hér.
2010,2010-08-06,Braga,Terras de Bouro,Balança,CADEIRAS (BALANÇA) M3 (Cadeira),41.705482,-8.3198403,NC,265.0,2010-08-06T11:00,28.6,35,11.5,30.0,0.0,0.0,0.0,0.0,0,1014.7,984.8,0,0,0,0,0.57,2.56,4.4,6.1,55,62,20.5,30.3,24.6,22.8,17.7,0.098,0.153,0.241,0.349,1,3600.0,843.6,737.8,105.9,878.5,843.6,1116.5,797.0,697.0,100.0,878.5,797.0,1054.8,,,,,,,,,,,,,,,,,,,,,,,,,,,,,,,,,,,,,,,,,,,,,,,,,,,,,,,Tracheophyta; Quercus L.; Pinus pinaster Aiton; Eucalyptus L'Hér.
2010,2010-08-13,Lisboa,Torres Vedras,Torres Vedras (são Pedro E São Tiago),MATACAES,39.09299855,-9.25866085,Desconhecida,33.0,2010-08-13T01:00,18.5,83,15.6,16.2,0.0,0.0,0.0,0.0,0,1015.8,1011.9,4,4,0,0,0.04,0.35,28.8,43.5,344,346,47.5,20.5,25.3,24.4,20.5,0.09,0.162,0.228,0.334,0,0.0,0.0,0.0,0.0,0.0,0.0,0.0,0.0,0.0,0.0,0.0,0.0,0.0,,,,,,,,,,,,,,,,,,,,,,,,,,,,,,,,,,,,,,,,,,,,,,,,,,,,,,,Tracheophyta; Magnoliopsida
2010,2010-08-17,Vila Real,Chaves,Águas Frias,Assureiras de Baixo (Assureiras),41.7692248,-7.3514919,NC,678.0,2010-08-17T20:00,22.7,37,7.1,20.2,0.0,0.0,0.0,0.0,0,1015.5,939.6,0,0,0,0,0.13,1.75,12.0,24.0,321,324,26.3,25.9,24.6,21.3,16.7,0.117,0.135,0.196,0.343,0,0.0,0.0,0.0,0.0,0.0,0.0,0.0,6.0,2.0,4.0,28.4,6.0,35.7,,,,,,,,,,,,,,,,,,,,,,,,,,,,,,,,,,,,,,,,,,,,,,,,,,,,,,,Magnoliopsida; Tracheophyta; Castanea sativa Mill.; Quercus L.
2010,2010-08-21,Porto,Valongo,Campo,RUA CESÁRIO VERDE (SOBRADO),41.2013228,-8.4706367,NC,114.0,2010-08-21T15:00,29.9,47,17.4,30.6,0.0,0.0,0.0,0.0,0,1020.2,1007.2,8,6,4,0,0.53,2.22,16.8,21.6,312,314,27.0,34.2,25.5,23.7,20.0,0.104,0.136,0.196,0.333,1,3600.0,606.5,456.5,150.0,621.5,606.5,981.8,647.0,487.0,160.0,621.5,647.0,1047.4,,,,,,,,,,,,,,,,,,,,,,,,,,,,,,,,,,,,,,,,,,,,,,,,,,,,,,,Pinus pinaster Aiton; Tracheophyta; Eucalyptus L'Hér.; Magnoliopsida
2010,2010-07-22,Porto,Santo Tirso,Carreira,RUA DAS MORENÇAS (SANTO TIRSO),41.3029506,-8.4703708,NC,141.0,2010-07-22T01:00,16.0,77,12.0,14.6,0.0,0.0,0.0,0.0,0,1014.2,997.5,1,1,0,0,0.03,0.41,13.7,21.9,337,346,25.9,18.7,22.7,21.2,17.2,0.129,0.152,0.234,0.356,0,0.0,0.0,0.0,0.0,0.0,0.0,0.0,0.0,0.0,0.0,0.0,0.0,0.0,,,,,,,,,,,,,,,,,,,,,,,,,,,,,,,,,,,,,,,,,,,,,,,,,,,,,,,Eucalyptus L'Hér.; Tracheophyta; Magnoliopsida; Pinus pinaster Aiton; Vitis vinifera L.
2010,2010-08-30,Braga,Braga,Nogueiró,L. DADIM(NOGUEIRÓ)M2 (CRESPOS),41.5513768,-8.3876444,NC,279.0,2010-08-30T21:00,25.5,51,14.5,26.0,0.0,0.0,0.0,0.0,0,1011.3,979.6,10,0,0,32,0.05,1.61,7.0,8.8,78,55,11.9,25.0,25.3,21.7,19.0,0.119,0.138,0.202,0.325,0,0.0,0.0,0.0,0.0,0.0,0.0,0.0,0.0,0.0,0.0,0.0,0.0,0.0,,,,,,,,,,,,,,,,,,,,,,,,,,,,,,,,,,,,,,,,,,,,,,,,,,,,,,,Magnoliopsida; Tracheophyta; Eucalyptus L'Hér.
2010,2010-08-07,Porto,Penafiel,Paço de Sousa,Salgadinha,41.1662682,-8.3459799,Desconhecida,135.0,2010-08-07T13:00,35.4,20,9.2,36.7,0.0,0.0,0.0,0.0,0,1014.1,999.1,0,0,0,0,0.75,4.59,6.2,6.9,324,332,13.7,36.5,26.2,23.6,18.6,0.109,0.142,0.215,0.344,1,3600.0,933.7,828.7,105.0,916.0,933.7,1203.2,934.0,829.0,105.0,916.0,934.0,1203.6,,,,,,,,,,,,,,,,,,,,,,,,,,,,,,,,,,,,,,,,,,,,,,,,,,,,,,,Tracheophyta; Eucalyptus L'Hér.; Magnoliopsida; Vitis vinifera L.
2010,2010-08-07,Braga,Celorico de Basto,Agilde,CARREIRA (AGILDE) (Carreira),41.3637109,-8.1040764,NC,482.0,2010-08-07T14:00,33.2,20,7.0,34.7,0.0,0.0,0.0,0.0,0,1014.9,962.0,0,0,0,0,0.66,4.07,1.1,1.3,252,236,19.1,36.6,25.0,22.0,16.7,0.094,0.143,0.223,0.34,1,3600.0,888.9,788.9,100.1,917.1,888.9,1144.0,915.0,812.0,103.0,917.1,915.0,1177.6,,,,,,,,,,,,,,,,,,,,,,,,,,,,,,,,,,,,,,,,,,,,,,,,,,,,,,,Vitis vinifera L.; Tracheophyta; Pinus pinaster Aiton; Magnoliopsida; Eucalyptus L'Hér.
2010,2010-08-13,Porto,Santo Tirso,Palmeira,Real,41.3611429,-8.49831545735614,NC,73.0,2010-08-13T17:00,29.3,30,9.8,26.4,0.0,0.0,0.0,0.0,0,1013.6,1005.3,0,0,0,0,0.49,2.85,19.2,25.7,343,345,31.0,33.0,26.6,24.2,19.4,0.114,0.138,0.199,0.338,1,3600.0,445.8,374.4,71.5,796.5,445.8,626.4,524.0,440.0,84.0,796.5,524.0,736.2,,,,,,,,,,,,,,,,,,,,,,,,,,,,,,,,,,,,,,,,,,,,,,,,,,,,,,,Magnoliopsida; Vitis vinifera L.; Tracheophyta; Pinus pinaster Aiton
2010,2010-08-12,Porto,Vila Nova de Gaia,Avintes,Rua de Pousada,41.0980132,-8.536709808946833,NC,74.0,2010-08-12T05:00,18.9,92,17.6,18.7,0.0,0.0,0.0,0.0,2,1018.0,1009.2,63,70,0,0,0.01,0.18,20.5,30.1,349,352,27.4,21.4,26.5,24.6,19.6,0.114,0.135,0.194,0.344,0,0.0,0.0,0.0,0.0,0.0,0.0,0.0,0.0,0.0,0.0,0.0,0.0,0.0,,,,,,,,,,,,,,,,,,,,,,,,,,,,,,,,,,,,,,,,,,,,,,,,,,,,,,,Magnoliopsida; Eucalyptus L'Hér.; Tracheophyta
2010,2010-08-17,Viana do Castelo,Viana do Castelo,Serreleis,SÃO BRAS - SERRELEIS (SERRELEIS),41.711815900000005,-8.754091827189345,Desconhecida,43.0,2010-08-17T04:00,18.2,71,12.8,17.4,0.0,0.0,0.0,0.0,0,1017.1,1012.0,0,0,0,0,0.03,0.61,11.3,13.8,17,15,19.8,19.9,24.3,23.0,19.5,0.082,0.152,0.233,0.341,0,0.0,0.0,0.0,0.0,0.0,0.0,0.0,0.0,0.0,0.0,0.0,0.0,0.0,,,,,,,,,,,,,,,,,,,,,,,,,,,,,,,,,,,,,,,,,,,,,,,,,,,,,,,Eucalyptus L'Hér.; Tracheophyta; Magnoliopsida
2010,2010-08-29,Porto,Valongo,Sobrado,RUA VALDEIRÃO (SOBRADO),41.2331711,-8.4717159,NC,189.0,2010-08-29T15:00,32.7,28,11.8,33.0,0.0,0.0,0.0,0.0,0,1015.6,994.4,0,0,0,0,0.61,3.57,9.4,10.9,328,333,17.3,35.2,25.0,22.8,20.0,0.117,0.136,0.192,0.329,1,3600.0,700.9,611.3,89.6,868.0,700.9,944.6,751.0,655.0,96.0,868.0,751.0,1012.2,,,,,,,,,,,,,,,,,,,,,,,,,,,,,,,,,,,,,,,,,,,,,,,,,,,,,,,Eucalyptus L'Hér.; Magnoliopsida; Pinus pinaster Aiton
2010,2010-08-29,Aveiro,Vale de Cambra,São Pedro de Castelões,Chã- Junqueira,40.8078792,-8.366068,Desconhecida,717.0,2010-08-29T16:00,31.3,26,9.4,30.5,0.0,0.0,0.0,0.0,0,1016.0,938.0,0,0,0,0,0.49,3.38,7.4,9.6,346,347,23.0,33.8,24.0,21.2,18.1,0.106,0.137,0.202,0.327,1,3600.0,550.4,473.0,77.4,831.7,550.4,762.9,619.0,532.0,87.0,831.7,619.0,858.0,,,,,,,,,,,,,,,,,,,,,,,,,,,,,,,,,,,,,,,,,,,,,,,,,,,,,,,Magnoliopsida; Eucalyptus L'Hér.; Tracheophyta; Pinus pinaster Aiton
2010,2010-08-27,Viseu,Viseu,Couto de Cima,Portela,40.6813155,-8.019941,Desconhecida,474.0,2010-08-27T06:00,17.8,94,16.8,19.7,0.0,0.0,0.0,0.0,2,1018.2,963.4,60,66,0,1,0.0,0.13,4.0,6.0,280,295,14.4,20.5,24.1,23.0,19.4,0.106,0.136,0.197,0.322,1,0.0,0.0,0.0,0.0,0.0,0.0,6.2,0.0,0.0,0.0,0.0,0.0,0.0,,,,,,,,,,,,,,,,,,,,,,,,,,,,,,,,,,,,,,,,,,,,,,,,,,,,,,,Pinus pinaster Aiton; Magnoliopsida; Tracheophyta
2010,2010-08-27,Aveiro,Vale de Cambra,Macieira de Cambra,Porto Novo,40.8480592,-8.3880687,Desconhecida,278.0,2010-08-27T11:00,23.4,57,14.3,24.6,0.0,0.0,0.0,0.0,0,1019.7,987.7,6,7,0,0,0.45,1.25,7.2,8.4,323,329,25.2,27.7,24.1,23.3,20.3,0.121,0.137,0.2,0.325,1,3600.0,729.0,572.8,156.2,720.7,729.0,1065.1,686.0,539.0,147.0,720.7,686.0,1002.2,,,,,,,,,,,,,,,,,,,,,,,,,,,,,,,,,,,,,,,,,,,,,,,,,,,,,,,Tracheophyta; Pinus pinaster Aiton; Eucalyptus L'Hér.
2010,2010-08-07,Porto,Marco de Canaveses,Vila Boa do Bispo,ALVELO (Alventela),41.1332787,-8.2097194,NC,208.0,2010-08-07T17:00,35.3,23,10.7,34.1,0.0,0.0,0.0,0.0,0,1014.0,991.0,0,0,0,0,0.49,4.42,9.8,12.5,306,309,21.6,37.5,27.7,23.6,18.5,0.099,0.146,0.229,0.345,1,3600.0,462.1,389.3,72.7,800.5,462.1,646.8,540.0,455.0,85.0,800.5,540.0,755.9,,,,,,,,,,,,,,,,,,,,,,,,,,,,,,,,,,,,,,,,,,,,,,,,,,,,,,,Tracheophyta; Pinus pinaster Aiton; Vitis vinifera L.; Quercus L.; Eucalyptus L'Hér.; Magnoliopsida; Acacia Mill.; 
2010,2010-08-29,Vila Real,Vila Pouca de Aguiar,Vreia de Jales,Barrela de Jales (Barrela),41.42203,-7.60133,NC,764.0,2010-08-29T17:00,30.5,28,9.9,29.2,0.0,0.0,0.0,0.0,0,1016.4,933.3,0,0,0,0,0.38,3.15,9.5,12.7,331,331,25.6,32.9,24.8,21.8,18.1,0.124,0.136,0.193,0.337,1,3600.0,361.9,298.7,63.2,762.6,361.9,525.4,441.0,364.0,77.0,762.6,441.0,640.2,,,,,,,,,,,,,,,,,,,,,,,,,,,,,,,,,,,,,,,,,,,,,,,,,,,,,,,Magnoliopsida; Tracheophyta; Quercus L.
2010,2010-08-29,Braga,Póvoa de Lanhoso,Lanhoso,L. TINOCOS (LANHOSO) M5 (FRIANDE),41.5774163,-8.2873121,NC,248.0,2010-08-29T18:00,29.9,41,15.1,30.6,0.0,0.0,0.0,0.0,0,1015.7,987.8,0,0,0,0,0.22,2.51,7.1,13.1,294,302,22.0,30.8,25.1,22.4,19.6,0.133,0.139,0.205,0.327,1,3600.0,178.3,135.8,42.5,630.7,178.3,288.9,256.0,195.0,61.0,630.7,256.0,414.8,,,,,,,,,,,,,,,,,,,,,,,,,,,,,,,,,,,,,,,,,,,,,,,,,,,,,,,Eucalyptus L'Hér.; Pinus pinaster Aiton; Magnoliopsida; Tracheophyta; Quercus L.
2010,2010-08-13,Porto,Paços de Ferreira,Freamunde,R. S.MARTINHO (SANFINS DE FERREIRA),41.2885918,-8.3401591,NC,357.0,2010-08-13T19:00,25.2,34,8.4,23.4,0.0,0.0,0.0,0.0,0,1013.3,972.9,0,0,0,0,0.15,2.1,9.0,18.0,358,3,23.8,29.0,25.8,23.0,17.9,0.092,0.141,0.217,0.336,1,3600.0,70.7,48.0,22.7,494.7,70.7,129.3,140.0,95.0,45.0,494.7,140.0,255.9,,,,,,,,,,,,,,,,,,,,,,,,,,,,,,,,,,,,,,,,,,,,,,,,,,,,,,,Tracheophyta; Eucalyptus L'Hér.; Magnoliopsida; Pinus pinaster Aiton; 
2010,2010-08-29,Porto,Penafiel,Paço de Sousa,SALGADINHO (Salgadinha),41.1662682,-8.3459799,Desconhecida,135.0,2010-08-29T18:00,30.5,39,15.0,30.3,0.0,0.0,0.0,0.0,0,1015.4,1000.1,0,0,0,0,0.27,2.66,12.6,20.3,323,327,24.5,32.2,26.2,23.2,20.2,0.128,0.137,0.194,0.329,1,3600.0,179.5,137.1,42.4,634.8,179.5,289.7,258.0,197.0,61.0,634.8,258.0,416.3,,,,,,,,,,,,,,,,,,,,,,,,,,,,,,,,,,,,,,,,,,,,,,,,,,,,,,,Tracheophyta; Eucalyptus L'Hér.; Magnoliopsida; Vitis vinifera L.
2010,2010-08-18,Lisboa,Sintra,Agualva,EST DA CARREGUEIRA JUNTO À VASP (Agualva-Cacém),38.7665167,-9.2984684,Desconhecida,113.0,2010-08-18T13:00,23.0,69,17.1,22.8,0.0,0.0,0.0,0.0,2,1016.5,1003.4,51,57,0,0,0.42,0.87,23.4,29.9,337,342,42.1,26.3,23.0,22.8,19.9,0.121,0.167,0.229,0.332,1,3600.0,687.4,391.2,296.2,435.5,687.4,1199.2,687.0,391.0,296.0,435.5,687.0,1198.5,,,,,,,,,,,,,,,,,,,,,,,,,,,,,,,,,,,,,,,,,,,,,,,,,,,,,,,Tracheophyta; Magnoliopsida; 
2010,2010-07-30,Vila Real,Boticas,Bobadela,Nogueira,41.7306282,-7.617843795125788,NC,596.0,2010-07-30T14:00,30.8,30,11.0,32.9,0.0,0.0,0.0,0.0,0,1013.6,948.3,0,0,0,0,0.68,3.13,3.8,4.1,139,142,23.0,35.8,26.0,21.5,15.8,0.091,0.183,0.27,0.361,1,3600.0,887.3,784.3,103.0,899.1,887.3,1157.6,913.0,807.0,106.0,899.1,913.0,1191.1,,,,,,,,,,,,,,,,,,,,,,,,,,,,,,,,,,,,,,,,,,,,,,,,,,,,,,,Magnoliopsida; Tracheophyta; Pinus pinaster Aiton
2010,2010-08-30,Porto,Marco de Canaveses,Ariz,VILA MONTE / OLIVAL,41.1097801,-8.219640201070488,Desconhecida,234.0,2010-08-30T11:00,30.8,29,10.6,30.9,0.0,0.0,0.0,0.0,0,1014.5,988.2,0,0,0,0,0.57,3.16,8.3,10.8,90,90,21.2,30.5,24.4,23.2,20.1,0.108,0.139,0.206,0.33,1,3600.0,786.3,685.3,100.9,872.5,786.3,1054.0,740.0,645.0,95.0,872.5,740.0,992.0,,,,,,,,,,,,,,,,,,,,,,,,,,,,,,,,,,,,,,,,,,,,,,,,,,,,,,,Pinales; Magnoliopsida; Quercus L.; Tracheophyta; Pinus pinaster Aiton; Eucalyptus L'Hér.; ; Vitis vinifera L.
2010,2010-08-30,Aveiro,Estarreja,Avanca,Fojo,40.7928469,-8.554607,Desconhecida,64.0,2010-08-30T12:00,34.6,23,10.5,35.8,0.0,0.0,0.0,0.0,0,1013.5,1006.3,0,0,0,0,0.64,4.22,4.8,6.5,13,56,16.9,36.1,25.5,23.4,20.9,0.093,0.125,0.182,0.305,1,3600.0,853.5,749.7,103.9,892.0,853.5,1127.8,830.0,729.0,101.0,892.0,830.0,1096.7,,,,,,,,,,,,,,,,,,,,,,,,,,,,,,,,,,,,,,,,,,,,,,,,,,,,,,,Pinus pinaster Aiton; Tracheophyta; Eucalyptus L'Hér.; Magnoliopsida
2010,2010-08-30,Aveiro,Albergaria-a-Velha,Albergaria-a-Velha,SOBREIRO,40.6938582,-8.5060594,Desconhecida,126.0,2010-08-30T13:00,35.8,21,9.9,37.3,0.0,0.0,0.0,0.0,0,1012.7,998.7,0,0,0,0,0.67,4.67,3.8,5.2,41,56,16.9,39.8,25.8,23.2,20.5,0.068,0.087,0.117,0.237,1,3600.0,865.5,763.8,101.7,903.3,865.5,1134.6,868.0,766.0,102.0,903.3,868.0,1137.9,,,,,,,,,,,,,,,,,,,,,,,,,,,,,,,,,,,,,,,,,,,,,,,,,,,,,,,Tracheophyta; Eucalyptus L'Hér.
2010,2010-08-27,Lisboa,Sintra,Pêro Pinheiro,Fação,38.8562197,-9.3257118,Desconhecida,150.0,2010-08-27T11:00,24.4,63,16.8,25.6,0.0,0.0,0.0,0.0,0,1018.5,1001.1,0,0,0,0,0.47,1.14,14.5,17.8,346,352,26.6,30.6,25.0,23.7,21.2,0.084,0.158,0.222,0.335,1,3600.0,783.3,671.4,111.9,833.3,783.3,1079.6,735.0,630.0,105.0,833.3,735.0,1013.1,,,,,,,,,,,,,,,,,,,,,,,,,,,,,,,,,,,,,,,,,,,,,,,,,,,,,,,Tracheophyta; Magnoliopsida; Pinus pinaster Aiton; Eucalyptus L'Hér.; Vitis vinifera L.; 
2010,2010-08-30,Porto,Baião,Ribadouro,SUB-RIBAS (Sub-Rego),41.1028521,-8.0896048,NC,103.0,2010-08-30T11:00,31.1,29,11.0,30.8,0.0,0.0,0.0,0.0,0,1015.2,1003.5,0,0,0,0,0.61,3.21,11.9,15.5,95,95,30.6,30.5,24.7,23.5,20.5,0.116,0.14,0.208,0.328,1,3600.0,791.6,690.7,100.9,879.3,791.6,1054.0,745.0,650.0,95.0,879.3,745.0,992.0,,,,,,,,,,,,,,,,,,,,,,,,,,,,,,,,,,,,,,,,,,,,,,,,,,,,,,,Magnoliopsida; Pinus pinaster Aiton; Tracheophyta; Vitis vinifera L.; Quercus suber L.; Acacia Mill.; Eucalyptus L'Hér.; Quercus L.; 
2010,2010-09-01,Porto,Paços de Ferreira,Sanfins de Ferreira,CITANIA,41.3266496,-8.3721821,Desconhecida,434.0,2010-09-01T15:00,23.1,54,13.3,22.5,0.1,0.1,0.0,0.0,51,1009.5,960.5,16,1,21,8,0.42,1.31,13.6,17.2,287,286,34.9,30.5,24.5,21.8,18.7,0.098,0.137,0.202,0.324,1,3600.0,573.5,443.1,130.3,642.6,573.5,926.3,616.0,476.0,140.0,642.6,616.0,994.9,,,,,,,,,,,,,,,,,,,,,,,,,,,,,,,,,,,,,,,,,,,,,,,,,,,,,,,Magnoliopsida; Eucalyptus L'Hér.; Tracheophyta; Pinus pinaster Aiton
2010,2010-08-16,Porto,Paredes,Madalena,LG DA PENA (SOBROSA),41.2038602,-8.324328159111156,NC,149.0,2010-08-16T17:00,30.8,26,9.3,28.9,0.0,0.0,0.0,0.0,0,1015.8,999.0,0,0,0,0,0.45,3.27,11.8,15.5,320,324,23.8,34.0,26.4,23.9,19.3,0.109,0.138,0.202,0.337,1,3600.0,426.8,352.3,74.5,767.1,426.8,612.6,504.0,416.0,88.0,767.1,504.0,723.4,,,,,,,,,,,,,,,,,,,,,,,,,,,,,,,,,,,,,,,,,,,,,,,,,,,,,,,Magnoliopsida; Pinus pinaster Aiton; Eucalyptus L'Hér.; Tracheophyta; Vitis vinifera L.
2010,2010-08-19,Lisboa,Lourinhã,Vimeiro,VALE VITE,39.194422,-9.2955851,Desconhecida,43.0,2010-08-19T13:00,23.1,61,15.1,23.5,0.0,0.0,0.0,0.0,0,1015.1,1010.1,4,4,0,0,0.54,1.11,20.3,25.3,335,337,38.5,30.5,23.4,23.2,20.5,0.092,0.149,0.212,0.313,1,3600.0,891.3,763.3,128.0,855.3,891.3,1191.8,891.0,763.0,128.0,855.3,891.0,1191.4,,,,,,,,,,,,,,,,,,,,,,,,,,,,,,,,,,,,,,,,,,,,,,,,,,,,,,,Tracheophyta; Eucalyptus L'Hér.; Magnoliopsida; Vitis vinifera L.; 
2010,2010-08-07,Setúbal,Almada,Costa da Caparica,PRAIA FONTE DA TELHA (Nova Praia),38.6489972,-9.2346543,NC,4.0,2010-08-07T18:00,27.6,49,15.9,28.0,0.0,0.0,0.0,0.0,0,1013.4,1012.9,0,0,0,0,0.29,1.89,11.2,14.1,303,308,22.7,34.4,27.7,23.7,20.5,0.05,0.066,0.114,0.228,1,3600.0,266.7,206.0,60.7,657.6,266.7,416.5,347.0,268.0,79.0,657.6,347.0,542.0,,,,,,,,,,,,,,,,,,,,,,,,,,,,,,,,,,,,,,,,,,,,,,,,,,,,,,,Pinus pinea L.; Tracheophyta; Pinales; Magnoliopsida
2010,2010-09-02,Porto,Vila Nova de Gaia,Canelas,R. CONDE RESENDE (Rua Conde Barão),41.0805427,-8.6006594,NC,126.0,2010-09-02T17:00,23.1,59,14.5,22.1,0.0,0.0,0.0,0.0,0,1015.3,1000.7,2,0,0,5,0.3,1.17,16.8,21.9,313,315,33.8,29.0,25.1,23.4,20.5,0.118,0.136,0.196,0.337,1,3600.0,352.0,286.5,65.5,740.5,352.0,520.0,430.0,350.0,80.0,740.5,430.0,635.2,,,,,,,,,,,,,,,,,,,,,,,,,,,,,,,,,,,,,,,,,,,,,,,,,,,,,,,Tracheophyta; Magnoliopsida; Eucalyptus L'Hér.
2010,2010-08-07,Porto,Gondomar,Baguim Do Monte (rio Tinto),RUA DR. ANTONIO  CASTRO MEIRELES (Rua de João de Deus),41.18562705,-8.5415098,NC,122.0,2010-08-07T20:00,29.0,47,16.5,30.1,0.0,0.0,0.0,0.0,0,1013.3,999.4,0,0,0,0,0.09,2.12,7.7,14.6,332,351,15.5,30.8,28.4,23.7,18.8,0.103,0.139,0.209,0.342,0,411.75,0.0,0.0,0.0,0.0,0.0,0.0,21.0,11.0,10.0,114.0,21.0,69.9,,,,,,,,,,,,,,,,,,,,,,,,,,,,,,,,,,,,,,,,,,,,,,,,,,,,,,,Magnoliopsida; Tracheophyta
2010,2010-08-19,Aveiro,Sever do Vouga,Dornelas,Decide (Dornelas),40.787108700000005,-8.381791317784282,Desconhecida,562.0,2010-08-19T08:00,17.6,74,13.0,18.2,0.0,0.0,0.0,0.0,1,1014.6,950.2,26,27,0,4,0.1,0.51,2.1,2.7,59,67,12.6,19.9,22.1,22.6,18.4,0.103,0.139,0.211,0.334,1,3600.0,239.8,120.5,119.2,296.7,239.8,542.6,185.0,93.0,92.0,296.7,185.0,418.6,,,,,,,,,,,,,,,,,,,,,,,,,,,,,,,,,,,,,,,,,,,,,,,,,,,,,,,Tracheophyta; Pinus pinaster Aiton; Eucalyptus L'Hér.; Magnoliopsida
2010,2010-08-07,Porto,Marco de Canaveses,Vila Boa do Bispo,Outeiro,41.1332787,-8.2097194,NC,208.0,2010-08-07T20:00,30.9,41,16.0,32.2,0.0,0.0,0.0,0.0,0,1013.7,990.3,0,0,0,0,0.07,2.66,5.0,7.0,300,325,13.0,31.3,28.1,23.6,18.5,0.099,0.146,0.229,0.345,0,322.79,0.0,0.0,0.0,0.0,0.0,0.0,20.0,10.0,10.0,105.4,20.0,67.7,,,,,,,,,,,,,,,,,,,,,,,,,,,,,,,,,,,,,,,,,,,,,,,,,,,,,,,Tracheophyta; Pinus pinaster Aiton; Vitis vinifera L.; Quercus L.; Eucalyptus L'Hér.; Magnoliopsida; Acacia Mill.; 
2010,2010-09-02,Porto,Penafiel,Castelões,LG DAS POLDRAS (BUSTÊLO),41.2310904,-8.1850549,Desconhecida,219.0,2010-09-02T06:00,16.2,96,15.6,17.7,0.0,0.0,0.0,0.0,3,1013.6,987.8,86,96,0,0,0.0,0.07,3.1,1.8,111,79,7.6,17.4,23.5,23.1,19.9,0.113,0.139,0.205,0.327,0,0.0,0.0,0.0,0.0,0.0,0.0,0.0,0.0,0.0,0.0,0.0,0.0,0.0,,,,,,,,,,,,,,,,,,,,,,,,,,,,,,,,,,,,,,,,,,,,,,,,,,,,,,,Tracheophyta; Eucalyptus L'Hér.; Vitis vinifera L.; Magnoliopsida
2010,2010-08-21,Porto,Paredes,Lordelo,ZONA IND. LORDELO (LORDELO),41.2364966,-8.415551743176014,Desconhecida,210.0,2010-08-21T15:00,30.7,43,16.8,31.2,0.0,0.0,0.0,0.0,0,1020.2,996.4,8,6,4,0,0.55,2.51,16.8,21.6,312,314,27.0,34.3,25.4,23.2,19.3,0.12,0.134,0.181,0.336,1,3600.0,606.3,456.3,149.9,622.1,606.3,980.5,647.0,487.0,160.0,622.1,647.0,1046.3,,,,,,,,,,,,,,,,,,,,,,,,,,,,,,,,,,,,,,,,,,,,,,,,,,,,,,,Magnoliopsida; Pinus pinaster Aiton; Eucalyptus L'Hér.; Tracheophyta; Vitis vinifera L.
2010,2010-07-31,Porto,Felgueiras,Macieira da Lixa,Maçorra,41.3496108,-8.1492033,NC,406.0,2010-07-31T09:00,26.6,50,15.4,28.0,0.0,0.0,0.0,0.0,0,1013.3,967.7,0,0,0,0,0.33,1.74,3.1,3.2,249,243,15.1,28.2,25.2,21.8,16.4,0.093,0.156,0.244,0.35,1,3600.0,564.4,464.4,100.0,750.9,564.4,820.9,491.0,404.0,87.0,750.9,491.0,714.1,,,,,,,,,,,,,,,,,,,,,,,,,,,,,,,,,,,,,,,,,,,,,,,,,,,,,,,Eucalyptus L'Hér.; Tracheophyta; Pinus pinaster Aiton; Magnoliopsida; Vitis vinifera L.
2010,2010-08-30,Bragança,Bragança,Bragança (santa Maria),Quinta das Carvas,41.81037375,-6.737708397882552,NC,595.0,2010-08-30T09:00,20.9,50,10.1,19.3,0.0,0.0,0.0,0.0,0,1019.3,951.6,0,0,0,0,0.29,1.24,11.3,15.5,73,72,29.5,23.0,23.5,22.9,19.4,0.138,0.155,0.201,0.34,1,3600.0,518.7,427.6,91.1,764.6,518.7,750.3,444.0,366.0,78.0,764.6,444.0,642.3,,,,,,,,,,,,,,,,,,,,,,,,,,,,,,,,,,,,,,,,,,,,,,,,,,,,,,,Tracheophyta; Magnoliopsida; Quercus L.; Olea europaea L.
2010,2010-09-02,Porto,Amarante,Telões,LABORIZ,41.2933712,-8.097429097698791,NC,172.0,2010-09-02T12:00,26.0,53,15.6,28.4,0.0,0.0,0.0,0.0,0,1015.5,995.8,4,0,0,14,0.56,1.59,7.4,9.0,293,293,22.3,30.1,23.9,23.3,20.3,0.112,0.139,0.205,0.327,1,3600.0,842.6,738.8,103.8,893.7,842.6,1111.0,820.0,719.0,101.0,893.7,820.0,1081.2,,,,,,,,,,,,,,,,,,,,,,,,,,,,,,,,,,,,,,,,,,,,,,,,,,,,,,,Magnoliopsida; Pinus pinaster Aiton; Tracheophyta; Vitis vinifera L.; Eucalyptus L'Hér.; 
2010,2010-08-30,Porto,Felgueiras,Rande,LUG. LONGRA (Ribeira de Longra),41.3308088,-8.2277133,NC,214.0,2010-08-30T13:00,33.5,24,10.3,34.2,0.0,0.0,0.0,0.0,0,1014.1,990.3,0,0,0,0,0.7,3.91,8.3,10.4,92,92,26.3,33.9,24.7,22.7,19.8,0.124,0.137,0.193,0.329,1,3600.0,865.2,764.6,100.7,910.7,865.2,1126.5,868.0,767.0,101.0,910.7,868.0,1130.1,,,,,,,,,,,,,,,,,,,,,,,,,,,,,,,,,,,,,,,,,,,,,,,,,,,,,,,Magnoliopsida; Tracheophyta; Eucalyptus L'Hér.; Vitis vinifera L.
2010,2010-08-16,Porto,Paredes,Lordelo,ZONA INDUSTRIAL LORDELO (LORDELO),41.2364966,-8.415551743176014,NC,210.0,2010-08-16T05:00,19.5,47,7.9,16.3,0.0,0.0,0.0,0.0,0,1015.0,990.5,0,0,0,0,0.11,1.2,17.7,30.5,77,83,36.7,20.2,24.8,23.6,18.9,0.119,0.134,0.185,0.339,0,0.0,0.0,0.0,0.0,0.0,0.0,0.0,0.0,0.0,0.0,0.0,0.0,0.0,,,,,,,,,,,,,,,,,,,,,,,,,,,,,,,,,,,,,,,,,,,,,,,,,,,,,,,Magnoliopsida; Pinus pinaster Aiton; Eucalyptus L'Hér.; Tracheophyta; Vitis vinifera L.
2010,2010-08-17,Porto,Penafiel,Paço de Sousa,LG. SALGADINHA (URRO),41.1662682,-8.3459799,Desconhecida,135.0,2010-08-17T22:00,19.4,79,15.7,20.0,0.0,0.0,0.0,0.0,0,1017.6,1001.7,0,0,0,0,0.01,0.47,9.5,14.5,307,318,22.7,23.5,26.5,24.0,19.5,0.109,0.138,0.201,0.336,0,0.0,0.0,0.0,0.0,0.0,0.0,0.0,0.0,0.0,0.0,0.0,0.0,0.0,,,,,,,,,,,,,,,,,,,,,,,,,,,,,,,,,,,,,,,,,,,,,,,,,,,,,,,Tracheophyta; Eucalyptus L'Hér.; Magnoliopsida; Vitis vinifera L.
2010,2010-09-02,Leiria,Caldas da Rainha,Salir do Porto,Salir do Porto,39.4924358,-9.1472141,NC,9.0,2010-09-02T20:00,19.4,84,16.7,18.6,0.0,0.0,0.0,0.0,0,1016.4,1015.3,0,0,0,0,0.03,0.35,21.7,31.8,353,354,37.4,23.4,26.2,24.3,21.9,0.043,0.068,0.116,0.22,0,0.0,0.0,0.0,0.0,0.0,0.0,0.0,0.0,0.0,0.0,0.0,0.0,0.0,,,,,,,,,,,,,,,,,,,,,,,,,,,,,,,,,,,,,,,,,,,,,,,,,,,,,,,Pinus pinaster Aiton; Magnoliopsida; Tracheophyta
2010,2010-08-30,Vila Real,Mondim de Basto,Campanhó,Campanhó,41.3240068,-7.929999506009244,NC,579.0,2010-08-30T10:00,25.3,33,8.0,23.5,0.0,0.0,0.0,0.0,0,1017.0,952.2,0,0,0,0,0.45,2.16,11.6,15.5,85,85,31.7,26.3,23.1,21.9,18.4,0.12,0.135,0.19,0.334,1,3600.0,673.9,578.7,95.2,842.1,673.9,922.1,609.0,523.0,86.0,842.1,609.0,833.4,,,,,,,,,,,,,,,,,,,,,,,,,,,,,,,,,,,,,,,,,,,,,,,,,,,,,,,Magnoliopsida; Pinus pinaster Aiton
2010,2010-08-17,Braga,Vila Verde,Duas Igrejas,L. CODEÇAL (DUAS IGREJAS) M5 (ABOIM DA NOBREGA),41.6943268,-8.4908715,NC,211.0,2010-08-17T10:00,26.1,40,11.3,25.5,0.0,0.0,0.0,0.0,0,1018.8,994.6,1,1,0,0,0.45,2.03,9.7,12.4,356,10,22.0,28.1,24.1,23.0,18.7,0.096,0.138,0.209,0.332,1,3600.0,692.4,582.2,110.3,814.8,692.4,953.4,628.0,528.0,100.0,814.8,628.0,864.7,,,,,,,,,,,,,,,,,,,,,,,,,,,,,,,,,,,,,,,,,,,,,,,,,,,,,,,Magnoliopsida; Eucalyptus L'Hér.; Tracheophyta; Pinus pinaster Aiton
2010,2010-08-30,Aveiro,Albergaria-a-Velha,Albergaria-a-Velha,Zona Industrial (RIBEIRA DE FRÁGOAS),40.690328,-8.479538190307041,Desconhecida,121.0,2010-08-30T15:00,36.9,19,9.8,37.0,0.0,0.0,0.0,0.0,0,1011.5,998.1,0,0,0,0,0.64,5.04,7.8,9.5,347,351,19.8,41.7,26.7,23.3,20.6,0.068,0.087,0.117,0.237,1,3600.0,706.7,617.2,89.5,877.4,706.7,944.0,758.0,662.0,96.0,877.4,758.0,1012.5,,,,,,,,,,,,,,,,,,,,,,,,,,,,,,,,,,,,,,,,,,,,,,,,,,,,,,,Tracheophyta; Eucalyptus L'Hér.
2010,2010-08-29,Viseu,Viseu,São João de Lourosa,Rebordinho,40.6107847,-7.9359598,Desconhecida,417.0,2010-08-29T19:00,30.3,31,11.1,29.5,0.0,0.0,0.0,0.0,0,1015.1,968.8,0,0,0,0,0.12,3.0,8.0,13.2,324,334,18.0,31.6,27.0,23.5,20.1,0.092,0.15,0.225,0.337,1,2514.24,9.0,5.6,3.3,64.7,7.1,18.4,73.0,46.0,27.0,326.0,73.0,149.7,,,,,,,,,,,,,,,,,,,,,,,,,,,,,,,,,,,,,,,,,,,,,,,,,,,,,,,Pinus pinaster Aiton; Tracheophyta; Magnoliopsida
2010,2010-08-27,Setúbal,Almada,Sobreda,ALTO MOINHO- SEMAFOROS DO TEXUGO (Alto da Ponte),38.65228755,-9.181922406517888,NC,63.0,2010-08-27T14:00,27.8,43,14.1,27.6,0.0,0.0,0.0,0.0,0,1018.1,1010.8,0,0,0,0,0.63,2.13,20.5,26.2,336,342,37.1,32.2,25.7,23.9,21.3,0.136,0.158,0.213,0.335,1,3600.0,824.4,721.7,102.7,870.6,824.4,1110.8,851.0,745.0,106.0,870.6,851.0,1146.7,,,,,,,,,,,,,,,,,,,,,,,,,,,,,,,,,,,,,,,,,,,,,,,,,,,,,,,Tracheophyta; Magnoliopsida
2010,2010-08-30,Porto,Marco de Canaveses,Vila Boa de Quires,LG. QUIRES (Alto de Quires),41.2028475,-8.2047635,NC,275.0,2010-08-30T16:00,34.2,23,10.1,34.1,0.0,0.0,0.0,0.0,0,1012.2,981.8,0,0,0,0,0.48,4.15,4.4,5.4,35,37,16.9,35.1,25.4,22.4,19.5,0.113,0.139,0.207,0.328,1,3600.0,551.8,472.8,79.1,839.7,551.8,755.6,621.0,532.0,89.0,839.7,621.0,850.3,,,,,,,,,,,,,,,,,,,,,,,,,,,,,,,,,,,,,,,,,,,,,,,,,,,,,,,Pinus pinaster Aiton; Tracheophyta; Eucalyptus L'Hér.; Magnoliopsida; Vitis vinifera L.; Quercus L.; Pinales; 
2010,2010-08-21,Porto,Paredes,Beire,RANDINHA (SOBROSA),41.2451216,-8.3240436,NC,192.0,2010-08-21T16:00,31.2,43,17.0,31.9,0.0,0.0,0.0,0.0,0,1019.6,997.9,7,0,11,2,0.46,2.61,12.2,16.3,298,301,24.8,34.5,25.9,23.2,19.4,0.111,0.137,0.198,0.334,1,3600.0,481.8,374.1,107.7,621.9,481.8,804.1,537.0,417.0,120.0,621.9,537.0,896.3,,,,,,,,,,,,,,,,,,,,,,,,,,,,,,,,,,,,,,,,,,,,,,,,,,,,,,,Magnoliopsida; Pinus pinaster Aiton; Eucalyptus L'Hér.; Tracheophyta; Vitis vinifera L.
2010,2010-08-16,Porto,Paços de Ferreira,Freamunde,RUA S. MARTINHO (SANFINS DE FERREIRA),41.2885918,-8.3401591,NC,357.0,2010-08-16T07:00,18.0,50,7.5,14.7,0.0,0.0,0.0,0.0,0,1016.2,974.7,0,0,0,0,0.13,1.03,18.0,30.7,87,87,42.8,19.4,23.7,22.9,18.2,0.092,0.14,0.214,0.335,1,2915.23,153.4,96.5,56.9,425.1,134.9,302.9,89.0,56.0,33.0,373.7,89.0,175.7,,,,,,,,,,,,,,,,,,,,,,,,,,,,,,,,,,,,,,,,,,,,,,,,,,,,,,,Tracheophyta; Eucalyptus L'Hér.; Magnoliopsida; Pinus pinaster Aiton; 
2010,2010-07-31,Coimbra,Lousã,Casal de Ermio,casal do ermio (Casal de Catarredor),40.1536924,-8.2512014,NC,119.0,2010-07-31T13:00,31.1,43,16.9,34.2,0.0,0.0,0.0,0.0,0,1013.3,999.9,0,0,0,0,0.71,2.6,10.5,12.3,266,265,25.9,37.1,27.9,24.1,18.9,0.093,0.134,0.203,0.326,1,3600.0,921.9,782.9,139.0,846.7,921.9,1227.2,922.0,783.0,139.0,846.7,922.0,1227.4,,,,,,,,,,,,,,,,,,,,,,,,,,,,,,,,,,,,,,,,,,,,,,,,,,,,,,,Pinus pinaster Aiton; Tracheophyta; Magnoliopsida; Eucalyptus L'Hér.; Pinales; Acacia Mill.; Quercus L.; Olea europaea L.; 
2010,2010-08-17,Vila Real,Vila Real,Vilarinho de Samardã,Vilarinho,41.3831553,-7.707107528228638,NC,702.0,2010-08-17T23:00,17.6,71,12.2,17.5,0.0,0.0,0.0,0.0,0,1017.5,937.6,0,0,0,0,0.01,0.59,5.9,7.9,281,286,14.8,20.9,24.4,21.8,17.2,0.099,0.145,0.225,0.34,0,0.0,0.0,0.0,0.0,0.0,0.0,0.0,0.0,0.0,0.0,0.0,0.0,0.0,,,,,,,,,,,,,,,,,,,,,,,,,,,,,,,,,,,,,,,,,,,,,,,,,,,,,,,Magnoliopsida; Vitis vinifera L.; Tracheophyta
2010,2010-08-21,Viana do Castelo,Viana do Castelo,Nogueira,PAREDINHA - NOGUEIRA (Paredinha),41.7284686,-8.7316684,Desconhecida,28.0,2010-08-21T17:00,23.9,68,17.7,24.3,0.0,0.0,0.0,0.0,0,1020.7,1017.4,15,17,0,0,0.27,0.93,15.9,21.3,332,336,29.2,29.8,24.4,22.8,19.9,0.082,0.151,0.23,0.339,1,3600.0,333.5,197.9,135.6,447.2,333.5,591.5,396.0,235.0,161.0,447.2,396.0,702.4,,,,,,,,,,,,,,,,,,,,,,,,,,,,,,,,,,,,,,,,,,,,,,,,,,,,,,,Eucalyptus L'Hér.; Magnoliopsida; Tracheophyta
2010,2010-08-21,Aveiro,Oliveira de Azeméis,Nogueira do Cravo,Cêrro (CÉSAR),40.8560743,-8.4453526,Desconhecida,204.0,2010-08-21T17:00,27.2,54,17.1,27.3,0.0,0.0,0.0,0.0,0,1020.3,996.9,5,5,1,0,0.33,1.66,16.2,21.1,328,330,35.3,32.1,25.9,23.5,19.8,0.108,0.136,0.193,0.33,1,3600.0,321.3,219.8,101.5,500.2,321.3,587.4,383.0,262.0,121.0,500.2,383.0,700.1,,,,,,,,,,,,,,,,,,,,,,,,,,,,,,,,,,,,,,,,,,,,,,,,,,,,,,,Tracheophyta; Eucalyptus L'Hér.; Pinus pinaster Aiton
2010,2010-08-19,Porto,Amarante,Salvador do Monte,SALVADOR (SALVADOR DO MONTE),41.23979935,-8.095584015425107,NC,283.0,2010-08-19T14:00,27.1,44,13.8,28.8,0.0,0.0,0.0,0.0,0,1013.9,981.9,2,0,0,7,0.62,2.0,9.5,11.6,295,296,28.1,33.3,24.2,23.3,19.1,0.098,0.141,0.216,0.335,1,3600.0,846.1,744.3,101.8,896.9,846.1,1108.4,873.0,768.0,105.0,896.9,873.0,1143.6,,,,,,,,,,,,,,,,,,,,,,,,,,,,,,,,,,,,,,,,,,,,,,,,,,,,,,,Eucalyptus L'Hér.; Magnoliopsida; Pinus pinaster Aiton; Vitis vinifera L.; Tracheophyta; 
2010,2010-08-30,Lisboa,Oeiras,Algés,JUNTO CAMPO FUTEBOL DE ALGES (ALGÉS),38.705234950000005,-9.228878991510486,Desconhecida,29.0,2010-08-30T17:00,31.6,40,16.3,31.0,0.0,0.0,0.0,0.0,0,1009.8,1006.5,0,0,0,0,0.46,2.8,19.2,28.6,322,326,33.5,35.2,28.3,24.2,21.6,0.135,0.157,0.211,0.334,1,3600.0,381.9,316.8,65.2,765.3,381.9,555.5,463.0,384.0,79.0,765.3,463.0,673.3,,,,,,,,,,,,,,,,,,,,,,,,,,,,,,,,,,,,,,,,,,,,,,,,,,,,,,,Tracheophyta; Pinus pinaster Aiton; Pinales; Magnoliopsida; Pinus pinea L.; Vitis vinifera L.; Eucalyptus L'Hér.; Olea europaea L.
2010,2010-08-30,Bragança,Mirandela,Franco,Pereiras- Franco,41.4414639,-7.3054665,Desconhecida,577.0,2010-08-30T07:00,16.6,68,10.6,15.9,0.0,0.0,0.0,0.0,0,1018.5,951.9,0,0,0,0,0.04,0.61,6.5,10.9,71,81,16.2,18.1,23.3,22.6,18.9,0.135,0.149,0.19,0.336,1,2361.56,131.9,83.4,48.5,417.9,99.6,267.7,68.0,43.0,25.0,315.8,68.0,138.1,,,,,,,,,,,,,,,,,,,,,,,,,,,,,,,,,,,,,,,,,,,,,,,,,,,,,,,Magnoliopsida; Tracheophyta; Olea europaea L.; Pinales
2010,2010-09-02,Vila Real,Boticas,Dornelas,Lousas (Gardunho) (Lousas),41.6390982,-7.842433,Desconhecida,694.0,2010-09-02T10:00,21.0,67,14.7,21.8,0.0,0.0,0.0,0.0,0,1016.0,937.9,12,13,0,0,0.34,0.81,5.6,7.1,315,315,19.8,23.4,21.6,21.5,18.1,0.147,0.145,0.22,0.335,1,3600.0,613.5,467.3,146.2,690.9,613.5,909.0,554.0,422.0,132.0,690.9,554.0,820.8,,,,,,,,,,,,,,,,,,,,,,,,,,,,,,,,,,,,,,,,,,,,,,,,,,,,,,,Pinus pinaster Aiton; Pinales; Magnoliopsida; Tracheophyta
2010,2010-08-30,Bragança,Carrazeda de Ansiães,Selores,CATALINA (PEREIROS),41.2046232,-7.291626,NC,624.0,2010-08-30T14:00,31.0,23,7.6,31.4,0.0,0.0,0.0,0.0,0,1015.2,946.9,0,0,0,0,0.63,3.45,5.5,6.9,101,99,23.0,36.2,25.6,23.5,19.6,0.111,0.151,0.183,0.329,1,3600.0,806.1,711.6,94.5,902.7,806.1,1057.9,836.0,738.0,98.0,902.7,836.0,1097.1,,,,,,,,,,,,,,,,,,,,,,,,,,,,,,,,,,,,,,,,,,,,,,,,,,,,,,,Magnoliopsida; Olea europaea L.; Tracheophyta; Pinales; Vitis vinifera L.
2010,2010-08-20,Lisboa,Alenquer,Abrigada,Marés,39.1552585,-8.9949996,Desconhecida,98.0,2010-08-20T03:00,17.0,94,16.1,17.0,0.0,0.0,0.0,0.0,2,1017.5,1005.8,73,81,0,0,0.0,0.11,14.3,21.8,350,351,24.1,19.4,25.6,25.6,21.8,0.083,0.154,0.208,0.305,0,0.0,0.0,0.0,0.0,0.0,0.0,0.0,0.0,0.0,0.0,0.0,0.0,0.0,,,,,,,,,,,,,,,,,,,,,,,,,,,,,,,,,,,,,,,,,,,,,,,,,,,,,,,Eucalyptus L'Hér.
2010,2010-08-16,Aveiro,Vale de Cambra,São Pedro de Castelões,Chã- Junqueira,40.8078792,-8.366068,Desconhecida,717.0,2010-08-16T09:00,20.1,43,7.2,16.9,0.0,0.0,0.0,0.0,0,1018.0,937.0,0,0,0,0,0.32,1.34,16.5,23.0,79,80,45.0,21.6,22.2,21.8,17.2,0.098,0.14,0.214,0.336,1,3600.0,546.2,454.2,92.0,777.0,546.2,779.6,469.0,390.0,79.0,777.0,469.0,669.5,,,,,,,,,,,,,,,,,,,,,,,,,,,,,,,,,,,,,,,,,,,,,,,,,,,,,,,Magnoliopsida; Eucalyptus L'Hér.; Tracheophyta; Pinus pinaster Aiton
2010,2010-08-30,Bragança,Vinhais,Curopos,Lombeiro- Palas,41.8021045,-7.0931396,Desconhecida,723.0,2010-08-30T14:00,29.8,26,8.1,30.6,0.0,0.0,0.0,0.0,0,1015.4,936.5,0,0,0,0,0.6,3.11,3.9,4.2,158,149,19.8,34.5,24.6,22.2,18.2,0.12,0.134,0.182,0.334,1,3600.0,801.8,706.4,95.4,903.3,801.8,1049.4,832.0,733.0,99.0,903.3,832.0,1088.9,,,,,,,,,,,,,,,,,,,,,,,,,,,,,,,,,,,,,,,,,,,,,,,,,,,,,,,Magnoliopsida; Castanea sativa Mill.; Tracheophyta; Vitis vinifera L.; Pinus pinaster Aiton; Eucalyptus L'Hér.
2010,2010-09-03,Porto,Paredes,Cete,rua do arieiro (CETE),41.1714756,-8.3553953,Desconhecida,131.0,2010-09-03T07:00,17.0,92,15.7,18.2,0.0,0.0,0.0,0.0,2,1017.0,1001.5,54,54,0,17,0.01,0.15,4.8,5.6,27,27,13.7,17.6,23.3,23.7,20.5,0.128,0.134,0.174,0.329,1,1881.43,98.2,54.6,43.7,312.6,63.5,234.7,45.0,25.0,20.0,202.2,45.0,107.5,,,,,,,,,,,,,,,,,,,,,,,,,,,,,,,,,,,,,,,,,,,,,,,,,,,,,,,Magnoliopsida; Pinus pinaster Aiton; Eucalyptus L'Hér.; Tracheophyta; Vitis vinifera L.
2010,2010-07-31,Porto,Felgueiras,Margaride (santa Eulália),QUINTA RIBEIRA (Quinta da Adega),41.3667229,-8.203496330346734,NC,298.0,2010-07-31T14:00,32.2,41,17.1,35.1,0.0,0.0,0.0,0.0,0,1012.7,979.6,0,0,0,0,0.72,2.86,11.2,13.7,266,268,29.2,37.2,27.1,22.4,17.0,0.097,0.148,0.233,0.345,1,3600.0,884.2,777.2,107.0,888.0,884.2,1161.8,909.0,799.0,110.0,888.0,909.0,1194.3,,,,,,,,,,,,,,,,,,,,,,,,,,,,,,,,,,,,,,,,,,,,,,,,,,,,,,,Magnoliopsida; Tracheophyta; Eucalyptus L'Hér.
2010,2010-08-18,Viana do Castelo,Viana do Castelo,Outeiro,ROMAM - OUTEIRO (Ribeira do Outeiro),42.0302814,-8.4372144,Desconhecida,375.0,2010-08-18T00:00,18.1,82,14.9,18.9,0.0,0.0,0.0,0.0,0,1018.0,974.4,14,16,0,0,0.0,0.38,5.9,10.8,349,358,19.1,21.1,24.5,22.1,18.1,0.091,0.142,0.221,0.339,0,0.0,0.0,0.0,0.0,0.0,0.0,0.0,0.0,0.0,0.0,0.0,0.0,0.0,,,,,,,,,,,,,,,,,,,,,,,,,,,,,,,,,,,,,,,,,,,,,,,,,,,,,,,Magnoliopsida; Eucalyptus L'Hér.; Pinus pinaster Aiton
2010,2010-08-30,Braga,Braga,Nogueiró,L. DADIM (NOGUEIRÓ) M1 (CRESPOS),41.5513768,-8.3876444,NC,279.0,2010-08-30T16:00,33.6,25,10.9,33.7,0.0,0.0,0.0,0.0,0,1012.2,981.3,0,0,0,0,0.47,3.89,4.4,5.4,35,37,16.9,34.2,24.7,21.7,19.0,0.121,0.138,0.202,0.326,1,3600.0,552.1,473.0,79.1,841.8,552.1,754.0,621.0,532.0,89.0,841.8,621.0,848.1,,,,,,,,,,,,,,,,,,,,,,,,,,,,,,,,,,,,,,,,,,,,,,,,,,,,,,,Magnoliopsida; Tracheophyta; Eucalyptus L'Hér.
2010,2010-08-14,Porto,Vila Nova de Gaia,Sandim,RUA DE CASTRO (Rua de André de Castro),41.03204085,-8.500728176230938,NC,133.0,2010-08-14T17:00,29.5,23,6.4,26.3,0.0,0.0,0.0,0.0,0,1013.1,998.0,0,0,0,0,0.48,3.15,15.2,19.8,346,350,28.8,34.4,27.1,24.3,19.6,0.104,0.117,0.157,0.311,1,3600.0,450.7,380.3,70.5,815.5,450.7,621.7,531.0,448.0,83.0,815.5,531.0,732.4,,,,,,,,,,,,,,,,,,,,,,,,,,,,,,,,,,,,,,,,,,,,,,,,,,,,,,,Eucalyptus L'Hér.; Tracheophyta; Quercus L.; Pinus pinea L.; Magnoliopsida
2010,2010-08-16,Porto,Vila Nova de Gaia,Pedroso,R. COSTA DE CIMA (Rua da Costa de Cima),41.0867467,-8.5502223,NC,73.0,2010-08-16T11:00,27.3,35,10.4,27.9,0.0,0.0,0.0,0.0,0,1016.1,1007.7,0,0,0,0,0.55,2.37,6.2,8.1,10,32,24.1,29.4,25.4,24.1,19.8,0.113,0.138,0.208,0.346,1,3600.0,821.4,716.4,105.1,872.6,821.4,1095.1,774.0,675.0,99.0,872.6,774.0,1031.9,,,,,,,,,,,,,,,,,,,,,,,,,,,,,,,,,,,,,,,,,,,,,,,,,,,,,,,Magnoliopsida; Eucalyptus L'Hér.; Tracheophyta
2010,2010-08-17,Porto,Amarante,Mancelos,VALE DA ESTRADA - LOUREDO,41.2894833,-8.155317,NC,471.0,2010-08-17T15:00,28.0,32,9.7,26.9,0.0,0.0,0.0,0.0,0,1016.9,964.3,0,0,0,0,0.58,2.58,13.8,18.2,279,279,38.5,33.8,24.8,22.4,17.7,0.094,0.138,0.208,0.331,1,3600.0,685.7,557.2,128.5,749.1,685.7,992.6,731.0,594.0,137.0,749.1,731.0,1058.2,,,,,,,,,,,,,,,,,,,,,,,,,,,,,,,,,,,,,,,,,,,,,,,,,,,,,,,Tracheophyta; Magnoliopsida; Eucalyptus L'Hér.; Pinus pinaster Aiton; Vitis vinifera L.; 
2010,2010-08-05,Aveiro,Arouca,São Miguel do Mato,Cruz das Eiras (Incêndio de origem - Monte Meda - Gondomar),40.9742385,-8.359222,Desconhecida,264.0,2010-08-05T16:00,30.6,28,10.2,30.3,0.0,0.0,0.0,0.0,0,1012.4,982.9,0,0,0,0,0.56,3.14,8.7,11.2,355,2,22.0,35.0,26.3,23.1,18.1,0.102,0.144,0.223,0.344,1,3600.0,647.8,559.8,88.0,855.6,647.8,869.7,714.0,617.0,97.0,855.6,714.0,958.5,,,,,,,,,,,,,,,,,,,,,,,,,,,,,,,,,,,,,,,,,,,,,,,,,,,,,,,Magnoliopsida; Eucalyptus L'Hér.; Tracheophyta; Pinus pinaster Aiton
2010,2010-08-16,Braga,Guimarães,Lordelo,ALTO (LORDELO)M3 (Alto),41.3725051,-8.3787227,NC,139.0,2010-08-16T11:00,26.8,32,8.8,25.8,0.0,0.0,0.0,0.0,0,1016.6,1000.7,0,0,0,0,0.58,2.4,13.0,17.0,84,85,35.3,28.7,25.0,23.8,19.3,0.102,0.142,0.216,0.335,1,3600.0,824.1,719.1,105.0,876.9,824.1,1093.9,777.0,678.0,99.0,876.9,777.0,1031.4,,,,,,,,,,,,,,,,,,,,,,,,,,,,,,,,,,,,,,,,,,,,,,,,,,,,,,,Tracheophyta; Acacia Mill.; Eucalyptus L'Hér.; Magnoliopsida; Vitis vinifera L.
2010,2010-08-19,Guarda,Trancoso,Trancoso (santa Maria),Quinta do Conde,40.7802544,-7.355919,Desconhecida,838.0,2010-08-19T16:00,27.6,29,8.0,26.0,0.0,0.0,0.0,0.0,0,1012.4,921.3,6,2,7,1,0.45,2.62,8.7,10.9,263,262,24.8,32.8,24.1,21.8,17.4,0.123,0.135,0.185,0.324,1,3600.0,516.7,426.2,90.4,709.0,516.7,802.9,577.0,476.0,101.0,709.0,577.0,896.7,,,,,,,,,,,,,,,,,,,,,,,,,,,,,,,,,,,,,,,,,,,,,,,,,,,,,,,Tracheophyta; Magnoliopsida; Pinales
2010,2010-08-31,Porto,Lousada,Meinedo,TV. PASSO DE CIMA (Quintela),41.2517314,-8.2505324,NC,210.0,2010-08-31T03:00,21.8,49,10.5,20.6,0.0,0.0,0.0,0.0,1,1009.0,984.8,30,0,0,100,0.07,1.34,9.7,24.1,92,92,25.6,22.0,25.6,23.1,20.1,0.102,0.138,0.203,0.326,0,0.0,0.0,0.0,0.0,0.0,0.0,0.0,0.0,0.0,0.0,0.0,0.0,0.0,,,,,,,,,,,,,,,,,,,,,,,,,,,,,,,,,,,,,,,,,,,,,,,,,,,,,,,Magnoliopsida; Tracheophyta; Vitis vinifera L.
2010,2010-08-18,Faro,Tavira,Luz,Torre de Aires (Ponte da Torre),37.0888944,-7.6999963,NC,27.0,2010-08-18T04:00,21.3,79,17.6,23.2,0.0,0.0,0.0,0.0,0,1015.6,1012.4,14,8,12,0,0.0,0.53,5.6,11.8,315,320,11.2,22.2,27.0,27.4,23.5,0.098,0.177,0.252,0.345,0,0.0,0.0,0.0,0.0,0.0,0.0,0.0,0.0,0.0,0.0,0.0,0.0,0.0,,,,,,,,,,,,,,,,,,,,,,,,,,,,,,,,,,,,,,,,,,,,,,,,,,,,,,,Magnoliopsida; Tracheophyta; Vitis vinifera L.; Ceratonia siliqua L.; Pinus pinea L.; Olea europaea L.; 
2010,2010-08-19,Lisboa,Lourinhã,Moita dos Ferreiros,Casal Novo da Moita,39.2484247,-9.2237757,Desconhecida,93.0,2010-08-19T15:00,24.1,53,14.0,23.7,0.0,0.0,0.0,0.0,0,1014.8,1004.0,0,0,0,0,0.52,1.4,19.9,25.0,338,342,39.6,32.2,24.6,23.8,20.7,0.083,0.146,0.206,0.302,1,3600.0,752.2,652.6,99.5,860.7,752.2,1012.7,801.0,695.0,106.0,860.7,801.0,1078.5,,,,,,,,,,,,,,,,,,,,,,,,,,,,,,,,,,,,,,,,,,,,,,,,,,,,,,,Vitis vinifera L.; Pinus pinea L.; Eucalyptus L'Hér.; Tracheophyta; Magnoliopsida; 
2010,2010-08-31,Santarém,Torres Novas,Pedrógão,VALE GARCIA/VALE DA SERRA (Cabeço do Vale Juiz),39.5233263,-8.5894363,NC,104.0,2010-08-31T13:00,34.9,26,12.4,34.3,0.0,0.0,0.0,0.0,1,1008.0,996.5,31,0,7,88,0.72,4.14,16.9,21.8,164,164,37.1,36.7,29.0,25.3,21.9,0.092,0.148,0.222,0.331,1,3600.0,768.7,543.4,225.3,637.5,768.7,1144.4,771.0,545.0,226.0,637.5,771.0,1147.8,,,,,,,,,,,,,,,,,,,,,,,,,,,,,,,,,,,,,,,,,,,,,,,,,,,,,,,Olea europaea L.; Magnoliopsida; Pinus pinaster Aiton; Quercus L.; Tracheophyta; Vitis vinifera L.; Quercus rotundifolia Lam.; Eucalyptus L'Hér.; 
2010,2010-08-30,Braga,Guimarães,Moreira de Cónegos,RUA SAMPAIO PADROEIRO (MOREIRA CONEGOS) M3 (CASTELÕES),41.3832257,-8.335183247020549,NC,174.0,2010-08-30T17:00,33.9,26,11.6,33.4,0.0,0.0,0.0,0.0,0,1011.5,992.1,0,0,0,0,0.38,3.94,6.7,8.7,324,330,14.4,34.2,25.8,22.6,19.9,0.12,0.138,0.2,0.324,1,3600.0,369.0,304.8,64.3,766.1,369.0,533.9,448.0,370.0,78.0,766.1,448.0,648.1,,,,,,,,,,,,,,,,,,,,,,,,,,,,,,,,,,,,,,,,,,,,,,,,,,,,,,,Eucalyptus L'Hér.; Tracheophyta; Magnoliopsida
2010,2010-07-31,Porto,TROFA,Covelas,LAR DO EMIGRANTE (FAIÕES),41.3008521,-8.5349796,NC,115.0,2010-07-31T15:00,30.3,50,18.6,33.1,0.0,0.0,0.0,0.0,0,1012.8,999.8,0,0,0,0,0.63,2.17,12.8,15.4,280,281,27.0,35.9,27.5,23.1,18.1,0.117,0.14,0.212,0.349,1,3600.0,784.9,684.8,100.1,865.2,784.9,1050.6,831.0,725.0,106.0,865.2,831.0,1112.3,,,,,,,,,,,,,,,,,,,,,,,,,,,,,,,,,,,,,,,,,,,,,,,,,,,,,,,Magnoliopsida; Pinus pinaster Aiton; Vitis vinifera L.; Quercus L.; Tracheophyta; Eucalyptus L'Hér.; Olea europaea L.; ; Pinales
2010,2010-07-31,Porto,Amarante,Oliveira,FIJO (São Tiago),41.2577063,-8.2015419,NC,228.0,2010-07-31T16:00,30.1,49,18.1,31.9,0.0,0.0,0.0,0.0,0,1012.3,986.7,0,0,0,0,0.54,2.19,13.3,16.9,270,271,33.5,35.5,27.4,22.4,17.3,0.11,0.147,0.226,0.349,1,3600.0,634.7,541.0,93.7,815.5,634.7,880.6,698.0,595.0,103.0,815.5,698.0,968.5,,,,,,,,,,,,,,,,,,,,,,,,,,,,,,,,,,,,,,,,,,,,,,,,,,,,,,,Magnoliopsida; Eucalyptus L'Hér.; Tracheophyta
2010,2010-08-05,Leiria,Pombal,Mata Mourisca,MALHOS,39.94200585,-8.771601182492255,Desconhecida,132.0,2010-08-05T15:00,25.9,49,14.3,24.7,0.0,0.0,0.0,0.0,0,1012.6,997.5,0,0,0,0,0.58,1.7,26.4,35.0,334,338,47.9,33.4,24.0,21.8,18.5,0.046,0.061,0.096,0.212,1,3600.0,794.2,694.2,100.0,879.5,794.2,1049.2,842.0,736.0,106.0,879.5,842.0,1112.3,,,,,,,,,,,,,,,,,,,,,,,,,,,,,,,,,,,,,,,,,,,,,,,,,,,,,,,Eucalyptus L'Hér.; Tracheophyta; Pinus pinaster Aiton
2010,2010-08-31,Braga,Braga,Guisande,L. IGREJA VELHA (GUISANDE) M1 (CRESPOS),41.47899865,-8.450441269014242,NC,209.0,2010-08-31T07:00,23.6,35,7.1,20.5,0.0,0.0,0.0,0.0,1,1008.8,984.9,30,0,0,100,0.18,1.91,16.6,31.7,88,89,34.2,22.5,24.4,22.2,19.5,0.116,0.137,0.198,0.322,1,0.0,72.0,6.4,65.7,34.7,48.7,245.8,34.0,3.0,31.0,23.4,34.0,116.0,,,,,,,,,,,,,,,,,,,,,,,,,,,,,,,,,,,,,,,,,,,,,,,,,,,,,,,Eucalyptus L'Hér.; Magnoliopsida; Pinus pinaster Aiton; Tracheophyta
2010,2010-08-31,Vila Real,Boticas,São Salvador de Viveiro,Agrelos,41.6582129,-7.8072261,NC,784.0,2010-08-31T05:00,17.2,55,8.1,15.7,0.0,0.0,0.0,0.0,1,1012.7,924.2,30,0,0,99,0.03,0.88,6.8,13.5,122,115,20.9,18.6,23.1,21.1,17.7,0.111,0.154,0.236,0.344,0,0.0,0.0,0.0,0.0,0.0,0.0,0.0,0.0,0.0,0.0,0.0,0.0,0.0,,,,,,,,,,,,,,,,,,,,,,,,,,,,,,,,,,,,,,,,,,,,,,,,,,,,,,,Magnoliopsida; Tracheophyta; Pinus pinaster Aiton
2010,2010-08-19,Porto,Penafiel,Bustelo,Matos,41.2299987,-8.2677145,Desconhecida,259.0,2010-08-19T17:00,25.4,46,12.9,24.4,0.0,0.0,0.0,0.0,0,1013.8,984.3,0,0,0,0,0.37,1.75,12.9,16.6,293,294,28.1,30.6,24.5,22.9,18.8,0.112,0.138,0.2,0.335,1,3600.0,414.0,344.2,69.8,774.1,414.0,593.8,492.0,409.0,83.0,774.1,492.0,705.7,,,,,,,,,,,,,,,,,,,,,,,,,,,,,,,,,,,,,,,,,,,,,,,,,,,,,,,Magnoliopsida; Tracheophyta; Eucalyptus L'Hér.; Pinus pinaster Aiton; Vitis vinifera L.; Pinales; 
2010,2010-08-14,Setúbal,Almada,Sobreda,QT DA ADEGA - JT FERRO VELHO (ALMADA),38.64674385,-9.193872665369469,NC,85.0,2010-08-14T23:00,21.6,59,13.2,19.9,0.0,0.0,0.0,0.0,0,1012.7,1002.8,0,0,0,0,0.1,1.07,18.9,30.3,351,357,32.0,23.1,26.3,23.9,20.4,0.051,0.065,0.11,0.225,0,0.0,0.0,0.0,0.0,0.0,0.0,0.0,0.0,0.0,0.0,0.0,0.0,0.0,,,,,,,,,,,,,,,,,,,,,,,,,,,,,,,,,,,,,,,,,,,,,,,,,,,,,,,Magnoliopsida; Tracheophyta
2010,2010-08-05,Porto,Gondomar,Foz do Sousa,LUG. DA PLAINA (FANZERES),41.119341,-8.50547,NC,95.0,2010-08-05T15:00,31.2,29,11.2,30.8,0.0,0.0,0.0,0.0,0,1013.1,1002.4,0,0,0,0,0.69,3.23,15.9,20.2,342,344,24.5,35.7,26.8,23.7,18.8,0.114,0.137,0.204,0.348,1,3600.0,790.3,694.1,96.2,888.3,790.3,1038.6,838.0,736.0,102.0,888.3,838.0,1101.3,,,,,,,,,,,,,,,,,,,,,,,,,,,,,,,,,,,,,,,,,,,,,,,,,,,,,,,Pinus pinaster Aiton; Eucalyptus L'Hér.; Tracheophyta; Magnoliopsida
2010,2010-09-03,Porto,Vila Nova de Gaia,Avintes,RUA DA AGRACEIRA (Rua Agraceira),41.108374,-8.5424986,NC,76.0,2010-09-03T13:00,28.8,45,15.7,29.9,0.0,0.0,0.0,0.0,0,1016.6,1007.9,0,0,0,0,0.63,2.18,16.3,18.6,313,319,29.2,33.4,24.6,24.0,21.0,0.119,0.134,0.178,0.331,1,3600.0,845.1,741.4,103.6,895.8,845.1,1112.8,848.0,744.0,104.0,895.8,848.0,1116.6,,,,,,,,,,,,,,,,,,,,,,,,,,,,,,,,,,,,,,,,,,,,,,,,,,,,,,,Magnoliopsida; Tracheophyta; Pinales; Pinus pinea L.
2010,2010-08-18,Setúbal,Moita,Gaio-Rosário,ESTRADA GAIO -ROSARIO (GAIO-ROSÁRIO),38.67494195,-9.007814860787253,NC,11.0,2010-08-18T05:00,19.3,88,17.2,19.5,0.0,0.0,0.0,0.0,2,1016.6,1015.3,76,85,0,0,0.01,0.28,16.2,23.8,356,357,31.3,22.6,25.5,25.0,22.9,0.183,0.187,0.204,0.271,0,0.0,0.0,0.0,0.0,0.0,0.0,0.0,0.0,0.0,0.0,0.0,0.0,0.0,,,,,,,,,,,,,,,,,,,,,,,,,,,,,,,,,,,,,,,,,,,,,,,,,,,,,,,Tracheophyta; Magnoliopsida
2010,2010-08-14,Aveiro,Santa Maria da Feira,Vila Maior,Bairros (Bairro Santa Maria),41.0076751,-8.4874977,Desconhecida,185.0,2010-08-14T23:00,21.6,48,10.1,19.9,0.0,0.0,0.0,0.0,0,1013.6,992.1,0,0,0,0,0.09,1.35,12.1,21.2,23,21,23.8,23.5,26.7,23.9,19.2,0.104,0.117,0.157,0.311,0,0.0,0.0,0.0,0.0,0.0,0.0,0.0,0.0,0.0,0.0,0.0,0.0,0.0,,,,,,,,,,,,,,,,,,,,,,,,,,,,,,,,,,,,,,,,,,,,,,,,,,,,,,,Pinus pinaster Aiton; Eucalyptus L'Hér.; Magnoliopsida
2010,2010-08-18,Braga,Celorico de Basto,Veade,LORDELO (VEADE) M3 (Lordelo),41.41462535,-7.974960980903772,NC,198.0,2010-08-18T06:00,16.2,96,15.6,17.4,0.0,0.0,0.0,0.0,2,1016.9,993.5,73,72,0,26,0.01,0.07,5.0,6.5,270,289,9.7,18.6,24.7,24.0,19.5,0.093,0.142,0.218,0.336,1,0.0,3.5,0.0,3.5,0.0,0.6,45.8,1.0,0.0,1.0,0.0,1.0,13.1,,,,,,,,,,,,,,,,,,,,,,,,,,,,,,,,,,,,,,,,,,,,,,,,,,,,,,,Magnoliopsida; Pinus pinaster Aiton; Vitis vinifera L.; Tracheophyta
2010,2010-08-18,Braga,Guimarães,Azurém,FORMIGOSA(AZUREM) (Formigosa),41.452695250000005,-8.288851573602233,NC,223.0,2010-08-18T07:00,17.1,92,15.9,18.4,0.0,0.0,0.0,0.0,2,1017.0,990.7,76,78,0,21,0.03,0.15,4.7,6.4,293,297,12.6,19.2,24.5,23.8,19.2,0.094,0.138,0.207,0.33,1,1940.06,97.8,36.7,61.1,164.4,84.5,297.8,56.0,21.0,35.0,142.0,56.0,170.5,,,,,,,,,,,,,,,,,,,,,,,,,,,,,,,,,,,,,,,,,,,,,,,,,,,,,,,Magnoliopsida; Tracheophyta; Pinales
2010,2010-09-03,Viana do Castelo,Viana do Castelo,Carvoeiro,Algares,41.6509991,-8.6636379,Desconhecida,98.0,2010-09-03T13:00,26.9,49,15.2,28.3,0.0,0.0,0.0,0.0,0,1016.9,1005.6,0,0,0,0,0.6,1.82,13.3,15.3,303,309,25.9,31.4,23.3,22.7,20.2,0.106,0.139,0.203,0.323,1,3600.0,843.5,739.8,103.7,899.4,843.5,1105.9,846.0,742.0,104.0,899.4,846.0,1109.2,,,,,,,,,,,,,,,,,,,,,,,,,,,,,,,,,,,,,,,,,,,,,,,,,,,,,,,Tracheophyta; Eucalyptus L'Hér.; Vitis vinifera L.; Magnoliopsida; Pinus pinaster Aiton
2010,2010-08-16,Porto,Santo Tirso,Reguenga,Monte,41.2755959,-8.4572825,NC,157.0,2010-08-16T12:00,28.1,30,9.0,28.4,0.0,0.0,0.0,0.0,0,1016.4,998.5,0,0,0,0,0.64,2.65,9.1,11.9,81,85,29.2,31.0,25.2,23.7,19.2,0.116,0.135,0.19,0.337,1,3600.0,893.5,786.6,106.9,898.1,893.5,1168.4,869.0,765.0,104.0,898.1,869.0,1136.3,,,,,,,,,,,,,,,,,,,,,,,,,,,,,,,,,,,,,,,,,,,,,,,,,,,,,,,Pinus pinaster Aiton; Eucalyptus L'Hér.; Tracheophyta; Vitis vinifera L.
2010,2010-08-05,Porto,Santo Tirso,Sequeiró,Jardim,41.35107,-8.4734104,NC,35.0,2010-08-05T17:00,29.5,33,11.5,27.2,0.0,0.0,0.0,0.0,0,1012.2,1008.2,0,0,0,0,0.5,2.76,18.7,25.3,335,337,31.3,33.4,26.8,23.7,18.9,0.1,0.142,0.219,0.34,1,3600.0,469.9,396.0,73.9,799.4,469.9,658.5,547.0,461.0,86.0,799.4,547.0,766.5,,,,,,,,,,,,,,,,,,,,,,,,,,,,,,,,,,,,,,,,,,,,,,,,,,,,,,,Tracheophyta; Vitis vinifera L.; Magnoliopsida
2010,2010-08-19,Porto,Penafiel,Santa Marta,CAMPO OURO (Campo Bom),41.2142926,-8.2655992,Desconhecida,387.0,2010-08-19T18:00,23.9,49,12.5,23.0,0.0,0.0,0.0,0.0,0,1014.8,970.8,0,0,0,0,0.24,1.52,12.0,16.3,303,305,31.0,29.4,24.4,22.5,18.3,0.093,0.14,0.213,0.333,1,3600.0,220.1,170.7,49.3,658.5,220.1,346.3,299.0,232.0,67.0,658.5,299.0,470.5,,,,,,,,,,,,,,,,,,,,,,,,,,,,,,,,,,,,,,,,,,,,,,,,,,,,,,,Vitis vinifera L.; Eucalyptus L'Hér.; Tracheophyta; Magnoliopsida; Quercus L.
2010,2010-08-21,Lisboa,Sintra,Algueirão-Mem Martins,PÇT DO OUTEIRO (Algueirão-Mem Martins),38.7977037,-9.341033451942735,Desconhecida,169.0,2010-08-21T19:00,21.2,76,16.8,20.7,0.0,0.0,0.0,0.0,0,1019.7,999.9,2,0,0,6,0.1,0.6,19.7,28.5,332,334,40.7,25.4,24.6,22.2,19.8,0.12,0.166,0.227,0.331,1,3454.85,39.7,23.6,16.1,270.8,38.8,86.4,101.0,60.0,41.0,356.5,101.0,219.6,,,,,,,,,,,,,,,,,,,,,,,,,,,,,,,,,,,,,,,,,,,,,,,,,,,,,,,Tracheophyta; Magnoliopsida; Pinales; 
2010,2010-09-01,Aveiro,Oliveira de Azeméis,Travanca,Povoa (VILA DE CUCUJÃES),40.8142477,-8.4827757,Desconhecida,106.0,2010-09-01T15:00,25.4,52,14.8,25.8,0.0,0.0,0.0,0.0,0,1009.3,997.1,1,0,1,0,0.5,1.55,14.5,17.5,289,289,33.5,33.2,27.1,24.1,21.0,0.093,0.126,0.178,0.304,1,3600.0,676.3,576.7,99.7,829.2,676.3,934.2,726.0,619.0,107.0,829.1,726.0,1002.8,,,,,,,,,,,,,,,,,,,,,,,,,,,,,,,,,,,,,,,,,,,,,,,,,,,,,,,Eucalyptus L'Hér.; Magnoliopsida; Tracheophyta
2010,2010-08-16,Aveiro,Albergaria-a-Velha,Albergaria-a-Velha,Zona Industrial (RIBEIRA DE FRÁGOAS),40.690328,-8.479538190307041,Desconhecida,121.0,2010-08-16T13:00,30.6,27,9.2,32.7,0.0,0.0,0.0,0.0,0,1015.4,1001.7,0,0,0,0,0.65,3.22,1.3,0.8,236,207,19.4,37.2,25.6,24.0,19.8,0.065,0.087,0.124,0.246,1,3600.0,914.1,808.2,105.9,910.5,914.1,1184.1,915.0,809.0,106.0,910.5,915.0,1185.2,,,,,,,,,,,,,,,,,,,,,,,,,,,,,,,,,,,,,,,,,,,,,,,,,,,,,,,Tracheophyta; Eucalyptus L'Hér.
2010,2010-08-16,Braga,Vieira do Minho,Ventosa,EIRÓ(VENTOSA) (Eiró),41.6640851,-8.16181673272944,NC,438.0,2010-08-16T14:00,29.0,29,9.3,29.6,0.0,0.0,0.0,0.0,0,1017.1,968.2,0,0,0,0,0.66,2.83,8.0,9.7,355,360,27.0,33.4,23.8,22.2,17.8,0.107,0.142,0.22,0.345,1,3600.0,856.6,753.8,102.8,901.7,856.6,1115.2,883.0,777.0,106.0,901.7,883.0,1149.5,,,,,,,,,,,,,,,,,,,,,,,,,,,,,,,,,,,,,,,,,,,,,,,,,,,,,,,Tracheophyta; Quercus L.; Pinus pinaster Aiton
2010,2010-08-16,Vila Real,Valpaços,Serapicos,LUGAR DA LAMA DA PEDRA,41.6131836,-7.4402787,NC,892.0,2010-08-16T15:00,26.2,25,4.5,25.5,0.0,0.0,0.0,0.0,0,1017.6,920.0,0,0,0,0,0.57,2.55,6.5,8.3,96,95,26.3,30.2,22.2,20.8,16.2,0.123,0.141,0.204,0.344,1,3600.0,756.5,664.7,91.9,896.1,756.5,989.4,807.0,709.0,98.0,896.1,807.0,1055.4,,,,,,,,,,,,,,,,,,,,,,,,,,,,,,,,,,,,,,,,,,,,,,,,,,,,,,,Magnoliopsida; Tracheophyta; Castanea sativa Mill.; Quercus L.
2010,2010-08-05,Porto,Gondomar,Gondomar (são Cosme),RUA DE SALGUEIRINHOS (Rua de João de Deus),41.1579359,-8.559713,NC,81.0,2010-08-05T13:00,29.7,34,12.2,31.0,0.0,0.0,0.0,0.0,0,1013.9,1004.7,0,0,0,0,0.71,2.74,10.9,13.3,8,13,22.0,32.9,25.5,23.4,18.8,0.113,0.143,0.219,0.348,1,3600.0,935.0,827.0,108.0,909.8,935.0,1208.1,935.0,827.0,108.0,909.8,935.0,1208.1,,,,,,,,,,,,,,,,,,,,,,,,,,,,,,,,,,,,,,,,,,,,,,,,,,,,,,,Magnoliopsida; Tracheophyta; Eucalyptus L'Hér.
2010,2010-09-28,Porto,Paredes,Parada de Todeia,RUA DA FOLGOSA (CETE),41.1690637,-8.3770562,NC,191.0,2010-09-28T13:00,22.0,50,11.0,22.3,0.0,0.0,0.0,0.0,0,1018.2,996.0,0,0,0,0,0.47,1.34,8.5,9.6,282,283,19.4,25.8,19.0,20.8,20.8,0.146,0.14,0.171,0.319,1,3600.0,738.0,642.9,95.1,894.1,738.0,980.0,745.0,649.0,96.0,894.1,745.0,989.2,,,,,,,,,,,,,,,,,,,,,,,,,,,,,,,,,,,,,,,,,,,,,,,,,,,,,,,Magnoliopsida; Pinus pinaster Aiton; Eucalyptus L'Hér.; Tracheophyta; Vitis vinifera L.
2010,2010-08-14,Aveiro,Estarreja,Avanca,Fojo,40.7928469,-8.554607,Desconhecida,64.0,2010-08-14T16:00,30.3,22,6.3,26.5,0.0,0.0,0.0,0.0,0,1013.2,1005.9,0,0,0,0,0.66,3.36,24.3,31.9,335,340,37.8,35.4,26.7,24.4,19.9,0.087,0.127,0.192,0.314,1,3600.0,633.5,548.7,84.8,871.2,633.5,839.6,702.0,608.0,94.0,871.2,702.0,930.4,,,,,,,,,,,,,,,,,,,,,,,,,,,,,,,,,,,,,,,,,,,,,,,,,,,,,,,Pinus pinaster Aiton; Tracheophyta; Eucalyptus L'Hér.; Magnoliopsida
2010,2010-08-14,Aveiro,Santa Maria da Feira,Lobão,Rua da Republica (Rua da Rainha Santa),40.98260465,-8.4900676884166,Desconhecida,179.0,2010-08-14T17:00,29.2,23,6.1,25.9,0.0,0.0,0.0,0.0,0,1013.1,992.9,0,0,0,0,0.48,3.1,15.2,19.8,346,350,28.8,34.1,26.8,24.0,19.3,0.104,0.117,0.157,0.311,1,3600.0,450.6,380.2,70.4,815.4,450.6,621.6,531.0,448.0,83.0,815.4,531.0,732.5,,,,,,,,,,,,,,,,,,,,,,,,,,,,,,,,,,,,,,,,,,,,,,,,,,,,,,,Eucalyptus L'Hér.; Tracheophyta
2010,2010-08-05,Porto,Felgueiras,Sendim,LG. CODEÇAIS (Casa dos Codeçais),41.38367325,-8.1645395125,NC,473.0,2010-08-05T19:00,27.0,31,8.2,25.6,0.0,0.0,0.0,0.0,0,1012.2,959.4,0,0,0,0,0.15,2.48,6.5,10.9,354,6,19.8,29.9,26.0,22.1,16.6,0.096,0.146,0.23,0.344,1,3600.0,91.8,64.6,27.2,526.8,91.8,162.9,162.0,114.0,48.0,526.8,162.0,287.7,,,,,,,,,,,,,,,,,,,,,,,,,,,,,,,,,,,,,,,,,,,,,,,,,,,,,,,Vitis vinifera L.; Pinus pinaster Aiton; Eucalyptus L'Hér.; Tracheophyta; Magnoliopsida
2010,2010-08-05,Bragança,Carrazeda de Ansiães,Marzagão,LUZELOS,41.233768,-7.3289109,NC,758.0,2010-08-05T15:00,27.9,24,5.2,27.4,0.0,0.0,0.0,0.0,0,1014.0,931.1,0,0,0,0,0.61,2.88,7.4,9.2,43,42,25.6,34.6,25.4,22.4,16.4,0.111,0.155,0.198,0.342,1,3600.0,786.5,691.4,95.0,895.2,786.5,1026.6,836.0,735.0,101.0,895.2,836.0,1091.3,,,,,,,,,,,,,,,,,,,,,,,,,,,,,,,,,,,,,,,,,,,,,,,,,,,,,,,Vitis vinifera L.; Tracheophyta; Magnoliopsida; Pinus pinaster Aiton
2010,2010-08-19,Porto,Amarante,Gondar,L.CRESPELOS (Crespelos),41.2490072,-8.0269415,NC,176.0,2010-08-19T18:00,25.5,49,14.1,25.0,0.0,0.0,0.0,0.0,0,1014.4,994.2,0,0,0,0,0.25,1.65,12.1,16.3,293,295,27.4,30.8,25.9,24.0,19.8,0.097,0.141,0.216,0.335,1,3600.0,220.8,170.7,50.0,658.5,220.8,346.3,300.0,232.0,68.0,658.5,300.0,470.5,,,,,,,,,,,,,,,,,,,,,,,,,,,,,,,,,,,,,,,,,,,,,,,,,,,,,,,Magnoliopsida; Tracheophyta; Eucalyptus L'Hér.; Vitis vinifera L.; Quercus L.; Pinus pinaster Aiton; Pinus pinea L.; 
2010,2010-08-20,Braga,Cabeceiras de Basto,Cavez,L. PALHEIROS (CAVEZ) (GONDIÃES),41.5357278,-7.9182466,NC,289.0,2010-08-20T13:00,29.9,37,13.7,32.0,0.0,0.0,0.0,0.0,0,1020.3,987.7,0,0,0,0,0.66,2.66,7.3,8.4,290,290,23.8,34.6,24.6,23.4,19.3,0.097,0.141,0.216,0.335,1,3600.0,875.1,748.4,126.7,860.9,875.1,1161.5,877.0,750.0,127.0,860.9,877.0,1164.0,,,,,,,,,,,,,,,,,,,,,,,,,,,,,,,,,,,,,,,,,,,,,,,,,,,,,,,Magnoliopsida; Eucalyptus L'Hér.
2010,2010-08-08,Aveiro,Sever do Vouga,Pessegueiro do Vouga,Sobral (Dornelas),40.7090345,-8.3679328,Desconhecida,102.0,2010-08-08T18:00,31.8,33,13.7,31.8,0.0,0.0,0.0,0.0,0,1015.1,1003.6,10,0,9,15,0.27,3.13,7.8,9.0,292,293,13.7,35.8,28.7,23.8,19.3,0.066,0.088,0.13,0.252,1,3600.0,209.1,143.0,66.1,467.7,209.1,406.8,272.0,186.0,86.0,467.7,272.0,529.1,,,,,,,,,,,,,,,,,,,,,,,,,,,,,,,,,,,,,,,,,,,,,,,,,,,,,,,Tracheophyta; Pinus pinaster Aiton; Magnoliopsida; Eucalyptus L'Hér.
2010,2010-08-18,Bragança,Macedo de Cavaleiros,Sezulfe,EN216 (LAMALONGA),41.5710362,-7.016231,NC,655.0,2010-08-18T09:00,20.8,59,12.5,20.2,0.0,0.0,0.0,0.0,1,1016.1,942.1,26,25,0,10,0.28,1.01,9.5,12.3,307,310,24.8,24.6,23.7,23.0,18.3,0.133,0.149,0.18,0.339,1,3600.0,519.2,410.2,108.9,696.6,519.2,786.1,448.0,354.0,94.0,696.6,448.0,678.3,,,,,,,,,,,,,,,,,,,,,,,,,,,,,,,,,,,,,,,,,,,,,,,,,,,,,,,Olea europaea L.; Magnoliopsida; Tracheophyta
2010,2010-08-18,Braga,Cabeceiras de Basto,Rio Douro,MOSCOSO (RIO DOURO)M2 (Moscoso),41.5565621,-7.984128259352389,NC,747.0,2010-08-18T08:00,16.8,80,13.4,17.1,0.0,0.0,0.0,0.0,2,1017.1,932.1,52,52,0,16,0.11,0.38,5.9,7.7,317,319,18.0,19.2,21.5,20.9,16.5,0.097,0.149,0.233,0.344,1,3600.0,263.0,169.4,93.7,408.9,263.0,553.0,205.0,132.0,73.0,408.9,205.0,431.0,,,,,,,,,,,,,,,,,,,,,,,,,,,,,,,,,,,,,,,,,,,,,,,,,,,,,,,Magnoliopsida; Pinus pinaster Aiton; Tracheophyta; Eucalyptus L'Hér.
2010,2010-08-14,Santarém,Santarém,Várzea,OUTEIRO DA VARZEA (OUTEIRO),39.2746459,-8.7330747,NC,60.0,2010-08-14T23:00,21.8,52,11.7,20.5,0.0,0.0,0.0,0.0,0,1012.4,1005.4,0,0,0,0,0.08,1.24,12.9,24.8,333,347,25.2,24.2,27.4,25.5,20.7,0.115,0.156,0.204,0.324,0,0.0,0.0,0.0,0.0,0.0,0.0,0.0,0.0,0.0,0.0,0.0,0.0,0.0,,,,,,,,,,,,,,,,,,,,,,,,,,,,,,,,,,,,,,,,,,,,,,,,,,,,,,,Tracheophyta; Olea europaea L.; Vitis vinifera L.
2010,2010-08-05,Aveiro,Albergaria-a-Velha,Branca,Soutelo,40.7451386,-8.513711,Desconhecida,97.0,2010-08-05T13:00,31.0,32,12.3,31.9,0.0,0.0,0.0,0.0,0,1012.9,1001.9,0,0,0,0,0.74,3.07,13.4,16.6,355,359,31.0,37.0,26.2,23.5,19.1,0.065,0.089,0.135,0.255,1,3600.0,933.1,824.1,109.0,903.6,933.1,1212.1,933.0,824.0,109.0,903.6,933.0,1212.0,,,,,,,,,,,,,,,,,,,,,,,,,,,,,,,,,,,,,,,,,,,,,,,,,,,,,,,Magnoliopsida; Eucalyptus L'Hér.; Tracheophyta; Pinus pinaster Aiton
2010,2010-08-14,Braga,Póvoa de Lanhoso,Serzedelo,L. PORTELA(SERZEDELO)M3 (FRIANDE),41.6178987,-8.2223489,NC,505.0,2010-08-14T21:00,20.8,44,8.0,19.6,0.0,0.0,0.0,0.0,0,1013.8,956.3,0,0,0,0,0.03,1.39,5.1,8.2,39,41,13.7,23.7,24.7,22.4,17.5,0.098,0.143,0.223,0.34,0,0.0,0.0,0.0,0.0,0.0,0.0,0.0,0.0,0.0,0.0,0.0,0.0,0.0,,,,,,,,,,,,,,,,,,,,,,,,,,,,,,,,,,,,,,,,,,,,,,,,,,,,,,,Pinus pinaster Aiton; Magnoliopsida; Tracheophyta; Eucalyptus L'Hér.
2010,2010-08-05,Porto,Amarante,Bustelo,BUSTELO,41.2272086,-7.99209363337876,NC,533.0,2010-08-05T16:00,28.9,26,7.4,28.1,0.0,0.0,0.0,0.0,0,1012.8,953.9,0,0,0,0,0.54,2.96,7.6,10.3,25,29,24.5,34.2,25.1,21.9,16.5,0.096,0.148,0.232,0.345,1,3600.0,647.1,561.0,86.1,864.6,647.1,862.4,714.0,619.0,95.0,864.6,714.0,951.6,,,,,,,,,,,,,,,,,,,,,,,,,,,,,,,,,,,,,,,,,,,,,,,,,,,,,,,Magnoliopsida; Tracheophyta; Eucalyptus L'Hér.; Pinus pinaster Aiton; Vitis vinifera L.; Pinales; 
2010,2010-07-31,Vila Real,Sabrosa,Paradela de Guiães,ALTO  DE PARADELA,41.2271411,-7.6354538,Desconhecida,611.0,2010-07-31T16:00,32.4,32,13.4,32.6,0.0,0.0,0.0,0.0,0,1011.8,945.4,9,0,10,9,0.59,3.31,11.9,15.1,273,273,32.8,35.7,26.6,21.3,15.9,0.123,0.147,0.227,0.354,1,3600.0,638.3,550.2,88.1,835.6,638.3,874.0,703.0,606.0,97.0,835.6,703.0,962.7,,,,,,,,,,,,,,,,,,,,,,,,,,,,,,,,,,,,,,,,,,,,,,,,,,,,,,,Pinus pinaster Aiton; Magnoliopsida; Tracheophyta; Vitis vinifera L.
2010,2010-08-18,Aveiro,Santa Maria da Feira,Romariz,Alto de Goim (Alto da Ferreira),40.9432485,-8.4589611,Desconhecida,302.0,2010-08-18T09:00,19.8,76,15.5,19.5,0.0,0.0,0.0,0.0,2,1017.2,982.1,58,64,0,0,0.2,0.54,14.3,18.3,342,344,29.2,22.3,23.5,23.2,18.9,0.106,0.136,0.195,0.332,1,3600.0,386.5,228.9,157.6,397.2,386.5,769.3,331.0,196.0,135.0,397.2,331.0,658.8,,,,,,,,,,,,,,,,,,,,,,,,,,,,,,,,,,,,,,,,,,,,,,,,,,,,,,,Eucalyptus L'Hér.; Tracheophyta; Pinales; Magnoliopsida
2010,2010-08-18,Castelo Branco,Covilhã,Dominguizo,Quintas de São Tiago (Quintas da Atalaia),40.2107398,-7.5271724,Desconhecida,470.0,2010-08-18T11:00,26.2,43,12.7,27.5,0.0,0.0,0.0,0.0,0,1015.1,962.3,13,0,0,43,0.53,1.92,5.9,7.5,322,325,19.4,31.6,25.3,25.4,20.8,0.093,0.156,0.214,0.344,1,3600.0,807.1,653.5,153.6,788.5,807.1,1106.4,762.0,617.0,145.0,788.5,762.0,1044.6,,,,,,,,,,,,,,,,,,,,,,,,,,,,,,,,,,,,,,,,,,,,,,,,,,,,,,,Pinus pinaster Aiton; Tracheophyta; Olea europaea L.; Vitis vinifera L.; Magnoliopsida
2010,2010-08-17,Porto,Gondomar,Foz do Sousa,R NOVA ACHIEIRA (VALBOM),41.119341,-8.50547,NC,95.0,2010-08-17T00:00,22.1,62,14.5,22.7,0.0,0.0,0.0,0.0,0,1016.9,1005.8,0,0,0,0,0.02,1.0,6.1,9.2,40,48,16.6,23.5,27.0,24.4,19.8,0.113,0.134,0.188,0.34,0,0.0,0.0,0.0,0.0,0.0,0.0,0.0,0.0,0.0,0.0,0.0,0.0,0.0,,,,,,,,,,,,,,,,,,,,,,,,,,,,,,,,,,,,,,,,,,,,,,,,,,,,,,,Pinus pinaster Aiton; Eucalyptus L'Hér.; Tracheophyta; Magnoliopsida
2010,2010-08-18,Porto,Gondomar,Foz do Sousa,LG DE COMPOSTELA (VALBOM),41.119341,-8.50547,NC,95.0,2010-08-18T11:00,23.0,71,17.4,24.0,0.0,0.0,0.0,0.0,3,1016.6,1005.5,90,100,0,0,0.29,0.82,11.5,14.1,319,322,27.7,26.5,24.8,24.3,19.9,0.115,0.134,0.187,0.34,1,3600.0,441.5,157.1,284.4,192.3,441.5,1090.4,416.0,148.0,268.0,192.3,416.0,1027.5,,,,,,,,,,,,,,,,,,,,,,,,,,,,,,,,,,,,,,,,,,,,,,,,,,,,,,,Pinus pinaster Aiton; Eucalyptus L'Hér.; Tracheophyta; Magnoliopsida
2010,2010-08-09,Viseu,Armamar,São Cosmado,SAO COSMADO (SÃO COSMADO),41.0636512,-7.6445191,Desconhecida,763.0,2010-08-09T00:00,21.3,65,14.4,21.6,0.0,0.0,0.0,0.0,0,1017.4,931.9,8,0,13,1,0.03,0.89,7.3,10.8,261,272,11.9,23.6,26.4,22.0,16.6,0.123,0.137,0.204,0.347,0,0.0,0.0,0.0,0.0,0.0,0.0,0.0,0.0,0.0,0.0,0.0,0.0,0.0,,,,,,,,,,,,,,,,,,,,,,,,,,,,,,,,,,,,,,,,,,,,,,,,,,,,,,,Magnoliopsida; Vitis vinifera L.; Olea europaea L.; Tracheophyta
2010,2010-08-19,Porto,Paredes,Madalena,L.PENA (Pena),41.2138581,-8.3394944,Desconhecida,168.0,2010-08-19T21:00,19.6,75,15.0,20.3,0.0,0.0,0.0,0.0,1,1016.6,996.9,29,0,0,95,0.01,0.58,6.8,11.0,302,322,15.8,23.6,25.2,23.5,19.4,0.112,0.138,0.2,0.335,0,0.0,0.0,0.0,0.0,0.0,0.0,0.0,0.0,0.0,0.0,0.0,0.0,0.0,,,,,,,,,,,,,,,,,,,,,,,,,,,,,,,,,,,,,,,,,,,,,,,,,,,,,,,Magnoliopsida; Pinus pinaster Aiton; Eucalyptus L'Hér.; Tracheophyta; Vitis vinifera L.
2010,2010-08-20,Braga,Celorico de Basto,Gagos,COSTA DA PALHA(GAGOS)M-7 (Costa),41.42698715,-7.991702563475057,NC,191.0,2010-08-20T14:00,30.2,40,15.1,32.5,0.0,0.0,0.0,0.0,0,1020.2,998.5,0,0,0,0,0.64,2.58,8.2,9.5,293,295,25.9,35.7,25.2,23.8,19.7,0.094,0.141,0.216,0.335,1,3600.0,823.7,690.0,133.7,836.0,823.7,1102.7,850.0,712.0,138.0,836.0,850.0,1138.0,,,,,,,,,,,,,,,,,,,,,,,,,,,,,,,,,,,,,,,,,,,,,,,,,,,,,,,Pinus pinaster Aiton; Magnoliopsida; Tracheophyta; Vitis vinifera L.
2010,2010-08-15,Braga,VIZELA,Santa Eulália,L. REQUEIXOS (STª EULALIA) (NESPEREIRA),41.3546121,-8.301686697121095,NC,214.0,2010-08-15T00:00,19.0,53,9.2,17.3,0.0,0.0,0.0,0.0,0,1013.9,988.9,0,0,0,0,0.06,1.04,10.5,17.9,63,56,19.4,21.7,26.0,23.9,18.9,0.097,0.139,0.212,0.333,0,0.0,0.0,0.0,0.0,0.0,0.0,0.0,0.0,0.0,0.0,0.0,0.0,0.0,,,,,,,,,,,,,,,,,,,,,,,,,,,,,,,,,,,,,,,,,,,,,,,,,,,,,,,Tracheophyta; Eucalyptus L'Hér.; Magnoliopsida
2010,2010-08-16,Porto,Vila Nova de Gaia,Oliveira do Douro,Rua das Carvalheiras,41.1088363,-8.5831204,NC,159.0,2010-08-16T16:00,29.8,30,10.2,28.5,0.0,0.0,0.0,0.0,0,1015.6,997.6,2,0,3,0,0.55,2.95,14.0,17.9,337,341,27.4,34.3,26.3,23.6,19.3,0.113,0.138,0.207,0.345,1,3600.0,600.4,508.4,92.0,816.6,600.4,830.6,666.0,564.0,102.0,816.6,666.0,921.4,,,,,,,,,,,,,,,,,,,,,,,,,,,,,,,,,,,,,,,,,,,,,,,,,,,,,,,Tracheophyta; Magnoliopsida; Pinus pinaster Aiton; Pinus pinea L.
2010,2010-08-17,Porto,Paços de Ferreira,Penamaior,FIAES (MEIXOMIL),41.2875406,-8.4127999,NC,362.0,2010-08-17T01:00,19.2,61,11.5,18.4,0.0,0.0,0.0,0.0,0,1017.4,975.4,1,0,0,3,0.04,0.87,8.9,9.1,69,81,15.5,20.6,25.1,22.8,18.2,0.093,0.14,0.213,0.334,0,0.0,0.0,0.0,0.0,0.0,0.0,0.0,0.0,0.0,0.0,0.0,0.0,0.0,,,,,,,,,,,,,,,,,,,,,,,,,,,,,,,,,,,,,,,,,,,,,,,,,,,,,,,Magnoliopsida; Eucalyptus L'Hér.; Tracheophyta; Vitis vinifera L.; 
2010,2010-08-15,Vila Real,Santa Marta de Penaguião,Sever,SEVER,41.2170483,-7.7845243230226,NC,245.0,2010-08-15T01:00,19.4,51,9.0,17.7,0.0,0.0,0.0,0.0,0,1014.3,985.8,0,0,0,0,0.06,1.1,9.7,16.9,68,61,20.9,20.3,26.3,25.0,19.6,0.132,0.147,0.178,0.338,0,0.0,0.0,0.0,0.0,0.0,0.0,0.0,0.0,0.0,0.0,0.0,0.0,0.0,,,,,,,,,,,,,,,,,,,,,,,,,,,,,,,,,,,,,,,,,,,,,,,,,,,,,,,Vitis vinifera L.; Tracheophyta; Olea europaea L.
2010,2010-08-27,Porto,Maia,Gemunde,Bajouca,41.2774141,-8.6338482,NC,105.0,2010-08-27T16:00,24.2,50,13.2,23.3,0.0,0.0,0.0,0.0,0,1019.0,1006.8,0,0,0,0,0.44,1.5,16.8,21.3,325,326,30.2,29.8,24.4,22.9,20.2,0.132,0.138,0.199,0.331,1,3600.0,574.1,493.8,80.4,851.8,574.1,776.8,643.0,553.0,90.0,851.8,643.0,870.0,,,,,,,,,,,,,,,,,,,,,,,,,,,,,,,,,,,,,,,,,,,,,,,,,,,,,,,Eucalyptus L'Hér.; Tracheophyta; Pinus pinaster Aiton
2010,2010-08-16,Porto,Felgueiras,Moure,LG QUINTÁ (JUGUEIROS),41.3528045,-8.1754517,NC,306.0,2010-08-16T00:00,20.1,49,9.0,18.4,0.0,0.0,0.0,0.0,0,1015.4,980.0,0,0,0,0,0.06,1.21,9.8,17.8,66,58,20.9,22.2,25.6,23.4,18.5,0.097,0.138,0.208,0.331,0,0.0,0.0,0.0,0.0,0.0,0.0,0.0,0.0,0.0,0.0,0.0,0.0,0.0,,,,,,,,,,,,,,,,,,,,,,,,,,,,,,,,,,,,,,,,,,,,,,,,,,,,,,,Magnoliopsida; Tracheophyta; Pinus pinaster Aiton; Eucalyptus L'Hér.; Vitis vinifera L.
2010,2010-07-31,Viseu,Vouzela,Fataunços,Fataunços,40.72516985,-8.078369619903327,Desconhecida,311.0,2010-07-31T12:00,32.0,41,17.0,35.2,0.0,0.0,0.0,0.0,0,1013.1,978.6,0,0,0,0,0.71,2.83,9.7,11.2,255,255,25.9,36.5,27.6,23.6,18.1,0.098,0.146,0.229,0.343,1,3600.0,927.1,819.3,107.8,896.7,927.1,1212.7,903.0,798.0,105.0,896.7,903.0,1181.2,,,,,,,,,,,,,,,,,,,,,,,,,,,,,,,,,,,,,,,,,,,,,,,,,,,,,,,Magnoliopsida; Tracheophyta; Pinus pinaster Aiton; Eucalyptus L'Hér.; Quercus L.; Olea europaea L.; 
2010,2010-08-05,Porto,Felgueiras,Macieira da Lixa,Souto Novo,41.3496108,-8.1492033,NC,406.0,2010-08-05T14:00,28.9,29,8.9,29.4,0.0,0.0,0.0,0.0,0,1013.3,968.0,0,0,0,0,0.68,2.83,9.2,11.6,26,30,28.1,34.4,24.9,22.3,16.9,0.093,0.15,0.235,0.346,1,3600.0,892.4,789.3,103.0,912.3,892.4,1150.0,918.0,812.0,106.0,912.3,918.0,1183.0,,,,,,,,,,,,,,,,,,,,,,,,,,,,,,,,,,,,,,,,,,,,,,,,,,,,,,,Eucalyptus L'Hér.; Tracheophyta; Pinus pinaster Aiton; Magnoliopsida; Vitis vinifera L.
2010,2010-08-31,Vila Real,Vila Real,Mondrões,MONDRÕES,41.291988,-7.7881193,NC,502.0,2010-08-31T15:00,31.9,23,8.4,31.3,0.0,0.0,0.0,0.0,1,1008.4,953.6,33,0,7,95,0.59,3.63,8.8,11.7,161,162,28.4,34.1,25.1,22.5,18.9,0.134,0.143,0.183,0.332,1,3600.0,676.1,552.4,123.7,802.1,676.1,924.6,727.0,594.0,133.0,802.1,727.0,994.3,,,,,,,,,,,,,,,,,,,,,,,,,,,,,,,,,,,,,,,,,,,,,,,,,,,,,,,Pinus pinaster Aiton; Tracheophyta; Magnoliopsida
2010,2010-08-19,Porto,Paredes,Sobreira,LG. VILAR (CETE),41.1464669,-8.388977,Desconhecida,104.0,2010-08-19T22:00,18.8,82,15.7,19.7,0.0,0.0,0.0,0.0,1,1017.4,1005.1,32,4,0,93,0.0,0.39,6.7,9.4,306,317,16.6,22.7,25.4,24.1,20.0,0.111,0.137,0.199,0.336,0,0.0,0.0,0.0,0.0,0.0,0.0,0.0,0.0,0.0,0.0,0.0,0.0,0.0,,,,,,,,,,,,,,,,,,,,,,,,,,,,,,,,,,,,,,,,,,,,,,,,,,,,,,,Magnoliopsida; Pinus pinaster Aiton; Eucalyptus L'Hér.; Tracheophyta; Vitis vinifera L.
2010,2010-08-17,Porto,Maia,Gondim,CEMITÉRIO (SÃO PEDRO DE AVIOSO),41.265778,-8.6120653,NC,96.0,2010-08-17T00:00,22.2,59,13.9,22.5,0.0,0.0,0.0,0.0,0,1016.9,1005.7,0,0,0,0,0.03,1.09,6.1,9.2,40,48,16.6,23.6,26.6,23.9,19.6,0.103,0.138,0.204,0.336,0,0.0,0.0,0.0,0.0,0.0,0.0,0.0,0.0,0.0,0.0,0.0,0.0,0.0,,,,,,,,,,,,,,,,,,,,,,,,,,,,,,,,,,,,,,,,,,,,,,,,,,,,,,,Magnoliopsida; Tracheophyta; Eucalyptus L'Hér.
2010,2010-08-20,Porto,Penafiel,Bustelo,BUSTELO (Bustêlo),41.2353433,-8.2742314,NC,178.0,2010-08-20T15:00,28.8,47,16.2,30.5,0.0,0.0,0.0,0.0,0,1020.3,1000.0,3,3,0,0,0.56,2.11,10.7,12.6,303,307,30.2,33.8,24.8,23.3,19.4,0.112,0.138,0.199,0.334,1,3600.0,697.3,552.0,145.3,750.0,697.3,983.4,744.0,589.0,155.0,750.0,744.0,1049.3,,,,,,,,,,,,,,,,,,,,,,,,,,,,,,,,,,,,,,,,,,,,,,,,,,,,,,,Magnoliopsida; Tracheophyta; Eucalyptus L'Hér.; Pinus pinaster Aiton; Vitis vinifera L.; Pinales; 
2010,2010-08-05,Coimbra,Coimbra,Santa Clara,alqueves (BOTÃO),40.2014213,-8.4389693,Desconhecida,95.0,2010-08-05T16:00,32.3,27,11.0,30.4,0.0,0.0,0.0,0.0,0,1011.6,1000.9,0,0,0,0,0.66,3.52,20.4,27.1,334,337,41.0,39.1,27.2,23.4,19.0,0.053,0.07,0.098,0.22,1,3600.0,646.4,557.6,88.9,849.1,646.4,872.8,713.0,615.0,98.0,849.1,713.0,962.7,,,,,,,,,,,,,,,,,,,,,,,,,,,,,,,,,,,,,,,,,,,,,,,,,,,,,,,Tracheophyta; Magnoliopsida; Eucalyptus L'Hér.
2010,2010-08-31,Castelo Branco,Fundão,Alcaide,ALCAIDE,40.1338233,-7.44879207936232,Natural,489.0,2010-08-31T19:00,28.5,39,13.3,29.1,0.0,0.0,0.0,0.0,1,1008.5,954.4,36,0,32,55,0.06,2.36,3.3,8.0,167,175,23.4,29.4,29.0,25.5,21.6,0.126,0.156,0.209,0.338,1,1379.01,0.0,0.0,0.0,0.0,0.0,0.0,40.0,18.0,22.0,135.2,40.0,127.1,,,,,,,,,,,,,,,,,,,,,,,,,,,,,,,,,,,,,,,,,,,,,,,,,,,,,,,Pinus pinaster Aiton; Magnoliopsida; Tracheophyta; Quercus L.; Eucalyptus L'Hér.; Pinales; Olea europaea L.; 
2010,2010-08-21,Lisboa,Sintra,Monte Abraão,RUA ANTONIO NOBRE - MONTE ABRAAO (QUELUZ),38.7657926,-9.2611903,Desconhecida,191.0,2010-08-21T23:00,18.9,84,16.2,19.6,0.0,0.0,0.0,0.0,0,1021.6,999.1,5,6,0,0,0.01,0.35,10.2,17.8,337,346,24.8,21.3,24.0,22.1,19.6,0.12,0.166,0.227,0.331,0,0.0,0.0,0.0,0.0,0.0,0.0,0.0,0.0,0.0,0.0,0.0,0.0,0.0,,,,,,,,,,,,,,,,,,,,,,,,,,,,,,,,,,,,,,,,,,,,,,,,,,,,,,,Tracheophyta; Magnoliopsida; 
2010,2010-08-18,Porto,Marco de Canaveses,Várzea do Douro,Travassos,41.0738874,-8.266772,Desconhecida,119.0,2010-08-18T12:00,23.6,68,17.5,24.3,0.0,0.0,0.0,0.0,3,1016.3,1002.5,89,99,0,0,0.27,0.92,13.6,16.8,310,312,31.3,27.3,24.7,24.2,19.9,0.102,0.141,0.216,0.336,1,0.0,362.9,28.8,334.1,33.0,362.9,1165.3,353.0,28.0,325.0,33.0,353.0,1133.6,,,,,,,,,,,,,,,,,,,,,,,,,,,,,,,,,,,,,,,,,,,,,,,,,,,,,,,Eucalyptus L'Hér.; Tracheophyta; Vitis vinifera L.; Pinus pinaster Aiton; Magnoliopsida; Quercus L.
2010,2010-08-18,Braga,Guimarães,Selho (são Lourenço),R. PORTELINHA (SELHO S.LOURENÇO)M3 (CASTELÕES),41.46996235,-8.284070548478876,NC,255.0,2010-08-18T16:00,23.4,63,15.9,23.5,0.0,0.0,0.0,0.0,0,1014.6,985.3,13,14,0,2,0.3,1.07,13.7,17.9,293,295,32.0,28.5,24.8,23.5,19.0,0.098,0.138,0.207,0.33,1,3600.0,369.6,255.4,114.2,418.1,369.6,815.7,411.0,284.0,127.0,418.1,411.0,906.9,,,,,,,,,,,,,,,,,,,,,,,,,,,,,,,,,,,,,,,,,,,,,,,,,,,,,,,Tracheophyta; Vitis vinifera L.; Pinales; Magnoliopsida; Eucalyptus L'Hér.; Pinus pinaster Aiton
2010,2010-08-31,Porto,Santo Tirso,Santo Tirso,RUA DR OLIVEIRA SALAZAR (SEQUEIRO),41.3707445,-8.4540969,NC,109.0,2010-08-31T22:00,23.2,64,15.9,24.4,0.0,0.0,0.0,0.0,0,1008.1,995.5,12,0,9,23,0.02,1.04,6.1,11.5,183,180,14.4,25.3,27.1,23.2,20.3,0.127,0.136,0.187,0.328,0,0.0,0.0,0.0,0.0,0.0,0.0,0.0,0.0,0.0,0.0,0.0,0.0,0.0,,,,,,,,,,,,,,,,,,,,,,,,,,,,,,,,,,,,,,,,,,,,,,,,,,,,,,,Vitis vinifera L.; Eucalyptus L'Hér.; Tracheophyta; Pinus pinaster Aiton
2010,2010-08-05,Porto,Vila Nova de Gaia,Sandim,Rua da Retorta,41.03204085,-8.500728176230938,NC,133.0,2010-08-05T13:00,30.3,31,11.4,31.0,0.0,0.0,0.0,0.0,0,1013.7,998.7,0,0,0,0,0.72,2.97,12.7,15.8,7,12,27.4,35.2,26.2,23.5,18.8,0.104,0.118,0.169,0.318,1,3600.0,932.9,824.9,108.0,906.6,932.9,1209.4,933.0,825.0,108.0,906.6,933.0,1209.5,,,,,,,,,,,,,,,,,,,,,,,,,,,,,,,,,,,,,,,,,,,,,,,,,,,,,,,Eucalyptus L'Hér.; Tracheophyta; Quercus L.; Pinus pinea L.; Magnoliopsida
