year,date,district,municipality,parish,local,latitude,longitude,cause,elevation,hourly.time,hourly.temperature_2m,hourly.relative_humidity_2m,hourly.dew_point_2m,hourly.apparent_temperature,hourly.precipitation,hourly.rain,hourly.snowfall,hourly.snow_depth,hourly.weather_code,hourly.pressure_msl,hourly.surface_pressure,hourly.cloud_cover,hourly.cloud_cover_low,hourly.cloud_cover_mid,hourly.cloud_cover_high,hourly.et0_fao_evapotranspiration,hourly.vapour_pressure_deficit,hourly.wind_speed_10m,hourly.wind_speed_100m,hourly.wind_direction_10m,hourly.wind_direction_100m,hourly.wind_gusts_10m,hourly.soil_temperature_0_to_7cm,hourly.soil_temperature_7_to_28cm,hourly.soil_temperature_28_to_100cm,hourly.soil_temperature_100_to_255cm,hourly.soil_moisture_0_to_7cm,hourly.soil_moisture_7_to_28cm,hourly.soil_moisture_28_to_100cm,hourly.soil_moisture_100_to_255cm,hourly.is_day,hourly.sunshine_duration,hourly.shortwave_radiation_instant,hourly.direct_radiation_instant,hourly.diffuse_radiation_instant,hourly.direct_normal_irradiance_instant,hourly.global_tilted_irradiance_instant,hourly.terrestrial_radiation_instant,hourly.shortwave_radiation,hourly.direct_radiation,hourly.diffuse_radiation,hourly.direct_normal_irradiance,hourly.global_tilted_irradiance,hourly.terrestrial_radiation,scientificNames
2011,2011-09-29,Lisboa,Mafra,Igreja Nova,PENEDO LEXIM (Penedo da Arrifana),38.91323715,-9.328906889461573,Desconhecida,217.0,2011-09-29T02:00,18.6,75,14.0,18.9,0.0,0.0,0.0,0.0,0,1019.0,993.5,6,0,0,19,0.01,0.55,7.3,14.6,351,20,17.3,19.2,22.8,21.8,21.0,0.085,0.158,0.217,0.325,0,0.0,0.0,0.0,0.0,0.0,0.0,0.0,0.0,0.0,0.0,0.0,0.0,0.0,Magnoliopsida; Tracheophyta
2011,2011-09-29,Porto,Felgueiras,Pinheiro,Pedre,41.3684352,-8.152882,NC,497.0,2011-09-29T08:00,16.8,79,13.0,16.6,0.0,0.0,0.0,0.0,0,1020.7,963.0,10,0,0,34,0.07,0.41,7.6,11.5,90,94,22.0,16.2,18.6,19.4,18.6,0.119,0.159,0.191,0.308,1,3600.0,199.1,120.4,78.8,426.0,199.1,385.2,134.0,81.0,53.0,426.0,134.0,259.2,Pinus pinaster Aiton; Tracheophyta; Magnoliopsida; Vitis vinifera L.; Eucalyptus L'Hér.
2011,2011-09-29,Aveiro,Santa Maria da Feira,Sanguedo,Junto Zona Industrial (CANEDO),41.0083552,-8.5188259,Desconhecida,158.0,2011-09-29T14:00,29.3,34,11.9,29.6,0.0,0.0,0.0,0.0,0,1017.8,999.8,2,0,0,7,0.52,2.69,8.2,9.7,247,243,19.1,32.4,22.7,21.1,20.3,0.117,0.13,0.155,0.292,1,3600.0,658.2,564.7,93.5,854.0,658.2,901.5,690.0,592.0,98.0,854.0,690.0,945.1,Tracheophyta; Magnoliopsida; Eucalyptus L'Hér.
2011,2011-10-01,Aveiro,Santa Maria da Feira,Rio Meão,Junto ao Europarque (SÃO JOÃO DE VÊR),40.9693419,-8.5688219,Desconhecida,146.0,2011-10-01T00:00,21.9,68,15.7,22.9,0.0,0.0,0.0,0.0,1,1016.8,999.8,26,0,2,83,0.02,0.84,6.2,9.3,100,118,9.7,20.2,23.6,21.3,20.3,0.094,0.126,0.164,0.294,0,0.0,0.0,0.0,0.0,0.0,0.0,0.0,0.0,0.0,0.0,0.0,0.0,0.0,Pinus pinaster Aiton; Eucalyptus L'Hér.; Tracheophyta
2011,2011-09-30,Porto,TROFA,Coronado_Sao Romao,BELAVISTA (Bela),41.2814055,-8.5561704,NC,125.0,2011-09-30T19:00,23.4,59,14.8,24.4,0.0,0.0,0.0,0.0,1,1017.0,1002.5,33,0,7,97,0.04,1.19,3.8,7.6,343,357,11.5,25.0,23.6,21.0,20.2,0.111,0.151,0.193,0.315,0,0.0,0.0,0.0,0.0,0.0,0.0,0.0,2.0,0.0,2.0,0.0,2.0,21.0,Tracheophyta; Pinus pinaster Aiton; Magnoliopsida; Eucalyptus L'Hér.
2011,2011-10-01,Porto,Gondomar,São Cosme,ESTRADA D.MIGUEL (Estrada de Dom Miguel),41.14609765,-8.518438247453794,NC,166.0,2011-10-01T11:00,27.6,37,11.6,26.3,0.0,0.0,0.0,0.0,0,1016.9,997.9,16,0,0,54,0.47,2.32,13.5,17.8,132,132,22.3,26.9,22.1,21.2,20.2,0.124,0.148,0.183,0.321,1,3600.0,630.7,498.1,132.5,748.1,630.7,908.8,590.0,466.0,124.0,748.1,590.0,850.2,Magnoliopsida; Tracheophyta; Vitis vinifera L.
2011,2011-09-30,Bragança,Bragança,Carragosa,SOUTELO-PNM (Soutelo),41.8869713,-6.8029754,NC,943.0,2011-09-30T22:00,16.4,52,6.4,14.6,0.0,0.0,0.0,0.0,0,1020.6,914.2,10,0,0,35,0.03,0.9,6.0,9.5,73,127,12.2,18.0,20.3,18.5,17.3,0.185,0.213,0.245,0.378,0,0.0,0.0,0.0,0.0,0.0,0.0,0.0,0.0,0.0,0.0,0.0,0.0,0.0,Tracheophyta; Castanea sativa Mill.; Quercus L.; Magnoliopsida; Quercus rotundifolia Lam.
2011,2011-10-01,Portalegre,Elvas,Caia e São Pedro,HERDADE DAS CALDEIRINHAS,38.9265472,-7.103979221649986,Desconhecida,206.0,2011-10-01T16:00,31.0,24,8.1,28.4,0.0,0.0,0.0,0.0,0,1015.0,991.8,3,0,0,11,0.44,3.41,14.0,19.7,116,118,34.2,31.9,26.0,24.5,23.6,0.137,0.157,0.164,0.247,1,3600.0,378.0,309.3,68.7,763.2,378.0,553.1,451.0,369.0,82.0,763.2,451.0,659.9,Tracheophyta
2011,2011-10-02,Lisboa,Sintra,Rio de Mouro,TABAQUEIRA (Tapada da Urzeira),38.7723602,-9.3256835,Desconhecida,116.0,2011-10-02T15:00,26.3,51,15.5,27.4,0.0,0.0,0.0,0.0,0,1019.6,1006.2,1,0,0,2,0.42,1.67,7.7,10.0,208,193,19.1,29.9,23.6,21.7,20.6,0.121,0.164,0.216,0.322,1,3600.0,552.0,470.0,82.0,823.2,552.0,779.8,606.0,516.0,90.0,823.2,606.0,856.1,Tracheophyta; Magnoliopsida; Pinales; 
2011,2011-10-02,Aveiro,Santa Maria da Feira,Fiães,Rua do Fojo (Rua do Lameirão),40.9945859,-8.5247192,Desconhecida,203.0,2011-10-02T15:00,30.0,31,10.8,30.1,0.0,0.0,0.0,0.0,0,1020.5,997.5,0,0,0,0,0.41,2.95,2.5,3.3,188,174,14.8,33.1,23.7,21.2,20.0,0.112,0.127,0.153,0.291,1,3600.0,525.4,445.6,79.9,821.6,525.4,740.6,579.0,491.0,88.0,821.6,579.0,816.1,Tracheophyta; Eucalyptus L'Hér.; Magnoliopsida; Olea europaea L.
2011,2011-10-02,Viana do Castelo,Paredes de Coura,Castanheira,RIBAS - CASTANHEIRA (Ribas),41.8911734,-8.5455629,NC,503.0,2011-10-02T16:00,26.9,36,10.7,26.6,0.0,0.0,0.0,0.0,0,1021.7,965.1,2,0,0,7,0.29,2.25,3.2,3.6,270,270,15.1,28.3,21.2,19.1,18.1,0.119,0.176,0.215,0.322,1,3600.0,361.1,296.3,64.8,756.8,361.1,534.6,429.0,352.0,77.0,756.8,429.0,635.2,Quercus L.; Magnoliopsida; Tracheophyta; Castanea sativa Mill.; Eucalyptus L'Hér.; Pinus pinaster Aiton; 
2011,2011-10-02,Porto,Vila Nova de Gaia,São Felix da Marinha,RUA DO ALQUEVRE (Rua do Alquebre),41.0305323,-8.6290322,NC,26.0,2011-10-02T16:00,30.8,31,11.8,30.1,0.0,0.0,0.0,0.0,0,1020.1,1017.1,0,0,0,0,0.37,3.05,8.4,7.9,290,286,19.1,34.4,25.2,22.3,21.1,0.092,0.124,0.163,0.294,1,3600.0,371.1,304.5,66.6,760.4,371.1,546.9,440.0,361.0,79.0,760.4,440.0,648.4,Eucalyptus L'Hér.; Magnoliopsida; Tracheophyta; Pinales; Pinus pinaster Aiton
2011,2011-10-02,Porto,TROFA,Coronado_Sao Mamede,LUGAR DE MENDÕES (Lugar de Baixo),41.2748271,-8.5739705,NC,139.0,2011-10-02T21:00,22.4,57,13.5,22.6,0.0,0.0,0.0,0.0,0,1022.7,1006.4,1,1,0,0,0.04,1.16,6.8,13.3,3,360,18.4,23.6,24.2,21.3,20.1,0.108,0.149,0.192,0.314,0,0.0,0.0,0.0,0.0,0.0,0.0,0.0,0.0,0.0,0.0,0.0,0.0,0.0,Magnoliopsida; Pinales; Tracheophyta; Eucalyptus L'Hér.
2011,2011-08-12,Castelo Branco,Penamacor,Meimão,Barroca das Legendas,40.2827558,-7.1192635,Desconhecida,584.0,2011-08-12T17:00,30.7,36,13.8,31.3,0.0,0.0,0.0,0.0,1,1012.5,948.5,34,1,12,87,0.3,2.84,4.4,5.4,261,262,16.6,34.5,28.8,23.6,19.4,0.097,0.156,0.218,0.339,1,3600.0,318.5,152.9,165.6,332.2,318.5,613.1,377.0,181.0,196.0,332.2,377.0,725.8,Pinus pinaster Aiton; Eucalyptus L'Hér.; Quercus suber L.; Tracheophyta; Quercus L.; Magnoliopsida; Pinales; Olea europaea L.; Castanea sativa Mill.; 
2011,2011-10-05,Porto,Paredes,Aguiar de Sousa,Aguiar,41.1286167,-8.4481414,NC,171.0,2011-10-05T01:00,18.1,75,13.5,18.5,0.0,0.0,0.0,0.0,0,1022.8,1002.5,0,0,0,0,0.01,0.53,5.6,13.0,63,48,14.4,19.2,23.3,21.5,20.1,0.113,0.154,0.193,0.317,0,0.0,0.0,0.0,0.0,0.0,0.0,0.0,0.0,0.0,0.0,0.0,0.0,0.0,Magnoliopsida; Pinus pinaster Aiton; Eucalyptus L'Hér.; Tracheophyta; Vitis vinifera L.; Quercus L.; Quercus suber L.
2011,2011-10-05,Porto,TROFA,Coronado_Sao Romao,MONTE CABRITO (Bouças do Monte),41.2814055,-8.5561704,NC,125.0,2011-10-05T03:00,17.1,91,15.5,18.2,0.0,0.0,0.0,0.0,0,1021.9,1007.0,0,0,0,0,0.0,0.18,5.3,11.4,62,55,15.5,19.0,23.2,21.6,20.2,0.107,0.147,0.191,0.313,0,0.0,0.0,0.0,0.0,0.0,0.0,0.0,0.0,0.0,0.0,0.0,0.0,0.0,Tracheophyta; Pinus pinaster Aiton; Magnoliopsida; Eucalyptus L'Hér.
2011,2011-09-27,Lisboa,Sintra,Agualva,AGUALVA (JT CAMPO FUTEBOL) (Agualva-Cacém),38.7740235,-9.2935542,Desconhecida,156.0,2011-09-27T11:00,22.5,60,14.5,24.2,0.0,0.0,0.0,0.0,1,1023.2,1005.0,29,0,0,95,0.37,1.08,0.4,2.6,90,124,9.4,25.5,21.0,20.8,20.3,0.125,0.166,0.218,0.323,1,3600.0,624.1,411.1,213.0,583.3,624.1,959.6,583.0,384.0,199.0,583.3,583.0,896.4,Tracheophyta; Magnoliopsida; 
2011,2011-09-27,Porto,Gondomar,Valbom,ALTO CHIEIRA (Alto da Lameira),41.1362281,-8.5613183,NC,79.0,2011-09-27T13:00,26.0,50,14.9,27.3,0.0,0.0,0.0,0.0,1,1022.5,1013.3,32,0,3,100,0.31,1.67,2.3,2.3,309,321,11.5,26.8,21.8,21.1,20.5,0.129,0.156,0.2,0.327,1,2710.5,427.2,109.0,318.2,150.3,427.2,987.5,431.0,110.0,321.0,150.3,431.0,996.3,Tracheophyta; Magnoliopsida; Pinus pinaster Aiton; Eucalyptus L'Hér.
2011,2011-09-27,Porto,Póvoa de Varzim,Terroso,Sejães,41.415134,-8.7278019,NC,77.0,2011-09-27T15:00,25.6,49,14.1,24.9,0.0,0.0,0.0,0.0,1,1022.1,1013.1,37,0,38,48,0.37,1.68,13.8,16.4,317,322,20.5,27.5,21.7,20.6,20.1,0.106,0.156,0.193,0.308,1,3600.0,425.4,219.1,206.3,386.5,425.4,771.9,466.0,240.0,226.0,386.5,466.0,845.6,Tracheophyta; Eucalyptus L'Hér.; Pinus pinaster Aiton
2011,2011-09-27,Bragança,Vinhais,Santalha,PENSO - PNM (Penso),41.8775674,-7.1119547,NC,716.0,2011-09-27T17:00,25.3,29,5.9,23.9,0.0,0.0,0.0,0.0,1,1022.4,942.6,24,0,17,46,0.15,2.31,2.8,3.6,230,217,13.3,26.4,21.0,19.8,18.8,0.116,0.138,0.182,0.32,1,3600.0,155.1,78.3,76.8,336.6,155.1,316.8,214.0,108.0,106.0,336.6,214.0,437.0,Tracheophyta; Magnoliopsida; Pinus pinaster Aiton; Castanea sativa Mill.
2011,2011-09-27,Lisboa,Alenquer,Ribafria,Ribafria,39.06415665,-9.08696556489279,Desconhecida,138.0,2011-09-27T19:00,22.0,64,14.9,21.9,0.0,0.0,0.0,0.0,1,1021.0,1004.8,30,0,0,100,0.08,0.96,12.0,20.1,327,333,22.3,26.0,25.0,22.9,22.1,0.08,0.156,0.208,0.308,0,0.0,0.0,0.0,0.0,0.0,0.0,0.0,5.0,0.0,5.0,0.0,5.0,40.6,Vitis vinifera L.; Tracheophyta; Pinales; Eucalyptus L'Hér.; Magnoliopsida
2011,2011-10-13,Leiria,Porto de Mós,São Bento,CABEÇO DAS POMBAS,39.51776705,-8.778642467020365,NC,528.0,2011-10-13T14:00,30.5,16,1.8,29.1,0.0,0.0,0.0,0.0,0,1017.3,958.9,0,0,0,0,0.44,3.67,1.4,2.2,360,9,14.8,32.8,22.0,20.7,19.7,0.09,0.143,0.191,0.299,1,3600.0,618.8,533.5,85.3,877.2,618.8,835.9,653.0,563.0,90.0,877.2,653.0,882.1,Tracheophyta; Olea europaea L.; Magnoliopsida
2011,2011-08-10,Porto,Paredes,Rebordosa,QUINTA BAIXO (Quinta),41.229084,-8.4032657,NC,272.0,2011-08-10T13:00,30.4,28,9.6,31.5,0.0,0.0,0.0,0.0,0,1017.3,986.7,0,0,0,0,0.72,3.15,8.2,10.6,105,108,29.2,30.8,22.5,20.8,17.9,0.159,0.139,0.197,0.339,1,3600.0,949.5,842.6,106.9,937.9,949.5,1195.7,950.0,843.0,107.0,937.9,950.0,1196.3,Magnoliopsida; Pinus pinaster Aiton; Eucalyptus L'Hér.; Tracheophyta; Vitis vinifera L.
2011,2011-08-10,Viana do Castelo,Arcos de Valdevez,São Cosme e São Damião,GEREI - S.COSME E S.DAMIAO (Gerei),41.9097721,-8.4308805,NC,141.0,2011-08-10T13:00,30.3,32,11.9,32.7,0.0,0.0,0.0,0.0,0,1017.5,1001.5,0,0,0,0,0.68,2.93,4.3,3.6,318,6,12.2,31.4,22.3,20.7,18.1,0.145,0.153,0.23,0.341,1,3600.0,924.8,819.8,105.0,917.9,924.8,1188.8,925.0,820.0,105.0,917.9,925.0,1189.1,Pinus pinaster Aiton; Magnoliopsida; Eucalyptus L'Hér.
2011,2011-08-10,Lisboa,ODIVELAS,Ramada,BAIRRO GIRASSOL - RAMADA (Bairro da Areola),38.80800875,-9.196381569305192,NC,233.0,2011-08-10T13:00,28.9,42,14.6,32.0,0.0,0.0,0.0,0.0,0,1015.6,989.3,18,0,0,60,0.67,2.33,5.5,6.0,212,205,30.6,35.5,24.7,21.9,19.5,0.092,0.165,0.233,0.333,1,3600.0,932.0,806.9,125.1,880.4,932.0,1219.8,931.0,806.0,125.0,880.4,931.0,1218.5,Eucalyptus L'Hér.; Tracheophyta; Magnoliopsida; Olea europaea L.; Pinus pinea L.; 
2011,2011-09-24,Aveiro,Águeda,Agadão,Corga da Serra,40.5860352,-8.3069097,Desconhecida,259.0,2011-09-24T02:00,14.5,94,13.5,15.1,0.0,0.0,0.0,0.0,1,1016.8,986.1,37,36,0,16,0.0,0.1,3.7,5.5,259,302,10.1,17.4,21.4,21.8,20.9,0.101,0.155,0.177,0.298,0,0.0,0.0,0.0,0.0,0.0,0.0,0.0,0.0,0.0,0.0,0.0,0.0,0.0,Eucalyptus L'Hér.
2011,2011-09-26,Aveiro,Oliveira de Azemeis,Carregosa,Rua dos balinhos,40.8832957,-8.4150805,Desconhecida,340.0,2011-09-26T12:00,25.6,45,12.6,26.9,0.0,0.0,0.0,0.0,0,1021.4,982.6,7,0,0,24,0.5,1.82,4.5,5.4,241,233,21.6,27.4,20.3,20.1,19.6,0.117,0.177,0.208,0.319,1,3600.0,754.8,653.2,101.7,885.6,754.8,1003.7,735.0,636.0,99.0,885.6,735.0,977.3,Eucalyptus L'Hér.; Tracheophyta; Magnoliopsida; Pinus pinaster Aiton
2011,2011-09-26,Aveiro,Estarreja,Veiros,Canedo,40.7677278,-8.5945938,Desconhecida,14.0,2011-09-26T13:00,26.4,53,16.2,27.9,0.0,0.0,0.0,0.0,0,1021.4,1019.8,10,3,0,24,0.51,1.6,11.5,12.0,311,316,26.6,30.6,22.0,21.5,21.0,0.096,0.144,0.183,0.295,1,3600.0,735.8,627.7,108.1,854.0,735.8,1000.3,742.0,633.0,109.0,854.0,742.0,1008.8,Tracheophyta; Magnoliopsida; Eucalyptus L'Hér.; Pinus pinaster Aiton
2011,2011-09-26,Braga,Guimarães,Santa Eufémia Prazins,BARREIROS(PRAZINS STA EUF)M.6 (ED101-2 (ED101-2) Km 6),41.4876338,-8.3168637,NC,147.0,2011-09-26T16:00,26.0,48,14.1,25.7,0.0,0.0,0.0,0.0,1,1020.7,1003.7,30,3,0,90,0.35,1.75,10.9,13.2,304,305,18.4,28.7,21.6,20.2,19.7,0.112,0.172,0.199,0.313,1,3600.0,400.3,311.5,88.8,727.6,400.3,582.7,469.0,365.0,104.0,727.6,469.0,682.8,Tracheophyta; Pinus pinaster Aiton; Eucalyptus L'Hér.; Pinus pinea L.; Magnoliopsida
2011,2011-09-26,Lisboa,Sintra,Agualva,JUNTO CAMPO FUTEBOL (Agualva-Cacém),38.78413805,-9.301270661479826,Desconhecida,170.0,2011-09-26T14:00,23.5,60,15.4,25.8,0.0,0.0,0.0,0.0,0,1020.1,1000.4,0,0,0,0,0.48,1.15,5.5,6.0,328,335,24.5,27.4,21.3,20.7,20.2,0.125,0.166,0.218,0.323,1,3600.0,709.6,611.9,97.7,868.2,709.6,959.3,741.0,639.0,102.0,868.2,741.0,1001.7,Tracheophyta; Magnoliopsida; ; Pinales
2011,2011-08-20,Porto,Gondomar,Foz do Sousa,Jancido,41.0994524,-8.4999065,NC,79.0,2011-08-20T17:00,36.5,27,14.5,36.2,0.0,0.0,0.0,0.0,1,1014.0,1005.2,31,0,3,96,0.45,4.45,11.9,12.7,325,325,29.9,36.4,27.3,23.0,19.8,0.119,0.136,0.192,0.336,1,3600.0,365.9,245.6,120.3,552.9,365.9,593.6,435.0,292.0,143.0,552.9,435.0,705.6,Eucalyptus L'Hér.; Tracheophyta; Magnoliopsida; Pinus pinaster Aiton
2011,2011-10-03,Porto,TROFA,Bougado_Santiago,LANTEMIL (ALHÕES),41.3302367,-8.5724918,NC,31.0,2011-10-03T09:00,23.4,64,16.2,25.3,0.0,0.0,0.0,0.0,0,1024.9,1021.2,2,0,0,7,0.17,1.04,1.5,0.8,104,63,8.3,23.0,22.8,22.0,20.8,0.108,0.149,0.192,0.314,1,3600.0,362.9,278.9,83.9,652.5,362.9,584.1,294.0,226.0,68.0,652.5,294.0,473.2,Tracheophyta; Magnoliopsida; Pinales
2011,2011-10-09,Porto,Marco de Canaveses,Paredes de Viadores,PENEDO DO CAVALO (Penedo Caimal),41.1349745,-8.1251255,NC,308.0,2011-10-09T15:00,23.9,35,7.3,21.5,0.0,0.0,0.0,0.0,0,1023.1,987.6,0,0,0,0,0.41,1.95,12.2,16.2,88,87,30.2,26.2,19.6,20.6,19.6,0.102,0.158,0.203,0.315,1,3600.0,499.1,423.5,75.5,845.5,499.1,686.8,555.0,471.0,84.0,845.5,555.0,763.8,Magnoliopsida; Pinus pinaster Aiton; Eucalyptus L'Hér.; Tracheophyta; Vitis vinifera L.; 
2011,2011-10-09,Aveiro,Santa Maria da Feira,Espargo,Barracão (Barracão de Espargos),40.9258202,-8.5814824,Desconhecida,98.0,2011-10-09T16:00,26.7,29,7.2,24.6,0.0,0.0,0.0,0.0,0,1022.5,1011.2,0,0,0,0,0.33,2.49,9.5,13.0,61,66,18.4,29.9,22.3,22.1,20.7,0.1,0.11,0.136,0.273,1,3600.0,339.3,277.1,62.2,762.6,339.3,498.2,409.0,334.0,75.0,762.6,409.0,600.6,Eucalyptus L'Hér.; Tracheophyta; Pinus pinaster Aiton
2011,2011-10-09,Castelo Branco,Covilhã,Sarzedo,SARZEDO,40.3627549,-7.4286307,Desconhecida,772.0,2011-10-09T16:00,23.0,29,4.1,19.3,0.0,0.0,0.0,0.0,0,1023.0,936.5,0,0,0,0,0.34,1.99,15.6,21.1,52,53,32.0,26.8,20.1,20.9,20.4,0.122,0.243,0.279,0.379,1,3600.0,337.1,276.2,60.8,779.5,337.1,486.0,410.0,336.0,74.0,779.5,410.0,591.1,Magnoliopsida; Castanea sativa Mill.; Pinus pinaster Aiton; Quercus L.
2011,2011-10-09,Leiria,Porto de Mós,São Bento,SÃO BENTO,39.5439188,-8.799132718228975,NC,534.0,2011-10-09T16:00,24.7,25,3.3,22.2,0.0,0.0,0.0,0.0,0,1021.1,960.8,2,0,0,5,0.3,2.34,6.6,8.6,22,22,19.8,28.4,21.0,20.8,19.5,0.09,0.146,0.193,0.3,1,3600.0,354.3,290.3,64.0,772.0,354.3,515.6,426.0,349.0,77.0,772.0,426.0,619.9,Tracheophyta; Magnoliopsida; Olea europaea L.
2011,2011-10-09,Vila Real,Montalegre,Meixide,Meixide (ARDAOS),41.8140146,-7.5978897,NC,910.0,2011-10-09T16:00,21.1,37,5.9,19.5,0.0,0.0,0.0,0.0,0,1023.9,922.2,0,0,0,0,0.24,1.58,4.2,5.5,121,113,15.8,22.9,17.1,17.9,16.9,0.218,0.272,0.301,0.409,1,3600.0,318.5,260.0,58.4,749.3,318.5,475.9,387.0,316.0,71.0,749.3,387.0,578.3,Magnoliopsida; Quercus L.; Pinales; Tracheophyta
2011,2011-10-09,Aveiro,Santa Maria da Feira,Argoncilhe,Carvalhal,41.0246296,-8.5276674,Desconhecida,130.0,2011-10-09T16:00,26.2,30,7.5,24.1,0.0,0.0,0.0,0.0,0,1022.4,1007.4,0,0,0,0,0.33,2.37,10.4,14.3,56,62,22.0,29.0,22.0,22.0,20.7,0.107,0.122,0.151,0.288,1,3600.0,340.6,278.4,62.2,770.2,340.6,495.7,411.0,336.0,75.0,770.2,411.0,598.2,Tracheophyta
2011,2011-08-12,Porto,Valongo,Alfena,BOUCINHA (ALFENA),41.2492226,-8.5158034,NC,103.0,2011-08-12T11:00,29.5,41,14.8,31.0,0.0,0.0,0.0,0.0,0,1012.7,1001.0,14,0,0,47,0.58,2.43,9.0,11.0,344,349,20.2,30.4,24.5,22.2,19.2,0.119,0.14,0.207,0.334,1,3600.0,813.2,660.5,152.7,795.6,813.2,1105.7,767.0,623.0,144.0,795.6,767.0,1042.9,Eucalyptus L'Hér.; Tracheophyta
2011,2011-10-05,Porto,TROFA,Coronado_Sao Mamede,MENDÕES (Moinho do Pisco),41.2748271,-8.5739705,NC,139.0,2011-10-05T02:00,17.7,88,15.6,18.8,0.0,0.0,0.0,0.0,0,1022.0,1005.5,0,0,0,0,0.0,0.25,5.6,12.7,63,55,15.1,19.4,23.3,21.5,20.1,0.107,0.147,0.191,0.313,0,0.0,0.0,0.0,0.0,0.0,0.0,0.0,0.0,0.0,0.0,0.0,0.0,0.0,Magnoliopsida; Pinales; Tracheophyta; Eucalyptus L'Hér.
2011,2011-10-05,Aveiro,Oliveira de Azemeis,Fajões,Candal,40.9089991,-8.4159795,Desconhecida,390.0,2011-10-05T05:00,15.7,68,9.8,14.8,0.0,0.0,0.0,0.0,0,1022.3,976.4,0,0,0,0,0.01,0.57,6.2,11.4,69,66,18.0,17.0,21.6,20.7,19.4,0.105,0.161,0.204,0.315,0,0.0,0.0,0.0,0.0,0.0,0.0,0.0,0.0,0.0,0.0,0.0,0.0,0.0,Tracheophyta; Magnoliopsida; Pinus pinaster Aiton; Eucalyptus L'Hér.
2011,2011-10-05,Vila Real,Valpaços,Ervões,Sá,41.674818,-7.3462215,NC,719.0,2011-10-05T15:00,27.2,25,5.7,25.1,0.0,0.0,0.0,0.0,0,1022.3,942.6,0,0,0,0,0.41,2.69,7.2,9.3,297,298,20.9,30.4,21.6,19.8,18.6,0.124,0.137,0.173,0.314,1,3600.0,500.7,425.0,75.6,831.5,500.7,699.3,556.0,472.0,84.0,831.5,556.0,776.6,Tracheophyta; Quercus L.; Magnoliopsida
2011,2011-10-05,Lisboa,Torres Vedras,Dois Portos,FOLGOROSA,39.03838195,-9.18432958743044,Desconhecida,82.0,2011-10-05T15:00,27.0,43,13.3,27.0,0.0,0.0,0.0,0.0,0,1020.8,1011.3,0,0,0,0,0.45,2.03,9.5,10.5,307,319,22.0,33.8,24.6,22.7,21.3,0.088,0.158,0.215,0.319,1,3600.0,556.0,475.3,80.7,864.0,556.0,752.6,613.0,524.0,89.0,864.0,613.0,829.7,Vitis vinifera L.; Eucalyptus L'Hér.; Magnoliopsida; Tracheophyta; 
2011,2011-10-09,Braga,Cabeceiras de Basto,Cabeceiras de Basto,L. LAPELA(CAB.BASTO)M7 (GONDIÃES),41.5654887,-8.010196481857573,NC,706.0,2011-10-09T14:00,21.1,39,6.5,18.9,0.0,0.0,0.0,0.0,0,1024.9,944.8,0,0,0,0,0.42,1.53,12.3,16.6,87,86,33.8,24.1,17.4,18.7,17.9,0.103,0.158,0.206,0.316,1,3600.0,612.7,529.4,83.3,882.0,612.7,823.0,647.0,559.0,88.0,882.0,647.0,869.0,Pinus pinaster Aiton; Magnoliopsida; Eucalyptus L'Hér.
2011,2011-10-02,Viana do Castelo,Ponte da Barca,Sampriz,CARDELHE - SAMPRIZ (Cardelhe),41.7862876,-8.3880126,NC,342.0,2011-10-02T14:00,28.5,35,11.3,28.8,0.0,0.0,0.0,0.0,0,1021.5,982.8,0,0,0,0,0.48,2.54,5.4,7.0,176,168,20.9,29.8,21.3,19.8,18.8,0.111,0.171,0.208,0.317,1,3600.0,637.8,547.3,90.4,860.1,637.8,869.0,670.0,575.0,95.0,860.1,670.0,912.9,Magnoliopsida; Tracheophyta; Vitis vinifera L.
2011,2011-10-02,Viana do Castelo,Paredes de Coura,Vascões,GIESTEIRA - VASCÕES - PPCB (Giesteira),41.8986465,-8.5101008,NC,555.0,2011-10-02T14:00,27.0,35,10.2,26.7,0.0,0.0,0.0,0.0,0,1022.1,959.9,0,0,0,0,0.49,2.31,7.6,9.8,161,156,23.0,28.4,20.2,18.8,17.7,0.12,0.176,0.215,0.322,1,3600.0,638.8,550.2,88.5,866.7,638.8,867.0,671.0,578.0,93.0,866.7,671.0,910.8,Magnoliopsida; Quercus L.; Tracheophyta; Eucalyptus L'Hér.; Pinales; 
2011,2011-10-02,Porto,Paredes,Aguiar de Sousa,L.ALVRE (Alvre),41.1312572,-8.4159602,NC,83.0,2011-10-02T16:00,30.6,32,12.1,30.7,0.0,0.0,0.0,0.0,0,1020.4,1010.9,1,0,0,2,0.32,2.99,4.1,4.3,308,312,12.6,32.1,24.2,21.8,20.7,0.116,0.157,0.194,0.318,1,3600.0,368.3,301.7,66.6,757.6,368.3,543.9,437.0,358.0,79.0,757.6,437.0,645.4,Magnoliopsida; Pinus pinaster Aiton; Eucalyptus L'Hér.; Tracheophyta; Vitis vinifera L.; Pinales
2011,2011-10-02,Lisboa,Mafra,Milharado,ROUSSADA JT CAMPO DE FUTEBOL (Brejos da Roussada),38.947045,-9.198869,Desconhecida,209.0,2011-10-02T16:00,27.9,42,13.9,28.4,0.0,0.0,0.0,0.0,0,1019.2,995.4,1,0,0,4,0.33,2.18,5.4,7.0,176,168,24.8,33.2,24.9,22.5,21.3,0.089,0.156,0.211,0.318,1,3600.0,389.2,319.7,69.5,756.4,389.2,577.1,459.0,377.0,82.0,756.4,459.0,680.7,Tracheophyta; Pinus pinaster Aiton; Magnoliopsida
2011,2011-10-02,Aveiro,Albergaria-a-Velha,Ribeira de Fráguas,Telhadela,40.7641653,-8.4488836,Desconhecida,150.0,2011-10-02T16:00,30.5,31,11.3,30.3,0.0,0.0,0.0,0.0,0,1020.3,1003.3,0,0,0,0,0.32,3.02,3.6,4.2,217,200,18.7,32.5,24.3,21.7,20.5,0.095,0.142,0.18,0.294,1,3600.0,369.9,303.3,66.6,757.1,369.9,547.2,439.0,360.0,79.0,757.1,439.0,649.4,Eucalyptus L'Hér.; Magnoliopsida; Tracheophyta
2011,2011-10-02,Braga,Guimarães,Mascotelos,L. STº AMARO(MASCOTELOS)M5 (CASTELÕES),41.4256581,-8.310987377899771,NC,219.0,2011-10-02T18:00,28.0,42,14.1,28.5,0.0,0.0,0.0,0.0,0,1021.2,996.2,0,0,0,0,0.09,2.18,5.9,10.9,317,326,11.9,28.2,23.7,21.1,20.0,0.1,0.156,0.191,0.306,1,2828.13,21.5,13.4,8.1,154.0,18.5,42.3,88.0,55.0,33.0,372.6,88.0,173.6,Pinales; Magnoliopsida; Tracheophyta; Vitis vinifera L.; Eucalyptus L'Hér.
2011,2011-10-02,Porto,Vila Nova de Gaia,Serzedo,Estrada da Rainha,41.0486349,-8.6110318,NC,78.0,2011-10-02T18:00,27.0,44,13.7,26.1,0.0,0.0,0.0,0.0,0,1020.9,1011.9,0,0,0,0,0.16,1.99,14.1,22.3,322,326,19.8,29.9,25.2,22.0,20.8,0.092,0.124,0.163,0.294,1,2923.81,24.7,15.5,9.2,177.4,21.7,49.1,91.0,57.0,34.0,378.4,91.0,181.0,Tracheophyta; Magnoliopsida; Eucalyptus L'Hér.; Pinus pinaster Aiton
2011,2011-10-02,Aveiro,Santa Maria da Feira,Lourosa,Travessa da Escola,40.983541,-8.5499188,Desconhecida,164.0,2011-10-02T05:00,16.8,73,12.0,16.5,0.0,0.0,0.0,0.0,0,1019.1,999.6,0,0,0,0,0.01,0.51,6.6,11.1,99,119,16.9,18.2,22.9,21.5,20.3,0.113,0.127,0.154,0.291,0,0.0,0.0,0.0,0.0,0.0,0.0,0.0,0.0,0.0,0.0,0.0,0.0,0.0,Tracheophyta; Magnoliopsida; Pinus pinaster Aiton; Eucalyptus L'Hér.
2011,2011-10-02,Lisboa,Mafra,Igreja Nova,Lexim,38.91323715,-9.328906889461573,Desconhecida,217.0,2011-10-02T07:00,19.2,74,14.4,19.2,0.0,0.0,0.0,0.0,0,1019.4,993.9,0,0,0,0,0.05,0.58,10.0,22.2,111,122,19.1,19.4,22.9,22.2,21.1,0.083,0.157,0.216,0.324,1,0.0,17.4,7.5,9.9,85.6,7.0,100.6,7.0,3.0,4.0,41.0,7.0,40.5,Magnoliopsida; Tracheophyta
2011,2011-10-02,Bragança,Torre de Moncorvo,Urros,URROS,41.0860226,-7.0251373,NC,570.0,2011-10-02T13:00,27.0,31,8.6,27.3,0.0,0.0,0.0,0.0,0,1022.5,958.6,0,0,0,0,0.5,2.44,3.2,4.3,90,95,15.1,28.5,20.9,20.5,20.1,0.148,0.192,0.219,0.32,1,3600.0,711.0,615.4,95.7,881.5,711.0,953.3,721.0,624.0,97.0,881.5,721.0,966.7,Magnoliopsida; Castanea sativa Mill.; Pinales; Olea europaea L.; Tracheophyta
2011,2011-09-20,Aveiro,Aveiro,Nossa Senhora de Fátima,Chão Velho - Póvoa do Valado,40.5713841,-8.574449,Desconhecida,42.0,2011-09-20T00:00,17.3,80,13.8,17.4,0.0,0.0,0.0,0.0,0,1019.7,1014.7,0,0,0,0,0.01,0.4,7.6,16.2,45,37,15.5,17.7,22.3,22.0,21.1,0.047,0.082,0.095,0.2,0,0.0,0.0,0.0,0.0,0.0,0.0,0.0,0.0,0.0,0.0,0.0,0.0,0.0,Tracheophyta; Magnoliopsida; Pinus pinaster Aiton; Eucalyptus L'Hér.
2011,2011-09-20,Viseu,Viseu,Bodiosa,Aval,40.7170301,-8.0066221,Desconhecida,491.0,2011-09-20T01:00,14.5,44,2.2,11.2,0.0,0.0,0.0,0.0,0,1020.6,963.1,0,0,0,0,0.06,0.93,10.6,19.1,62,68,22.7,15.8,20.1,20.7,19.6,0.113,0.165,0.185,0.304,0,0.0,0.0,0.0,0.0,0.0,0.0,0.0,0.0,0.0,0.0,0.0,0.0,0.0,Pinus pinaster Aiton; Magnoliopsida; Tracheophyta; Olea europaea L.
2011,2011-09-20,Setúbal,Almada,Charneca da Caparica,R. NORTON DE MATOS FRT AO Nº56 (CACILHAS),38.6285507,-9.1974387,NC,86.0,2011-09-20T09:00,21.0,42,7.5,18.4,0.0,0.0,0.0,0.0,0,1018.3,1008.2,0,0,0,0,0.27,1.45,13.5,19.5,44,51,23.8,21.1,21.5,22.1,21.2,0.053,0.07,0.108,0.213,1,3600.0,447.0,358.3,88.7,735.2,447.0,661.0,368.0,295.0,73.0,735.2,368.0,544.2,Tracheophyta; Pinus pinaster Aiton; Magnoliopsida; Pinales
2011,2011-09-20,Lisboa,Loures,Camarate,EM-527 - Bº SANTIAGO (Apelação),38.7979738,-9.137797597001224,NC,130.0,2011-09-20T13:00,29.7,18,3.1,28.8,0.0,0.0,0.0,0.0,0,1016.9,1002.1,15,0,0,51,0.61,3.4,6.5,7.9,6,24,18.4,28.4,23.2,23.2,22.7,0.238,0.274,0.309,0.355,1,3600.0,817.5,711.1,106.4,905.7,817.5,1065.0,822.0,715.0,107.0,905.7,822.0,1070.8,Tracheophyta; Olea europaea L.; Magnoliopsida; 
2011,2011-09-20,Braga,Guimarães,Lordelo,L.(LORDELO)M2 (CASTELÕES),41.3655809,-8.3635524,NC,114.0,2011-09-20T15:00,27.3,31,8.8,26.6,0.0,0.0,0.0,0.0,0,1017.4,1004.3,15,0,0,49,0.48,2.5,7.6,8.6,301,303,20.2,29.3,20.9,20.6,19.8,0.122,0.175,0.195,0.311,1,3600.0,614.5,527.2,87.3,874.3,614.5,818.0,669.0,574.0,95.0,874.3,669.0,890.6,Tracheophyta; Magnoliopsida; Eucalyptus L'Hér.
2011,2011-09-20,Aveiro,Águeda,Águeda,"Ma,oida (Massadas)",40.5777533,-8.3652185,Desconhecida,172.0,2011-09-20T15:00,29.2,22,5.2,27.6,0.0,0.0,0.0,0.0,1,1016.6,997.1,22,0,0,75,0.52,3.17,8.4,10.0,329,334,23.0,31.8,22.1,21.5,20.5,0.104,0.159,0.182,0.302,1,3600.0,622.4,527.0,95.5,865.7,622.4,825.7,678.0,574.0,104.0,865.7,678.0,899.4,Eucalyptus L'Hér.; Tracheophyta; Magnoliopsida; Pinus pinaster Aiton
2011,2011-08-10,Lisboa,ODIVELAS,Pontinha,URMEIRA (Caminho Largo),38.7670657,-9.1996189,NC,96.0,2011-08-10T10:00,27.3,42,13.2,27.8,0.0,0.0,0.0,0.0,1,1016.3,1005.3,22,0,0,74,0.47,2.1,7.8,10.1,124,117,23.0,28.0,23.7,21.8,19.7,0.127,0.173,0.237,0.334,1,3600.0,713.7,603.2,110.5,816.3,713.7,983.5,646.0,546.0,100.0,816.3,646.0,890.3,Pinus pinea L.; Olea europaea L.; Tracheophyta; Magnoliopsida; 
2011,2011-08-10,Braga,Celorico de Basto,Infesta,REBORDÕES (INFESTA) M5 (Rebordões),41.4008308,-8.048084608930965,NC,433.0,2011-08-10T11:00,25.2,32,7.4,24.3,0.0,0.0,0.0,0.0,0,1019.3,970.2,0,0,0,0,0.58,2.18,12.3,16.2,87,89,37.8,25.9,21.0,20.7,17.5,0.143,0.145,0.215,0.332,1,3600.0,868.1,758.0,110.1,906.6,868.1,1112.8,820.0,716.0,104.0,906.6,820.0,1051.2,Magnoliopsida; Pinus pinaster Aiton; Vitis vinifera L.; Tracheophyta
2011,2011-08-10,Castelo Branco,Fundão,Soalheira,Soalheira,40.0268704,-7.4553464,Desconhecida,408.0,2011-08-10T13:00,33.7,24,10.4,35.0,0.0,0.0,0.0,0.0,0,1016.6,971.6,0,0,0,0,0.75,3.98,8.1,9.9,111,109,29.2,35.8,26.7,23.6,19.9,0.132,0.159,0.212,0.341,1,3600.0,939.9,831.1,108.8,917.5,939.9,1205.8,942.0,833.0,109.0,917.5,942.0,1208.5,Magnoliopsida; Tracheophyta; Vitis vinifera L.; Quercus suber L.; Olea europaea L.
2011,2011-08-10,Porto,Gondomar,Medas,TRÁS AGRA (Trás da Serra),41.0615476,-8.4344016,NC,98.0,2011-08-10T14:00,32.7,26,10.7,35.0,0.0,0.0,0.0,0.0,0,1016.4,1005.3,1,0,0,3,0.69,3.67,2.6,3.4,16,32,15.8,33.5,23.9,21.8,19.1,0.143,0.145,0.216,0.34,1,3600.0,898.0,795.0,103.0,926.7,898.0,1141.9,924.0,818.0,106.0,926.7,924.0,1174.9,Eucalyptus L'Hér.; Magnoliopsida; Tracheophyta; Pinus pinaster Aiton
2011,2011-08-10,Viseu,Armamar,Cimbres,CIMBRES,41.0500077,-7.700478139493693,Desconhecida,734.0,2011-08-10T15:00,30.1,26,8.4,31.7,0.0,0.0,0.0,0.0,0,1016.4,936.3,0,0,0,0,0.58,3.17,0.0,0.7,180,180,18.4,33.2,23.0,20.8,17.2,0.141,0.137,0.195,0.333,1,3600.0,787.7,691.8,95.9,905.1,787.7,1017.5,838.0,736.0,102.0,905.1,838.0,1082.5,Magnoliopsida; Vitis vinifera L.
2011,2011-10-13,Braga,Guimarães,Serzedelo,TALEGRE(SERZEDELO)M6 (Talegre),41.4023385,-8.369240901280321,NC,146.0,2011-10-13T14:00,31.0,21,6.4,29.7,0.0,0.0,0.0,0.0,0,1018.3,1001.8,0,0,0,0,0.48,3.52,6.1,7.6,357,3,12.2,31.3,21.8,21.1,20.3,0.103,0.15,0.193,0.307,1,3600.0,599.9,516.6,83.3,883.8,599.9,803.4,634.0,546.0,88.0,883.8,634.0,849.0,Magnoliopsida; Tracheophyta; Vitis vinifera L.; Eucalyptus L'Hér.
2011,2011-10-13,Vila Real,Montalegre,Contim,Contim,41.7831211,-7.8927327,NC,978.0,2011-10-13T10:00,21.8,37,6.5,20.1,0.0,0.0,0.0,0.0,0,1022.6,914.2,0,0,0,0,0.29,1.64,5.2,7.1,102,105,16.2,19.8,17.1,17.6,16.8,0.212,0.287,0.312,0.418,1,3600.0,505.9,420.8,85.1,810.5,505.9,713.4,446.0,371.0,75.0,810.5,446.0,629.0,Tracheophyta; Magnoliopsida
2011,2011-10-13,Braga,Fafe,Pedraído,CAMPO DIANTEIRO(PEDRAÍDO)-5 (Campo),41.506306050000006,-8.113883713223018,NC,694.0,2011-10-13T13:00,27.0,25,5.2,26.1,0.0,0.0,0.0,0.0,0,1021.1,944.1,0,0,0,0,0.46,2.68,3.6,4.3,96,90,16.9,27.7,18.6,18.4,18.0,0.099,0.154,0.204,0.314,1,3600.0,664.6,577.8,86.8,902.1,664.6,880.2,674.0,586.0,88.0,902.1,674.0,892.7,Tracheophyta; Magnoliopsida
2011,2011-10-03,Braga,Póvoa de Lanhoso,Oliveira,IGREJA(OLIVEIRA)M5 (Igreja),41.586803,-8.219673058262511,NC,264.0,2011-10-03T02:00,15.7,73,10.8,15.1,0.0,0.0,0.0,0.0,0,1023.8,992.4,0,0,0,0,0.01,0.48,5.5,5.9,67,104,12.2,17.8,22.4,20.9,19.7,0.097,0.154,0.189,0.305,0,0.0,0.0,0.0,0.0,0.0,0.0,0.0,0.0,0.0,0.0,0.0,0.0,0.0,Tracheophyta; Quercus L.; Eucalyptus L'Hér.; Magnoliopsida
2011,2011-10-03,Porto,Paços de Ferreira,Ferreira,MOINHOS CIMA (Moinhos),41.2663712,-8.3445627,NC,331.0,2011-10-03T16:00,27.2,37,11.3,25.7,0.0,0.0,0.0,0.0,0,1023.9,986.2,19,0,0,63,0.36,2.28,13.2,17.6,299,301,25.9,30.3,22.6,20.5,19.3,0.094,0.157,0.197,0.31,1,3600.0,352.9,276.4,76.5,707.7,352.9,533.8,420.0,329.0,91.0,707.7,420.0,635.3,Eucalyptus L'Hér.; Tracheophyta; Magnoliopsida; Quercus L.; Pinus pinaster Aiton; 
2011,2011-10-03,Braga,Vieira do Minho,Rossas,S.PEDRO(ROSSAS)M.7 (RUIVÃIS),41.585309,-8.098200028766968,NC,482.0,2011-10-03T16:00,28.0,36,11.5,26.9,0.0,0.0,0.0,0.0,0,1024.2,970.0,4,1,0,11,0.35,2.43,10.9,14.6,287,290,23.8,30.0,21.8,19.9,18.9,0.104,0.155,0.194,0.309,1,3600.0,356.5,291.9,64.6,755.8,356.5,527.8,425.0,348.0,77.0,755.8,425.0,629.2,Tracheophyta; Eucalyptus L'Hér.; Magnoliopsida; Quercus L.; Pinus pinaster Aiton
2011,2011-10-03,Vila Real,Chaves,Santa Maria Maior,Aregos,41.7487372,-7.4818264,NC,390.0,2011-10-03T17:00,28.8,32,10.4,28.0,0.0,0.0,0.0,0.0,0,1023.0,979.0,0,0,0,0,0.2,2.69,5.8,10.0,292,296,15.8,29.6,22.9,20.9,20.0,0.122,0.14,0.182,0.317,1,3600.0,171.4,130.1,41.3,633.0,171.4,280.9,245.0,186.0,59.0,633.0,245.0,401.5,Tracheophyta
2011,2011-10-03,Santarém,Benavente,Samora Correia,Infantado,38.9348747,-8.8689911,NC,10.0,2011-10-03T17:00,30.0,32,11.4,28.0,0.0,0.0,0.0,0.0,0,1022.5,1021.3,11,0,0,37,0.33,2.9,16.7,22.8,327,329,32.8,31.0,26.3,23.9,22.4,0.233,0.293,0.32,0.391,1,3600.0,196.2,144.2,51.9,612.4,196.2,321.9,272.0,200.0,72.0,612.4,272.0,446.3,Quercus suber L.; Oryza sativa L.; Tracheophyta; Pinus pinaster Aiton; Quercus rotundifolia Lam.; Eucalyptus L'Hér.; Magnoliopsida; Pinus pinea L.; Olea europaea L.; Vitis vinifera L.; 
2011,2011-10-03,Porto,Vila Nova de Gaia,Serzedo,R. CUTEIRO (Rampa do Outeiro),41.0486349,-8.6110318,NC,78.0,2011-10-03T17:00,25.4,52,14.9,24.3,0.0,0.0,0.0,0.0,0,1024.1,1015.0,2,0,0,7,0.24,1.56,18.7,25.3,330,334,32.0,29.9,24.8,22.1,20.8,0.091,0.123,0.163,0.293,1,3600.0,165.8,97.2,68.6,438.3,165.8,303.1,232.0,136.0,96.0,438.3,232.0,424.1,Tracheophyta; Magnoliopsida; Eucalyptus L'Hér.; Pinus pinaster Aiton
2011,2011-10-03,Braga,Vila Verde,Aboim da Nóbrega,CASAL DE VIDE(ABOIM NOBREGA)M5 (Casal),41.755104,-8.37449322690776,Desconhecida,518.0,2011-10-03T18:00,23.0,56,13.7,23.0,0.0,0.0,0.0,0.0,0,1025.1,966.0,19,0,0,62,0.08,1.25,8.0,10.3,297,306,20.5,24.8,21.5,19.1,18.0,0.115,0.174,0.214,0.321,1,2690.81,15.2,8.2,7.0,93.9,12.6,32.6,76.0,41.0,35.0,285.6,76.0,163.3,Magnoliopsida; Tracheophyta; Quercus L.; Pinus pinaster Aiton; Acacia Mill.
2011,2011-10-03,Porto,Baião,Mesquinhata,Silvares,41.1331064,-8.1018927,Desconhecida,414.0,2011-10-03T20:00,22.0,61,14.1,22.5,0.0,0.0,0.0,0.0,0,1025.5,977.7,18,0,0,60,0.02,1.03,5.8,7.0,274,291,17.3,23.3,23.3,20.8,19.6,0.126,0.152,0.182,0.319,0,0.0,0.0,0.0,0.0,0.0,0.0,0.0,0.0,0.0,0.0,0.0,0.0,0.0,Magnoliopsida; Vitis vinifera L.; Tracheophyta; Eucalyptus L'Hér.
2011,2011-10-03,Aveiro,Águeda,Borralha,Souto Rio (Souto do Rio),40.5608336,-8.424946263874578,Desconhecida,13.0,2011-10-03T16:00,28.6,42,14.3,27.2,0.0,0.0,0.0,0.0,0,1024.0,1022.5,9,0,0,29,0.39,2.29,19.4,25.5,320,324,31.7,32.8,24.8,22.4,21.1,0.062,0.085,0.101,0.211,1,3600.0,334.0,228.0,106.0,573.2,334.0,543.6,397.0,271.0,126.0,573.2,397.0,646.1,Eucalyptus L'Hér.; Tracheophyta; Magnoliopsida; Acacia Mill.
2011,2011-10-03,Porto,Paredes,Aguiar de Sousa,LG. ALVRE (CETE),41.1271547,-8.4477733,NC,144.0,2011-10-03T19:00,23.2,60,15.1,23.7,0.0,0.0,0.0,0.0,0,1024.7,1007.9,13,0,0,43,0.07,1.13,8.3,14.2,326,339,19.4,25.3,24.1,21.5,20.3,0.114,0.155,0.193,0.317,0,0.0,0.0,0.0,0.0,0.0,0.0,0.0,1.0,0.0,1.0,0.0,1.0,9.6,Magnoliopsida; Pinus pinaster Aiton; Eucalyptus L'Hér.; Tracheophyta; Vitis vinifera L.; Quercus L.; Quercus suber L.
2011,2011-10-03,Porto,Penafiel,Guilhufe,LUG DE GUILHUFE (BUSTÊLO),41.1945288,-8.3138517,NC,225.0,2011-10-03T20:00,22.3,62,14.6,23.6,0.0,0.0,0.0,0.0,0,1025.2,998.9,13,0,0,42,0.0,1.02,1.8,4.7,270,337,11.2,23.2,23.3,20.8,19.6,0.116,0.158,0.192,0.315,0,0.0,0.0,0.0,0.0,0.0,0.0,0.0,0.0,0.0,0.0,0.0,0.0,0.0,Tracheophyta; Magnoliopsida
2011,2011-10-03,Lisboa,Sobral Monte Agraço,Sapataria,Serreira,38.963376,-9.2200611,Desconhecida,185.0,2011-10-03T20:00,20.6,70,14.9,19.9,0.0,0.0,0.0,0.0,0,1024.7,1002.9,20,0,0,65,0.05,0.73,15.9,25.9,347,350,25.6,23.8,25.3,22.8,21.4,0.088,0.155,0.209,0.314,0,0.0,0.0,0.0,0.0,0.0,0.0,0.0,0.0,0.0,0.0,0.0,0.0,0.0,Tracheophyta; Magnoliopsida
2011,2011-10-03,Lisboa,Lourinhã,Lourinhã,VALE GIÕES (Bairro do Vale Vite),39.2433932,-9.3119326,Desconhecida,10.0,2011-10-03T22:00,19.9,85,17.2,20.4,0.0,0.0,0.0,0.0,1,1025.2,1024.0,29,2,0,90,0.02,0.35,14.1,23.8,354,358,26.3,21.7,24.6,22.6,21.4,0.088,0.146,0.202,0.302,0,0.0,0.0,0.0,0.0,0.0,0.0,0.0,0.0,0.0,0.0,0.0,0.0,0.0,Tracheophyta; Magnoliopsida
2011,2011-09-15,Porto,Felgueiras,Borba de Godim,SANGUINHEDO / PASSO (PINHEIRO),41.3219949,-8.1424064,NC,386.0,2011-09-15T18:00,23.9,65,16.9,25.3,0.0,0.0,0.0,0.0,1,1014.0,970.2,26,0,1,83,0.11,1.05,7.3,10.1,303,305,20.5,26.1,23.1,19.9,18.9,0.137,0.197,0.206,0.319,1,3600.0,75.7,35.6,40.1,285.9,75.7,168.4,134.0,63.0,71.0,285.9,134.0,298.1,Vitis vinifera L.; Tracheophyta; Magnoliopsida
2011,2011-09-15,Vila Real,Boticas,São Salvador de Viveiro,Agrelos,41.6732236,-7.7748927,NC,926.0,2011-09-15T18:00,23.1,61,15.1,24.0,0.0,0.0,0.0,0.0,1,1014.3,912.5,28,0,0,92,0.1,1.1,5.4,9.4,274,277,20.2,24.5,21.2,17.9,16.8,0.156,0.194,0.225,0.331,1,3600.0,80.1,42.0,38.1,345.5,80.1,164.5,143.0,75.0,68.0,345.5,143.0,293.6,Tracheophyta; Magnoliopsida
2011,2011-09-16,Porto,Santo Tirso,Agrela,Aldeia Nova,41.2596039,-8.4725002,NC,126.0,2011-09-16T00:00,19.0,91,17.6,20.8,0.0,0.0,0.0,0.0,1,1014.8,1000.0,43,3,19,96,0.0,0.19,6.0,8.8,343,351,15.1,20.9,23.5,21.2,20.1,0.157,0.176,0.186,0.32,0,0.0,0.0,0.0,0.0,0.0,0.0,0.0,0.0,0.0,0.0,0.0,0.0,0.0,Eucalyptus L'Hér.; Tracheophyta; Quercus L.; Vitis vinifera L.
2011,2011-08-12,Santarém,Chamusca,Carregueira,Relvão (Relvão de Baixo),39.4188966,-8.4155501,NC,45.0,2011-08-12T18:00,29.5,42,15.2,28.4,0.0,0.0,0.0,0.0,1,1012.0,1006.9,37,0,25,74,0.32,2.41,19.9,26.6,318,319,41.4,36.8,30.0,24.5,21.5,0.044,0.063,0.111,0.213,1,3600.0,176.5,86.0,90.5,297.0,176.5,385.6,234.0,114.0,120.0,297.0,234.0,511.3,Tracheophyta; Pinus pinaster Aiton; Magnoliopsida
2011,2011-08-12,Porto,Felgueiras,Torrados,Terra Seca,41.3553907,-8.2397668,NC,303.0,2011-08-12T20:00,24.9,56,15.6,25.9,0.0,0.0,0.0,0.0,1,1012.4,978.0,22,0,0,72,0.06,1.38,6.4,9.4,232,252,16.2,27.1,25.8,21.3,18.1,0.12,0.144,0.206,0.326,0,0.0,0.0,0.0,0.0,0.0,0.0,0.0,13.0,5.0,8.0,57.6,13.0,57.1,Tracheophyta; Vitis vinifera L.; Eucalyptus L'Hér.; Magnoliopsida
2011,2011-08-12,Porto,Santo Tirso,Lama,PINOCOS (Pinoco),41.3618035,-8.464571740460656,NC,107.0,2011-08-12T21:00,22.0,70,16.3,23.1,0.0,0.0,0.0,0.0,1,1013.2,1000.7,26,0,0,88,0.02,0.79,7.7,13.5,307,326,19.4,25.0,25.9,21.9,18.8,0.134,0.141,0.197,0.332,0,0.0,0.0,0.0,0.0,0.0,0.0,0.0,0.0,0.0,0.0,0.0,0.0,0.0,Tracheophyta; Pinus pinaster Aiton; Vitis vinifera L.; Eucalyptus L'Hér.
2011,2011-08-12,Aveiro,Castelo de Paiva,Real,Nojões,41.031656,-8.2882505,Desconhecida,160.0,2011-08-12T23:00,19.6,85,16.9,21.3,0.0,0.0,0.0,0.0,1,1013.8,995.1,25,0,0,82,0.0,0.35,5.2,8.3,282,304,13.3,22.6,25.6,21.8,18.8,0.124,0.143,0.212,0.338,0,0.0,0.0,0.0,0.0,0.0,0.0,0.0,0.0,0.0,0.0,0.0,0.0,0.0,Eucalyptus L'Hér.; Vitis vinifera L.; Tracheophyta; Magnoliopsida; Pinus pinaster Aiton
2011,2011-10-05,Porto,Gondomar,Fânzeres,RUA GUERRA JUNQUEIRO (FANZERES),41.1548538,-8.5535287,NC,55.0,2011-10-05T04:00,17.1,95,16.3,18.5,0.0,0.0,0.0,0.0,0,1022.0,1015.4,0,0,0,0,0.0,0.09,5.5,11.0,58,49,15.1,19.1,23.4,22.1,20.7,0.119,0.147,0.192,0.318,0,0.0,0.0,0.0,0.0,0.0,0.0,0.0,0.0,0.0,0.0,0.0,0.0,0.0,Magnoliopsida; Tracheophyta; Eucalyptus L'Hér.
2011,2011-10-05,Porto,Paços de Ferreira,Carvalhosa,LG. CAMPO DO LIRIOS (MEIXOMIL),41.2825312,-8.3816287,NC,292.0,2011-10-05T04:00,14.9,86,12.5,14.9,0.0,0.0,0.0,0.0,0,1022.3,987.6,0,0,0,0,0.0,0.25,5.8,10.0,94,75,14.0,17.0,22.0,20.9,19.5,0.095,0.154,0.197,0.311,0,0.0,0.0,0.0,0.0,0.0,0.0,0.0,0.0,0.0,0.0,0.0,0.0,0.0,Tracheophyta; Eucalyptus L'Hér.; Pinus pinaster Aiton; Magnoliopsida; Vitis vinifera L.; Quercus L.; 
2011,2011-10-05,Porto,Santo Tirso,Monte Córdova,Barreiro,41.3164414,-8.4320306,NC,357.0,2011-10-05T07:00,14.2,88,12.2,13.5,0.0,0.0,0.0,0.0,0,1023.1,980.8,0,0,0,0,0.02,0.2,9.6,11.9,70,92,20.2,15.9,20.9,20.4,19.1,0.095,0.154,0.197,0.31,1,0.0,15.1,5.0,10.1,57.8,5.9,95.6,6.0,2.0,4.0,28.1,6.0,38.0,Tracheophyta; Vitis vinifera L.; Eucalyptus L'Hér.; Pinus pinaster Aiton; Magnoliopsida
2011,2011-09-17,Porto,TROFA,Covelas,LUGAR DE COURA (Lugar de Baixo),41.3008521,-8.5349796,NC,115.0,2011-09-17T12:00,23.1,60,14.9,24.1,0.0,0.0,0.0,0.0,1,1018.9,1005.5,29,32,0,0,0.46,1.13,11.0,13.3,319,322,27.4,26.2,21.8,21.4,20.2,0.156,0.173,0.185,0.32,1,3600.0,739.8,600.1,139.7,778.3,739.8,1044.1,720.0,584.0,136.0,778.3,720.0,1016.1,Magnoliopsida; Pinus pinaster Aiton; Vitis vinifera L.; Quercus L.; Tracheophyta; Eucalyptus L'Hér.; Olea europaea L.; ; Pinales
2011,2011-09-17,Viseu,Cinfães,Cinfães,CASAL CINFÃES (Casal),41.0931307,-8.0930186,Desconhecida,163.0,2011-09-17T14:00,24.7,58,15.7,25.9,0.0,0.0,0.0,0.0,0,1018.3,999.5,18,20,0,0,0.49,1.32,12.6,16.1,307,309,31.7,28.0,22.2,21.1,19.8,0.149,0.206,0.21,0.321,1,3600.0,715.5,594.6,120.8,827.8,715.5,972.7,746.0,620.0,126.0,827.8,746.0,1014.2,Tracheophyta; Quercus L.; Magnoliopsida; Pinus pinaster Aiton
2011,2011-09-17,Coimbra,Miranda do Corvo,Semide,Vale Marelo (Barroca do Vale),40.1599192,-8.3362204,Natural,199.0,2011-09-17T17:00,22.6,55,13.0,21.2,0.0,0.0,0.0,0.0,0,1017.6,994.5,0,0,0,0,0.26,1.25,16.6,22.8,318,321,41.0,27.3,23.6,21.9,20.5,0.108,0.169,0.176,0.294,1,3600.0,270.5,210.6,59.8,678.9,270.5,420.2,348.0,271.0,77.0,678.9,348.0,540.6,Eucalyptus L'Hér.; Magnoliopsida; Pinus pinaster Aiton; Tracheophyta
2011,2011-09-17,Lisboa,Loures,Santo Antão do Tojal,SANTO ANTAO DO TOJAL (Bairro de Santo António),38.8648355,-9.1514898,NC,59.0,2011-09-17T18:00,20.4,60,12.3,16.8,0.0,0.0,0.0,0.0,0,1018.5,1011.5,0,0,0,0,0.19,0.96,29.2,38.9,351,351,53.3,23.8,23.4,22.7,22.1,0.238,0.275,0.309,0.355,1,3600.0,99.9,70.0,29.9,544.6,99.9,174.0,177.0,124.0,53.0,544.6,177.0,308.3,Tracheophyta; Eucalyptus L'Hér.; Magnoliopsida
2011,2011-09-17,Porto,TROFA,Coronado_Sao Romao,MENDOES (ESTEVAIS),41.2814055,-8.5561704,NC,125.0,2011-09-17T23:00,16.2,79,12.5,14.5,0.0,0.0,0.0,0.0,1,1019.4,1004.5,29,0,0,97,0.03,0.39,17.1,26.9,335,340,29.9,18.5,21.8,21.1,20.0,0.136,0.167,0.197,0.319,0,0.0,0.0,0.0,0.0,0.0,0.0,0.0,0.0,0.0,0.0,0.0,0.0,0.0,Tracheophyta; Pinus pinaster Aiton; Magnoliopsida; Eucalyptus L'Hér.
2011,2011-08-12,Viseu,Cinfães,Cinfães,Lagarelhos,41.0516457,-8.0696176,Desconhecida,503.0,2011-08-12T22:00,20.7,74,15.9,21.9,0.0,0.0,0.0,0.0,1,1014.5,957.2,28,0,0,93,0.01,0.63,5.4,11.8,222,220,12.6,23.6,25.5,20.9,17.4,0.14,0.138,0.198,0.34,0,0.0,0.0,0.0,0.0,0.0,0.0,0.0,0.0,0.0,0.0,0.0,0.0,0.0,Quercus L.; Magnoliopsida; Tracheophyta; Pinus pinaster Aiton
2011,2011-10-05,Braga,Póvoa de Lanhoso,Nossa Senhora do Amparo,MIRÃO (PÓVOA DE LANHOSO) (FRIANDE),41.58693225,-8.281469795038168,NC,354.0,2011-10-05T02:00,16.0,83,13.1,15.9,0.0,0.0,0.0,0.0,0,1022.7,981.0,0,0,0,0,0.0,0.32,7.6,13.4,59,63,18.7,17.5,21.9,20.2,18.9,0.101,0.158,0.196,0.31,0,0.0,0.0,0.0,0.0,0.0,0.0,0.0,0.0,0.0,0.0,0.0,0.0,0.0,Vitis vinifera L.; Eucalyptus L'Hér.; Tracheophyta; Pinus pinaster Aiton; Magnoliopsida
2011,2011-10-05,Vila Real,Sabrosa,Parada de Pinhão,Parada do Pinhão (PARADA DE PINHÃO),41.3237496,-7.6429644,NC,832.0,2011-10-05T07:00,13.6,77,9.7,12.6,0.0,0.0,0.0,0.0,0,1024.7,928.9,0,0,0,0,0.02,0.35,6.1,9.7,50,88,16.2,13.9,19.1,19.1,18.2,0.133,0.146,0.183,0.316,1,0.0,19.6,7.3,12.2,84.3,8.3,107.0,8.0,3.0,5.0,39.8,8.0,43.7,Magnoliopsida; Pinus pinaster Aiton; Quercus L.; Tracheophyta
2011,2011-08-10,Braga,Celorico de Basto,Veade,SEARA(VEADE) (Seara),41.41462535,-7.974960980903772,NC,198.0,2011-08-10T14:00,31.3,27,10.2,33.1,0.0,0.0,0.0,0.0,0,1016.7,994.4,0,0,0,0,0.69,3.32,4.7,6.0,113,115,22.3,32.6,23.1,21.8,18.7,0.131,0.147,0.222,0.335,1,3600.0,900.4,797.5,103.0,933.8,900.4,1136.8,927.0,821.0,106.0,933.8,927.0,1170.3,Magnoliopsida; Pinus pinaster Aiton; Vitis vinifera L.; Tracheophyta
2011,2011-08-10,Viseu,Carregal do Sal,Papízios,Espinheiro,40.4283831,-8.0521623,Desconhecida,225.0,2011-08-10T15:00,34.5,22,9.6,35.0,0.0,0.0,0.0,0.0,0,1015.0,990.0,2,0,0,7,0.67,4.27,7.4,8.7,321,322,20.5,36.2,24.9,21.7,18.7,0.114,0.138,0.203,0.323,1,3600.0,782.4,686.4,95.9,892.0,782.4,1024.4,832.0,730.0,102.0,892.0,832.0,1089.4,Olea europaea L.; Pinus pinaster Aiton; Magnoliopsida; Tracheophyta; Acacia Mill.; Eucalyptus L'Hér.
2011,2011-08-10,Porto,Valongo,Alfena,Reguengo,41.2224153,-8.5372165,Desconhecida,89.0,2011-08-10T16:00,32.1,28,11.4,31.7,0.0,0.0,0.0,0.0,0,1015.7,1005.6,0,0,0,0,0.59,3.43,11.8,14.6,322,327,20.5,34.3,25.1,22.0,19.2,0.129,0.141,0.209,0.335,1,3600.0,646.3,560.3,86.0,874.3,646.3,853.1,714.0,619.0,95.0,874.3,714.0,942.5,Tracheophyta; Magnoliopsida; Pinus pinaster Aiton; Eucalyptus L'Hér.
2011,2011-08-10,Porto,Gondomar,Jovim,VESSADAS (Vessada),41.1052976,-8.518386,NC,96.0,2011-08-10T18:00,29.2,39,13.9,28.7,0.0,0.0,0.0,0.0,0,1015.2,1004.3,0,0,0,0,0.32,2.47,12.2,18.8,326,331,23.4,31.7,25.7,21.9,19.1,0.141,0.138,0.202,0.341,1,3600.0,268.8,214.4,54.4,715.2,268.8,399.0,351.0,280.0,71.0,715.2,351.0,521.1,Tracheophyta; Vitis vinifera L.; Eucalyptus L'Hér.; Magnoliopsida
2011,2011-08-10,Lisboa,Mafra,Santo Estevão das Galés,ALTO DA URZEIRA (Alto da Cuca),38.8987031,-9.2573321,Desconhecida,266.0,2011-08-10T20:00,21.3,59,13.0,20.4,0.0,0.0,0.0,0.0,0,1015.0,984.2,0,0,0,0,0.08,1.03,12.2,20.9,317,328,23.4,26.2,25.5,21.6,19.3,0.085,0.166,0.235,0.339,0,95.55,0.0,0.0,0.0,0.0,0.0,0.0,15.0,7.0,8.0,76.7,15.0,63.1,Tracheophyta; Pinales; Eucalyptus L'Hér.; Pinus pinaster Aiton
2011,2011-08-10,Braga,Guimarães,Moreira de Cónegos,RUA SAMPAIO PADROEIRO (MOREIRA CONEGOS) M. 6 (ED101-2 (ED101-2) Km 6),41.3832257,-8.335183247020549,NC,174.0,2011-08-10T22:00,21.8,67,15.3,22.5,0.0,0.0,0.0,0.0,0,1016.1,995.9,0,0,0,0,0.03,0.87,7.5,9.3,35,28,12.2,22.3,24.0,21.1,18.3,0.143,0.148,0.212,0.329,0,0.0,0.0,0.0,0.0,0.0,0.0,0.0,0.0,0.0,0.0,0.0,0.0,0.0,Eucalyptus L'Hér.; Tracheophyta; Magnoliopsida
2011,2011-10-02,Vila Real,Montalegre,Vilar Perdizes (São Miguel),Vilar de Perdizes (CABANA DE VILAR),41.8558666,-7.6343095,NC,803.0,2011-10-02T18:00,23.2,36,7.5,21.8,0.0,0.0,0.0,0.0,0,1023.0,933.3,0,0,0,0,0.07,1.81,5.4,7.5,132,145,11.5,23.2,19.7,18.0,17.2,0.133,0.165,0.22,0.325,1,2636.74,14.6,9.2,5.4,105.3,12.0,28.7,81.0,51.0,30.0,358.8,81.0,159.3,Magnoliopsida; Castanea sativa Mill.; Tracheophyta
2011,2011-10-02,Lisboa,Alenquer,Carnota,Gataria,39.0420615,-9.0635033,Desconhecida,211.0,2011-10-02T20:00,21.5,75,16.9,22.0,0.0,0.0,0.0,0.0,1,1021.5,996.9,25,0,0,84,0.04,0.64,13.0,21.6,314,323,23.8,25.4,25.8,23.0,21.6,0.082,0.154,0.207,0.31,0,0.0,0.0,0.0,0.0,0.0,0.0,0.0,0.0,0.0,0.0,0.0,0.0,0.0,Vitis vinifera L.; Tracheophyta; Magnoliopsida; Olea europaea L.
2011,2011-10-02,Lisboa,Loures,Santo Antão do Tojal,SANTO ANTAO DO TOJAL (Bairro de Santo António),38.8648355,-9.1514898,Desconhecida,59.0,2011-10-02T22:00,21.2,85,18.6,23.1,0.0,0.0,0.0,0.0,1,1023.1,1016.1,27,0,0,91,0.01,0.37,8.8,14.3,341,326,16.2,24.3,25.4,24.2,23.5,0.237,0.272,0.307,0.353,0,0.0,0.0,0.0,0.0,0.0,0.0,0.0,0.0,0.0,0.0,0.0,0.0,0.0,Tracheophyta; Eucalyptus L'Hér.; Magnoliopsida
2011,2011-10-02,Porto,Santo Tirso,Burgães,S.JOÃO CARVALHINHO (SEQUEIRO),41.3401777,-8.4491846,NC,242.0,2011-10-02T22:00,21.1,55,11.7,21.2,0.0,0.0,0.0,0.0,0,1023.3,995.0,3,0,0,11,0.01,1.13,3.4,6.6,32,29,11.9,21.3,23.4,20.9,19.8,0.096,0.156,0.198,0.311,0,0.0,0.0,0.0,0.0,0.0,0.0,0.0,0.0,0.0,0.0,0.0,0.0,0.0,Eucalyptus L'Hér.; Magnoliopsida; Tracheophyta; Pinus pinaster Aiton; Vitis vinifera L.
2011,2011-10-03,Porto,Santo Tirso,Monte Córdova,LG. REDONDO (SEQUEIRO),41.3164414,-8.4320306,NC,357.0,2011-10-03T02:00,15.5,78,11.8,15.3,0.0,0.0,0.0,0.0,0,1023.8,981.6,0,0,0,0,0.0,0.38,5.5,5.9,67,104,12.2,17.3,21.9,20.2,19.0,0.096,0.156,0.198,0.311,0,0.0,0.0,0.0,0.0,0.0,0.0,0.0,0.0,0.0,0.0,0.0,0.0,0.0,Tracheophyta; Vitis vinifera L.; Eucalyptus L'Hér.; Pinus pinaster Aiton; Magnoliopsida
2011,2011-08-10,Porto,Santo Tirso,Água Longa,LUGAR DO PISÃO (Lugar de Baixo),41.2603698,-8.4972609,NC,120.0,2011-08-10T18:00,28.9,39,13.7,28.4,0.0,0.0,0.0,0.0,0,1015.2,1001.5,0,0,0,0,0.32,2.42,12.2,18.8,326,331,23.4,31.0,25.3,21.6,18.8,0.149,0.139,0.198,0.335,1,3600.0,269.0,214.6,54.4,714.6,269.0,399.7,351.0,280.0,71.0,714.6,351.0,521.6,Tracheophyta; Eucalyptus L'Hér.; Pinales; Vitis vinifera L.; Pinus pinaster Aiton
2011,2011-08-10,Aveiro,Ovar,Ovar,Estrada da Floresta (Estrada),40.8506056,-8.646303395973572,Desconhecida,2.0,2011-08-10T19:00,27.5,47,15.1,26.5,0.0,0.0,0.0,0.0,0,1015.2,1015.0,1,0,0,3,0.22,1.96,18.7,28.6,337,346,32.0,30.7,26.7,22.2,19.7,0.119,0.109,0.152,0.295,1,3600.0,83.8,58.0,25.8,525.3,83.8,147.0,156.0,108.0,48.0,525.3,156.0,273.7,Magnoliopsida; Eucalyptus L'Hér.; Tracheophyta
2011,2011-08-10,Setúbal,Setúbal,Gâmbia-Pontes-Alto Guerra,JUNTO ESCOLA PRIMARIA GAMBIA (Gâmbia-Pontes-Alto da Guerra),38.56073285,-8.774114194464827,NC,21.0,2011-08-10T21:00,25.3,47,13.2,25.1,0.0,0.0,0.0,0.0,0,1014.9,1012.5,0,0,0,0,0.07,1.71,8.7,17.6,287,313,15.1,27.1,27.5,23.2,20.7,0.057,0.059,0.085,0.197,0,0.0,0.0,0.0,0.0,0.0,0.0,0.0,0.0,0.0,0.0,0.0,0.0,0.0,Vitis vinifera L.; Tracheophyta; Quercus suber L.; Pinus pinea L.; Magnoliopsida
2011,2011-08-10,Viseu,Resende,São Martinho de Mouros,Vila Verde,41.1121455,-7.8826476,Desconhecida,571.0,2011-08-10T21:00,25.1,41,10.9,24.6,0.0,0.0,0.0,0.0,0,1016.6,952.6,0,0,0,0,0.04,1.88,5.5,7.2,328,333,14.0,23.6,23.1,20.0,16.8,0.138,0.143,0.213,0.338,0,0.0,0.0,0.0,0.0,0.0,0.0,0.0,0.0,0.0,0.0,0.0,0.0,0.0,Tracheophyta; Pinales; Magnoliopsida; Pinus pinaster Aiton
2011,2011-10-03,Aveiro,Águeda,Águeda,Rio Covo,40.5794516,-8.3999105,Desconhecida,117.0,2011-10-03T00:00,20.7,62,13.2,21.4,0.0,0.0,0.0,0.0,0,1023.3,1009.5,1,0,0,3,0.0,0.92,2.3,3.7,18,11,10.1,20.7,24.6,22.4,21.1,0.101,0.145,0.178,0.297,0,0.0,0.0,0.0,0.0,0.0,0.0,0.0,0.0,0.0,0.0,0.0,0.0,0.0,Tracheophyta; Eucalyptus L'Hér.; Pinus pinaster Aiton; Magnoliopsida
2011,2011-10-03,Braga,Vieira do Minho,Soengas,ASSENTO (SOENGAS) M3 (Assento),41.64660155,-8.188786846195894,NC,356.0,2011-10-03T02:00,14.9,84,12.2,14.9,0.0,0.0,0.0,0.0,0,1023.9,981.7,0,0,0,0,0.0,0.27,4.8,7.1,103,105,12.6,16.6,21.0,19.8,18.7,0.111,0.17,0.207,0.317,0,0.0,0.0,0.0,0.0,0.0,0.0,0.0,0.0,0.0,0.0,0.0,0.0,0.0,Tracheophyta; Quercus L.; Pinus pinaster Aiton; Magnoliopsida; Eucalyptus L'Hér.
2011,2011-10-09,Guarda,Guarda,São Pedro Jarmelo,Campo de Futebol - Urgueira,40.5904224,-7.1335442,Desconhecida,912.0,2011-10-09T14:00,21.2,32,3.7,17.9,0.0,0.0,0.0,0.0,0,1023.7,921.8,0,0,0,0,0.46,1.71,16.1,21.0,50,51,33.8,24.3,17.8,19.3,18.8,0.118,0.148,0.172,0.303,1,3600.0,628.4,542.4,86.0,893.2,628.4,832.6,665.0,574.0,91.0,893.2,665.0,881.1,Tracheophyta; Magnoliopsida; Pinales
2011,2011-10-09,Viseu,Tarouca,Granja Nova,Formilo,41.0309426,-7.7248238,Desconhecida,737.0,2011-10-09T14:00,21.2,38,6.2,18.4,0.0,0.0,0.0,0.0,0,1024.2,940.9,0,0,0,0,0.45,1.57,16.6,21.9,60,60,37.8,24.2,18.3,19.8,19.1,0.127,0.144,0.178,0.315,1,3600.0,625.6,540.4,85.2,892.4,625.6,830.4,661.0,571.0,90.0,892.4,661.0,877.3,Magnoliopsida; Castanea sativa Mill.; Pinus pinaster Aiton; Tracheophyta; Pinales
2011,2011-10-09,Braga,Guimarães,Calvos,L. LAPINHA(CALVOS)M5 (CASTELÕES),41.404291,-8.244651427697441,NC,316.0,2011-10-09T16:00,24.7,32,7.1,22.7,0.0,0.0,0.0,0.0,0,1023.0,986.7,0,0,0,0,0.31,2.11,9.1,11.9,97,95,23.8,26.7,20.3,20.8,19.7,0.099,0.147,0.185,0.301,1,3600.0,336.6,274.6,62.0,770.1,336.6,489.0,407.0,332.0,75.0,770.1,407.0,591.2,Vitis vinifera L.; Tracheophyta; Eucalyptus L'Hér.; Magnoliopsida
2011,2011-10-09,Porto,Vila do Conde,Fornelo,ESCOLAS NOVAS (RIO MAU),41.3329007,-8.6441131,NC,127.0,2011-10-09T16:00,25.6,32,7.8,23.6,0.0,0.0,0.0,0.0,0,1022.5,1007.8,0,0,0,0,0.32,2.23,9.5,13.0,61,66,18.4,27.9,21.6,21.6,20.4,0.105,0.144,0.19,0.311,1,3600.0,339.3,277.1,62.2,767.2,339.3,495.2,409.0,334.0,75.0,767.2,409.0,597.0,Eucalyptus L'Hér.; Tracheophyta
2011,2011-10-09,Porto,Baião,Gestaçô,FURA CASAS (Furacasas),41.1677523,-7.9285981,Desconhecida,618.0,2011-10-09T17:00,20.8,39,6.3,18.3,0.0,0.0,0.0,0.0,0,1023.7,953.2,0,0,0,0,0.19,1.5,10.6,18.1,66,69,31.0,22.2,18.1,19.0,18.2,0.121,0.155,0.192,0.315,1,3600.0,153.1,114.8,38.3,633.1,153.1,248.7,228.0,171.0,57.0,633.1,228.0,370.4,Pinus pinaster Aiton; Magnoliopsida; Eucalyptus L'Hér.; Tracheophyta; Vitis vinifera L.; Quercus L.; 
2011,2011-10-09,Porto,Santo Tirso,Sequeiró,LAGUEIRO (Lameiroes),41.3707445,-8.4540969,NC,109.0,2011-10-09T17:00,25.2,34,8.2,23.7,0.0,0.0,0.0,0.0,0,1022.4,1009.7,0,0,0,0,0.19,2.11,7.0,11.7,35,47,16.6,26.5,21.7,21.5,20.4,0.118,0.146,0.181,0.31,1,3600.0,157.7,119.0,38.7,636.3,157.7,256.4,232.0,175.0,57.0,636.3,232.0,377.1,Vitis vinifera L.; Eucalyptus L'Hér.; Tracheophyta; Pinus pinaster Aiton
2011,2011-10-09,Braga,Braga,Cunha,RUA CRUZ VILAR (CUNHA) M1 (Rua Alberto Cruz),41.498127800000006,-8.51447295289708,NC,147.0,2011-10-09T17:00,24.7,35,8.2,23.8,0.0,0.0,0.0,0.0,0,1022.7,1005.6,0,0,0,0,0.14,2.03,2.9,5.8,7,30,16.6,26.5,21.4,21.1,19.9,0.1,0.149,0.189,0.304,1,3600.0,157.7,117.6,40.1,630.6,157.7,255.7,232.0,173.0,59.0,630.6,232.0,376.2,Pinus pinaster Aiton; Eucalyptus L'Hér.; Tracheophyta; Magnoliopsida
2011,2011-10-05,Aveiro,Santa Maria da Feira,Fiães,Rua das Devesas (Rua das Costouras),40.9945859,-8.5247192,Desconhecida,203.0,2011-10-05T04:00,16.3,80,12.7,16.4,0.0,0.0,0.0,0.0,0,1022.0,997.9,0,0,0,0,0.0,0.38,5.0,9.7,69,42,13.7,17.8,22.9,21.5,20.1,0.11,0.124,0.152,0.29,0,0.0,0.0,0.0,0.0,0.0,0.0,0.0,0.0,0.0,0.0,0.0,0.0,0.0,Tracheophyta; Eucalyptus L'Hér.; Magnoliopsida; Olea europaea L.
2011,2011-10-05,Porto,Paços de Ferreira,Ferreira,Santiago,41.2663712,-8.3445627,NC,331.0,2011-10-05T08:00,17.2,76,12.9,16.8,0.0,0.0,0.0,0.0,0,1023.4,984.5,0,0,0,0,0.07,0.48,9.5,12.7,99,97,20.5,17.3,20.9,20.6,19.3,0.094,0.155,0.197,0.31,1,3545.54,188.9,126.4,62.4,492.5,187.2,351.1,121.0,81.0,40.0,488.3,121.0,224.9,Eucalyptus L'Hér.; Tracheophyta; Magnoliopsida; Quercus L.; Pinus pinaster Aiton; 
2011,2011-10-05,Braga,Póvoa de Lanhoso,Galegos,SEIDES(GALEGOS) M3 (Seides),41.5665114,-8.2823015,NC,325.0,2011-10-05T12:00,29.1,32,10.5,29.3,0.0,0.0,0.0,0.0,0,1023.3,986.5,0,0,0,0,0.49,2.75,5.1,5.9,135,133,16.6,29.4,21.6,20.4,19.1,0.101,0.157,0.196,0.31,1,3600.0,697.9,603.5,94.4,877.7,697.9,940.5,680.0,588.0,92.0,877.7,680.0,916.4,Eucalyptus L'Hér.; Tracheophyta; Magnoliopsida; Quercus L.
2011,2011-10-05,Braga,Guimarães,São Salvador Souto,LIBERDADE(SOUTO S.SALVADOR)M3 (DONIM),41.49754485,-8.298360253160366,NC,158.0,2011-10-05T14:00,30.6,32,12.0,30.9,0.0,0.0,0.0,0.0,0,1021.8,1003.8,4,0,0,13,0.5,2.99,6.8,8.2,295,299,18.0,32.5,23.0,21.0,19.7,0.1,0.157,0.195,0.309,1,3600.0,627.4,539.0,88.4,863.2,627.4,854.2,660.0,567.0,93.0,863.2,660.0,898.6,Vitis vinifera L.; Tracheophyta; Eucalyptus L'Hér.; Magnoliopsida
2011,2011-10-05,Porto,Felgueiras,Margaride Santa Eulália,Portinho,41.3667229,-8.203496330346734,NC,298.0,2011-10-05T16:00,29.7,30,10.3,28.5,0.0,0.0,0.0,0.0,0,1021.2,987.5,0,0,0,0,0.35,2.91,8.7,11.5,312,314,18.0,31.7,23.3,21.0,19.7,0.099,0.15,0.186,0.303,1,3600.0,349.7,284.6,65.1,755.9,349.7,515.1,419.0,341.0,78.0,755.9,419.0,617.2,Magnoliopsida; Tracheophyta; Eucalyptus L'Hér.
2011,2011-08-09,Aveiro,Aveiro,Nariz,Rua do Tojal (Rua do Tenente Rezende),40.5476769,-8.5874705,Desconhecida,35.0,2011-08-09T15:00,34.0,22,9.3,34.0,0.0,0.0,0.0,0.0,0,1017.1,1013.1,0,0,0,0,0.7,4.14,10.3,12.9,29,36,25.6,37.7,23.6,21.6,19.5,0.062,0.06,0.093,0.205,1,3600.0,795.1,698.1,97.0,899.0,795.1,1033.3,844.0,741.0,103.0,899.0,844.0,1096.8,Eucalyptus L'Hér.; Magnoliopsida; Pinus pinaster Aiton; Tracheophyta
2011,2011-10-13,Porto,Lousada,Boim,R. 25 ABRIL (Rua da Ribeira),41.261773,-8.2817803,NC,239.0,2011-10-13T17:00,28.9,25,6.9,27.2,0.0,0.0,0.0,0.0,0,1018.2,991.1,0,0,0,0,0.18,2.98,5.8,12.3,338,345,14.8,29.2,22.3,20.8,20.1,0.092,0.147,0.193,0.307,1,3600.0,137.5,101.9,35.7,624.2,137.5,224.3,212.0,157.0,55.0,624.2,212.0,345.7,Tracheophyta; Eucalyptus L'Hér.; Pinus pinaster Aiton; Magnoliopsida; Vitis vinifera L.; ; Olea europaea L.
2011,2011-10-13,Porto,Vila Nova de Gaia,São Felix da Marinha,LUGAR DOS EMIGRANTES (SÃO FÉLIX DA MARINHA),41.0305323,-8.6290322,NC,26.0,2011-10-13T17:00,30.0,28,9.4,27.3,0.0,0.0,0.0,0.0,0,1017.2,1014.2,0,0,0,0,0.31,3.06,17.1,27.6,345,353,27.7,31.4,24.3,22.6,21.4,0.089,0.118,0.159,0.29,1,3600.0,143.7,107.0,36.7,634.2,143.7,231.8,219.0,163.0,56.0,634.2,219.0,353.3,Eucalyptus L'Hér.; Magnoliopsida; Tracheophyta; Pinales; Pinus pinaster Aiton
2011,2011-10-13,Braga,Vila Verde,Cervães,TORRE (CERVÃES) M.5 (EN101 (EN101) Km 65),41.594017750000006,-8.521835250843868,NC,92.0,2011-10-13T20:00,22.4,48,11.0,21.5,0.0,0.0,0.0,0.0,0,1018.4,1007.6,0,0,0,0,0.06,1.4,8.7,15.1,17,3,15.5,23.0,23.0,21.2,20.2,0.096,0.147,0.19,0.304,0,0.0,0.0,0.0,0.0,0.0,0.0,0.0,0.0,0.0,0.0,0.0,0.0,0.0,Pinus pinaster Aiton; Eucalyptus L'Hér.; Magnoliopsida; Tracheophyta
2011,2011-10-13,Porto,Felgueiras,Varziela,CEPOS (JUGUEIROS),41.3492415,-8.2159638,NC,321.0,2011-10-13T20:00,24.3,33,7.2,22.7,0.0,0.0,0.0,0.0,0,1018.6,981.9,0,0,0,0,0.06,2.03,6.1,9.4,45,2,14.0,21.7,21.9,20.3,19.6,0.091,0.148,0.194,0.307,0,0.0,0.0,0.0,0.0,0.0,0.0,0.0,0.0,0.0,0.0,0.0,0.0,0.0,Tracheophyta; Magnoliopsida; Vitis vinifera L.
2011,2011-10-13,Porto,Paços de Ferreira,Paços de Ferreira,RUA DO APOLINARIO (Rua do Comércio),41.2869948,-8.3416486,NC,357.0,2011-10-13T21:00,20.4,44,7.7,18.9,0.0,0.0,0.0,0.0,0,1018.9,977.6,0,0,0,0,0.05,1.35,6.5,9.0,71,16,13.0,20.0,21.7,20.1,19.3,0.092,0.147,0.193,0.307,0,0.0,0.0,0.0,0.0,0.0,0.0,0.0,0.0,0.0,0.0,0.0,0.0,0.0,Tracheophyta; Eucalyptus L'Hér.; Magnoliopsida
2011,2011-10-02,Aveiro,Oliveira de Azemeis,Carregosa,Azagães,40.8832957,-8.4150805,Desconhecida,340.0,2011-10-02T13:00,28.5,34,11.1,28.6,0.0,0.0,0.0,0.0,0,1021.5,983.1,0,0,0,0,0.53,2.58,8.2,10.5,105,106,21.6,29.7,22.1,20.7,19.6,0.11,0.165,0.205,0.316,1,3600.0,706.7,610.7,96.0,867.4,706.7,961.5,714.0,617.0,97.0,867.4,714.0,971.4,Eucalyptus L'Hér.; Tracheophyta; Magnoliopsida; Pinus pinaster Aiton
2011,2011-10-02,Viana do Castelo,Ponte da Barca,Boivães,CRUZEIRO - BOIVAES (LINDOSO),41.7636212,-8.4518719,NC,400.0,2011-10-02T15:00,27.5,35,10.9,27.4,0.0,0.0,0.0,0.0,0,1021.2,976.0,0,0,0,0,0.4,2.37,3.9,4.7,202,189,18.7,29.5,21.3,19.4,18.3,0.11,0.169,0.205,0.316,1,3600.0,523.3,442.6,80.7,829.2,523.3,728.9,577.0,488.0,89.0,829.2,577.0,803.8,Magnoliopsida; Eucalyptus L'Hér.; Pinus pinaster Aiton; Vitis vinifera L.
2011,2011-10-02,Aveiro,Santa Maria da Feira,Caldas de São Jorge,"Lugar do Tojeiro (atrás do ""Sobrinca"")",40.9663636,-8.5044593,Desconhecida,186.0,2011-10-02T15:00,30.1,31,10.9,30.2,0.0,0.0,0.0,0.0,0,1020.5,999.4,0,0,0,0,0.41,2.96,2.5,3.3,188,174,14.8,33.3,23.8,21.4,20.2,0.112,0.127,0.153,0.291,1,3600.0,525.4,445.6,79.9,820.7,525.4,741.4,579.0,491.0,88.0,820.7,579.0,817.0,Tracheophyta; Eucalyptus L'Hér.; Pinales; Magnoliopsida
2011,2011-10-02,Porto,Paços de Ferreira,Codessos,SOCORRO (SENHORA DO SOCORRO),41.3299878,-8.3478794,NC,382.0,2011-10-02T18:00,26.7,37,10.8,26.2,0.0,0.0,0.0,0.0,0,1021.1,977.8,0,0,0,0,0.08,2.21,5.0,5.1,339,352,9.0,27.2,22.6,20.1,19.0,0.094,0.158,0.198,0.311,1,2829.21,20.9,13.1,7.8,150.8,18.0,42.3,86.0,54.0,32.0,365.4,86.0,173.8,Magnoliopsida; Eucalyptus L'Hér.; Pinus pinaster Aiton; Tracheophyta; Quercus suber L.; ; Quercus L.; Acacia Mill.
2011,2011-10-02,Leiria,Alvaiázere,Maçãs de Dona Maria,Tapada,39.8749462,-8.3336088,Desconhecida,377.0,2011-10-02T20:00,23.4,44,10.3,22.7,0.0,0.0,0.0,0.0,0,1022.0,978.7,10,0,0,32,0.04,1.62,5.3,8.7,28,45,14.0,24.4,24.7,22.1,20.8,0.107,0.157,0.174,0.292,0,0.0,0.0,0.0,0.0,0.0,0.0,0.0,0.0,0.0,0.0,0.0,0.0,0.0,Tracheophyta; Pinales; Magnoliopsida; Pinus pinaster Aiton; Eucalyptus L'Hér.; Olea europaea L.; Vitis vinifera L.
2011,2011-10-03,Aveiro,São João da Madeira,São João da Madeira,Parque Nª Srª dos Milagres (SÃO JOÃO DA MADEIRA),40.897404,-8.490683816868543,Desconhecida,222.0,2011-10-03T00:00,21.9,57,13.0,22.5,0.0,0.0,0.0,0.0,0,1023.3,997.4,5,0,0,17,0.01,1.13,2.9,3.2,60,63,9.4,20.1,23.6,21.3,20.0,0.113,0.152,0.19,0.314,0,0.0,0.0,0.0,0.0,0.0,0.0,0.0,0.0,0.0,0.0,0.0,0.0,0.0,Tracheophyta
2011,2011-10-14,Bragança,Vinhais,São Jomil,QUINTA DAS CAVAGES (Quinta da Ponte),41.788399,-7.1816276,NC,594.0,2011-10-14T10:00,22.6,31,4.6,21.0,0.0,0.0,0.0,0.0,0,1020.4,953.2,0,0,0,0,0.27,1.9,2.2,2.9,90,83,12.6,21.8,19.3,20.3,19.8,0.122,0.135,0.168,0.308,1,3600.0,510.1,425.3,84.8,817.2,510.1,715.5,451.0,376.0,75.0,817.2,451.0,632.6,Magnoliopsida; Tracheophyta; Pinus pinaster Aiton; Vitis vinifera L.; Olea europaea L.
2011,2011-10-01,Braga,Vila Verde,Aboim da Nóbrega,L. OUTEIRO(ABOIM NOBREGA) (ABOIM DA NOBREGA),41.755104,-8.37449322690776,Desconhecida,518.0,2011-10-01T11:00,26.0,37,10.1,24.3,0.0,0.0,0.0,0.0,0,1018.2,960.0,16,0,0,54,0.46,2.13,13.8,18.9,131,132,34.6,24.8,19.7,18.9,18.0,0.127,0.18,0.216,0.322,1,3600.0,645.1,535.1,110.0,809.8,645.1,901.8,604.0,501.0,103.0,809.8,604.0,844.3,Magnoliopsida; Tracheophyta; Quercus L.; Pinus pinaster Aiton; Acacia Mill.
2011,2011-10-01,Porto,TROFA,Muro,ALTO DE VILAR (Alto Catorze),41.3010941,-8.5941379,NC,119.0,2011-10-01T12:00,28.4,36,11.7,27.8,0.0,0.0,0.0,0.0,0,1016.5,1002.9,7,0,0,24,0.52,2.49,12.1,15.4,143,143,22.3,28.8,22.3,21.2,20.2,0.11,0.151,0.193,0.314,1,3600.0,686.2,545.5,140.7,769.0,686.2,968.1,668.0,531.0,137.0,769.0,668.0,942.4,Tracheophyta; Eucalyptus L'Hér.; Magnoliopsida
2011,2011-09-25,Vila Real,Alijó,Santa Eugénia,TEIXEUGUEIRA,41.3481511,-7.4110075,Desconhecida,498.0,2011-09-25T18:00,24.3,39,9.3,23.7,0.0,0.0,0.0,0.0,0,1017.6,961.3,2,0,0,7,0.06,1.86,2.1,2.6,329,326,7.6,25.9,22.1,20.8,20.0,0.144,0.155,0.171,0.309,1,3342.63,42.0,27.6,14.4,316.8,40.2,79.8,111.0,73.0,38.0,450.5,111.0,211.0,Vitis vinifera L.; Magnoliopsida; Olea europaea L.; Tracheophyta
2011,2011-09-25,Porto,Vila Nova de Gaia,São Felix da Marinha,S.FELIX (Rua do Fojo (São Felix M.)),41.0305323,-8.6290322,NC,26.0,2011-09-25T23:00,17.2,95,16.4,18.3,0.0,0.0,0.0,0.0,0,1019.8,1016.7,1,0,2,0,0.0,0.09,7.4,11.3,23,27,10.8,19.4,22.8,21.7,21.0,0.099,0.13,0.166,0.296,0,0.0,0.0,0.0,0.0,0.0,0.0,0.0,0.0,0.0,0.0,0.0,0.0,0.0,Eucalyptus L'Hér.; Magnoliopsida; Tracheophyta; Pinales; Pinus pinaster Aiton
2011,2011-09-26,Porto,Marco de Canaveses,Santo Isidoro,L.CORREDOURA (Corredoura),41.2130031,-8.1438411,Desconhecida,169.0,2011-09-26T11:00,26.2,49,14.7,27.7,0.0,0.0,0.0,0.0,0,1021.6,1002.1,4,0,0,13,0.43,1.73,4.0,4.0,265,265,20.2,26.1,20.2,20.4,20.0,0.123,0.182,0.207,0.317,1,3600.0,676.5,558.1,118.4,811.6,676.5,935.8,634.0,523.0,111.0,811.6,634.0,877.0,Magnoliopsida; Pinales; Pinus pinaster Aiton; Tracheophyta; Vitis vinifera L.; 
2011,2011-09-26,Vila Real,Montalegre,Viade de Baixo,Friães,41.7406492,-7.8813491,NC,899.0,2011-09-26T15:00,23.6,37,8.2,22.1,0.0,0.0,0.0,0.0,1,1021.6,922.1,24,0,0,80,0.43,1.82,9.5,12.4,217,216,28.1,26.4,18.9,17.7,17.1,0.125,0.183,0.225,0.328,1,3600.0,555.0,471.2,83.8,836.1,555.0,767.0,609.0,517.0,92.0,836.1,609.0,841.6,Tracheophyta; Quercus L.; Magnoliopsida
2011,2011-10-05,Vila Real,Vila Pouca de Aguiar,Bornes de Aguiar,Tinhela de Baixo,41.5426745,-7.6031268,Desconhecida,580.0,2011-10-05T11:00,25.3,34,8.4,24.6,0.0,0.0,0.0,0.0,0,1025.4,959.9,2,0,0,5,0.41,2.12,4.3,5.4,114,110,17.3,25.3,20.3,20.0,19.1,0.119,0.158,0.207,0.317,1,3600.0,649.2,556.3,92.9,859.2,649.2,885.6,608.0,521.0,87.0,859.2,608.0,829.4,Magnoliopsida; Tracheophyta; Pinales; Quercus L.
2011,2011-10-05,Leiria,Caldas da Rainha,Salir do Porto,Salir do Porto,39.4924358,-9.1472141,NC,9.0,2011-10-05T12:00,28.8,34,11.4,29.4,0.0,0.0,0.0,0.0,0,1022.1,1021.1,0,0,0,0,0.52,2.62,6.1,8.1,40,58,17.6,35.4,23.9,23.1,21.9,0.043,0.075,0.12,0.212,1,3600.0,735.1,637.5,97.7,894.7,735.1,974.7,715.0,620.0,95.0,894.7,715.0,948.0,Pinus pinaster Aiton; Magnoliopsida; Tracheophyta
2011,2011-10-05,Braga,Guimarães,Atães,PORTELA (ATÃES) M1 (Cancela da Portela),41.4643058,-8.247725524819103,NC,259.0,2011-10-05T13:00,30.2,28,9.9,30.8,0.0,0.0,0.0,0.0,0,1022.8,993.5,1,0,0,2,0.5,3.08,2.9,2.9,173,173,14.8,31.9,22.6,21.1,19.8,0.095,0.151,0.188,0.304,1,3600.0,693.0,601.1,91.9,881.4,693.0,933.0,701.0,608.0,93.0,881.4,701.0,943.7,Magnoliopsida; Eucalyptus L'Hér.; Tracheophyta
2011,2011-10-05,Porto,Paços de Ferreira,Penamaior,Lugar do Souto,41.2875406,-8.4127999,Desconhecida,362.0,2011-10-05T15:00,29.1,30,9.7,28.1,0.0,0.0,0.0,0.0,0,1021.6,980.8,1,0,0,3,0.43,2.83,6.9,8.8,279,282,17.6,31.9,22.4,20.4,19.1,0.094,0.153,0.196,0.31,1,3600.0,510.9,433.1,77.8,828.3,510.9,715.3,565.0,479.0,86.0,828.3,565.0,791.1,Magnoliopsida; Eucalyptus L'Hér.; Tracheophyta; Vitis vinifera L.; 
2011,2011-10-05,Porto,Póvoa de Varzim,Balazar,S. PEDRO (São Pedro),41.4088512,-8.7409852,NC,35.0,2011-10-05T17:00,26.6,48,14.8,25.7,0.0,0.0,0.0,0.0,0,1021.4,1017.3,4,0,0,12,0.25,1.79,16.8,24.2,332,337,28.4,29.7,24.5,21.9,20.5,0.096,0.148,0.19,0.304,1,3600.0,171.9,126.8,45.1,604.9,171.9,286.8,244.0,180.0,64.0,604.9,244.0,407.1,Tracheophyta
2011,2011-10-03,Lisboa,Loures,Fanhões,Tocadelos,38.8871899,-9.1634637,NC,325.0,2011-10-03T23:00,18.8,73,13.8,18.2,0.0,0.0,0.0,0.0,1,1024.3,986.2,27,0,0,89,0.03,0.59,12.3,24.4,339,347,24.8,20.6,23.9,21.9,20.6,0.089,0.156,0.21,0.317,0,0.0,0.0,0.0,0.0,0.0,0.0,0.0,0.0,0.0,0.0,0.0,0.0,0.0,Magnoliopsida; Tracheophyta; Eucalyptus L'Hér.; 
2011,2011-10-03,Aveiro,Águeda,Recardães,Variante Recardaes (MACINHATA DO VOUGA),40.5688007,-8.461833,Desconhecida,15.0,2011-10-03T23:00,19.9,80,16.2,20.6,0.0,0.0,0.0,0.0,0,1024.8,1023.0,8,0,0,28,0.02,0.48,9.9,17.6,350,359,15.8,21.1,24.7,22.4,21.1,0.062,0.085,0.101,0.211,0,0.0,0.0,0.0,0.0,0.0,0.0,0.0,0.0,0.0,0.0,0.0,0.0,0.0,Magnoliopsida; Tracheophyta; Pinus pinaster Aiton; Acacia Mill.; Eucalyptus L'Hér.
2011,2011-10-03,Braga,Vieira do Minho,Cantelães,L. PAIXAO (CANTELAES) (RUIVÃIS),41.6450666,-8.0994671,NC,510.0,2011-10-03T23:00,17.7,79,14.0,17.7,0.0,0.0,0.0,0.0,0,1026.1,966.8,13,0,0,44,0.01,0.43,9.2,14.0,51,44,19.1,19.1,21.8,19.9,18.9,0.112,0.161,0.201,0.314,0,0.0,0.0,0.0,0.0,0.0,0.0,0.0,0.0,0.0,0.0,0.0,0.0,0.0,Quercus L.; Tracheophyta; Pinus pinaster Aiton; Magnoliopsida; Acacia Mill.; Eucalyptus L'Hér.
2011,2011-10-02,Leiria,Pombal,Santiago de Litém,Infesta,39.8479534,-8.57646,NC,212.0,2011-10-02T14:00,30.1,30,10.5,28.4,0.0,0.0,0.0,0.0,0,1020.4,996.4,0,0,0,0,0.59,3.0,17.7,22.8,129,129,40.3,32.0,24.1,22.0,20.7,0.097,0.146,0.178,0.29,1,3600.0,657.3,565.8,91.4,858.1,657.3,900.5,690.0,594.0,96.0,858.1,690.0,945.3,Magnoliopsida; Olea europaea L.; Eucalyptus L'Hér.; Pinus pinaster Aiton; Tracheophyta
2011,2011-10-04,Braga,Vieira do Minho,Rossas,SANTA MARINHA (ROSSAS) (Monte de Santa Marta),41.585309,-8.098200028766968,NC,482.0,2011-10-04T21:00,20.7,59,12.5,20.7,0.0,0.0,0.0,0.0,0,1024.5,969.0,0,0,0,0,0.02,1.0,5.8,6.9,22,354,14.4,21.0,22.4,20.0,18.9,0.101,0.154,0.194,0.309,0,0.0,0.0,0.0,0.0,0.0,0.0,0.0,0.0,0.0,0.0,0.0,0.0,0.0,Tracheophyta; Eucalyptus L'Hér.; Magnoliopsida; Quercus L.; Pinus pinaster Aiton
2011,2011-10-04,Viana do Castelo,Paredes de Coura,Coura,FONTE DE OLHO - COURA (Fonte),41.8849736,-8.6639612,NC,131.0,2011-10-04T22:00,20.4,77,16.1,20.8,0.0,0.0,0.0,0.0,0,1024.5,1009.0,3,0,0,10,0.03,0.56,11.8,21.9,27,36,23.4,21.3,23.0,20.9,19.7,0.083,0.173,0.223,0.322,0,0.0,0.0,0.0,0.0,0.0,0.0,0.0,0.0,0.0,0.0,0.0,0.0,0.0,Pinus pinaster Aiton; Magnoliopsida; Tracheophyta; Quercus L.; Eucalyptus L'Hér.; 
2011,2011-10-04,Aveiro,Santa Maria da Feira,Argoncilhe,Rua das Murtas (Rua das Costouras),41.0183885,-8.5477254,Desconhecida,225.0,2011-10-04T22:00,20.6,68,14.4,21.1,0.0,0.0,0.0,0.0,0,1023.7,997.3,1,0,0,3,0.02,0.78,6.4,14.9,27,15,18.0,22.1,24.0,21.4,20.0,0.11,0.124,0.152,0.29,0,0.0,0.0,0.0,0.0,0.0,0.0,0.0,0.0,0.0,0.0,0.0,0.0,0.0,Eucalyptus L'Hér.; Magnoliopsida; Tracheophyta; Quercus L.
2011,2011-09-15,Vila Real,Valpaços,Santa Maria de Emeres,Santa Maria de Emeres,41.48653245,-7.432566149999999,NC,688.0,2011-09-15T21:00,20.5,74,15.7,21.7,0.0,0.0,0.0,0.0,1,1014.6,937.1,26,0,5,77,0.0,0.62,5.1,9.4,278,274,12.6,22.6,23.5,20.1,18.7,0.165,0.16,0.18,0.319,0,0.0,0.0,0.0,0.0,0.0,0.0,0.0,0.0,0.0,0.0,0.0,0.0,0.0,Vitis vinifera L.; Castanea sativa Mill.; Tracheophyta; Magnoliopsida; Olea europaea L.; Pinus pinaster Aiton
2011,2011-07-15,Porto,Vila Nova de Gaia,Madalena,Rua do Cerro,41.1066865,-8.6585831,NC,11.0,2011-07-15T13:00,26.0,54,15.8,26.3,0.0,0.0,0.0,0.0,0,1020.3,1019.0,0,0,0,0,0.63,1.56,24.1,30.1,328,332,41.8,31.4,22.6,20.9,18.5,0.104,0.134,0.21,0.326,1,3600.0,947.2,830.1,117.0,883.5,947.2,1243.8,947.0,830.0,117.0,883.5,947.0,1243.6,Tracheophyta; Magnoliopsida; Eucalyptus L'Hér.; Pinus pinaster Aiton
2011,2011-10-01,Vila Real,Chaves,Póvoa de Agrações,Pereiro de Agrações (Alto do Pereiro),41.5959629,-7.494319,NC,850.0,2011-10-01T21:00,20.5,38,5.7,18.3,0.0,0.0,0.0,0.0,0,1019.6,924.5,9,0,0,29,0.06,1.5,8.0,12.0,95,123,19.8,18.8,20.5,18.9,18.1,0.126,0.151,0.194,0.317,0,0.0,0.0,0.0,0.0,0.0,0.0,0.0,0.0,0.0,0.0,0.0,0.0,0.0,Tracheophyta; Castanea sativa Mill.; Magnoliopsida; Quercus L.; Pinus pinaster Aiton
2011,2011-10-01,Braga,Guimarães,Atães,RUA Nª SRA. DA GUIA (ATÃES)-M2 (Rua Nova),41.4643058,-8.247725524819103,NC,259.0,2011-10-01T23:00,18.8,51,8.6,17.1,0.0,0.0,0.0,0.0,0,1018.5,988.2,0,0,0,0,0.05,1.06,9.2,16.6,79,112,18.7,19.8,23.0,20.8,19.7,0.098,0.156,0.189,0.306,0,0.0,0.0,0.0,0.0,0.0,0.0,0.0,0.0,0.0,0.0,0.0,0.0,0.0,Magnoliopsida; Eucalyptus L'Hér.; Tracheophyta
2011,2011-10-02,Porto,Póvoa de Varzim,Balazar,S. PEDRO (São Pedro),41.4088512,-8.7409852,NC,35.0,2011-10-02T01:00,22.6,47,10.8,20.9,0.0,0.0,0.0,0.0,0,1017.2,1013.1,0,0,0,0,0.1,1.44,13.1,26.5,99,111,22.0,21.7,23.6,21.4,20.4,0.099,0.152,0.192,0.306,0,0.0,0.0,0.0,0.0,0.0,0.0,0.0,0.0,0.0,0.0,0.0,0.0,0.0,Tracheophyta
2011,2011-10-02,Porto,Penafiel,Rãs,SERNADA (BUSTÊLO),41.2061892,-8.2855653,NC,292.0,2011-10-02T02:00,16.2,65,9.7,15.0,0.0,0.0,0.0,0.0,0,1018.3,983.9,0,0,0,0,0.02,0.64,7.6,18.4,95,101,21.2,17.9,21.9,20.3,19.2,0.118,0.161,0.193,0.316,0,0.0,0.0,0.0,0.0,0.0,0.0,0.0,0.0,0.0,0.0,0.0,0.0,0.0,Tracheophyta; Vitis vinifera L.; Magnoliopsida; Eucalyptus L'Hér.
2011,2011-10-05,Vila Real,Valpaços,Lebução,LEBUÇÃO,41.7686864,-7.2364979,NC,586.0,2011-10-05T12:00,26.2,29,6.9,25.6,0.0,0.0,0.0,0.0,0,1024.4,958.5,0,0,0,0,0.47,2.41,4.8,5.8,193,187,17.6,28.9,21.7,20.9,19.8,0.124,0.136,0.169,0.31,1,3600.0,700.0,606.9,93.1,884.5,700.0,938.6,684.0,593.0,91.0,884.5,684.0,917.2,Magnoliopsida; Vitis vinifera L.; Castanea sativa Mill.; Tracheophyta; Pinus pinaster Aiton
2011,2011-10-05,Braga,Barcelos,Balugães,PONTE TABUAS(BALUGAES)M2 (Bouça da Ponte),41.6415787,-8.645554812938752,NC,156.0,2011-10-05T20:00,21.6,66,14.9,21.5,0.0,0.0,0.0,0.0,1,1023.1,1004.8,29,0,0,96,0.05,0.89,12.0,22.7,351,357,23.4,23.7,23.8,21.2,19.7,0.097,0.154,0.192,0.306,0,0.0,0.0,0.0,0.0,0.0,0.0,0.0,0.0,0.0,0.0,0.0,0.0,0.0,Tracheophyta; Eucalyptus L'Hér.
2011,2011-10-05,Porto,Paços de Ferreira,Ferreira,RUA DO LAMEIRÃO (Rua do Comércio),41.2663712,-8.3445627,NC,331.0,2011-10-05T20:00,22.7,54,13.0,23.2,0.0,0.0,0.0,0.0,0,1022.8,984.6,8,0,0,25,0.01,1.26,3.1,6.4,306,344,12.6,23.4,23.2,20.7,19.3,0.093,0.154,0.196,0.31,0,0.0,0.0,0.0,0.0,0.0,0.0,0.0,0.0,0.0,0.0,0.0,0.0,0.0,Eucalyptus L'Hér.; Tracheophyta; Magnoliopsida; Quercus L.; Pinus pinaster Aiton; 
2011,2011-10-05,Vila Real,Vila Pouca de Aguiar,Telões,Tourencinho,41.4259187,-7.6784217,NC,664.0,2011-10-05T21:00,20.4,54,10.7,19.8,0.0,0.0,0.0,0.0,0,1023.6,948.0,18,0,0,61,0.03,1.11,5.7,7.7,325,319,15.1,20.3,21.6,19.5,18.5,0.128,0.148,0.182,0.317,0,0.0,0.0,0.0,0.0,0.0,0.0,0.0,0.0,0.0,0.0,0.0,0.0,0.0,Pinus pinaster Aiton; Tracheophyta; Quercus L.; Magnoliopsida
2011,2011-10-05,Lisboa,ODIVELAS,Pontinha,Casal da Serra,38.7670657,-9.1996189,Desconhecida,96.0,2011-10-05T21:00,21.9,65,14.9,21.0,0.0,0.0,0.0,0.0,0,1022.3,1011.0,2,0,0,8,0.08,0.93,17.0,29.9,354,1,27.0,23.4,25.2,22.8,21.3,0.117,0.162,0.214,0.319,0,0.0,0.0,0.0,0.0,0.0,0.0,0.0,0.0,0.0,0.0,0.0,0.0,0.0,Pinus pinea L.; Olea europaea L.; Tracheophyta; Magnoliopsida; 
2011,2011-08-10,Braga,Celorico de Basto,Infesta,RIVAL (INFESTA) (Rival),41.4008308,-8.048084608930965,NC,433.0,2011-08-10T00:00,17.3,44,4.8,14.2,0.0,0.0,0.0,0.0,0,1020.0,969.6,0,0,0,0,0.08,1.11,12.7,21.4,82,83,31.3,18.4,22.4,20.7,17.5,0.148,0.145,0.216,0.332,0,0.0,0.0,0.0,0.0,0.0,0.0,0.0,0.0,0.0,0.0,0.0,0.0,0.0,Magnoliopsida; Pinus pinaster Aiton; Vitis vinifera L.; Tracheophyta
2011,2011-08-10,Viana do Castelo,Monção,Longos Vales,S. Paio,42.0496148,-8.4404588,Desconhecida,193.0,2011-08-10T01:00,16.7,81,13.3,15.9,0.0,0.0,0.0,0.0,0,1019.3,996.4,0,0,0,0,0.02,0.37,12.6,20.3,53,65,23.8,18.0,21.0,19.8,17.2,0.157,0.153,0.229,0.34,0,0.0,0.0,0.0,0.0,0.0,0.0,0.0,0.0,0.0,0.0,0.0,0.0,0.0,Vitis vinifera L.; Pinus pinaster Aiton; Tracheophyta; Magnoliopsida; Quercus L.; Eucalyptus L'Hér.; Acacia Mill.; 
2011,2011-08-10,Braga,Guimarães,Ronfe,MONTE DO BARREIRO (RONFE) M2 (Bouça do Monte),41.440075,-8.381907764208886,NC,143.0,2011-08-10T07:00,19.3,49,8.3,16.7,0.0,0.0,0.0,0.0,0,1018.7,1001.9,5,0,0,16,0.13,1.14,14.9,28.2,82,84,30.6,19.0,21.9,21.4,18.6,0.166,0.151,0.219,0.333,1,3275.84,162.9,92.9,70.1,380.4,154.2,325.0,100.0,57.0,43.0,360.1,100.0,199.4,Vitis vinifera L.; Tracheophyta; Magnoliopsida; Eucalyptus L'Hér.; Quercus L.; Pinus pinaster Aiton
2011,2011-08-10,Porto,Gondomar,Jovim,AVESSADAS (Alto das Cavadas),41.1069301,-8.5093383,NC,165.0,2011-08-10T09:00,23.8,39,9.1,20.9,0.0,0.0,0.0,0.0,0,1018.2,999.1,0,0,0,0,0.38,1.79,18.1,24.9,84,86,38.9,23.4,22.5,21.4,18.6,0.15,0.139,0.203,0.342,1,3600.0,568.3,473.2,95.1,795.5,568.3,791.8,490.0,408.0,82.0,795.5,490.0,682.7,Eucalyptus L'Hér.; Vitis vinifera L.; Tracheophyta; Magnoliopsida
2011,2011-09-18,Braga,Celorico de Basto,Vale de Bouro,L. DE PINHEIRO (VALE DE BOURO) (São Clemente),41.44160885,-8.006422614685466,NC,250.0,2011-09-18T01:00,13.5,89,11.8,12.8,0.0,0.0,0.0,0.0,1,1019.8,989.9,29,0,0,96,0.0,0.17,8.7,13.4,312,329,16.6,16.3,21.7,21.1,19.8,0.127,0.191,0.205,0.318,0,0.0,0.0,0.0,0.0,0.0,0.0,0.0,0.0,0.0,0.0,0.0,0.0,0.0,Tracheophyta; Magnoliopsida; Pinus pinaster Aiton
2011,2011-09-17,Bragança,Freixo Espada à Cinta,Mazouco,MAZOUCO-PNDI (MAZOUCO),41.09256695,-6.80469228663271,NC,453.0,2011-09-17T23:00,17.9,59,9.7,16.7,0.0,0.0,0.0,0.0,1,1017.8,965.4,29,0,0,96,0.03,0.85,7.9,18.1,309,316,23.8,20.7,23.9,22.3,20.8,0.165,0.184,0.2,0.312,0,0.0,0.0,0.0,0.0,0.0,0.0,0.0,0.0,0.0,0.0,0.0,0.0,0.0,Magnoliopsida; Olea europaea L.; Tracheophyta; Vitis vinifera L.
2011,2011-09-18,Braga,Fafe,Várzea Cova,FACHO DO MONTE(V.COVA)M.5 (ABOIM),41.5085893,-8.0696939,Desconhecida,476.0,2011-09-18T13:00,19.5,44,6.8,17.5,0.0,0.0,0.0,0.0,0,1019.5,964.7,4,5,0,0,0.47,1.27,15.8,21.6,360,2,43.6,24.1,19.4,19.8,18.6,0.124,0.178,0.194,0.312,1,3600.0,773.1,620.3,152.8,813.9,773.1,1032.6,779.0,625.0,154.0,813.9,779.0,1040.5,Magnoliopsida; Tracheophyta
2011,2011-09-18,Porto,Paredes,Aguiar de Sousa,L.AGUIAR (Aguiar),41.1286167,-8.4481414,NC,171.0,2011-09-18T15:00,21.5,43,8.4,18.4,0.0,0.0,0.0,0.0,0,1019.0,999.0,0,0,0,0,0.45,1.47,22.9,30.5,344,346,43.6,25.4,20.9,21.0,19.9,0.139,0.186,0.199,0.323,1,3600.0,622.8,537.3,85.6,874.1,622.8,832.7,677.0,584.0,93.0,874.1,677.0,905.2,Magnoliopsida; Pinus pinaster Aiton; Eucalyptus L'Hér.; Tracheophyta; Vitis vinifera L.; Quercus L.; Quercus suber L.
2011,2011-10-08,Aveiro,Santa Maria da Feira,São João de Ver,Avª Nova (traseiras da Casa ONAZAM),40.954172,-8.5534047,Desconhecida,161.0,2011-10-08T01:00,16.6,55,7.4,14.4,0.0,0.0,0.0,0.0,0,1024.9,1005.7,18,0,0,61,0.06,0.86,10.9,22.2,34,48,28.4,18.2,22.2,21.9,20.4,0.09,0.121,0.161,0.292,0,0.0,0.0,0.0,0.0,0.0,0.0,0.0,0.0,0.0,0.0,0.0,0.0,0.0,Tracheophyta; Pinus pinaster Aiton; Eucalyptus L'Hér.; Quercus suber L.; Magnoliopsida
2011,2011-10-08,Lisboa,Sintra,Almargem do Bispo,Covas de Ferro,38.8650922,-9.2485767,Desconhecida,295.0,2011-10-08T02:00,17.6,59,9.4,15.0,0.0,0.0,0.0,0.0,0,1022.1,987.4,5,0,0,17,0.08,0.83,16.5,31.8,16,23,28.8,18.3,21.9,22.3,20.9,0.089,0.155,0.209,0.316,0,0.0,0.0,0.0,0.0,0.0,0.0,0.0,0.0,0.0,0.0,0.0,0.0,0.0,Tracheophyta; Magnoliopsida; Pinus pinaster Aiton; Eucalyptus L'Hér.; Vitis vinifera L.; 
2011,2011-10-08,Setúbal,Almada,Caparica,CALÇADA DE ALFAZINA (TRAFARIA),38.6467843,-9.2009785,NC,102.0,2011-10-08T07:00,18.0,51,7.8,14.7,0.0,0.0,0.0,0.0,0,1022.8,1010.6,16,0,0,53,0.12,1.0,18.9,31.4,42,48,31.3,18.3,22.3,22.6,21.4,0.051,0.065,0.103,0.208,1,0.0,10.7,2.7,8.0,30.7,3.5,78.6,4.0,1.0,3.0,15.4,4.0,29.4,Magnoliopsida; Tracheophyta
2011,2011-10-08,Braga,Guimarães,São Martinho (Candoso),R.DAS SAMAS(CANDOSO S.MARTINHO)M3 (CASTELÕES),41.426217,-8.335401658261803,NC,206.0,2011-10-08T07:00,12.7,72,7.8,10.7,0.0,0.0,0.0,0.0,0,1026.5,1001.6,15,0,0,51,0.04,0.41,10.0,21.1,38,47,22.7,14.9,20.4,21.5,20.2,0.099,0.15,0.189,0.304,1,0.0,10.5,2.6,7.9,30.2,3.6,82.5,4.0,1.0,3.0,15.1,4.0,31.4,Tracheophyta; Eucalyptus L'Hér.; Magnoliopsida; Vitis vinifera L.
2011,2011-10-08,Leiria,Ansião,Torre de Vale de Todos,VALE DA FONTE,39.9589678,-8.4301742,Desconhecida,313.0,2011-10-08T07:00,14.2,58,6.0,11.8,0.0,0.0,0.0,0.0,1,1024.3,987.0,21,0,0,71,0.06,0.69,10.1,23.2,55,60,22.3,16.4,21.4,22.1,20.6,0.097,0.144,0.182,0.298,1,0.0,12.9,2.6,10.4,29.7,4.7,86.7,5.0,1.0,4.0,14.7,5.0,33.5,Pinus pinaster Aiton; Eucalyptus L'Hér.; Olea europaea L.; Quercus L.; Magnoliopsida
2011,2011-08-10,Porto,Santo Tirso,Roriz,Outeiro,41.3515405,-8.3829071,NC,220.0,2011-08-10T22:00,22.0,64,14.8,22.8,0.0,0.0,0.0,0.0,0,1016.1,990.6,0,0,0,0,0.02,0.95,5.3,9.7,28,27,12.6,22.3,23.9,20.9,18.1,0.148,0.15,0.217,0.332,0,0.0,0.0,0.0,0.0,0.0,0.0,0.0,0.0,0.0,0.0,0.0,0.0,0.0,Magnoliopsida; Tracheophyta; Vitis vinifera L.; Quercus suber L.
2011,2011-09-30,Leiria,Alcobaça,Évora de Alcobaça,Alto Azul,39.5158794,-8.971049988061797,Desconhecida,144.0,2011-09-30T15:00,27.9,37,11.8,27.8,0.0,0.0,0.0,0.0,1,1016.5,1000.0,28,0,0,92,0.4,2.37,4.8,4.8,257,243,24.1,34.4,24.0,21.9,21.0,0.084,0.135,0.177,0.281,1,3600.0,497.6,318.1,179.5,556.9,497.6,779.1,546.0,349.0,197.0,556.9,546.0,854.9,Tracheophyta; Olea europaea L.; Vitis vinifera L.; Magnoliopsida; Pinus pinaster Aiton
2011,2011-09-30,Vila Real,Valpaços,Bouçoães,Vilartão,41.762213,-7.210513,NC,685.0,2011-09-30T17:00,25.5,29,6.3,23.7,0.0,0.0,0.0,0.0,0,1018.0,941.8,0,0,0,1,0.2,2.31,6.3,9.0,167,164,18.4,27.8,22.0,20.0,19.0,0.128,0.137,0.17,0.312,1,3600.0,181.3,136.5,44.8,627.9,181.3,296.5,255.0,192.0,63.0,627.9,255.0,417.1,Magnoliopsida; Vitis vinifera L.; Tracheophyta; Castanea sativa Mill.
2011,2011-09-30,Lisboa,Mafra,Igreja Nova,Vale Figueira,38.91323715,-9.328906889461573,Desconhecida,217.0,2011-09-30T18:00,21.9,61,14.0,22.3,0.0,0.0,0.0,0.0,1,1016.2,991.0,24,0,0,81,0.08,1.02,6.2,9.7,277,274,15.8,27.8,24.5,22.0,21.0,0.083,0.157,0.217,0.324,1,3394.78,40.8,25.1,15.6,288.5,39.4,83.4,107.0,66.0,41.0,397.2,107.0,219.0,Magnoliopsida; Tracheophyta
2011,2011-10-03,Leiria,Bombarral,Roliça,VALE ROUTO - COLUMBEIRA,39.3136813,-9.1838008,Desconhecida,36.0,2011-10-03T23:00,19.6,85,17.0,19.9,0.0,0.0,0.0,0.0,1,1024.8,1020.5,29,0,0,95,0.02,0.34,14.8,25.2,359,1,26.3,20.4,24.0,22.1,21.0,0.047,0.067,0.109,0.204,0,0.0,0.0,0.0,0.0,0.0,0.0,0.0,0.0,0.0,0.0,0.0,0.0,0.0,Magnoliopsida; Tracheophyta; Eucalyptus L'Hér.; Vitis vinifera L.; Pinales; Pinus pinaster Aiton; 
2011,2011-10-03,Vila Real,Chaves,Lama de Arcos,LAMA DE ARCOS,41.8321858,-7.3845466,NC,419.0,2011-10-03T21:00,22.0,51,11.3,21.2,0.0,0.0,0.0,0.0,0,1024.8,976.5,7,0,0,23,0.05,1.31,8.3,16.5,304,314,18.4,23.3,23.7,21.6,20.6,0.12,0.137,0.171,0.31,0,0.0,0.0,0.0,0.0,0.0,0.0,0.0,0.0,0.0,0.0,0.0,0.0,0.0,Magnoliopsida; Tracheophyta
2011,2011-10-03,Braga,Braga,Pedralva,L. OUTEIRO (PEDRALVA) M1 (CRESPOS),41.57719105,-8.322675272587194,NC,478.0,2011-10-03T23:00,17.5,78,13.7,18.3,0.0,0.0,0.0,0.0,0,1025.6,969.9,7,0,0,22,0.0,0.43,2.4,5.4,63,20,12.2,19.0,21.9,19.9,18.7,0.107,0.161,0.199,0.312,0,0.0,0.0,0.0,0.0,0.0,0.0,0.0,0.0,0.0,0.0,0.0,0.0,0.0,Magnoliopsida; Eucalyptus L'Hér.; Pinus pinaster Aiton; Tracheophyta; Pinales
2011,2011-10-04,Porto,Amarante,Mancelos,Fundo de Vila,41.2757739,-8.1585546,NC,247.0,2011-10-04T16:00,29.8,27,9.0,28.6,0.0,0.0,0.0,0.0,0,1023.0,995.0,0,0,0,0,0.34,3.04,6.6,8.4,351,353,15.5,31.8,23.3,21.1,19.9,0.092,0.157,0.198,0.311,1,3600.0,359.3,294.0,65.3,766.0,359.3,524.7,429.0,351.0,78.0,766.0,429.0,626.5,Tracheophyta; Magnoliopsida; Eucalyptus L'Hér.; Pinus pinaster Aiton; Vitis vinifera L.; 
2011,2011-10-04,Guarda,Gouveia,Arcozelo,Corga Fria,40.5416331,-7.6269377,Desconhecida,376.0,2011-10-04T20:00,24.1,34,7.1,22.0,0.0,0.0,0.0,0.0,0,1023.3,980.2,4,0,0,13,0.09,1.99,9.4,16.3,32,35,15.8,24.7,24.6,22.6,21.6,0.079,0.155,0.206,0.315,0,0.0,0.0,0.0,0.0,0.0,0.0,0.0,0.0,0.0,0.0,0.0,0.0,0.0,Magnoliopsida; Tracheophyta; Olea europaea L.; Pinus pinaster Aiton; Pinales; Vitis vinifera L.; 
2011,2011-10-04,Lisboa,Mafra,Milharado,VALE SÃO GIÃO (FALTA AREA ARDIDA) (Casal de Vale Bois),38.947045,-9.198869,Desconhecida,209.0,2011-10-04T21:00,21.9,58,13.3,20.8,0.0,0.0,0.0,0.0,0,1022.2,997.8,3,0,0,10,0.08,1.1,14.5,28.4,353,1,27.0,23.6,25.2,22.8,21.3,0.089,0.155,0.21,0.317,0,0.0,0.0,0.0,0.0,0.0,0.0,0.0,0.0,0.0,0.0,0.0,0.0,0.0,Tracheophyta; Pinus pinaster Aiton; Magnoliopsida
2011,2011-09-26,Braga,Vila Nova de Famalicão,Cabeçudos,L. STA CATARINA (CABEÇUDOS) (JOANE),41.3727421,-8.503708491065058,NC,78.0,2011-09-26T15:00,26.5,48,14.7,26.9,0.0,0.0,0.0,0.0,1,1020.9,1011.9,25,1,0,79,0.45,1.78,10.5,12.1,292,293,18.7,29.3,21.7,20.8,20.3,0.132,0.16,0.185,0.314,1,3600.0,569.9,476.7,93.2,834.0,569.9,778.0,624.0,522.0,102.0,834.0,624.0,851.9,Pinus pinaster Aiton; Tracheophyta; Eucalyptus L'Hér.; Vitis vinifera L.; Magnoliopsida
2011,2011-09-26,Porto,Maia,Avioso (São Pedro),EN 14 (SÃO PEDRO DE AVIOSO),41.2761795,-8.617286284277032,NC,104.0,2011-09-26T18:00,22.3,70,16.6,23.2,0.0,0.0,0.0,0.0,1,1020.8,1008.6,29,0,0,98,0.09,0.81,9.7,12.9,329,333,16.2,25.4,22.3,20.8,20.3,0.115,0.155,0.194,0.316,1,3547.21,44.6,23.1,21.4,265.4,44.2,95.0,106.0,55.0,51.0,328.6,106.0,225.9,Eucalyptus L'Hér.; Magnoliopsida; Tracheophyta; Pinus pinaster Aiton; Vitis vinifera L.
2011,2011-09-26,Vila Real,Chaves,Roriz,RORIZ,41.8217923,-7.266945875277004,NC,866.0,2011-09-26T19:00,21.3,33,4.3,19.1,0.0,0.0,0.0,0.0,1,1022.0,925.2,27,0,0,91,0.08,1.7,5.7,8.7,215,222,15.1,22.0,20.4,18.7,17.7,0.128,0.138,0.174,0.316,0,0.0,0.0,0.0,0.0,0.0,0.0,0.0,3.0,1.0,2.0,16.1,3.0,25.1,Tracheophyta; Magnoliopsida; Castanea sativa Mill.; Quercus L.
2011,2011-10-13,Braga,Póvoa de Lanhoso,Calvos,TORRÃO(CALVOS)M-2 (Torrão),41.5925949,-8.2646222,NC,293.0,2011-10-13T13:00,30.1,24,7.1,30.0,0.0,0.0,0.0,0.0,0,1019.9,986.9,0,0,0,0,0.46,3.27,1.8,1.9,127,112,15.5,30.3,20.8,20.3,19.5,0.098,0.149,0.192,0.306,1,3600.0,665.1,577.2,87.8,901.7,665.1,879.8,674.0,585.0,89.0,901.7,674.0,891.6,Pinus pinaster Aiton; Tracheophyta; Vitis vinifera L.; Magnoliopsida
2011,2011-10-13,Porto,Santo Tirso,Água Longa,R. CRUZ VERMELHA (SANTO TIRSO),41.2603698,-8.4972609,NC,120.0,2011-10-13T16:00,30.5,23,7.0,28.2,0.0,0.0,0.0,0.0,0,1018.1,1004.5,0,0,0,0,0.36,3.37,11.2,15.4,339,344,16.2,30.8,22.8,21.5,20.6,0.119,0.14,0.177,0.311,1,3600.0,319.7,260.7,59.0,769.2,319.7,465.8,390.0,318.0,72.0,769.2,390.0,568.2,Tracheophyta; Eucalyptus L'Hér.; Pinales; Vitis vinifera L.; Pinus pinaster Aiton
2011,2011-10-13,Setúbal,Palmela,Pinhal Novo,"R DO CHORA, TERRIM (Poceirão)",38.630096,-8.9128319,NC,39.0,2011-10-13T16:00,30.4,24,7.7,28.3,0.0,0.0,0.0,0.0,0,1016.8,1012.3,0,0,0,0,0.37,3.28,9.8,11.9,262,265,21.2,34.5,24.2,23.3,22.1,0.055,0.059,0.07,0.183,1,3600.0,346.1,283.3,62.8,776.3,346.1,501.6,419.0,343.0,76.0,776.3,419.0,607.3,Vitis vinifera L.; Magnoliopsida; Olea europaea L.; Tracheophyta
2011,2011-10-13,Aveiro,Aveiro,Esgueira,Quinta Olho de Agua (Carrajão das Quintas),40.6433731,-8.6405427,Desconhecida,17.0,2011-10-13T16:00,32.5,20,6.4,29.1,0.0,0.0,0.0,0.0,0,1017.5,1015.6,0,0,0,0,0.46,3.94,17.5,22.8,341,348,27.7,36.0,24.4,22.7,21.6,0.045,0.066,0.089,0.193,1,3600.0,325.4,265.4,60.0,768.6,325.4,474.6,396.0,323.0,73.0,768.6,396.0,577.6,Tracheophyta; Magnoliopsida
2011,2011-10-09,Aveiro,Santa Maria da Feira,Vila Maior,Rua do Barreiro (Rua do Lameirão),41.0076751,-8.4874977,Desconhecida,185.0,2011-10-09T18:00,23.4,38,8.2,21.7,0.0,0.0,0.0,0.0,0,1022.8,1001.3,0,0,0,0,0.1,1.79,8.4,16.5,31,44,19.8,25.1,21.9,21.6,20.4,0.107,0.122,0.151,0.288,1,2197.84,0.0,0.0,0.0,0.0,0.0,0.0,62.0,39.0,23.0,298.4,62.0,128.1,Pinus pinaster Aiton; Eucalyptus L'Hér.; Magnoliopsida
