year,date,district,municipality,parish,local,latitude,longitude,cause,elevation,hourly.time,hourly.temperature_2m,hourly.relative_humidity_2m,hourly.dew_point_2m,hourly.apparent_temperature,hourly.precipitation,hourly.rain,hourly.snowfall,hourly.snow_depth,hourly.weather_code,hourly.pressure_msl,hourly.surface_pressure,hourly.cloud_cover,hourly.cloud_cover_low,hourly.cloud_cover_mid,hourly.cloud_cover_high,hourly.et0_fao_evapotranspiration,hourly.vapour_pressure_deficit,hourly.wind_speed_10m,hourly.wind_speed_100m,hourly.wind_direction_10m,hourly.wind_direction_100m,hourly.wind_gusts_10m,hourly.soil_temperature_0_to_7cm,hourly.soil_temperature_7_to_28cm,hourly.soil_temperature_28_to_100cm,hourly.soil_temperature_100_to_255cm,hourly.soil_moisture_0_to_7cm,hourly.soil_moisture_7_to_28cm,hourly.soil_moisture_28_to_100cm,hourly.soil_moisture_100_to_255cm,hourly.is_day,hourly.sunshine_duration,hourly.shortwave_radiation_instant,hourly.direct_radiation_instant,hourly.diffuse_radiation_instant,hourly.direct_normal_irradiance_instant,hourly.global_tilted_irradiance_instant,hourly.terrestrial_radiation_instant,hourly.shortwave_radiation,hourly.direct_radiation,hourly.diffuse_radiation,hourly.direct_normal_irradiance,hourly.global_tilted_irradiance,hourly.terrestrial_radiation,scientificNames
2011,2011-07-27,Braga,Barcelos,Airó,L. (AIRÓ) (POUSA),41.5156174,-8.5587895,NC,100.0,2011-07-27T16:00,31.4,28,10.9,31.0,0.0,0.0,0.0,0.0,0,1013.3,1002.0,0,0,0,0,0.6,3.28,11.6,15.1,355,359,27.4,34.2,24.7,20.7,17.8,0.101,0.147,0.225,0.337,1,3600.0,669.3,579.1,90.3,859.0,669.3,893.9,734.0,635.0,99.0,859.0,734.0,980.3,Tracheophyta; Eucalyptus L'Hér.
2011,2011-07-24,Porto,Gondomar,Jovim,SANGINHAS (FANZERES),41.1191605,-8.5055418,NC,95.0,2011-07-24T17:00,26.8,49,15.2,25.2,0.0,0.0,0.0,0.0,0,1017.0,1006.1,0,0,0,0,0.45,1.8,23.4,32.0,331,334,41.8,31.0,24.6,20.7,18.1,0.13,0.145,0.223,0.351,1,3600.0,488.3,409.4,78.9,781.5,488.3,694.3,563.0,472.0,91.0,781.5,563.0,800.5,Pinus pinaster Aiton; Eucalyptus L'Hér.; Tracheophyta; Magnoliopsida
2011,2011-07-25,Lisboa,Alenquer,Triana,Camarnal,39.0607911,-8.9815643,Desconhecida,30.0,2011-07-25T10:00,25.5,55,15.9,25.7,0.0,0.0,0.0,0.0,0,1016.4,1012.9,0,0,0,0,0.46,1.45,16.4,21.4,345,347,36.4,28.5,24.0,22.8,20.1,0.082,0.169,0.243,0.322,1,3600.0,735.5,625.7,109.8,815.6,735.5,1016.9,670.0,570.0,100.0,815.6,670.0,926.3,Eucalyptus L'Hér.; Magnoliopsida; Vitis vinifera L.; Tracheophyta
2011,2011-07-25,Porto,Marco de Canaveses,Vila Boa do Bispo,ALTO MEXIDE (Alto),41.1332787,-8.2097194,Desconhecida,208.0,2011-07-25T09:00,24.6,57,15.7,25.7,0.0,0.0,0.0,0.0,0,1017.7,993.8,0,0,0,0,0.34,1.32,5.6,7.5,50,55,19.1,24.9,22.3,20.3,17.5,0.116,0.164,0.251,0.351,1,3600.0,593.5,498.4,95.1,791.3,593.5,834.8,518.0,435.0,83.0,791.3,518.0,728.6,Tracheophyta; Pinus pinaster Aiton; Vitis vinifera L.; Quercus L.; Eucalyptus L'Hér.; Magnoliopsida; Acacia Mill.; 
2011,2011-07-25,Coimbra,Penacova,São Pedro de Alva,Ribeira,40.3037818,-8.1651753,NC,202.0,2011-07-25T13:00,31.0,36,14.3,32.5,0.0,0.0,0.0,0.0,0,1015.4,992.7,0,0,0,0,0.73,2.86,13.9,17.6,329,332,33.1,34.8,24.6,21.3,18.0,0.1,0.143,0.219,0.331,1,3600.0,936.8,823.8,113.0,883.1,936.8,1236.5,937.0,824.0,113.0,883.1,937.0,1236.8,Pinus pinaster Aiton; Tracheophyta; Eucalyptus L'Hér.; Magnoliopsida; Olea europaea L.
2011,2011-07-25,Porto,Felgueiras,Pinheiro,SRA.PERDIDOS (Senhor dos Perdidos),41.3684352,-8.152882,NC,497.0,2011-07-25T13:00,27.7,42,13.6,29.7,0.0,0.0,0.0,0.0,0,1016.8,961.3,0,0,0,0,0.67,2.16,9.8,12.3,336,339,29.5,32.1,22.4,19.0,15.8,0.1,0.149,0.231,0.342,1,3600.0,935.4,822.5,112.9,888.2,935.4,1227.4,936.0,823.0,113.0,888.2,936.0,1228.2,Pinus pinaster Aiton; Tracheophyta; Magnoliopsida; Vitis vinifera L.; Eucalyptus L'Hér.
2011,2011-07-25,Porto,Marco de Canaveses,Tuias,Quinta,41.17549355,-8.16457827943076,Desconhecida,213.0,2011-07-25T15:00,29.9,40,14.9,31.0,0.0,0.0,0.0,0.0,0,1015.6,991.6,0,0,0,0,0.65,2.51,14.0,18.3,334,338,34.2,32.8,23.7,20.0,17.1,0.118,0.161,0.245,0.347,1,3600.0,790.1,679.5,110.6,848.3,790.1,1061.9,836.0,719.0,117.0,848.3,836.0,1123.6,Tracheophyta; Magnoliopsida; Pinus pinaster Aiton; Vitis vinifera L.
2011,2011-07-25,Braga,Guimarães,Serzedelo,PEDRADOS (SERZEDELO) (Pedra),41.40283515,-8.36486433641491,NC,146.0,2011-07-25T15:00,29.2,42,15.1,29.0,0.0,0.0,0.0,0.0,0,1015.9,999.3,0,0,0,0,0.65,2.34,22.6,29.7,335,339,40.3,32.6,24.2,20.4,17.6,0.11,0.154,0.234,0.342,1,3600.0,787.7,678.9,108.7,847.2,787.7,1062.2,833.0,718.0,115.0,847.2,833.0,1123.4,Vitis vinifera L.; Magnoliopsida; Tracheophyta; Eucalyptus L'Hér.; Pinales
2011,2011-07-14,Porto,Felgueiras,Penacova,SRA DOS PERDIDOS (SENHORA DOS PERDIDOS),41.3711444,-8.2502985,Desconhecida,316.0,2011-07-14T15:00,24.2,51,13.4,23.6,0.0,0.0,0.0,0.0,0,1019.8,983.6,2,0,4,0,0.45,1.48,14.2,18.2,306,308,32.8,27.4,20.8,18.9,16.2,0.148,0.16,0.242,0.347,1,3600.0,587.8,435.4,152.4,535.3,587.8,1076.6,621.0,460.0,161.0,535.3,621.0,1137.4,Magnoliopsida; Vitis vinifera L.; Tracheophyta; Eucalyptus L'Hér.; Pinus pinaster Aiton
2011,2011-07-24,Aveiro,Santa Maria da Feira,Canedo,NªPiedade,41.017568,-8.4518566,Desconhecida,188.0,2011-07-24T12:00,27.7,38,11.9,28.3,0.0,0.0,0.0,0.0,0,1018.1,996.6,0,0,0,0,0.66,2.33,13.5,16.6,351,355,28.4,30.9,22.8,20.1,17.7,0.12,0.124,0.19,0.322,1,3600.0,929.3,819.5,109.9,889.0,929.3,1221.6,905.0,798.0,107.0,889.0,905.0,1189.6,Pinus pinaster Aiton; Tracheophyta; Eucalyptus L'Hér.; Magnoliopsida
2011,2011-07-24,Porto,Valongo,Ermesinde,L.MONTES DA COSTA (Montes da Costa),41.2170785,-8.5515798,Desconhecida,108.0,2011-07-24T13:00,28.0,42,13.8,29.0,0.0,0.0,0.0,0.0,0,1017.6,1005.2,0,0,0,0,0.69,2.2,15.1,18.6,342,345,26.6,30.6,23.0,20.3,18.0,0.126,0.151,0.232,0.348,1,3600.0,943.2,836.2,107.0,900.3,943.2,1230.9,943.0,836.0,107.0,900.3,943.0,1230.7,Tracheophyta; Eucalyptus L'Hér.
2011,2011-07-23,Porto,Paredes,Rebordosa,FIJO (VILELA),41.2202567,-8.4112601,NC,216.0,2011-07-23T15:00,28.7,32,10.2,28.4,0.0,0.0,0.0,0.0,0,1014.8,990.4,0,0,0,0,0.66,2.7,14.5,18.4,330,334,24.8,31.3,22.5,19.7,17.2,0.148,0.145,0.22,0.35,1,3600.0,815.2,714.0,101.2,887.3,815.2,1066.4,862.0,755.0,107.0,887.3,862.0,1127.5,Magnoliopsida; Pinus pinaster Aiton; Eucalyptus L'Hér.; Tracheophyta; Vitis vinifera L.
2011,2011-07-23,Aveiro,Santa Maria da Feira,Canedo,Junto á Capela,41.017568,-8.4518566,Desconhecida,188.0,2011-07-23T15:00,28.8,33,10.9,28.3,0.0,0.0,0.0,0.0,0,1014.9,993.6,0,0,0,0,0.67,2.66,16.6,20.9,333,336,31.3,32.6,22.9,20.0,17.7,0.124,0.124,0.191,0.322,1,3600.0,816.3,715.1,101.2,886.8,816.3,1068.5,863.0,756.0,107.0,886.8,863.0,1129.6,Pinus pinaster Aiton; Tracheophyta; Eucalyptus L'Hér.; Magnoliopsida
2011,2011-08-04,Aveiro,Espinho,Anta,Rua do Lameirão,41.0145432,-8.6261856,Desconhecida,37.0,2011-08-04T20:00,20.4,85,17.7,21.7,0.0,0.0,0.0,0.0,2,1020.1,1015.7,72,47,0,98,0.03,0.37,10.9,16.9,304,308,25.2,24.7,24.4,22.3,19.3,0.102,0.121,0.186,0.316,0,0.0,0.0,0.0,0.0,0.0,0.0,0.0,17.0,2.0,15.0,19.5,17.0,77.5,Tracheophyta; Eucalyptus L'Hér.; Magnoliopsida; Pinus pinaster Aiton
2011,2011-08-04,Porto,Vila Nova de Gaia,Avintes,PONTE PEDRA (Acesso á Ponte do Infante),41.1054014,-8.5507083,NC,104.0,2011-08-04T20:00,20.2,85,17.5,21.5,0.0,0.0,0.0,0.0,2,1020.0,1007.7,79,54,1,99,0.03,0.36,9.5,13.3,281,283,25.2,23.8,23.5,21.6,18.6,0.13,0.146,0.224,0.348,0,0.0,0.0,0.0,0.0,0.0,0.0,0.0,16.0,2.0,14.0,19.5,16.0,77.9,Magnoliopsida; Tracheophyta; Pinales; Pinus pinea L.
2011,2011-08-05,Viana do Castelo,Ponte da Barca,Vila Nova de Muia,SANTA RITA - VILA NOVA MUIA (Santa Catarina),41.8066265,-8.4012727,NC,48.0,2011-08-05T10:00,20.6,66,14.1,20.7,0.0,0.0,0.0,0.0,3,1018.5,1012.8,100,88,0,100,0.32,0.82,8.6,10.0,292,300,21.2,23.9,22.7,22.0,18.5,0.115,0.147,0.224,0.337,1,3600.0,575.1,305.1,270.0,411.7,575.1,984.9,524.0,278.0,246.0,411.7,524.0,897.4,Tracheophyta; Vitis vinifera L.; Magnoliopsida; Eucalyptus L'Hér.; Pinus pinaster Aiton
2011,2011-07-23,Coimbra,Soure,Soure,Meãs (ALFARELOS),40.1498521,-8.6533065,NC,63.0,2011-07-23T17:00,25.6,44,12.5,22.9,0.0,0.0,0.0,0.0,0,1014.8,1007.5,0,0,0,0,0.46,1.83,25.0,34.5,330,334,46.4,31.8,23.0,20.4,18.6,0.051,0.062,0.108,0.213,1,3600.0,501.2,420.5,80.6,796.2,501.2,699.9,578.0,485.0,93.0,796.2,578.0,807.2,Olea europaea L.; Oryza sativa L.; Pinus pinaster Aiton; Tracheophyta; Magnoliopsida
2011,2011-07-23,Leiria,Peniche,Serra DEl Rei,Encosta da Lapa/Malgasta - Serra El Rei,39.332275550000006,-9.270018759601571,Desconhecida,126.0,2011-07-23T14:00,21.4,59,13.2,21.3,0.0,0.0,0.0,0.0,0,1016.1,1001.4,0,0,0,0,0.54,1.04,21.1,26.4,333,336,36.7,32.8,21.5,20.6,19.0,0.045,0.094,0.145,0.232,1,3600.0,923.4,809.3,114.1,895.1,923.4,1198.1,947.0,830.0,117.0,895.1,947.0,1228.7,Magnoliopsida; Tracheophyta; Eucalyptus L'Hér.; Pinus pinea L.
2011,2011-07-23,Porto,Penafiel,Rio de Moinhos,Ribeiro,41.1113744,-8.2649364,NC,231.0,2011-07-23T18:00,27.5,38,12.1,25.4,0.0,0.0,0.0,0.0,0,1014.7,988.5,0,0,0,0,0.37,2.27,18.9,26.9,329,332,42.5,29.1,23.0,19.6,17.1,0.128,0.167,0.254,0.351,1,3600.0,308.4,247.2,61.2,713.8,308.4,458.8,388.0,311.0,77.0,713.8,388.0,577.3,Eucalyptus L'Hér.; Tracheophyta; Magnoliopsida; Vitis vinifera L.
2011,2011-08-05,Bragança,Carrazeda de Ansiães,Parambos,Misquel,41.2348895,-7.3479438,Desconhecida,704.0,2011-08-05T13:00,24.2,41,9.9,24.4,0.0,0.0,0.0,0.0,0,1015.7,937.3,18,6,0,42,0.61,1.79,11.8,15.1,258,258,28.8,30.6,23.3,21.5,17.1,0.14,0.153,0.19,0.327,1,3600.0,897.1,700.5,196.6,772.0,897.1,1206.1,899.0,702.0,197.0,772.0,899.0,1208.6,Magnoliopsida; Tracheophyta; Pinus pinaster Aiton; Vitis vinifera L.
2011,2011-08-05,Braga,Celorico de Basto,Gémeos,LOUREIRO (GÉMEOS) (Azenha do Loureiro),41.3915781,-8.016175471864585,NC,307.0,2011-08-05T13:00,23.3,51,12.6,24.8,0.0,0.0,0.0,0.0,1,1016.7,981.5,22,4,0,61,0.58,1.41,9.2,11.3,259,261,28.4,29.5,23.1,21.5,17.7,0.111,0.147,0.226,0.338,1,3600.0,888.4,658.6,229.9,725.7,888.4,1206.1,889.0,659.0,230.0,725.7,889.0,1206.8,Pinus pinaster Aiton; Tracheophyta; Magnoliopsida
2011,2011-08-05,Aveiro,Oliveira de Azemeis,Loureiro,Minhoteira,40.7802634,-8.5124298,Desconhecida,48.0,2011-08-05T17:00,21.8,55,12.2,20.5,0.0,0.0,0.0,0.0,1,1016.7,1011.1,23,2,0,71,0.34,1.19,13.4,16.7,275,277,26.3,28.7,23.9,22.0,19.2,0.103,0.133,0.207,0.318,1,3600.0,450.7,366.6,84.1,737.7,450.7,660.5,525.0,427.0,98.0,737.7,525.0,769.3,Eucalyptus L'Hér.; Magnoliopsida; Pinus pinaster Aiton
2011,2011-08-05,Porto,Amarante,Mancelos,Senhora da Costa,41.2757739,-8.1585546,Desconhecida,247.0,2011-08-05T18:00,21.2,54,11.6,19.9,0.0,0.0,0.0,0.0,1,1015.9,987.3,28,3,6,73,0.24,1.16,12.3,15.9,265,264,31.0,27.5,24.2,21.7,17.9,0.108,0.146,0.225,0.337,1,3600.0,273.8,214.8,58.9,684.6,273.8,417.1,353.0,277.0,76.0,684.6,353.0,537.8,Tracheophyta; Magnoliopsida; Eucalyptus L'Hér.; Pinus pinaster Aiton; Vitis vinifera L.; 
2011,2011-07-04,Porto,Maia,Avioso (Santa Maria),Cidadelha,41.2678191,-8.6060493,NC,87.0,2011-07-04T15:00,22.7,53,12.5,22.9,0.0,0.0,0.0,0.0,0,1018.1,1007.9,0,0,0,0,0.55,1.31,15.3,18.9,300,301,32.8,29.1,22.3,20.9,17.1,0.107,0.161,0.249,0.355,1,3600.0,830.0,722.9,107.1,879.8,830.0,1087.1,876.0,763.0,113.0,879.8,876.0,1147.5,Magnoliopsida; Tracheophyta
2011,2011-07-30,Portalegre,Ponte de Sor,Ponte de Sor,Junto EN 2 - Domingão,39.282057,-8.002174135232755,Desconhecida,138.0,2011-07-30T17:00,31.2,31,11.9,29.1,0.0,0.0,0.0,0.0,0,1014.4,998.8,0,0,0,0,0.53,3.14,18.8,25.3,302,303,40.0,37.6,28.6,24.6,20.6,0.047,0.063,0.103,0.214,1,3600.0,483.5,405.3,78.1,799.7,483.5,672.6,563.0,472.0,91.0,799.7,563.0,783.2,Quercus suber L.; Tracheophyta; Olea europaea L.
2011,2011-08-01,Viana do Castelo,Ponte da Barca,Vila Nova de Muia,RODO - VILA NOVA MUIA (LINDOSO),41.8066265,-8.4012727,NC,48.0,2011-08-01T13:00,25.6,56,16.3,26.2,0.0,0.0,0.0,0.0,1,1010.6,1005.1,46,18,1,98,0.51,1.43,17.1,20.9,298,302,31.3,31.5,24.2,22.0,18.2,0.097,0.149,0.226,0.34,1,3600.0,738.1,358.0,380.0,392.4,738.1,1211.3,738.0,358.0,380.0,392.4,738.0,1211.2,Tracheophyta; Vitis vinifera L.; Magnoliopsida; Eucalyptus L'Hér.; Pinus pinaster Aiton
2011,2011-08-01,Viana do Castelo,Ponte de Lima,Vitorino dos Piães,JUNTO CASA DO GUARDA - VIT. PIAES (RENDUFE),41.6815613,-8.6232985,NC,129.0,2011-08-01T14:00,24.8,56,15.5,25.4,0.0,0.0,0.0,0.0,1,1010.3,995.5,40,0,17,98,0.53,1.36,17.1,21.9,309,314,34.6,31.2,23.8,21.5,17.9,0.097,0.148,0.222,0.337,1,3600.0,765.2,463.4,301.8,530.3,765.2,1160.1,786.0,476.0,310.0,530.3,786.0,1191.6,Tracheophyta; Eucalyptus L'Hér.
2011,2011-08-01,Porto,Vila Nova de Gaia,Pedroso,Ponte Pereiro,41.064143,-8.5572235,NC,131.0,2011-08-01T17:00,21.5,64,14.4,20.6,0.2,0.2,0.0,0.0,51,1009.4,994.2,47,0,31,94,0.25,0.93,16.4,20.8,320,323,34.2,27.4,23.6,21.6,18.3,0.115,0.147,0.226,0.349,1,3600.0,297.6,132.8,164.7,261.5,297.6,674.3,345.0,154.0,191.0,261.5,345.0,781.8,Magnoliopsida; Eucalyptus L'Hér.; Tracheophyta
2011,2011-07-26,Aveiro,Espinho,Anta,Rua do Lameirão,41.0145432,-8.6261856,Desconhecida,37.0,2011-07-26T00:00,19.0,86,16.6,17.7,0.0,0.0,0.0,0.0,0,1015.7,1011.3,0,0,0,0,0.03,0.3,25.0,39.3,348,352,40.3,21.5,24.7,21.3,18.7,0.094,0.127,0.197,0.321,0,0.0,0.0,0.0,0.0,0.0,0.0,0.0,0.0,0.0,0.0,0.0,0.0,0.0,Tracheophyta; Eucalyptus L'Hér.; Magnoliopsida; Pinus pinaster Aiton
2011,2011-07-26,Aveiro,Santa Maria da Feira,Vale,Travessa do Zangarinhal,40.9798669,-8.4432735,Desconhecida,216.0,2011-07-26T11:00,27.0,54,16.8,28.5,0.0,0.0,0.0,0.0,0,1014.4,989.8,0,0,0,0,0.57,1.65,15.3,18.8,345,348,30.6,29.3,23.0,20.5,17.7,0.112,0.157,0.242,0.348,1,3600.0,851.0,741.0,109.9,858.3,851.0,1144.6,805.0,701.0,104.0,858.3,805.0,1082.7,Magnoliopsida; Tracheophyta; Eucalyptus L'Hér.; Pinales
2011,2011-07-26,Porto,Vila Nova de Gaia,Pedroso,TV. ALDEIA NOVA (Travessa da Aldeia Nova),41.064143,-8.5572235,NC,131.0,2011-07-26T15:00,27.4,46,14.8,27.0,0.0,0.0,0.0,0.0,0,1013.3,998.3,0,0,0,0,0.62,1.97,23.2,30.8,332,336,44.6,31.2,23.7,20.5,17.9,0.123,0.153,0.235,0.353,1,3600.0,798.1,696.0,102.1,867.3,798.1,1063.9,844.0,736.0,108.0,867.3,844.0,1125.1,Magnoliopsida; Eucalyptus L'Hér.; Tracheophyta
2011,2011-07-26,Porto,Paredes,Astromil,Carreiro,41.1981228,-8.4195664,NC,200.0,2011-07-26T14:00,29.8,40,14.8,30.2,0.0,0.0,0.0,0.0,0,1013.4,990.8,0,0,0,0,0.71,2.5,20.4,26.5,334,338,35.3,32.8,23.9,20.4,17.4,0.133,0.142,0.214,0.348,1,3600.0,895.7,786.7,109.0,888.2,895.7,1174.3,920.0,808.0,112.0,888.2,920.0,1206.1,Magnoliopsida; Pinus pinaster Aiton; Eucalyptus L'Hér.; Tracheophyta; Vitis vinifera L.
2011,2011-07-24,Faro,Lagoa,Lagoa,Poço Partido,37.112334,-8.454001,NC,37.0,2011-07-24T18:00,28.8,38,13.1,27.4,0.0,0.0,0.0,0.0,0,1015.4,1011.2,0,0,0,0,0.36,2.46,16.3,21.4,313,318,34.6,33.6,27.4,24.2,20.8,0.088,0.17,0.241,0.309,1,3600.0,294.1,230.9,63.2,687.9,294.1,444.8,377.0,296.0,81.0,687.9,377.0,570.3,Vitis vinifera L.; Magnoliopsida; Tracheophyta; Olea europaea L.
2011,2011-07-24,Porto,Vila Nova de Gaia,Olival,RUA PEDRA MOURA (Rua Circular da Pedra Alta),41.0604105,-8.52345423496485,NC,160.0,2011-07-24T17:00,26.4,49,14.8,24.4,0.0,0.0,0.0,0.0,0,1017.1,998.7,0,0,0,0,0.45,1.76,25.0,34.5,332,334,48.6,30.6,24.2,20.3,17.7,0.13,0.145,0.223,0.351,1,3600.0,487.4,408.5,78.9,779.8,487.4,694.3,562.0,471.0,91.0,779.8,562.0,800.5,Tracheophyta; Eucalyptus L'Hér.; Magnoliopsida
2011,2011-07-24,Aveiro,Albergaria-a-Velha,Alquerubim,Paus,40.6374205,-8.4885711,Desconhecida,75.0,2011-07-24T15:00,29.7,39,14.1,27.6,0.0,0.0,0.0,0.0,0,1017.1,1008.5,2,0,0,7,0.7,2.56,32.2,43.4,336,340,51.8,36.0,24.5,20.8,18.5,0.062,0.08,0.13,0.242,1,3600.0,801.0,696.9,104.0,863.7,801.0,1069.4,847.0,737.0,110.0,863.7,847.0,1130.9,Magnoliopsida; Eucalyptus L'Hér.; Tracheophyta; Pinus pinaster Aiton; 
2011,2011-07-24,Porto,Marco de Canaveses,Sande,Laurentim,41.1044716,-8.1815849,Desconhecida,279.0,2011-07-24T18:00,27.4,44,14.2,26.6,0.0,0.0,0.0,0.0,0,1016.5,984.9,0,0,0,0,0.32,2.03,14.7,21.0,324,329,34.9,29.9,23.8,19.8,17.0,0.116,0.164,0.251,0.352,1,3600.0,284.9,215.1,69.8,624.8,284.9,456.2,359.0,271.0,88.0,624.8,359.0,574.9,Tracheophyta; Pinus pinaster Aiton; Vitis vinifera L.; Eucalyptus L'Hér.; Castanea sativa Mill.; Magnoliopsida; 
2011,2011-07-25,Aveiro,Santa Maria da Feira,Guisande,Rua Trás dos Lagos,40.9732481,-8.4785278,Desconhecida,214.0,2011-07-25T00:00,18.8,79,15.1,18.3,0.0,0.0,0.0,0.0,0,1018.2,993.1,0,0,0,0,0.03,0.45,14.9,24.2,352,356,28.4,20.9,23.8,20.1,17.6,0.117,0.123,0.189,0.321,0,0.0,0.0,0.0,0.0,0.0,0.0,0.0,0.0,0.0,0.0,0.0,0.0,0.0,Eucalyptus L'Hér.; Tracheophyta; Pinales
2011,2011-06-30,Braga,Braga,São Mamede Este,L. NASCENTE (ESTE S. MAMEDE)M7 (ADAÚFE),41.5699243,-8.351779715856757,NC,343.0,2011-06-30T00:00,17.3,64,10.5,15.7,0.0,0.0,0.0,0.0,0,1018.4,978.3,0,0,0,0,0.04,0.7,12.0,26.6,69,74,30.6,19.3,21.9,18.8,14.7,0.11,0.197,0.288,0.368,0,0.0,0.0,0.0,0.0,0.0,0.0,0.0,0.0,0.0,0.0,0.0,0.0,0.0,Magnoliopsida; Tracheophyta; Eucalyptus L'Hér.; Pinus pinaster Aiton
2011,2011-06-30,Porto,Vila Nova de Gaia,Sandim,Cabo,41.03204085,-8.500728176230938,NC,133.0,2011-06-30T12:00,28.0,34,10.6,29.5,0.0,0.0,0.0,0.0,0,1018.0,1002.8,0,0,0,0,0.68,2.5,7.5,9.4,35,43,24.1,31.0,23.1,20.5,16.8,0.111,0.144,0.224,0.335,1,3600.0,973.2,857.5,115.8,909.7,973.2,1247.3,950.0,837.0,113.0,909.7,950.0,1217.6,Eucalyptus L'Hér.; Tracheophyta; Quercus L.; Pinus pinea L.; Magnoliopsida
2011,2011-07-31,Aveiro,Águeda,Águeda,Val Domingos (Vale Domingos),40.584398,-8.424476,Desconhecida,83.0,2011-07-31T06:00,16.5,98,16.2,18.0,0.0,0.0,0.0,0.0,3,1014.9,1005.0,90,100,0,0,0.01,0.04,4.8,6.3,318,329,9.0,19.4,24.4,23.0,19.1,0.098,0.14,0.21,0.328,1,0.0,9.9,2.5,7.4,28.3,4.2,105.6,4.0,1.0,3.0,13.1,4.0,42.8,Tracheophyta; Magnoliopsida; Eucalyptus L'Hér.; Pinus pinaster Aiton
2011,2011-07-31,Porto,Santo Tirso,São Martinho Campo,Ribeiro,41.35849115,-8.368132875977032,NC,130.0,2011-07-31T16:00,27.4,44,14.2,27.0,0.0,0.0,0.0,0.0,0,1012.4,997.6,0,0,0,0,0.54,2.04,17.6,22.7,314,317,36.4,32.8,25.2,21.9,18.1,0.103,0.148,0.225,0.338,1,3600.0,646.0,554.1,91.9,833.4,646.0,882.5,710.0,609.0,101.0,833.4,710.0,969.9,Magnoliopsida; Tracheophyta; Vitis vinifera L.; Pinus pinaster Aiton; Eucalyptus L'Hér.
2011,2011-07-04,Santarém,Benavente,Samora Correia,SAMORA CORREIA,38.93424185,-8.868042906346707,Desconhecida,11.0,2011-07-04T11:00,23.0,51,12.3,23.0,0.0,0.0,0.0,0.0,0,1018.1,1016.8,0,0,0,0,0.52,1.38,14.3,18.2,335,335,35.6,25.1,22.1,22.3,18.8,0.238,0.317,0.37,0.408,1,3600.0,855.7,703.8,151.9,787.0,855.7,1183.2,811.0,667.0,144.0,787.0,811.0,1121.4,Quercus suber L.; Oryza sativa L.; Tracheophyta; Pinus pinaster Aiton; Quercus rotundifolia Lam.; Eucalyptus L'Hér.; Magnoliopsida; Pinus pinea L.; Olea europaea L.; Vitis vinifera L.; 
2011,2011-07-01,Porto,Paredes,Lordelo,LG. ROUFE (LORDELO),41.252109950000005,-8.427403771218074,NC,302.0,2011-07-01T15:00,29.9,31,10.9,30.4,0.0,0.0,0.0,0.0,1,1015.4,981.5,24,0,3,73,0.64,2.92,10.0,12.5,232,231,21.6,33.2,23.6,19.8,15.4,0.095,0.172,0.263,0.358,1,3600.0,780.2,600.3,179.9,731.5,780.2,1085.8,824.0,634.0,190.0,731.5,824.0,1146.8,Magnoliopsida; Pinus pinaster Aiton; Eucalyptus L'Hér.; Tracheophyta; Vitis vinifera L.
2011,2011-07-04,Castelo Branco,Covilhã,Ferro,Alvares,40.2342622,-7.4451731,Desconhecida,479.0,2011-07-04T15:00,28.9,33,11.2,29.7,0.0,0.0,0.0,0.0,0,1015.3,962.0,0,0,0,0,0.65,2.66,10.0,12.7,296,299,26.3,35.8,24.9,22.0,16.0,0.097,0.183,0.255,0.36,1,3600.0,822.7,716.0,106.7,876.6,822.7,1080.6,871.0,758.0,113.0,876.6,871.0,1144.0,Tracheophyta; Olea europaea L.; Magnoliopsida; Quercus L.
2011,2011-07-25,Porto,Penafiel,Rãs,Enxameia,41.1702136,-8.2919262,NC,283.0,2011-07-25T23:00,19.1,81,15.8,20.0,0.0,0.0,0.0,0.0,0,1016.0,983.0,0,0,0,1,0.01,0.41,7.5,10.8,305,334,14.4,21.5,23.6,19.6,16.7,0.126,0.153,0.232,0.347,0,0.0,0.0,0.0,0.0,0.0,0.0,0.0,0.0,0.0,0.0,0.0,0.0,0.0,Magnoliopsida; Eucalyptus L'Hér.; Tracheophyta; Vitis vinifera L.
2011,2011-07-26,Porto,Vila Nova de Gaia,Grijó,Chamusca,41.0202038,-8.5765772,NC,134.0,2011-07-26T10:00,24.7,61,16.6,25.8,0.0,0.0,0.0,0.0,0,1014.5,999.1,0,0,0,0,0.44,1.22,13.1,16.6,351,355,27.0,26.9,22.9,20.8,18.2,0.094,0.126,0.197,0.321,1,3600.0,733.5,627.3,106.2,823.4,733.5,1010.1,670.0,573.0,97.0,823.4,670.0,922.6,Tracheophyta; Eucalyptus L'Hér.; Magnoliopsida
2011,2011-07-25,Aveiro,Águeda,Macinhata do Vouga,Serém,40.6561919,-8.4735716,Desconhecida,98.0,2011-07-25T22:00,20.5,79,16.7,21.0,0.0,0.0,0.0,0.0,0,1015.4,1003.9,0,0,0,0,0.03,0.52,12.6,23.1,340,346,26.3,23.1,25.2,21.1,18.5,0.067,0.092,0.146,0.257,0,0.0,0.0,0.0,0.0,0.0,0.0,0.0,0.0,0.0,0.0,0.0,0.0,0.0,Eucalyptus L'Hér.; Tracheophyta
2011,2011-07-26,Vila Real,Chaves,Mairos,MAIROS,41.82352915,-7.3228295445370915,NC,801.0,2011-07-26T02:00,15.6,87,13.5,15.3,0.0,0.0,0.0,0.0,0,1016.3,925.2,15,17,0,0,0.0,0.22,9.9,18.2,350,352,23.8,18.4,21.7,18.3,15.1,0.126,0.14,0.208,0.344,0,0.0,0.0,0.0,0.0,0.0,0.0,0.0,0.0,0.0,0.0,0.0,0.0,0.0,Magnoliopsida; Tracheophyta; Quercus L.
2011,2011-07-26,Braga,Fafe,Serafão,SOUTELO (SERAFÃO) M.3 (ED311 (ED311) Km 1),41.53170655,-8.20104199880192,NC,286.0,2011-07-26T01:00,18.5,82,15.4,19.2,0.0,0.0,0.0,0.0,0,1015.7,982.3,0,0,0,0,0.0,0.37,7.6,12.6,341,358,16.6,20.6,24.4,20.3,17.1,0.099,0.148,0.227,0.34,0,0.0,0.0,0.0,0.0,0.0,0.0,0.0,0.0,0.0,0.0,0.0,0.0,0.0,Eucalyptus L'Hér.; Vitis vinifera L.; Magnoliopsida; Pinales; Tracheophyta; Pinus pinaster Aiton
2011,2011-07-01,Porto,Gondomar,Melres,VESSADINHA (Vessada),41.0647845,-8.4443237,NC,33.0,2011-07-01T01:00,20.1,73,15.1,21.1,0.0,0.0,0.0,0.0,0,1016.5,1012.6,0,0,0,0,0.01,0.63,5.3,7.8,28,34,10.1,20.8,24.7,21.1,17.2,0.12,0.167,0.256,0.364,0,0.0,0.0,0.0,0.0,0.0,0.0,0.0,0.0,0.0,0.0,0.0,0.0,0.0,Magnoliopsida; Eucalyptus L'Hér.; Tracheophyta; Pinus pinaster Aiton
2011,2011-07-01,Viana do Castelo,Monção,Barbeita,SANTIAGO - BARBEITA (Santiago),42.0634791,-8.4043195,Desconhecida,102.0,2011-07-01T04:00,15.2,85,12.7,14.9,0.0,0.0,0.0,0.0,0,1016.2,1004.0,0,0,0,0,0.0,0.26,8.4,12.3,59,85,18.0,17.2,21.6,19.3,15.7,0.107,0.186,0.278,0.366,0,0.0,0.0,0.0,0.0,0.0,0.0,0.0,0.0,0.0,0.0,0.0,0.0,0.0,Tracheophyta; Vitis vinifera L.; Eucalyptus L'Hér.; Magnoliopsida; Pinus pinaster Aiton; 
2011,2011-07-01,Viana do Castelo,Monção,Barbeita,SANTIAGO - BARBEITA (Santiago),42.0634791,-8.4043195,Desconhecida,102.0,2011-07-01T12:00,29.5,35,12.6,32.1,0.0,0.0,0.0,0.0,1,1016.6,1005.0,29,0,0,95,0.65,2.67,3.6,1.1,307,270,17.6,31.3,21.9,19.3,15.7,0.105,0.184,0.277,0.366,1,3600.0,923.0,715.0,207.9,763.6,923.0,1239.1,901.0,698.0,203.0,763.6,901.0,1209.6,Tracheophyta; Vitis vinifera L.; Eucalyptus L'Hér.; Magnoliopsida; Pinus pinaster Aiton; 
2011,2011-07-01,Setúbal,Seixal,Fernão Ferro,Rua de São Lázaro - Pinhal do General,38.56392395,-9.06092908157139,Desconhecida,38.0,2011-07-01T14:00,29.5,38,13.6,31.5,0.0,0.0,0.0,0.0,1,1015.4,1011.1,26,0,13,62,0.63,2.56,6.3,7.4,204,203,22.7,36.5,25.0,22.1,18.8,0.054,0.096,0.146,0.231,1,3600.0,821.3,562.1,259.2,610.7,821.3,1218.0,843.0,577.0,266.0,610.7,843.0,1250.1,Tracheophyta; Magnoliopsida; Pinus pinaster Aiton
2011,2011-07-01,Viana do Castelo,Viana do Castelo,Castelo do Neiva,REAL - CASTELO NEIVA (Largo do Real),41.6237388,-8.7950443,Desconhecida,56.0,2011-07-01T17:00,26.8,44,13.4,26.3,0.0,0.0,0.0,0.0,1,1015.0,1008.6,24,0,0,79,0.41,1.99,10.7,13.5,282,279,23.0,31.0,24.7,20.7,16.8,0.103,0.165,0.255,0.354,1,3600.0,472.6,327.4,145.3,597.8,472.6,724.5,540.0,374.0,166.0,597.8,540.0,827.8,Tracheophyta; Pinus pinaster Aiton; Eucalyptus L'Hér.; Magnoliopsida
2011,2011-07-04,Viana do Castelo,Valença,Taião,Felgueira,41.9855295,-8.5816313,Desconhecida,315.0,2011-07-04T13:00,21.2,60,13.2,23.3,0.0,0.0,0.0,0.0,0,1018.3,981.9,0,0,0,0,0.58,1.0,8.9,10.4,291,290,26.6,27.6,20.2,18.8,15.1,0.104,0.177,0.269,0.363,1,3600.0,957.6,812.6,144.9,862.8,957.6,1246.2,958.0,813.0,145.0,862.8,958.0,1246.8,Magnoliopsida; Eucalyptus L'Hér.; Tracheophyta; Vitis vinifera L.; Pinus pinaster Aiton; Acacia Mill.; 
2011,2011-07-28,Braga,Vila Nova de Famalicão,Joane,RUIVOS (JOANE) M6 (Ruivos),41.43904315,-8.416545226748479,NC,156.0,2011-07-28T12:00,30.4,28,10.0,31.5,0.0,0.0,0.0,0.0,0,1015.5,997.9,0,0,0,0,0.69,3.11,7.6,10.4,90,92,28.8,31.8,24.7,21.1,17.7,0.105,0.151,0.229,0.34,1,3600.0,940.7,829.8,110.9,908.5,940.7,1211.5,916.0,808.0,108.0,908.5,916.0,1179.6,Vitis vinifera L.; Tracheophyta; Magnoliopsida; Pinus pinaster Aiton; Eucalyptus L'Hér.
2011,2011-07-31,Braga,Guimarães,São Salvador Souto,LAMA(SOUTO S.SALVADOR)M5 (DONIM),41.49754485,-8.298360253160366,NC,158.0,2011-07-31T16:00,27.1,45,14.1,26.9,0.0,0.0,0.0,0.0,0,1012.2,994.2,0,0,0,0,0.53,1.98,16.3,21.1,311,314,39.2,33.1,25.0,21.4,17.5,0.097,0.147,0.226,0.339,1,3600.0,648.0,556.0,91.9,836.6,648.0,882.2,712.0,611.0,101.0,836.6,712.0,969.4,Vitis vinifera L.; Tracheophyta; Eucalyptus L'Hér.; Magnoliopsida
2011,2011-08-01,Porto,Vila Nova de Gaia,Lever,COMPANHIA DAS AGUAS (Rua da Companhia das Águas),41.0638919,-8.4709989,NC,107.0,2011-08-01T11:00,23.2,63,15.8,24.8,0.0,0.0,0.0,0.0,3,1010.3,997.9,90,67,0,100,0.44,1.05,8.3,9.4,268,270,21.2,27.2,23.3,22.2,18.5,0.116,0.139,0.21,0.346,1,3600.0,725.9,488.9,237.0,573.4,725.9,1131.9,686.0,462.0,224.0,573.4,686.0,1069.6,Tracheophyta; Magnoliopsida; Eucalyptus L'Hér.; Pinus pinaster Aiton
2011,2011-08-01,Viana do Castelo,Ponte da Barca,Ponte da Barca,CAMPO DO CURRO - PONTE DA BARCA (Campolinho),41.80600765,-8.415000093962036,NC,38.0,2011-08-01T12:00,25.4,58,16.6,26.9,0.0,0.0,0.0,0.0,2,1010.5,1006.1,54,27,0,100,0.53,1.36,14.5,16.6,289,294,28.4,30.8,24.0,22.0,18.3,0.097,0.149,0.227,0.34,1,3600.0,801.5,498.4,303.1,551.3,801.5,1200.1,780.0,485.0,295.0,551.3,780.0,1167.9,Magnoliopsida; Tracheophyta; Vitis vinifera L.; Pinus pinaster Aiton
2011,2011-08-01,Porto,Santo Tirso,Água Longa,PONTE DO ARQUINHO (Ponte),41.2603698,-8.4972609,NC,120.0,2011-08-01T16:00,24.2,57,15.1,23.8,0.0,0.0,0.0,0.0,1,1009.0,995.2,41,0,20,98,0.41,1.31,16.3,20.6,313,316,31.7,30.0,24.3,22.0,18.3,0.119,0.139,0.204,0.34,1,3600.0,543.0,312.0,231.0,469.8,543.0,881.6,597.0,343.0,254.0,469.8,597.0,969.2,Tracheophyta; Eucalyptus L'Hér.; Pinales; Vitis vinifera L.; Pinus pinaster Aiton
2011,2011-08-01,Viseu,Resende,Resende,Rendufe,41.105831,-7.9644114,Desconhecida,240.0,2011-08-01T16:00,25.6,55,15.8,25.9,0.0,0.0,0.0,0.0,1,1008.8,981.6,37,1,13,95,0.41,1.5,12.2,15.6,298,299,29.5,31.6,24.9,21.9,17.8,0.096,0.15,0.232,0.341,1,3600.0,514.2,255.3,258.9,386.4,514.2,877.0,566.0,281.0,285.0,386.4,566.0,965.4,Tracheophyta; Magnoliopsida; Pinales; Eucalyptus L'Hér.; Vitis vinifera L.
2011,2011-08-01,Viana do Castelo,Monção,Pias,Alderiz,42.0297448,-8.5065974,Desconhecida,74.0,2011-08-01T19:00,21.0,74,16.2,20.9,0.0,0.0,0.0,0.0,0,1009.7,1001.1,9,0,6,17,0.12,0.64,15.0,20.8,325,330,33.8,26.1,24.2,20.9,17.7,0.098,0.155,0.232,0.343,1,3600.0,100.2,63.3,36.9,429.8,100.2,195.5,163.0,103.0,60.0,429.8,163.0,318.2,Magnoliopsida; Eucalyptus L'Hér.; Pinus pinaster Aiton; Vitis vinifera L.; Tracheophyta; Quercus L.; 
2011,2011-08-01,Porto,Felgueiras,Moure,Vila Cães,41.3528045,-8.1754517,NC,306.0,2011-08-01T19:00,21.6,68,15.5,22.3,0.3,0.3,0.0,0.0,51,1009.5,974.4,66,0,68,83,0.09,0.82,8.7,12.4,287,292,24.5,26.7,25.0,21.6,17.4,0.099,0.142,0.215,0.333,1,3259.88,50.7,23.3,27.4,168.7,50.7,183.2,85.0,39.0,46.0,168.7,85.0,307.0,Magnoliopsida; Tracheophyta; Pinus pinaster Aiton; Eucalyptus L'Hér.; Vitis vinifera L.
2011,2011-07-27,Braga,Guimarães,São Salvador Souto,L. S.PEDRO (SOUTO S.SALVADOR)M6 (DONIM),41.49754485,-8.298360253160366,NC,158.0,2011-07-27T17:00,31.2,28,10.8,29.6,0.0,0.0,0.0,0.0,0,1013.0,995.2,0,0,0,0,0.5,3.25,13.3,17.8,347,352,28.4,33.7,25.0,20.4,17.3,0.099,0.152,0.233,0.343,1,3600.0,494.5,416.6,77.9,805.5,494.5,685.8,571.0,481.0,90.0,805.5,571.0,791.9,Vitis vinifera L.; Tracheophyta; Eucalyptus L'Hér.; Magnoliopsida
2011,2011-07-27,Leiria,Óbidos,Vau,COVAO DOS MOZARANHOS,39.3657979,-9.2173555,Desconhecida,37.0,2011-07-27T17:00,23.7,54,13.8,20.9,0.0,0.0,0.0,0.0,0,1012.5,1008.2,0,0,0,0,0.41,1.36,28.2,39.3,355,357,48.6,31.4,23.8,21.3,19.6,0.045,0.089,0.143,0.228,1,3600.0,492.3,411.8,80.5,782.6,492.3,697.9,569.0,476.0,93.0,782.6,569.0,806.6,Tracheophyta; Magnoliopsida; Eucalyptus L'Hér.
2011,2011-07-27,Porto,Maia,Vermoim,INFANTE D. HENRIQUE (Rua Conselheiro Campo Henriques),41.2357067,-8.6089608,NC,80.0,2011-07-27T18:00,29.4,39,13.9,28.3,0.0,0.0,0.0,0.0,0,1012.8,1003.7,0,0,0,0,0.37,2.51,15.7,23.1,340,345,25.6,31.7,25.5,21.1,18.3,0.119,0.148,0.226,0.346,1,3600.0,303.7,244.2,59.5,712.2,303.7,454.7,383.0,308.0,75.0,712.2,383.0,573.5,Tracheophyta; Eucalyptus L'Hér.; Magnoliopsida
2011,2011-07-29,Braga,Amares,Lago,STA. MARTA(LAGO) (Santa Marta),41.6206095,-8.41211680582419,NC,73.0,2011-07-29T12:00,29.4,44,15.9,31.8,0.0,0.0,0.0,0.0,0,1015.5,1007.2,4,0,0,15,0.67,2.29,11.2,13.5,228,224,27.7,33.2,25.2,21.6,18.1,0.099,0.145,0.222,0.336,1,3600.0,931.6,821.7,109.9,902.6,931.6,1207.7,907.0,800.0,107.0,902.6,907.0,1175.8,Tracheophyta; Vitis vinifera L.; Eucalyptus L'Hér.; Magnoliopsida; Pinus pinaster Aiton; 
2011,2011-07-24,Porto,Paços de Ferreira,Frazão,Rua de São Brás,41.2615463,-8.4087418,NC,298.0,2011-07-24T15:00,28.2,38,12.6,28.8,0.0,0.0,0.0,0.0,0,1016.8,983.1,2,0,3,0,0.63,2.36,12.6,15.8,329,333,28.8,32.6,23.0,19.5,16.8,0.101,0.154,0.237,0.344,1,3600.0,805.7,706.4,99.3,879.3,805.7,1064.6,852.0,747.0,105.0,879.3,852.0,1125.9,Eucalyptus L'Hér.; Tracheophyta; Magnoliopsida; Vitis vinifera L.; 
2011,2011-07-24,Leiria,Nazaré,Nazaré,PRAIA NORTE - NAZARÉ,39.612391,-9.078790223647058,NC,45.0,2011-07-24T15:00,22.5,62,14.8,21.2,0.0,0.0,0.0,0.0,0,1016.9,1011.6,2,0,0,8,0.49,1.04,29.3,39.0,346,348,55.4,30.4,22.0,20.3,18.9,0.051,0.071,0.124,0.222,1,3600.0,815.5,712.4,103.1,874.6,815.5,1079.4,862.0,753.0,109.0,874.6,862.0,1141.0,Pinus pinaster Aiton; Tracheophyta
2011,2011-07-24,Porto,Felgueiras,Macieira da Lixa,LG DE BOAVISTA (PINHEIRO),41.3496108,-8.1492033,NC,406.0,2011-07-24T19:00,25.2,45,12.4,24.2,0.0,0.0,0.0,0.0,0,1017.1,971.1,0,0,0,0,0.19,1.77,12.0,20.3,321,327,39.6,28.3,23.6,19.2,16.2,0.099,0.156,0.241,0.346,1,3600.0,119.2,84.3,34.9,527.9,119.2,211.7,188.0,133.0,55.0,527.9,188.0,333.9,Eucalyptus L'Hér.; Tracheophyta; Pinus pinaster Aiton; Magnoliopsida; Vitis vinifera L.
2011,2011-07-24,Lisboa,Cascais,São Domingos de Rana,TRATOLIXO - CABRA FIGA (PAREDE),38.6963195,-9.3458030146703,Desconhecida,54.0,2011-07-24T19:00,20.5,72,15.3,17.7,0.0,0.0,0.0,0.0,0,1016.4,1010.0,0,0,0,0,0.16,0.68,31.4,46.1,350,353,53.3,23.7,22.5,20.5,19.2,0.139,0.188,0.25,0.346,1,3600.0,120.7,85.7,35.0,535.3,120.7,212.1,193.0,137.0,56.0,535.3,193.0,339.2,Tracheophyta; Magnoliopsida
2011,2011-08-02,Braga,Guimarães,Polvoreira,QUINTA DAS MANAS (POLVOREIRA) (Casa do Quintal),41.4090203,-8.292317199999992,NC,282.0,2011-08-02T00:00,17.1,90,15.5,18.5,0.0,0.0,0.0,0.0,0,1010.8,977.9,12,2,17,0,0.0,0.19,3.3,6.2,264,277,13.0,20.7,24.1,21.5,17.4,0.11,0.143,0.218,0.334,0,0.0,0.0,0.0,0.0,0.0,0.0,0.0,0.0,0.0,0.0,0.0,0.0,0.0,Tracheophyta; Magnoliopsida; Vitis vinifera L.; Pinus pinaster Aiton; Eucalyptus L'Hér.
2011,2011-08-02,Viana do Castelo,Ponte de Lima,Vitorino dos Piães,Portela,41.6815613,-8.6232985,NC,129.0,2011-08-02T15:00,22.4,65,15.5,22.4,0.0,0.0,0.0,0.0,3,1016.4,1001.4,85,94,1,0,0.34,0.94,12.4,15.6,262,262,26.6,27.4,23.2,21.6,18.0,0.103,0.147,0.221,0.336,1,3600.0,486.4,206.8,279.5,263.0,486.4,1044.4,515.0,219.0,296.0,263.0,515.0,1105.8,Tracheophyta; Eucalyptus L'Hér.
2011,2011-08-02,Bragança,Mirandela,São Pedro Velho,Vilar de Ouro,41.7045975,-7.1617867,NC,493.0,2011-08-02T18:00,23.6,51,12.8,22.6,0.0,0.0,0.0,0.0,3,1015.5,959.8,81,73,25,0,0.21,1.43,12.7,17.2,285,286,26.3,26.5,24.8,22.1,17.4,0.211,0.135,0.185,0.327,1,3600.0,166.5,106.9,59.6,344.6,166.5,411.9,215.0,138.0,77.0,344.6,215.0,531.8,Magnoliopsida; Olea europaea L.; Vitis vinifera L.; Tracheophyta
2011,2011-08-02,Porto,Gondomar,Lomba,LABERCOS (Lavercos),41.0617409,-8.4108172,NC,76.0,2011-08-02T17:00,22.4,68,16.3,22.7,0.0,0.0,0.0,0.0,0,1017.2,1008.3,13,14,0,0,0.3,0.86,13.4,17.0,275,276,25.2,26.7,23.6,22.4,18.8,0.132,0.146,0.223,0.344,1,3600.0,398.5,296.9,101.6,591.0,398.5,667.2,463.0,345.0,118.0,591.0,463.0,775.2,Magnoliopsida; Eucalyptus L'Hér.; Vitis vinifera L.; Pinus pinaster Aiton; Tracheophyta; 
2011,2011-08-02,Viana do Castelo,Paredes de Coura,Formariz,IRIJO - FORMARIZ (PORREIRAS),41.9215528,-8.5757697,NC,306.0,2011-08-02T23:00,16.7,91,15.2,18.1,0.0,0.0,0.0,0.0,0,1019.4,983.4,7,8,0,0,0.0,0.17,2.3,4.6,18,39,7.9,19.5,22.3,20.5,17.1,0.103,0.151,0.229,0.341,0,0.0,0.0,0.0,0.0,0.0,0.0,0.0,0.0,0.0,0.0,0.0,0.0,0.0,Tracheophyta; Eucalyptus L'Hér.; Magnoliopsida; Quercus L.; Pinus pinaster Aiton; 
2011,2011-07-31,Braga,Vila Verde,Covas,L. IGREJA(COVAS)M.3 (ABOIM DA NOBREGA),41.746275100000005,-8.416451305656965,Desconhecida,295.0,2011-07-31T15:00,26.8,44,13.4,27.3,0.0,0.0,0.0,0.0,0,1012.6,979.3,0,0,0,0,0.6,1.99,15.0,19.2,318,322,38.5,32.9,23.8,20.3,16.5,0.096,0.152,0.233,0.343,1,3600.0,788.6,686.6,102.0,870.8,788.6,1046.5,835.0,727.0,108.0,870.8,835.0,1108.1,Eucalyptus L'Hér.; Magnoliopsida; Pinus pinaster Aiton; Quercus L.; Tracheophyta
2011,2011-07-26,Bragança,Torre de Moncorvo,Mós,Quinta das Centieiras,41.159237,-6.9080345,NC,581.0,2011-07-26T18:00,30.0,29,10.2,28.4,0.0,0.0,0.0,0.0,0,1011.2,947.5,1,0,0,2,0.33,2.99,11.0,15.1,328,332,29.2,32.2,25.8,20.8,16.8,0.13,0.157,0.208,0.329,1,3600.0,280.6,222.0,58.6,687.5,280.6,428.1,359.0,284.0,75.0,687.5,359.0,547.7,Olea europaea L.; Magnoliopsida; Pinales
2011,2011-07-26,Braga,Guimarães,Santa Leocádia (Briteiros),BORRALHA (BRITEIROS)M3 (Borralha),41.52498985,-8.322332546823615,NC,171.0,2011-07-26T23:00,20.3,56,11.2,18.8,0.0,0.0,0.0,0.0,0,1013.7,993.8,0,0,0,0,0.07,1.06,13.3,27.3,3,13,30.2,22.5,24.4,20.1,17.1,0.1,0.154,0.235,0.343,0,0.0,0.0,0.0,0.0,0.0,0.0,0.0,0.0,0.0,0.0,0.0,0.0,0.0,Quercus L.; Magnoliopsida; Tracheophyta; Olea europaea L.; Eucalyptus L'Hér.
2011,2011-07-27,Braga,Vila Nova de Famalicão,Mouquim,CRUZEIRO(MOUQUIM) (Cruzeiro),41.4289732,-8.5220829,NC,130.0,2011-07-27T00:00,20.6,56,11.5,19.2,0.0,0.0,0.0,0.0,0,1014.1,998.9,0,0,0,0,0.07,1.08,12.8,26.3,10,19,29.9,22.5,24.7,20.7,17.7,0.12,0.144,0.215,0.342,0,0.0,0.0,0.0,0.0,0.0,0.0,0.0,0.0,0.0,0.0,0.0,0.0,0.0,Tracheophyta; Vitis vinifera L.; Eucalyptus L'Hér.
2011,2011-07-27,Porto,Penafiel,Duas Igrejas,LG DA PRESA (BUSTÊLO),41.1864654,-8.2690378,NC,403.0,2011-07-27T01:00,18.1,58,9.6,16.6,0.0,0.0,0.0,0.0,0,1013.5,966.9,0,0,0,0,0.05,0.88,10.0,14.0,49,46,20.5,20.2,23.9,19.6,16.2,0.093,0.153,0.236,0.343,0,0.0,0.0,0.0,0.0,0.0,0.0,0.0,0.0,0.0,0.0,0.0,0.0,0.0,Eucalyptus L'Hér.; Tracheophyta; Magnoliopsida
2011,2011-07-27,Aveiro,Santa Maria da Feira,Lourosa,Rua de São Jorge,40.983541,-8.5499188,Desconhecida,164.0,2011-07-27T02:00,19.8,62,12.2,18.4,0.0,0.0,0.0,0.0,0,1013.0,993.8,0,0,0,0,0.06,0.89,13.8,23.2,15,19,27.4,21.1,24.4,20.9,18.0,0.113,0.122,0.186,0.32,0,0.0,0.0,0.0,0.0,0.0,0.0,0.0,0.0,0.0,0.0,0.0,0.0,0.0,Tracheophyta; Magnoliopsida; Pinus pinaster Aiton; Eucalyptus L'Hér.
2011,2011-07-27,Porto,Felgueiras,Borba de Godim,Fojo,41.3219949,-8.1424064,NC,386.0,2011-07-27T02:00,18.0,59,9.9,16.6,0.0,0.0,0.0,0.0,0,1013.2,968.5,0,0,0,0,0.05,0.85,10.2,16.2,58,58,23.0,19.9,24.0,19.9,16.4,0.095,0.154,0.237,0.344,0,0.0,0.0,0.0,0.0,0.0,0.0,0.0,0.0,0.0,0.0,0.0,0.0,0.0,Vitis vinifera L.; Tracheophyta; Magnoliopsida
2011,2011-07-27,Faro,Faro,Santa Bárbara de Nexe,Falfosa,37.087806,-7.9592946,Desconhecida,73.0,2011-07-27T10:00,28.7,46,15.8,31.0,0.0,0.0,0.0,0.0,0,1011.3,1003.0,0,0,0,0,0.49,2.14,4.0,5.2,10,16,21.2,31.4,27.7,24.9,20.9,0.099,0.147,0.212,0.293,1,3600.0,760.4,646.3,114.1,829.4,760.4,1033.2,693.0,589.0,104.0,829.4,693.0,941.6,Magnoliopsida; Tracheophyta; Ceratonia siliqua L.
2011,2011-08-02,Braga,Braga,Nogueira,PINHEIRO DA GREGÓRIA (NOGUEIRA) (Pinheiro),41.5263863,-8.402003750877991,NC,213.0,2011-08-02T00:00,17.1,90,15.4,18.1,0.0,0.0,0.0,0.0,0,1010.8,985.8,6,6,1,1,0.0,0.2,5.6,9.6,297,304,16.6,20.5,23.8,21.5,17.5,0.105,0.144,0.218,0.334,0,0.0,0.0,0.0,0.0,0.0,0.0,0.0,0.0,0.0,0.0,0.0,0.0,0.0,Eucalyptus L'Hér.; Tracheophyta; Pinus pinaster Aiton; Magnoliopsida
2011,2011-08-02,Aveiro,Albergaria-a-Velha,Albergaria-a-Velha,Zona Industrial (RIBEIRA DE FRÁGOAS),40.690328,-8.479538190307041,Desconhecida,121.0,2011-08-02T16:00,21.9,68,15.7,21.7,0.0,0.0,0.0,0.0,0,1016.9,1002.8,16,16,2,0,0.34,0.84,14.5,18.4,276,276,31.0,26.9,22.7,21.9,18.8,0.093,0.09,0.138,0.252,1,3600.0,494.2,327.0,167.2,493.6,494.2,879.8,544.0,360.0,184.0,493.6,544.0,968.5,Tracheophyta; Eucalyptus L'Hér.
2011,2011-08-02,Porto,Matosinhos,Perafita,9 DE JULHO (LAVRA),41.2379247,-8.7234668,NC,0.0,2011-08-02T16:00,22.7,66,16.1,23.1,0.0,0.0,0.0,0.0,1,1016.6,1016.6,41,44,2,0,0.37,0.94,13.4,16.9,265,269,25.9,27.8,23.4,22.3,19.0,0.104,0.148,0.229,0.338,1,3600.0,531.2,340.2,191.0,513.1,531.2,880.5,584.0,374.0,210.0,513.1,584.0,968.0,Tracheophyta
2011,2011-08-03,Viana do Castelo,Arcos de Valdevez,Cabreiro,VILAR-CABREIRO (Vilar),41.9362387,-8.401936,NC,354.0,2011-08-03T09:00,18.8,75,14.3,20.0,0.0,0.0,0.0,0.0,0,1021.3,980.0,1,1,0,0,0.23,0.53,1.3,1.5,304,315,12.2,21.4,20.5,20.2,16.7,0.103,0.154,0.235,0.344,1,3600.0,444.8,248.9,195.9,409.6,444.8,807.2,386.0,216.0,170.0,409.6,386.0,700.5,Magnoliopsida; Pinus pinaster Aiton; Eucalyptus L'Hér.
2011,2011-08-03,Braga,Guimarães,Salvador (Briteiros),L.(BRITEIROS S.SALVADOR)M5 (DONIM),41.52498985,-8.322332546823615,NC,171.0,2011-08-03T12:00,23.7,55,14.2,25.5,0.0,0.0,0.0,0.0,0,1020.9,1001.0,1,1,0,0,0.53,1.31,7.7,9.1,298,304,25.9,28.7,21.9,21.3,17.6,0.108,0.146,0.224,0.338,1,3600.0,834.3,589.8,244.5,653.3,834.3,1199.0,812.0,574.0,238.0,653.3,812.0,1167.0,Quercus L.; Magnoliopsida; Tracheophyta; Olea europaea L.; Eucalyptus L'Hér.
2011,2011-08-03,Braga,Póvoa de Lanhoso,Frades,CRUZES(FRADES)M2 (Cruzes),41.61399405,-8.242035471520008,NC,440.0,2011-08-03T12:00,23.5,52,13.1,25.4,0.0,0.0,0.0,0.0,0,1020.6,970.4,12,13,0,0,0.54,1.39,5.0,6.0,291,295,21.2,28.5,21.5,20.8,16.9,0.118,0.149,0.229,0.341,1,3600.0,839.0,639.8,199.2,708.7,839.0,1199.1,817.0,623.0,194.0,708.7,817.0,1167.6,Eucalyptus L'Hér.; Tracheophyta; Pinus pinaster Aiton; Quercus L.; Magnoliopsida; Vitis vinifera L.
2011,2011-08-02,Porto,Matosinhos,Perafita,Cabo do Mundo,41.2238494,-8.6968605,NC,38.0,2011-08-02T00:00,17.3,92,16.0,17.6,0.0,0.0,0.0,0.0,0,1011.0,1006.5,8,7,0,6,0.0,0.15,11.7,17.8,317,324,23.4,20.2,23.6,22.1,18.7,0.096,0.148,0.229,0.338,0,0.0,0.0,0.0,0.0,0.0,0.0,0.0,0.0,0.0,0.0,0.0,0.0,0.0,Tracheophyta; Magnoliopsida
2011,2011-08-02,Braga,Guimarães,Fermentões,MATADUÇOS (FERMENTÕES) (CASTELÕES),41.4548999,-8.3167939,NC,228.0,2011-08-02T07:00,16.5,96,15.9,17.3,0.1,0.1,0.0,0.0,51,1013.7,986.9,92,100,1,4,0.03,0.08,8.3,12.2,236,236,18.7,19.5,23.3,21.9,17.8,0.108,0.142,0.216,0.334,1,277.67,56.9,18.5,38.5,69.3,56.9,353.9,37.0,12.0,25.0,69.3,37.0,230.1,Eucalyptus L'Hér.; Magnoliopsida; Tracheophyta; Vitis vinifera L.; Pinales
2011,2011-08-02,Porto,Santo Tirso,Roriz,LG. CALVARIO (AVES),41.3515405,-8.3829071,NC,220.0,2011-08-02T11:00,21.0,66,14.5,20.8,0.1,0.1,0.0,0.0,51,1015.3,989.7,90,100,0,0,0.32,0.84,11.7,14.6,261,261,22.7,23.3,22.1,21.4,17.6,0.117,0.147,0.224,0.337,1,3600.0,525.9,292.0,233.8,343.7,525.9,1128.2,497.0,276.0,221.0,343.7,497.0,1066.2,Magnoliopsida; Tracheophyta; Vitis vinifera L.; Quercus suber L.
2011,2011-08-02,Porto,Vila Nova de Gaia,Pedroso,TV ALHEIRA DE AQUEM (Travessa Agras das Alheiras),41.064143,-8.5572235,NC,131.0,2011-08-02T15:00,21.7,70,15.9,21.6,0.1,0.1,0.0,0.0,51,1016.6,1001.3,70,68,15,0,0.33,0.78,14.4,18.4,271,272,34.2,25.9,22.3,21.6,18.3,0.135,0.147,0.226,0.349,1,3600.0,489.1,282.3,206.8,357.6,489.1,1048.4,518.0,299.0,219.0,357.6,518.0,1110.3,Magnoliopsida; Eucalyptus L'Hér.; Tracheophyta
2011,2011-08-02,Braga,Vila Nova de Famalicão,Nine,RUA DE QUINTÓRIOS (Rua de António Azevedo Menezes),41.4663153,-8.5438145,NC,131.0,2011-08-02T16:00,22.6,62,15.0,22.4,0.0,0.0,0.0,0.0,2,1016.5,1001.3,72,77,4,0,0.36,1.04,12.6,15.9,265,267,29.5,27.0,23.1,21.7,18.0,0.111,0.143,0.217,0.333,1,3600.0,501.1,298.3,202.8,451.0,501.1,878.4,551.0,328.0,223.0,451.0,551.0,965.9,Tracheophyta; Eucalyptus L'Hér.
2011,2011-07-28,Braga,Vieira do Minho,Ruivães,ESPINDO (RUIVÃES) M5 (Espindo),41.680827050000005,-8.047601299533635,NC,568.0,2011-07-28T22:00,24.9,46,12.5,24.8,0.0,0.0,0.0,0.0,0,1016.3,952.6,7,0,0,22,0.05,1.7,6.4,8.0,47,36,14.4,24.0,24.7,19.6,15.9,0.1,0.155,0.239,0.346,0,0.0,0.0,0.0,0.0,0.0,0.0,0.0,0.0,0.0,0.0,0.0,0.0,0.0,Magnoliopsida; Quercus L.; Pinus pinaster Aiton; Tracheophyta
2011,2011-07-31,Porto,Gondomar,Lomba,L.PÉ DE MOURA (Pé de Moura),41.0617409,-8.4108172,NC,76.0,2011-07-31T15:00,27.3,44,14.1,26.4,0.0,0.0,0.0,0.0,0,1013.2,1004.5,0,0,0,0,0.62,2.02,24.4,31.6,326,330,41.8,33.5,25.3,22.3,18.6,0.11,0.147,0.225,0.345,1,3600.0,786.5,683.6,102.9,863.4,786.5,1050.8,833.0,724.0,109.0,863.4,833.0,1113.0,Magnoliopsida; Eucalyptus L'Hér.; Vitis vinifera L.; Pinus pinaster Aiton; Tracheophyta; 
2011,2011-07-31,Porto,Paredes,Lordelo,LG. PADRAO (LORDELO),41.252109950000005,-8.427403771218074,NC,302.0,2011-07-31T21:00,19.1,70,13.5,19.6,0.0,0.0,0.0,0.0,0,1012.3,977.3,0,0,0,0,0.0,0.67,4.4,9.0,261,272,16.2,23.6,24.8,21.2,17.2,0.093,0.147,0.226,0.339,0,0.0,0.0,0.0,0.0,0.0,0.0,0.0,0.0,0.0,0.0,0.0,0.0,0.0,Magnoliopsida; Pinus pinaster Aiton; Eucalyptus L'Hér.; Tracheophyta; Vitis vinifera L.
2011,2011-07-31,Leiria,Bombarral,Roliça,Delgada,39.2984312,-9.157277,Desconhecida,45.0,2011-07-31T20:00,18.5,80,14.9,16.7,0.0,0.0,0.0,0.0,0,1013.0,1007.7,4,2,0,6,0.06,0.44,23.5,33.7,349,350,41.0,22.1,23.1,21.3,19.3,0.048,0.08,0.134,0.22,0,879.21,0.0,0.0,0.0,0.0,0.0,0.0,30.0,15.0,15.0,138.8,30.0,85.0,Magnoliopsida; Tracheophyta; Eucalyptus L'Hér.; Vitis vinifera L.; Pinales; Pinus pinaster Aiton; 
2011,2011-08-01,Aveiro,Espinho,Anta,Rua do Lameirão,41.0145432,-8.6261856,Desconhecida,37.0,2011-08-01T00:00,17.4,86,15.1,17.1,0.0,0.0,0.0,0.0,0,1012.4,1008.0,9,7,0,8,0.01,0.28,14.2,21.7,333,339,22.7,20.6,25.1,22.5,19.1,0.09,0.122,0.189,0.317,0,0.0,0.0,0.0,0.0,0.0,0.0,0.0,0.0,0.0,0.0,0.0,0.0,0.0,Tracheophyta; Eucalyptus L'Hér.; Magnoliopsida; Pinus pinaster Aiton
2011,2011-07-24,Porto,Póvoa de Varzim,Estela,CAÇADORES (Caçapos),41.450335,-8.7529154,Desconhecida,25.0,2011-07-24T13:00,27.4,45,14.5,27.3,0.0,0.0,0.0,0.0,0,1018.4,1015.5,1,0,0,3,0.68,2.0,23.9,32.1,342,347,42.1,31.0,23.0,20.4,18.2,0.098,0.148,0.228,0.338,1,3600.0,941.5,839.4,102.1,904.9,941.5,1229.4,941.0,839.0,102.0,904.9,941.0,1228.8,Tracheophyta
2011,2011-07-25,Faro,Faro,Faro,Ludo (SANTA BÁRBARA DE NEXE),37.10938985,-7.9651224936232605,NC,175.0,2011-07-25T22:00,26.3,51,15.3,25.8,0.0,0.0,0.0,0.0,0,1013.0,993.0,0,0,0,0,0.12,1.67,15.5,27.9,332,338,32.4,27.2,27.5,24.0,20.1,0.099,0.148,0.213,0.293,0,0.0,0.0,0.0,0.0,0.0,0.0,0.0,0.0,0.0,0.0,0.0,0.0,0.0,Magnoliopsida; Tracheophyta; Ceratonia siliqua L.; Olea europaea L.
2011,2011-07-25,Setúbal,Seixal,Amora,"R FOROS DE AMORA, JT CAFE PIQUENIQUE (AMORA)",38.629209,-9.1171074,Desconhecida,19.0,2011-07-25T22:00,20.4,76,15.9,19.4,0.0,0.0,0.0,0.0,0,1014.5,1012.3,0,0,0,0,0.05,0.58,20.5,35.5,349,353,42.8,23.0,25.1,22.1,20.2,0.053,0.076,0.126,0.223,0,0.0,0.0,0.0,0.0,0.0,0.0,0.0,0.0,0.0,0.0,0.0,0.0,0.0,Tracheophyta; Pinus pinea L.; Magnoliopsida
2011,2011-07-26,Porto,Gondomar,Foz do Sousa,LG FERREIRINHA (Lourinha),41.0994524,-8.4999065,NC,79.0,2011-07-26T05:00,17.9,92,16.6,16.9,0.0,0.0,0.0,0.0,0,1014.6,1005.2,4,4,0,0,0.01,0.16,22.5,35.0,353,356,33.8,19.8,23.7,21.2,18.4,0.127,0.144,0.221,0.35,0,0.0,0.0,0.0,0.0,0.0,0.0,0.0,0.0,0.0,0.0,0.0,0.0,0.0,Eucalyptus L'Hér.; Tracheophyta; Magnoliopsida; Pinus pinaster Aiton
2011,2011-07-26,Aveiro,Santa Maria da Feira,Lourosa,Rua da Fontinha (Rua da Fonte da Ribeira),40.983541,-8.5499188,Desconhecida,164.0,2011-07-26T13:00,28.9,45,15.9,30.0,0.0,0.0,0.0,0.0,0,1013.9,995.3,0,0,0,0,0.69,2.17,19.2,24.3,337,339,34.9,32.8,23.9,20.8,18.0,0.114,0.123,0.187,0.32,1,3600.0,934.3,820.3,114.0,884.1,934.3,1230.2,934.0,820.0,114.0,884.1,934.0,1229.7,Tracheophyta; Magnoliopsida; Pinus pinaster Aiton; Eucalyptus L'Hér.
2011,2011-07-04,Porto,Paredes,Cete,SAO SEBASTIAO (CETE),41.1714756,-8.3553953,NC,131.0,2011-07-04T15:00,23.6,52,13.2,24.2,0.0,0.0,0.0,0.0,0,1018.1,1002.9,0,0,0,0,0.56,1.4,15.3,18.9,300,301,32.8,29.4,22.4,20.6,16.7,0.127,0.156,0.243,0.36,1,3600.0,829.4,722.4,107.0,880.8,829.4,1085.2,876.0,763.0,113.0,880.8,876.0,1146.1,Magnoliopsida; Pinus pinaster Aiton; Eucalyptus L'Hér.; Tracheophyta; Vitis vinifera L.
2011,2011-07-31,Coimbra,Penela,Podentes,Aradas,40.0607159,-8.3951912,Desconhecida,196.0,2011-07-31T15:00,26.8,42,12.9,26.4,0.0,0.0,0.0,0.0,0,1012.8,990.5,0,0,0,0,0.61,2.04,18.9,24.1,320,322,42.1,34.8,24.8,22.2,18.7,0.069,0.095,0.148,0.26,1,3600.0,795.6,696.5,99.1,873.7,795.6,1058.1,843.0,738.0,105.0,873.7,843.0,1121.1,Vitis vinifera L.; Olea europaea L.; Quercus L.; Magnoliopsida; Tracheophyta; Eucalyptus L'Hér.; Pinus pinaster Aiton
2011,2011-08-01,Porto,Felgueiras,Rande,L.CIMO DE VILA (Cimo de Vila),41.3308088,-8.2277133,NC,214.0,2011-08-01T14:00,25.0,56,15.6,26.3,0.0,0.0,0.0,0.0,2,1009.8,985.4,58,5,39,99,0.52,1.4,12.0,15.2,277,277,28.4,30.5,23.6,21.4,17.6,0.112,0.146,0.221,0.343,1,3600.0,738.4,393.0,345.4,449.4,738.4,1161.2,759.0,404.0,355.0,449.4,759.0,1193.6,Magnoliopsida; Tracheophyta; Eucalyptus L'Hér.; Vitis vinifera L.
2011,2011-08-01,Porto,Marco de Canaveses,Folhada,CALVARIO (TAPADINHO)),41.2130368,-8.0739415,Desconhecida,321.0,2011-08-01T17:00,23.9,58,15.1,24.0,0.0,0.0,0.0,0.0,1,1008.7,972.3,20,1,3,59,0.32,1.26,11.1,14.3,299,304,30.2,29.8,24.6,21.4,17.3,0.096,0.15,0.232,0.341,1,3600.0,395.1,248.8,146.3,495.4,395.1,666.8,459.0,289.0,170.0,495.4,459.0,774.6,Magnoliopsida; Tracheophyta; Pinus pinaster Aiton; Vitis vinifera L.; Eucalyptus L'Hér.; Olea europaea L.; Quercus L.; Pinales; 
2011,2011-07-23,Viana do Castelo,Ponte da Barca,Nogueira,Nogueira,41.7899908,-8.4200146,NC,94.0,2011-07-23T10:00,24.1,49,12.7,23.6,0.0,0.0,0.0,0.0,0,1015.8,1004.9,0,0,0,0,0.46,1.53,13.7,17.3,357,5,25.6,24.9,20.6,19.6,17.4,0.118,0.166,0.243,0.347,1,3600.0,747.6,638.3,109.3,835.8,747.6,1011.9,684.0,584.0,100.0,835.8,684.0,925.9,Tracheophyta; Vitis vinifera L.; Quercus L.; Magnoliopsida
2011,2011-07-23,Porto,Santo Tirso,Refojos de Riba de Ave,DEVEDINHAS (Devesa),41.2920945,-8.4471657,NC,216.0,2011-07-23T13:00,27.6,33,10.0,28.5,0.0,0.0,0.0,0.0,0,1015.2,990.7,0,0,0,0,0.69,2.47,10.0,12.0,345,351,20.5,31.2,21.9,19.8,17.3,0.109,0.156,0.239,0.345,1,3600.0,957.0,845.0,112.0,909.1,957.0,1231.7,957.0,845.0,112.0,909.1,957.0,1231.7,Tracheophyta; Magnoliopsida; Pinus pinaster Aiton; Vitis vinifera L.; Eucalyptus L'Hér.
2011,2011-07-23,Setúbal,Setúbal,São Julião,"ESTRADA DE PALMELA, JARDIM DE VANICELOS (Estrada da Algodeia)",38.5302447,-8.8927389,NC,7.0,2011-07-23T13:00,26.9,46,14.3,28.7,0.0,0.0,0.0,0.0,0,1015.4,1014.6,0,0,0,0,0.68,1.92,13.4,15.5,262,270,24.5,35.0,23.7,22.4,20.0,0.055,0.06,0.098,0.203,1,3600.0,969.9,849.8,120.1,898.1,969.9,1253.8,969.0,849.0,120.0,898.1,969.0,1252.6,Tracheophyta; Magnoliopsida
2011,2011-07-29,Aveiro,Albergaria-a-Velha,Albergaria-a-Velha,FRIAS,40.690328,-8.479538190307041,Desconhecida,121.0,2011-07-29T18:00,25.4,51,14.5,25.2,0.0,0.0,0.0,0.0,0,1015.5,1001.6,0,0,0,0,0.28,1.59,11.3,13.8,277,279,27.4,32.5,26.9,21.8,18.6,0.066,0.09,0.14,0.254,1,3600.0,291.8,228.9,62.9,685.3,291.8,443.1,371.0,291.0,80.0,685.3,371.0,563.3,Tracheophyta; Eucalyptus L'Hér.
2011,2011-07-29,Porto,Gondomar,São Pedro da Cova,L. CANGOSTAS (SÃO PEDRO DA COVA),41.146305850000005,-8.513812231973976,NC,128.0,2011-07-29T18:00,25.1,53,14.9,25.1,0.0,0.0,0.0,0.0,0,1015.2,1000.4,2,0,0,5,0.27,1.49,10.8,13.0,268,268,23.4,31.2,26.6,21.7,18.2,0.117,0.14,0.213,0.347,1,3600.0,283.2,205.1,78.1,610.2,283.2,446.0,359.0,260.0,99.0,610.2,359.0,565.3,Magnoliopsida; Eucalyptus L'Hér.; Tracheophyta; Vitis vinifera L.; Pinus pinaster Aiton
2011,2011-07-30,Braga,Guimarães,Ronfe,RUA DA ERMIDA (RONFE) M3 (CASTELÕES),41.440075,-8.381907764208886,NC,143.0,2011-07-30T02:00,18.3,88,16.2,20.0,0.0,0.0,0.0,0.0,0,1016.6,999.7,1,1,0,0,0.0,0.26,3.7,4.6,191,198,7.2,19.6,25.2,21.6,17.8,0.103,0.149,0.227,0.339,0,0.0,0.0,0.0,0.0,0.0,0.0,0.0,0.0,0.0,0.0,0.0,0.0,0.0,Vitis vinifera L.; Tracheophyta; Magnoliopsida; Eucalyptus L'Hér.; Quercus L.; Pinus pinaster Aiton
2011,2011-07-30,Viana do Castelo,Arcos de Valdevez,Couto,Selim,41.8840243,-8.3892279,NC,277.0,2011-07-30T05:00,15.5,94,14.5,16.1,0.0,0.0,0.0,0.0,0,1017.2,984.5,15,17,0,0,0.0,0.1,6.4,10.1,43,55,15.1,17.5,22.6,19.6,16.5,0.102,0.161,0.243,0.348,0,0.0,0.0,0.0,0.0,0.0,0.0,0.0,0.0,0.0,0.0,0.0,0.0,0.0,Eucalyptus L'Hér.; Magnoliopsida; Pinus pinaster Aiton
2011,2011-07-01,Vila Real,Vila Pouca de Aguiar,Telões,Telões,41.44661285,-7.670502801716734,Desconhecida,676.0,2011-07-01T16:00,29.5,26,8.0,28.7,0.0,0.0,0.0,0.0,1,1015.9,941.8,22,0,0,74,0.57,3.04,9.0,11.8,217,218,24.1,32.3,22.7,18.8,13.9,0.104,0.182,0.271,0.361,1,3600.0,668.5,534.3,134.3,775.9,668.5,911.1,732.0,585.0,147.0,775.9,732.0,997.6,Tracheophyta; Magnoliopsida
2011,2011-08-11,Faro,Lagoa,Lagoa,Poço Partido,37.112334,-8.454001,NC,37.0,2011-08-11T05:00,22.2,76,17.7,24.2,0.0,0.0,0.0,0.0,0,1014.4,1010.1,0,0,0,0,0.01,0.65,5.4,5.4,360,70,6.8,22.3,27.5,25.1,21.9,0.088,0.164,0.227,0.304,0,0.0,0.0,0.0,0.0,0.0,0.0,0.0,0.0,0.0,0.0,0.0,0.0,0.0,Vitis vinifera L.; Magnoliopsida; Tracheophyta; Olea europaea L.
2011,2011-07-13,Porto,Marco de Canaveses,Tuias,CORTIZELAS (Cortinas),41.17549355,-8.16457827943076,Desconhecida,213.0,2011-07-13T16:00,25.1,40,10.6,24.5,0.0,0.0,0.0,0.0,0,1020.3,995.8,19,0,0,62,0.52,1.91,12.4,15.9,338,342,30.6,27.6,20.9,19.3,16.5,0.161,0.175,0.261,0.355,1,3600.0,673.7,548.4,125.2,794.0,673.7,914.1,737.0,600.0,137.0,794.0,737.0,1000.1,Tracheophyta; Magnoliopsida; Pinus pinaster Aiton; Vitis vinifera L.
2011,2011-07-24,Porto,Amarante,Fregim,ALTO S.JORGE (Monte de São Jorge),41.2702199,-8.1170009,Desconhecida,242.0,2011-07-24T19:00,25.7,49,14.3,25.3,0.0,0.0,0.0,0.0,0,1016.8,989.1,0,0,0,0,0.19,1.68,12.3,20.3,320,327,32.8,27.8,23.7,19.6,16.9,0.123,0.163,0.246,0.348,1,3600.0,121.3,85.8,35.6,533.4,121.3,213.1,191.0,135.0,56.0,533.4,191.0,335.5,Tracheophyta; Magnoliopsida; Pinus pinaster Aiton; Vitis vinifera L.; Quercus L.; Eucalyptus L'Hér.; 
2011,2011-07-24,Porto,Gondomar,Lomba,L.AREIJA (MELRES),41.0617409,-8.4108172,NC,76.0,2011-07-24T13:00,29.3,38,13.5,28.3,0.0,0.0,0.0,0.0,0,1017.7,1009.0,0,0,0,0,0.73,2.52,26.3,34.2,338,343,43.6,32.0,23.4,20.7,18.2,0.13,0.156,0.238,0.35,1,3600.0,937.0,824.0,113.0,886.5,937.0,1231.9,937.0,824.0,113.0,886.5,937.0,1231.9,Magnoliopsida; Eucalyptus L'Hér.; Vitis vinifera L.; Pinus pinaster Aiton; Tracheophyta; 
2011,2011-07-24,Porto,Póvoa de Varzim,Laundos,CRESCÊNCIOS (ESTELA),41.40198615,-8.754111938004414,NC,21.0,2011-07-24T16:00,26.9,49,15.3,25.0,0.0,0.0,0.0,0.0,0,1017.9,1015.5,0,0,0,0,0.55,1.81,30.6,42.7,335,338,51.8,31.7,24.1,20.7,18.4,0.093,0.155,0.239,0.343,1,3600.0,661.9,570.6,91.3,838.2,661.9,902.3,725.0,625.0,100.0,838.2,725.0,988.3,Tracheophyta; Magnoliopsida
2011,2011-07-24,Braga,Terras de Bouro,Chamoim,SEQUEIRÓS(CHAMOIM)M-3 (Sequeirós),41.72772155,-8.254537519031626,NC,524.0,2011-07-24T22:00,19.5,68,13.5,19.7,0.0,0.0,0.0,0.0,0,1019.6,959.4,2,2,0,0,0.02,0.72,7.0,18.1,12,17,30.6,21.4,22.2,18.3,15.7,0.12,0.179,0.26,0.356,0,0.0,0.0,0.0,0.0,0.0,0.0,0.0,0.0,0.0,0.0,0.0,0.0,0.0,Tracheophyta; Magnoliopsida; Pinus pinaster Aiton; Eucalyptus L'Hér.; Quercus L.
2011,2011-07-21,Braga,Vila Nova de Famalicão,Carreira,RUA GRANJA(CARREIRA)M7 (Rua Gábila),41.37546885,-8.442418577887826,NC,124.0,2011-07-21T13:00,25.5,39,10.3,25.0,0.0,0.0,0.0,0.0,0,1014.5,1000.2,0,0,0,0,0.67,2.0,18.4,23.8,358,2,40.3,28.2,21.2,19.8,17.5,0.136,0.159,0.24,0.345,1,3600.0,974.2,873.2,101.0,937.2,974.2,1234.2,974.0,873.0,101.0,937.2,974.0,1233.9,Eucalyptus L'Hér.; Tracheophyta
2011,2011-07-21,Porto,Vila Nova de Gaia,Olival,PARDIEIROS (Praceta dos Bombeiros Voluntários),41.0612018,-8.5234476,NC,153.0,2011-07-21T14:00,25.1,41,11.0,23.8,0.0,0.0,0.0,0.0,0,1013.5,995.9,0,0,0,0,0.64,1.87,23.1,29.9,345,347,43.9,28.4,21.4,19.9,17.6,0.154,0.148,0.229,0.353,1,3600.0,911.8,803.6,108.1,899.2,911.8,1183.9,936.0,825.0,111.0,899.2,936.0,1215.3,Tracheophyta; Eucalyptus L'Hér.; Magnoliopsida
2011,2011-08-03,Vila Real,Montalegre,Gralhas,ALTO DA ASSEADA,41.8504336,-7.7038253,Desconhecida,961.0,2011-08-03T11:00,20.5,54,10.8,21.7,0.0,0.0,0.0,0.0,0,1021.3,914.3,0,0,0,0,0.49,1.12,3.5,4.0,294,297,18.7,24.2,19.3,18.6,14.3,0.211,0.214,0.282,0.386,1,3600.0,825.1,705.7,119.4,831.9,825.1,1126.9,781.0,668.0,113.0,831.9,781.0,1066.6,Tracheophyta; Magnoliopsida
2011,2011-08-03,Viana do Castelo,Arcos de Valdevez,Alvora,ALVORA (GAVIEIRA),41.9409143,-8.4366847,NC,148.0,2011-08-03T15:00,24.1,59,15.7,25.2,0.0,0.0,0.0,0.0,1,1021.8,1004.6,44,48,0,4,0.52,1.22,14.8,17.5,283,289,26.6,30.9,22.9,21.0,17.6,0.104,0.155,0.237,0.345,1,3600.0,762.9,629.7,133.1,805.0,762.9,1039.1,808.0,667.0,141.0,805.0,808.0,1100.5,Tracheophyta; Magnoliopsida; Eucalyptus L'Hér.
2011,2011-07-27,Porto,Vila Nova de Gaia,São Felix da Marinha,CALÇADA ROMANA (Calçada),41.0305323,-8.6290322,NC,26.0,2011-07-27T12:00,30.3,30,10.9,29.5,0.0,0.0,0.0,0.0,0,1013.7,1010.7,0,0,0,0,0.73,3.01,19.1,24.7,359,8,33.1,33.3,24.6,21.7,18.9,0.092,0.125,0.195,0.32,1,3600.0,927.7,815.7,112.0,889.4,927.7,1216.3,903.0,794.0,109.0,889.4,903.0,1183.9,Eucalyptus L'Hér.; Magnoliopsida; Tracheophyta; Pinales; Pinus pinaster Aiton
2011,2011-07-27,Aveiro,Santa Maria da Feira,Canedo,Rua Nª Srª Piedade (Mirante),41.017568,-8.4518566,Desconhecida,188.0,2011-07-27T12:00,29.4,29,9.6,29.3,0.0,0.0,0.0,0.0,0,1014.2,992.9,0,0,0,0,0.71,2.91,13.8,17.3,41,45,31.3,32.0,23.9,20.8,17.8,0.112,0.122,0.185,0.32,1,3600.0,936.7,825.8,110.9,900.1,936.7,1216.7,912.0,804.0,108.0,900.1,912.0,1184.5,Pinus pinaster Aiton; Tracheophyta; Eucalyptus L'Hér.; Magnoliopsida
2011,2011-07-27,Porto,Felgueiras,Várzea,MACEIRAS (Maceira),41.3525259,-8.1921213,NC,278.0,2011-07-27T14:00,30.8,25,8.4,31.2,0.0,0.0,0.0,0.0,0,1013.9,982.8,0,0,0,0,0.73,3.34,9.8,12.9,62,63,30.6,34.3,24.6,20.7,17.2,0.099,0.145,0.223,0.337,1,3600.0,915.7,809.7,106.1,917.6,915.7,1170.1,941.0,832.0,109.0,917.6,941.0,1202.4,Magnoliopsida; Eucalyptus L'Hér.; Tracheophyta; Pinus pinaster Aiton; Vitis vinifera L.; Castanea sativa Mill.; Quercus L.; Olea europaea L.; Acacia Mill.; Pinales; 
2011,2011-07-27,Porto,Gondomar,Jovim,Atães,41.1083132,-8.530949,NC,39.0,2011-07-27T15:00,32.6,24,9.6,30.2,0.0,0.0,0.0,0.0,0,1013.1,1008.7,0,0,0,0,0.79,3.73,25.2,33.3,343,349,40.0,35.2,25.6,21.7,18.7,0.122,0.142,0.218,0.349,1,3600.0,808.2,708.9,99.2,886.3,808.2,1060.8,855.0,750.0,105.0,886.3,855.0,1122.2,Eucalyptus L'Hér.; Tracheophyta; Magnoliopsida
2011,2011-07-27,Coimbra,Penela,Espinhal,Fojo,40.0135814,-8.3505419,Desconhecida,253.0,2011-07-27T16:00,33.2,27,11.6,32.9,0.0,0.0,0.0,0.0,0,1011.6,983.5,0,0,0,0,0.62,3.73,12.0,14.9,7,8,28.1,36.5,26.0,21.7,18.4,0.097,0.146,0.227,0.334,1,3600.0,660.8,571.6,89.2,844.7,660.8,897.4,726.0,628.0,98.0,844.7,726.0,985.9,Pinus pinaster Aiton; Castanea sativa Mill.; Magnoliopsida; Tracheophyta; Olea europaea L.; Quercus L.; Eucalyptus L'Hér.; Pinales
2011,2011-08-02,Porto,TROFA,Alvarelhos,25 DE ABRIL (Santa Catarina),41.3107904,-8.6115389,NC,66.0,2011-08-02T05:00,16.7,96,16.1,17.4,0.0,0.0,0.0,0.0,3,1012.4,1004.6,95,100,8,2,0.0,0.08,9.7,14.4,248,248,17.3,19.0,22.9,22.1,18.7,0.112,0.144,0.217,0.339,0,0.0,0.0,0.0,0.0,0.0,0.0,0.0,0.0,0.0,0.0,0.0,0.0,0.0,Magnoliopsida; Tracheophyta; Pinales; Eucalyptus L'Hér.
2011,2011-08-02,Porto,Marco de Canaveses,Freixo,LOUREDO (Loureiro),41.1602153,-8.1482809,NC,303.0,2011-08-02T14:00,21.9,65,15.1,21.8,0.2,0.2,0.0,0.0,51,1016.4,981.5,64,62,13,0,0.3,0.91,12.6,16.6,273,275,31.7,25.7,22.8,21.5,17.5,0.113,0.15,0.232,0.341,1,3600.0,413.3,158.5,254.8,181.6,413.3,1159.3,425.0,163.0,262.0,181.6,425.0,1192.2,Eucalyptus L'Hér.; Tracheophyta; Pinus pinaster Aiton; Magnoliopsida; Vitis vinifera L.; ; Quercus L.
2011,2011-08-02,Aveiro,Oliveira de Azemeis,Loureiro,Vidigueira,40.8035491,-8.5295254,Desconhecida,102.0,2011-08-02T17:00,21.9,69,15.8,21.9,0.0,0.0,0.0,0.0,0,1017.1,1005.2,19,21,0,0,0.28,0.83,13.5,17.1,279,278,28.8,26.4,23.2,22.3,19.0,0.118,0.136,0.211,0.322,1,3600.0,376.3,265.2,111.1,525.2,376.3,670.6,437.0,308.0,129.0,525.2,437.0,778.8,Eucalyptus L'Hér.; Pinales
2011,2011-08-02,Braga,Guimarães,Vermil,L. S. MIGUEL ANJO (VERMIL) M3 (CASTELÕES),41.4502597,-8.389347512924518,NC,227.0,2011-08-02T16:00,22.2,62,14.5,21.8,0.0,0.0,0.0,0.0,2,1016.5,990.2,72,77,4,0,0.36,1.02,12.6,15.9,265,267,29.5,26.5,22.8,21.3,17.5,0.114,0.144,0.218,0.334,1,3600.0,500.9,298.2,202.7,451.6,500.9,876.8,551.0,328.0,223.0,451.6,551.0,964.4,Eucalyptus L'Hér.; Tracheophyta; Pinus pinaster Aiton; Magnoliopsida
2011,2011-08-02,Viseu,Vila Nova de Paiva,Fráguas,SANTINHO,40.8384326,-7.7700275,Desconhecida,695.0,2011-08-02T18:00,20.0,67,13.6,19.3,0.0,0.0,0.0,0.0,2,1016.8,938.3,55,49,18,0,0.17,0.78,12.8,16.5,280,280,26.6,23.7,22.2,21.0,16.5,0.128,0.147,0.225,0.336,1,3600.0,180.8,83.8,97.0,265.2,180.8,419.6,233.0,108.0,125.0,265.2,233.0,540.8,Magnoliopsida; Pinus pinaster Aiton; Tracheophyta; Quercus L.
2011,2011-08-02,Setúbal,Seixal,Arrentela,RUA PERO ESCOBAR - ARRENTELA (CORROIOS),38.6266637,-9.1036412,Desconhecida,6.0,2011-08-02T20:00,19.8,81,16.5,20.3,0.0,0.0,0.0,0.0,0,1018.1,1017.4,1,1,0,0,0.04,0.44,12.6,21.0,307,309,28.8,23.0,23.5,22.6,20.6,0.081,0.072,0.121,0.221,0,439.3,0.0,0.0,0.0,0.0,0.0,0.0,24.0,11.0,13.0,107.2,24.0,77.9,Tracheophyta; Pinus pinea L.
2011,2011-08-02,Porto,Vila do Conde,Vilar de Pinheiro,CALÇADA (RIO MAU),41.2683498,-8.6655057,NC,66.0,2011-08-02T18:00,21.2,71,15.7,21.3,0.0,0.0,0.0,0.0,1,1017.2,1009.4,38,42,0,0,0.2,0.74,12.8,17.1,281,285,25.6,26.0,23.2,21.8,18.6,0.104,0.148,0.229,0.338,1,3600.0,236.8,155.2,81.5,474.0,236.8,435.0,302.0,198.0,104.0,474.0,302.0,554.8,Magnoliopsida; Eucalyptus L'Hér.; Tracheophyta
2011,2011-08-02,Lisboa,ODIVELAS,Odivelas_Lumiar e Carnide,PATAMEIRAS TRASEIRAS ODIVELAS PARQUE (MONTARIA),38.7904338,-9.1792617,Desconhecida,56.0,2011-08-02T18:00,21.2,69,15.2,20.3,0.0,0.0,0.0,0.0,0,1018.0,1011.4,4,5,0,0,0.23,0.79,17.9,24.0,300,303,29.5,25.4,22.8,21.8,19.7,0.151,0.176,0.242,0.336,1,3600.0,283.5,217.3,66.2,660.3,283.5,437.1,364.0,279.0,85.0,660.3,364.0,561.1,Tracheophyta
2011,2011-06-30,Aveiro,Oliveira de Azemeis,Loureiro,Minhoteira (Murteiras),40.8035491,-8.5295254,Desconhecida,102.0,2011-06-30T12:00,28.7,36,12.0,30.6,0.0,0.0,0.0,0.0,0,1017.2,1005.5,1,0,0,3,0.69,2.54,7.9,9.8,360,6,24.1,31.7,23.3,20.9,17.1,0.096,0.17,0.257,0.343,1,3600.0,971.4,851.5,119.9,902.5,971.4,1248.5,948.0,831.0,117.0,902.5,948.0,1218.5,Eucalyptus L'Hér.; Pinales
2011,2011-06-30,Viana do Castelo,Valença,Gandra,Corguinhas - Z.I.,42.0055903,-8.6164853,Desconhecida,96.0,2011-06-30T13:00,27.5,41,13.0,29.3,0.0,0.0,0.0,0.0,0,1018.4,1007.4,0,0,0,0,0.7,2.16,10.8,12.0,334,344,23.0,30.8,21.2,19.5,16.0,0.103,0.179,0.272,0.364,1,3600.0,978.5,864.5,113.9,916.3,978.5,1248.5,979.0,865.0,114.0,916.3,979.0,1249.2,Magnoliopsida; Eucalyptus L'Hér.; Tracheophyta; Vitis vinifera L.; Pinus pinaster Aiton; Acacia Mill.; 
2011,2011-07-25,Porto,Vila Nova de Gaia,Olival,Rua da Castanheira,41.0526432,-8.5330671,NC,137.0,2011-07-25T17:00,25.9,55,16.2,24.6,0.0,0.0,0.0,0.0,0,1015.5,999.8,0,0,0,0,0.42,1.5,24.0,33.0,334,336,47.5,30.7,24.7,20.6,17.9,0.127,0.144,0.221,0.35,1,3600.0,481.8,402.1,79.7,770.6,481.8,691.7,556.0,464.0,92.0,770.6,556.0,798.2,Tracheophyta; Eucalyptus L'Hér.; Magnoliopsida
2011,2011-07-25,Porto,Paredes,Vila Cova de Carros,RIBEIRINHA (Ribeira),41.2114189,-8.3640671,NC,253.0,2011-07-25T13:00,28.2,43,14.4,30.0,0.0,0.0,0.0,0.0,0,1016.6,987.9,0,0,0,0,0.68,2.18,12.2,15.5,336,338,31.3,31.0,22.9,19.8,17.0,0.137,0.143,0.216,0.349,1,3600.0,936.0,823.0,113.0,887.5,936.0,1229.2,936.0,823.0,113.0,887.5,936.0,1229.2,Magnoliopsida; Pinus pinaster Aiton; Eucalyptus L'Hér.; Tracheophyta; Vitis vinifera L.; Quercus L.
2011,2011-07-25,Vila Real,Vila Real,Parada de Cunhos,Relvas,41.2737427,-7.7585364,NC,289.0,2011-07-25T13:00,29.8,39,14.2,32.0,0.0,0.0,0.0,0.0,0,1016.8,984.3,0,0,0,0,0.71,2.58,9.8,12.3,336,339,29.5,35.0,25.0,21.5,17.8,0.136,0.148,0.191,0.343,1,3600.0,934.8,821.9,112.9,887.6,934.8,1227.4,936.0,823.0,113.0,887.6,936.0,1229.0,Magnoliopsida; Tracheophyta; Pinus pinaster Aiton; Vitis vinifera L.; Olea europaea L.; Pinales
2011,2011-07-25,Lisboa,Sintra,Agualva,ALTO COLARIDE (Alto),38.7740235,-9.2935542,Desconhecida,156.0,2011-07-25T23:00,18.0,85,15.4,15.6,0.0,0.0,0.0,0.0,0,1015.0,996.6,0,0,0,0,0.04,0.32,29.1,44.8,352,354,49.0,19.9,21.9,20.1,18.5,0.125,0.181,0.246,0.341,0,0.0,0.0,0.0,0.0,0.0,0.0,0.0,0.0,0.0,0.0,0.0,0.0,0.0,Tracheophyta; Magnoliopsida; 
2011,2011-08-02,Braga,Braga,Palmeira,L. POVOA (PALMEIRA) (ADAÚFE),41.587031,-8.4420428,NC,72.0,2011-08-02T14:00,22.6,64,15.5,22.5,0.1,0.1,0.0,0.0,51,1016.3,1007.9,80,89,0,0,0.32,0.98,13.4,17.0,265,266,31.7,26.8,23.2,22.1,18.4,0.109,0.143,0.217,0.333,1,3600.0,443.7,182.0,261.8,208.7,443.7,1157.6,456.0,187.0,269.0,208.7,456.0,1189.6,Tracheophyta; Magnoliopsida; Pinales
2011,2011-08-02,Porto,Matosinhos,Guifões,Rua Nova dos Paus,41.2000334,-8.6654875,NC,75.0,2011-08-02T18:00,21.3,70,15.6,21.3,0.0,0.0,0.0,0.0,1,1017.2,1008.4,38,42,0,0,0.2,0.76,12.8,17.1,281,285,25.6,25.6,23.1,21.9,18.7,0.135,0.147,0.226,0.349,1,3600.0,236.7,155.2,81.5,474.2,236.7,434.6,302.0,198.0,104.0,474.2,302.0,554.5,Tracheophyta; Eucalyptus L'Hér.
2011,2011-08-02,Faro,Lagos,Santa Maria,Praia D. Ana,37.09712515,-8.685153001761073,NC,43.0,2011-08-02T18:00,21.0,76,16.5,20.4,0.0,0.0,0.0,0.0,0,1017.9,1012.8,2,2,0,0,0.21,0.6,19.7,26.3,322,324,40.0,25.7,23.2,22.3,20.3,0.149,0.138,0.186,0.258,1,3600.0,274.8,210.1,64.7,656.7,274.8,424.9,357.0,273.0,84.0,656.7,357.0,552.1,Tracheophyta; Magnoliopsida
2011,2011-08-03,Porto,Maia,Moreira,E.N.13 (SÃO PEDRO DE AVIOSO),41.2474218,-8.6468626,NC,84.0,2011-08-03T02:00,17.7,91,16.2,19.2,0.0,0.0,0.0,0.0,1,1019.0,1009.0,32,35,0,0,0.0,0.18,3.9,3.1,292,306,6.8,18.6,22.3,21.9,18.7,0.133,0.144,0.219,0.343,0,0.0,0.0,0.0,0.0,0.0,0.0,0.0,0.0,0.0,0.0,0.0,0.0,0.0,Magnoliopsida; Eucalyptus L'Hér.; Tracheophyta; Pinus pinaster Aiton; 
2011,2011-08-03,Viana do Castelo,Ponte de Lima,Queijada,QUEIJADA,41.71362325,-8.535539596319527,NC,238.0,2011-08-03T17:00,22.8,59,14.4,22.2,0.0,0.0,0.0,0.0,0,1021.2,993.6,6,0,0,19,0.34,1.13,13.8,18.1,311,314,34.6,29.1,22.9,20.7,17.1,0.102,0.147,0.224,0.338,1,3600.0,441.3,334.4,106.9,666.1,441.3,666.9,512.0,388.0,124.0,666.1,512.0,773.8,Magnoliopsida; Eucalyptus L'Hér.; Tracheophyta
2011,2011-08-03,Aveiro,Oliveira de Azemeis,Pinheiro da Bemposta,Minhoteira,40.7800084,-8.5106419,Desconhecida,35.0,2011-08-03T19:00,20.9,69,15.1,19.8,0.0,0.0,0.0,0.0,0,1021.5,1017.4,0,0,0,0,0.14,0.75,18.9,26.7,329,333,34.6,25.5,23.6,22.1,19.2,0.107,0.134,0.209,0.319,1,3600.0,96.9,65.7,31.1,490.2,96.9,178.2,165.0,112.0,53.0,490.2,165.0,303.5,Eucalyptus L'Hér.; Magnoliopsida; Pinus pinaster Aiton
2011,2011-08-04,Viseu,Viseu,Orgens,BAIRRO DE STO.ANTONIO (Bairro da Amizade),40.6638384,-7.9379537,Desconhecida,470.0,2011-08-04T00:00,17.0,86,14.7,17.9,0.0,0.0,0.0,0.0,0,1022.0,967.3,0,0,0,0,0.0,0.27,5.0,6.9,330,332,10.8,20.2,24.3,22.6,18.3,0.095,0.15,0.229,0.337,0,0.0,0.0,0.0,0.0,0.0,0.0,0.0,0.0,0.0,0.0,0.0,0.0,0.0,Magnoliopsida; Tracheophyta; Pinus pinaster Aiton
2011,2011-08-04,Aveiro,Santa Maria da Feira,Guisande,Gândra (Gândara),40.9688499,-8.4839709,Desconhecida,235.0,2011-08-04T08:00,18.5,83,15.5,19.4,0.0,0.0,0.0,0.0,1,1022.0,994.3,50,46,0,28,0.13,0.37,6.3,7.6,336,341,16.9,20.1,21.3,21.2,18.0,0.122,0.119,0.175,0.315,1,3600.0,299.8,173.8,126.0,393.7,299.8,586.5,238.0,138.0,100.0,393.7,238.0,465.6,Eucalyptus L'Hér.; Pinales; Tracheophyta
2011,2011-07-23,Porto,Valongo,Ermesinde,L.MIRANTE DE SONHOS (ALFENA),41.2170785,-8.5515798,NC,108.0,2011-07-23T13:00,27.8,35,11.1,29.0,0.0,0.0,0.0,0.0,0,1015.2,1002.8,0,0,0,0,0.69,2.42,10.0,12.0,345,351,20.5,30.2,22.1,20.1,17.9,0.13,0.152,0.233,0.349,1,3600.0,957.2,845.2,112.0,908.7,957.2,1232.4,957.0,845.0,112.0,908.7,957.0,1232.2,Tracheophyta; Eucalyptus L'Hér.
2011,2011-08-04,Lisboa,Mafra,Santo Isidoro,RIBAMAR,38.9938312,-9.3972208,Desconhecida,56.0,2011-08-04T19:00,19.8,88,17.8,18.9,0.0,0.0,0.0,0.0,2,1020.0,1013.4,64,39,0,98,0.08,0.28,25.3,35.9,337,339,44.6,25.5,24.1,22.0,20.0,0.094,0.172,0.244,0.349,1,3600.0,76.2,36.4,39.8,274.6,76.2,175.9,132.0,63.0,69.0,274.6,132.0,304.8,Magnoliopsida; Tracheophyta; Eucalyptus L'Hér.
2011,2011-08-04,Viana do Castelo,Monção,Merufe,CERNADOS-MERUFE (Cernadas),42.0297394,-8.3967117,Desconhecida,221.0,2011-08-04T19:00,20.5,80,17.0,21.1,0.0,0.0,0.0,0.0,3,1019.7,993.9,100,95,64,98,0.08,0.48,12.7,17.8,215,222,25.6,24.6,22.9,20.4,17.0,0.104,0.155,0.237,0.346,1,822.54,51.1,11.9,39.2,87.4,51.1,180.7,86.0,20.0,66.0,87.4,86.0,304.0,Pinus pinaster Aiton; Magnoliopsida; Tracheophyta; Eucalyptus L'Hér.; Vitis vinifera L.; Pinales; Quercus L.; 
2011,2011-08-04,Lisboa,Mafra,Igreja Nova,Raimonda,38.897459,-9.2913723,Desconhecida,146.0,2011-08-04T21:00,19.4,90,17.7,19.6,0.0,0.0,0.0,0.0,3,1020.5,1003.3,87,68,0,87,0.01,0.22,18.1,28.9,343,343,33.8,22.5,23.9,22.0,19.8,0.097,0.168,0.238,0.342,0,0.0,0.0,0.0,0.0,0.0,0.0,0.0,0.0,0.0,0.0,0.0,0.0,0.0,Tracheophyta; Magnoliopsida; Eucalyptus L'Hér.; Pinus pinaster Aiton
2011,2011-08-05,Braga,Guimarães,Vermil,RUA DA BOAVISTA (VERMIL) M5 (CASTELÕES),41.4502597,-8.389347512924518,Desconhecida,227.0,2011-08-05T14:00,23.0,50,11.9,23.9,0.0,0.0,0.0,0.0,1,1016.6,990.4,28,1,0,90,0.57,1.41,11.3,13.4,263,264,32.0,29.3,22.7,21.2,17.7,0.115,0.143,0.216,0.332,1,3600.0,861.8,693.5,168.3,800.4,861.8,1151.5,886.0,713.0,173.0,800.4,886.0,1183.9,Eucalyptus L'Hér.; Tracheophyta; Pinus pinaster Aiton; Magnoliopsida
2011,2011-07-21,Aveiro,Oliveira de Azemeis,Pinheiro da Bemposta,Fundo do Pinheiro,40.7837202,-8.5014227,Desconhecida,121.0,2011-07-21T15:00,25.5,43,11.9,23.9,0.0,0.0,0.0,0.0,0,1012.2,998.3,0,0,0,0,0.61,1.88,25.1,33.2,336,339,49.3,29.2,21.9,20.4,18.2,0.118,0.147,0.229,0.331,1,3600.0,812.8,706.8,106.0,872.0,812.8,1073.7,859.0,747.0,112.0,872.0,859.0,1134.7,Tracheophyta; Eucalyptus L'Hér.; Magnoliopsida
2011,2011-07-21,Aveiro,Santa Maria da Feira,Rio Meão,Valada (Valado),40.9581668,-8.5826133,Desconhecida,116.0,2011-07-21T15:00,24.7,43,11.3,23.3,0.0,0.0,0.0,0.0,0,1013.1,999.7,0,0,0,0,0.59,1.77,22.6,29.3,346,349,41.0,29.4,21.8,20.2,18.0,0.115,0.13,0.204,0.323,1,3600.0,817.6,717.3,100.3,885.4,817.6,1073.1,864.0,758.0,106.0,885.4,864.0,1134.0,Eucalyptus L'Hér.; Tracheophyta; Olea europaea L.; Magnoliopsida
2011,2011-07-29,Porto,Vila Nova de Gaia,São Felix da Marinha,MOUROES (Mourilhe),41.0305323,-8.6290322,NC,26.0,2011-07-29T14:00,27.9,48,15.9,29.9,0.0,0.0,0.0,0.0,0,1016.2,1013.2,2,2,0,0,0.66,1.94,14.1,15.9,273,273,28.8,36.2,26.6,22.3,19.0,0.09,0.123,0.191,0.319,1,3600.0,897.8,789.7,108.1,894.2,897.8,1171.6,922.0,811.0,111.0,894.2,922.0,1203.2,Eucalyptus L'Hér.; Magnoliopsida; Tracheophyta; Pinales; Pinus pinaster Aiton
2011,2011-07-13,Aveiro,Ovar,Esmoriz,Rua da Casela (ESMORIZ),40.96277635,-8.63534580069145,Desconhecida,8.0,2011-07-13T23:00,17.2,79,13.6,14.9,0.0,0.0,0.0,0.0,0,1021.8,1020.8,0,0,0,0,0.04,0.4,23.7,37.0,350,353,39.6,19.7,22.7,20.9,18.4,0.111,0.136,0.212,0.327,0,0.0,0.0,0.0,0.0,0.0,0.0,0.0,0.0,0.0,0.0,0.0,0.0,0.0,Tracheophyta; Magnoliopsida
2011,2011-07-14,Porto,Gondomar,Jovim,RUA DE SÃO MARTINHO (Rua de João de Deus),41.138821,-8.529222831859556,NC,151.0,2011-07-14T12:00,24.3,48,12.5,25.3,0.0,0.0,0.0,0.0,0,1020.7,1003.2,13,0,0,43,0.58,1.59,11.0,13.5,322,326,25.2,27.6,20.9,19.9,17.3,0.144,0.153,0.238,0.357,1,3600.0,888.5,690.5,198.0,740.7,888.5,1233.8,866.0,673.0,193.0,740.7,866.0,1202.6,Magnoliopsida; Tracheophyta; Eucalyptus L'Hér.
2011,2011-07-14,Viana do Castelo,Arcos de Valdevez,Paçô,ZONA INDUSTRIAL - PACO (GAVIEIRA),41.8295743,-8.4118568,NC,50.0,2011-07-14T14:00,24.7,55,15.1,24.4,0.0,0.0,0.0,0.0,0,1021.1,1015.3,1,1,0,0,0.56,1.4,23.5,30.3,324,328,40.7,27.4,21.0,19.8,17.3,0.171,0.18,0.253,0.353,1,3600.0,834.2,697.7,136.4,778.2,834.2,1186.6,856.0,716.0,140.0,778.2,856.0,1217.7,Tracheophyta; Pinus pinaster Aiton; Magnoliopsida; Eucalyptus L'Hér.
2011,2011-08-03,Porto,Felgueiras,Moure,VILA CAIZ (Vila Cães),41.3528045,-8.1754517,NC,306.0,2011-08-03T15:00,25.8,48,14.0,27.0,0.0,0.0,0.0,0.0,0,1020.5,985.6,0,0,0,0,0.57,1.73,11.6,14.6,300,303,29.9,31.5,23.1,21.5,17.5,0.114,0.141,0.214,0.332,1,3600.0,779.0,676.2,102.8,864.1,779.0,1039.5,826.0,717.0,109.0,864.1,826.0,1102.2,Magnoliopsida; Tracheophyta; Pinus pinaster Aiton; Eucalyptus L'Hér.; Vitis vinifera L.
2011,2011-07-14,Porto,Marco de Canaveses,Folhada,PONTE ARCO (Casal da Ponte),41.2130368,-8.0739415,NC,321.0,2011-07-14T02:00,16.1,73,11.3,15.2,0.0,0.0,0.0,0.0,0,1021.2,983.3,0,0,0,0,0.02,0.49,8.5,11.6,36,26,14.4,15.5,20.4,19.1,16.2,0.14,0.172,0.259,0.354,0,0.0,0.0,0.0,0.0,0.0,0.0,0.0,0.0,0.0,0.0,0.0,0.0,0.0,Magnoliopsida; Tracheophyta; Pinus pinaster Aiton; Vitis vinifera L.; Eucalyptus L'Hér.; Olea europaea L.; Quercus L.; Pinales; 
2011,2011-07-14,Porto,TROFA,Bougado_Sao Martinho,Paradela,41.33567915,-8.551884549775746,NC,46.0,2011-07-14T12:00,24.2,52,13.6,25.5,0.0,0.0,0.0,0.0,0,1020.7,1015.3,13,0,0,43,0.57,1.46,11.0,13.5,322,326,25.2,27.4,21.2,20.3,17.9,0.138,0.157,0.24,0.35,1,3600.0,888.5,690.5,198.0,741.7,888.5,1232.1,866.0,673.0,193.0,741.7,866.0,1200.9,Tracheophyta; Magnoliopsida; Pinales
2011,2011-07-14,Setúbal,Palmela,Palmela,JUNTO MODELO DE PALMELA,38.5760455,-8.865312259667704,Desconhecida,43.0,2011-07-14T14:00,28.8,34,11.6,28.6,0.0,0.0,0.0,0.0,0,1017.7,1012.8,4,0,0,12,0.73,2.59,18.5,23.8,327,335,32.4,34.3,23.5,21.8,19.2,0.056,0.062,0.105,0.207,1,3600.0,932.4,824.2,108.1,901.6,932.4,1209.9,957.0,846.0,111.0,901.6,957.0,1241.9,Vitis vinifera L.; ; Magnoliopsida; Quercus suber L.; Tracheophyta; Pinus pinea L.; Quercus rotundifolia Lam.
2011,2011-07-14,Viseu,Tarouca,Tarouca,SALZEDAS,41.006715,-7.784047207595763,Desconhecida,732.0,2011-07-14T15:00,24.6,38,9.5,24.6,0.0,0.0,0.0,0.0,1,1018.8,937.4,37,0,62,0,0.57,1.91,9.8,11.7,352,351,27.4,28.5,20.8,18.5,15.2,0.146,0.157,0.24,0.356,1,3600.0,767.5,653.2,114.4,805.7,767.5,1073.0,812.0,691.0,121.0,805.7,812.0,1135.2,Tracheophyta; Magnoliopsida; Pinus pinaster Aiton; Pinales; Castanea sativa Mill.; 
2011,2011-07-30,Porto,Penafiel,Paço de Sousa,Alvite,41.1611633,-8.3310803,NC,182.0,2011-07-30T11:00,24.8,60,16.5,27.7,0.0,0.0,0.0,0.0,0,1017.5,996.5,0,0,0,0,0.52,1.25,5.6,6.2,285,291,23.0,29.0,23.6,21.4,17.6,0.114,0.148,0.224,0.344,1,3600.0,825.9,689.5,136.4,805.3,825.9,1136.2,781.0,652.0,129.0,805.3,781.0,1074.4,Tracheophyta; Eucalyptus L'Hér.; Magnoliopsida
2011,2011-07-30,Porto,Felgueiras,Macieira da Lixa,L.AZENHA (Azenha),41.3496108,-8.1492033,NC,406.0,2011-07-30T17:00,26.8,46,14.3,26.2,0.0,0.0,0.0,0.0,0,1016.1,970.4,0,0,0,0,0.42,1.89,13.4,17.7,306,308,35.3,32.5,25.0,20.7,16.6,0.093,0.149,0.231,0.341,1,3600.0,477.1,398.6,78.5,785.6,477.1,673.2,553.0,462.0,91.0,785.6,553.0,780.4,Eucalyptus L'Hér.; Tracheophyta; Pinus pinaster Aiton; Magnoliopsida; Vitis vinifera L.
2011,2011-07-24,Porto,Paços de Ferreira,Carvalhosa,RUA DA RAIVOSA (Rua do Comércio),41.2999643,-8.3625207,NC,331.0,2011-07-24T17:00,26.7,42,12.7,25.3,0.0,0.0,0.0,0.0,0,1016.7,979.2,0,0,0,0,0.44,2.03,15.9,21.6,327,330,34.9,30.8,23.3,19.3,16.6,0.101,0.154,0.237,0.344,1,3600.0,489.2,410.3,78.9,784.8,489.2,692.9,564.0,473.0,91.0,784.8,564.0,798.8,Tracheophyta; Eucalyptus L'Hér.; Pinus pinaster Aiton; Magnoliopsida; Vitis vinifera L.; Quercus L.; 
2011,2011-07-26,Porto,Vila Nova de Gaia,Olival,RUA SRA DO CAMPO (Rua Salgueiro Maia),41.0612018,-8.5234476,NC,153.0,2011-07-26T13:00,28.8,45,15.7,29.8,0.0,0.0,0.0,0.0,0,1013.9,996.5,0,0,0,0,0.69,2.17,19.2,24.3,337,339,34.9,31.9,23.7,20.7,17.9,0.125,0.143,0.22,0.35,1,3600.0,934.2,820.2,114.0,884.9,934.2,1228.9,934.0,820.0,114.0,884.9,934.0,1228.6,Tracheophyta; Eucalyptus L'Hér.; Magnoliopsida
2011,2011-07-26,Porto,Maia,Maia,AV.D.MANUEL II (Avenida Dom Manuel II),41.2364045,-8.6157636,NC,89.0,2011-07-26T14:00,28.4,45,15.3,29.0,0.0,0.0,0.0,0.0,0,1013.4,1003.2,0,0,0,0,0.68,2.13,20.4,26.5,334,338,35.3,31.6,23.7,20.8,18.2,0.122,0.149,0.229,0.347,1,3600.0,896.2,787.1,109.1,887.5,896.2,1175.8,920.0,808.0,112.0,887.5,920.0,1207.0,Tracheophyta; Eucalyptus L'Hér.; Magnoliopsida
2011,2011-07-25,Porto,Baião,Santa Cruz do Douro,CORUJÃES (Corujeira),41.135777,-8.0102349,Desconhecida,578.0,2011-07-25T13:00,27.7,41,13.3,29.4,0.0,0.0,0.0,0.0,0,1016.8,952.6,0,0,0,0,0.68,2.18,10.7,13.6,340,343,31.7,32.7,22.8,19.6,16.2,0.105,0.154,0.238,0.347,1,3600.0,937.4,824.4,112.9,889.1,937.4,1229.2,938.0,825.0,113.0,889.1,938.0,1230.0,Magnoliopsida; Pinus pinaster Aiton; Vitis vinifera L.; Quercus L.; Tracheophyta; Eucalyptus L'Hér.; Olea europaea L.; 
2011,2011-07-26,Porto,Gondomar,Lomba,LG LABERCOS (Lavercos),41.0617409,-8.4108172,NC,76.0,2011-07-26T04:00,17.5,92,16.2,16.3,0.0,0.0,0.0,0.0,0,1014.5,1005.5,5,6,0,0,0.01,0.16,23.3,36.2,351,354,34.6,19.6,23.9,21.1,18.3,0.122,0.154,0.235,0.349,0,0.0,0.0,0.0,0.0,0.0,0.0,0.0,0.0,0.0,0.0,0.0,0.0,0.0,Magnoliopsida; Eucalyptus L'Hér.; Vitis vinifera L.; Pinus pinaster Aiton; Tracheophyta; 
2011,2011-07-26,Leiria,Alcobaça,Alpedriz,Pisões,39.6303106,-8.953397590380634,Desconhecida,68.0,2011-07-26T16:00,22.4,65,15.5,20.5,0.0,0.0,0.0,0.0,0,1014.1,1006.2,1,1,0,0,0.42,0.94,31.0,41.7,342,345,48.6,29.7,22.5,20.5,18.9,0.055,0.077,0.128,0.224,1,3600.0,662.7,566.1,96.6,826.6,662.7,908.0,727.0,621.0,106.0,826.6,727.0,996.0,Pinus pinaster Aiton; Tracheophyta; Vitis vinifera L.; Magnoliopsida
2011,2011-07-26,Aveiro,Águeda,Macinhata do Vouga,Serém,40.6561919,-8.4735716,Desconhecida,98.0,2011-07-26T16:00,28.3,46,15.5,27.6,0.0,0.0,0.0,0.0,0,1012.6,1001.4,0,0,0,0,0.57,2.09,23.3,30.8,328,331,46.1,34.7,25.2,21.2,18.5,0.067,0.092,0.145,0.257,1,3600.0,656.0,563.0,92.9,832.0,656.0,897.3,720.0,618.0,102.0,832.0,720.0,984.9,Eucalyptus L'Hér.; Tracheophyta
2011,2011-07-26,Coimbra,Miranda do Corvo,Miranda do Corvo,Pereira,40.0758555,-8.3127336,Desconhecida,170.0,2011-07-26T08:00,21.4,76,17.0,21.8,0.0,0.0,0.0,0.0,1,1014.1,994.3,25,28,0,0,0.17,0.61,14.2,19.3,336,339,29.9,23.1,24.0,21.6,18.4,0.095,0.138,0.211,0.323,1,3600.0,336.5,228.1,108.4,495.0,336.5,610.8,270.0,183.0,87.0,495.0,270.0,490.1,Tracheophyta; Pinus pinaster Aiton; Eucalyptus L'Hér.; Magnoliopsida
2011,2011-07-26,Aveiro,Ovar,Esmoriz,Rua da Casela (ESMORIZ),40.96277635,-8.63534580069145,Desconhecida,8.0,2011-07-26T16:00,27.8,46,15.3,25.5,0.0,0.0,0.0,0.0,0,1013.3,1012.4,0,0,0,0,0.57,2.01,32.9,44.8,335,339,54.7,33.6,25.3,21.6,19.0,0.093,0.126,0.196,0.32,1,3600.0,659.2,566.2,93.0,835.5,659.2,898.6,723.0,621.0,102.0,835.5,723.0,985.5,Tracheophyta; Magnoliopsida
2011,2011-07-26,Porto,Felgueiras,Lagares,MONTE DAS RUAS (Belmonte),41.3673676,-8.2225278,NC,281.0,2011-07-26T17:00,30.6,30,11.3,29.0,0.0,0.0,0.0,0.0,0,1012.3,980.9,0,0,0,0,0.49,3.04,13.9,18.9,339,342,31.7,33.9,25.2,20.5,17.1,0.1,0.146,0.224,0.338,1,3600.0,488.4,410.4,77.9,793.0,488.4,686.2,564.0,474.0,90.0,793.0,564.0,792.5,Magnoliopsida; Vitis vinifera L.; Tracheophyta
2011,2011-07-22,Bragança,Mirandela,São Salvador,S.SALVADOR (SÃO SALVADOR),41.4472554,-7.1517511,NC,323.0,2011-07-22T03:00,15.4,70,9.9,14.2,0.0,0.0,0.0,0.0,0,1013.1,975.2,16,0,0,52,0.02,0.53,7.9,18.1,16,31,22.7,17.8,22.6,20.8,17.4,0.134,0.163,0.219,0.342,0,0.0,0.0,0.0,0.0,0.0,0.0,0.0,0.0,0.0,0.0,0.0,0.0,0.0,Tracheophyta; Olea europaea L.; Quercus suber L.
2011,2011-07-22,Coimbra,Miranda do Corvo,Lamas,Chão de Lamas,40.0841255,-8.3762975,Desconhecida,230.0,2011-07-22T18:00,24.1,48,12.4,21.8,0.0,0.0,0.0,0.0,0,1011.5,985.2,0,0,0,0,0.33,1.57,21.2,29.7,325,327,49.0,29.5,23.4,20.4,17.9,0.073,0.099,0.161,0.267,1,3600.0,308.7,244.4,64.3,702.1,308.7,461.3,389.0,308.0,81.0,702.1,389.0,581.2,Tracheophyta; Magnoliopsida; Eucalyptus L'Hér.; Pinus pinaster Aiton; Olea europaea L.; Vitis vinifera L.; Quercus L.
2011,2011-07-23,Santarém,Chamusca,Ulme,Semideiro/Cascalheira (Semideiro),39.3262709,-8.3052535,NC,102.0,2011-07-23T14:00,30.8,32,12.3,32.8,0.0,0.0,0.0,0.0,0,1014.0,1002.5,0,0,0,0,0.71,3.01,7.4,8.6,284,285,22.0,43.9,26.0,23.7,20.8,0.038,0.07,0.127,0.218,1,3600.0,917.8,804.0,113.9,893.4,917.8,1192.5,943.0,826.0,117.0,893.4,943.0,1225.2,Quercus suber L.; Eucalyptus L'Hér.; Oryza sativa L.
2011,2011-08-03,Porto,Lousada,Casais,Calvário,41.2695214,-8.3138042,NC,237.0,2011-08-03T10:00,21.3,66,14.8,22.5,0.0,0.0,0.0,0.0,1,1021.1,993.5,35,39,0,0,0.33,0.85,2.9,3.4,7,18,15.5,24.6,21.7,21.6,17.8,0.113,0.147,0.226,0.338,1,3600.0,568.0,342.1,225.9,456.8,568.0,994.9,518.0,312.0,206.0,456.8,518.0,907.3,Pinus pinaster Aiton; Tracheophyta; Magnoliopsida; Eucalyptus L'Hér.
2011,2011-08-03,Braga,Vila Nova de Famalicão,Joane,RUIVOS (JOANE) M7 (Ruivos),41.43904315,-8.416545226748479,NC,156.0,2011-08-03T13:00,24.9,53,14.6,27.0,0.0,0.0,0.0,0.0,0,1020.8,1002.7,0,0,0,0,0.59,1.49,9.3,11.0,298,302,28.4,29.6,22.4,21.7,18.1,0.119,0.147,0.223,0.336,1,3600.0,877.9,678.0,200.0,744.1,877.9,1210.3,878.0,678.0,200.0,744.1,878.0,1210.4,Vitis vinifera L.; Tracheophyta; Magnoliopsida; Pinus pinaster Aiton; Eucalyptus L'Hér.
2011,2011-08-03,Porto,Vila Nova de Gaia,Grijó,Rua Coteiro,41.0161766,-8.5868773,NC,101.0,2011-08-03T15:00,24.1,56,14.7,24.7,0.0,0.0,0.0,0.0,0,1020.9,1009.1,0,0,0,0,0.53,1.33,15.9,19.4,308,310,30.6,31.3,23.1,22.0,18.8,0.107,0.122,0.187,0.316,1,3600.0,775.9,673.0,102.9,854.5,775.9,1046.2,822.0,713.0,109.0,854.5,822.0,1108.4,Tracheophyta; Eucalyptus L'Hér.; Magnoliopsida; Pinales
2011,2011-08-03,Porto,Vila Nova de Gaia,Vilar de Andorinho,LUGAR PADRE ANTÓNIO VIEIRA (Largo do Padre Artur),41.1032455,-8.5767749,NC,155.0,2011-08-03T16:00,23.2,57,14.2,22.6,0.0,0.0,0.0,0.0,0,1020.9,1002.8,1,1,0,0,0.45,1.22,18.8,23.7,315,317,36.4,28.7,22.5,21.3,18.2,0.133,0.146,0.225,0.348,1,3600.0,636.2,542.6,93.6,821.1,636.2,877.8,700.0,597.0,103.0,821.1,700.0,965.8,Magnoliopsida; Tracheophyta
2011,2011-08-04,Aveiro,Estarreja,Veiros,Casalinhos,40.75077,-8.6129271,Desconhecida,8.0,2011-08-04T13:00,25.0,63,17.5,26.3,0.0,0.0,0.0,0.0,1,1021.2,1020.3,42,46,0,3,0.47,1.16,14.7,17.5,301,307,30.2,29.9,23.0,22.3,19.4,0.104,0.134,0.208,0.319,1,3600.0,707.1,416.1,291.0,455.0,707.1,1214.8,707.0,416.0,291.0,455.0,707.0,1214.7,Tracheophyta; Magnoliopsida; Pinus pinaster Aiton
2011,2011-07-31,Setúbal,Barreiro,Alto do Seixalinho,FRENTE Á ESCOLA AUGUSTO CABRITA - JT AO RECHEIO (LAVRADIO),38.6474826,-9.0497356,NC,37.0,2011-07-31T11:00,23.8,58,15.1,24.4,0.0,0.0,0.0,0.0,0,1014.7,1010.4,13,0,0,43,0.48,1.23,14.8,18.9,337,339,34.6,27.8,23.2,22.5,20.1,0.053,0.066,0.107,0.207,1,3600.0,792.3,591.8,200.5,684.6,792.3,1147.4,747.0,558.0,189.0,684.6,747.0,1081.8,Tracheophyta; ; Magnoliopsida
2011,2011-07-29,Braga,Vila Nova de Famalicão,Arnoso (Santa Maria),MOINHOS (ARNOSO SANTA MARIA)-M3 (Moinhos),41.4675071,-8.497075093328993,NC,151.0,2011-07-29T21:00,20.8,71,15.4,22.0,0.0,0.0,0.0,0.0,0,1016.2,998.6,0,0,0,0,0.01,0.71,4.8,6.5,257,273,10.1,24.7,26.0,21.2,17.6,0.099,0.145,0.221,0.336,0,0.0,0.0,0.0,0.0,0.0,0.0,0.0,0.0,0.0,0.0,0.0,0.0,0.0,Eucalyptus L'Hér.; Tracheophyta; Vitis vinifera L.
2011,2011-07-31,Porto,Marco de Canaveses,Vila Boa de Quires,Quires,41.20809775,-8.20114511603261,Desconhecida,261.0,2011-07-31T17:00,26.1,46,13.5,25.3,0.0,0.0,0.0,0.0,0,1011.7,982.1,0,0,0,0,0.41,1.84,13.4,17.2,294,296,33.5,31.5,24.8,21.1,17.2,0.103,0.153,0.235,0.343,1,3600.0,472.4,394.0,78.5,778.4,472.4,671.8,548.0,457.0,91.0,778.4,548.0,779.3,Pinus pinaster Aiton; Tracheophyta; Eucalyptus L'Hér.; Magnoliopsida; Vitis vinifera L.; Quercus L.; Pinales; 
2011,2011-07-31,Viseu,Moimenta da Beira,Leomil,Semitela,40.9555781,-7.6561815,Desconhecida,1005.0,2011-07-31T15:00,26.7,34,9.5,26.9,0.0,0.0,0.0,0.0,0,1011.3,903.0,0,0,0,0,0.61,2.31,9.3,10.9,298,297,25.9,32.0,22.7,18.9,14.6,0.123,0.14,0.212,0.346,1,3600.0,790.2,691.2,99.0,876.6,790.2,1046.5,838.0,733.0,105.0,876.6,838.0,1109.8,Magnoliopsida; Tracheophyta
2011,2011-07-31,Setúbal,Sesimbra,Castelo (Sesimbra),Lagoa de Albufeira,38.4428579,-9.101100356897838,NC,14.0,2011-07-31T16:00,24.4,54,14.5,24.3,0.0,0.0,0.0,0.0,0,1011.7,1010.1,0,0,0,0,0.48,1.41,16.8,21.7,301,310,31.0,33.1,24.6,23.1,20.9,0.046,0.082,0.136,0.225,1,3600.0,645.6,522.8,122.8,768.8,645.6,902.6,710.0,575.0,135.0,768.8,710.0,992.7,Magnoliopsida; Tracheophyta
2011,2011-07-29,Porto,Paredes,Aguiar de Sousa,SENHORA SALTO (Nossa Senhora do Pinhal),41.1271547,-8.4477733,NC,144.0,2011-07-29T17:00,27.2,46,14.6,27.2,0.0,0.0,0.0,0.0,0,1015.0,998.5,11,0,0,37,0.41,1.95,10.9,13.1,264,262,25.6,33.1,26.5,21.6,18.0,0.112,0.148,0.227,0.346,1,3600.0,475.4,371.7,103.7,723.6,475.4,681.5,550.0,430.0,120.0,723.6,550.0,788.4,Magnoliopsida; Pinus pinaster Aiton; Eucalyptus L'Hér.; Tracheophyta; Vitis vinifera L.; Quercus L.; Quercus suber L.
2011,2011-07-31,Braga,Esposende,Gemeses,RUA DA IGREJA (GEMESES) M.2 (ED13 (ED13) Km 42),41.52325875,-8.726788353938357,NC,43.0,2011-07-31T17:00,23.9,54,13.9,21.7,0.0,0.0,0.0,0.0,0,1012.3,1007.3,0,0,0,0,0.4,1.37,24.1,32.4,322,325,43.9,29.3,24.4,21.5,18.4,0.102,0.147,0.224,0.336,1,3600.0,477.1,398.4,78.6,779.8,477.1,678.2,552.0,461.0,91.0,779.8,552.0,784.7,Tracheophyta; Pinus pinaster Aiton; Eucalyptus L'Hér.; Vitis vinifera L.
2011,2011-08-05,Leiria,Leiria,Santa Eufémia,Cova das Faias,39.7619541,-8.7476931,NC,99.0,2011-08-05T15:00,23.3,53,13.2,22.6,0.0,0.0,0.0,0.0,0,1017.3,1005.8,11,0,3,29,0.49,1.35,18.8,23.3,306,308,40.3,30.4,23.4,21.6,19.2,0.088,0.105,0.162,0.267,1,3600.0,700.8,480.1,220.7,607.1,700.8,1050.9,743.0,509.0,234.0,607.1,743.0,1114.2,Tracheophyta; Pinus pinaster Aiton; Eucalyptus L'Hér.; Magnoliopsida; Acacia Mill.; Olea europaea L.
2011,2011-07-04,Setúbal,Palmela,Poceirão,TRASEIRAS DA ESCOLA DO POCEIRÃO (MARATECA),38.63449955,-8.743403599128786,Desconhecida,40.0,2011-07-04T00:00,17.1,77,13.0,16.0,0.0,0.0,0.0,0.0,1,1017.6,1012.8,28,31,0,0,0.03,0.45,14.0,22.9,314,316,29.2,19.2,23.5,22.6,18.8,0.054,0.078,0.136,0.209,0,0.0,0.0,0.0,0.0,0.0,0.0,0.0,0.0,0.0,0.0,0.0,0.0,0.0,Vitis vinifera L.; Quercus suber L.; Magnoliopsida; Tracheophyta
2011,2011-07-04,Porto,Paredes,Cete,LG DE S SEBASTIAO (CETE),41.1714756,-8.3553953,NC,131.0,2011-07-04T09:00,17.9,82,14.9,18.7,0.0,0.0,0.0,0.0,3,1018.2,1002.7,98,94,0,44,0.21,0.36,5.6,6.4,310,313,16.2,21.5,21.1,20.7,16.7,0.128,0.157,0.244,0.36,1,3600.0,409.5,167.9,241.6,254.6,409.5,872.4,361.0,148.0,213.0,254.6,361.0,769.1,Magnoliopsida; Pinus pinaster Aiton; Eucalyptus L'Hér.; Tracheophyta; Vitis vinifera L.
2011,2011-07-04,Porto,Amarante,Oliveira,Árvores,41.2577063,-8.2015419,NC,228.0,2011-07-04T11:00,20.7,64,13.6,21.9,0.0,0.0,0.0,0.0,1,1018.3,991.7,47,50,0,7,0.45,0.89,7.4,9.0,284,286,22.0,24.9,20.7,20.0,15.9,0.12,0.171,0.26,0.36,1,3600.0,765.2,534.7,230.5,602.4,765.2,1174.4,727.0,508.0,219.0,602.4,727.0,1115.8,Magnoliopsida; Eucalyptus L'Hér.; Tracheophyta
2011,2011-07-29,Braga,Guimarães,Santo Tirso (Prazins),L. DA IGREJA- (PRAZINS STº TIRSO) M3 (DONIM),41.48959975,-8.305547886683474,NC,263.0,2011-07-29T14:00,30.2,36,13.6,31.6,0.0,0.0,0.0,0.0,0,1015.4,985.9,13,0,0,42,0.71,2.75,12.7,16.3,245,245,33.1,35.6,25.5,21.1,17.3,0.094,0.144,0.22,0.336,1,3600.0,900.3,786.4,113.9,894.8,900.3,1166.0,925.0,808.0,117.0,894.8,925.0,1198.0,Vitis vinifera L.; Eucalyptus L'Hér.; Tracheophyta; Magnoliopsida
