year,date,district,municipality,parish,local,latitude,longitude,cause,elevation,hourly.time,hourly.temperature_2m,hourly.relative_humidity_2m,hourly.dew_point_2m,hourly.apparent_temperature,hourly.precipitation,hourly.rain,hourly.snowfall,hourly.snow_depth,hourly.weather_code,hourly.pressure_msl,hourly.surface_pressure,hourly.cloud_cover,hourly.cloud_cover_low,hourly.cloud_cover_mid,hourly.cloud_cover_high,hourly.et0_fao_evapotranspiration,hourly.vapour_pressure_deficit,hourly.wind_speed_10m,hourly.wind_speed_100m,hourly.wind_direction_10m,hourly.wind_direction_100m,hourly.wind_gusts_10m,hourly.soil_temperature_0_to_7cm,hourly.soil_temperature_7_to_28cm,hourly.soil_temperature_28_to_100cm,hourly.soil_temperature_100_to_255cm,hourly.soil_moisture_0_to_7cm,hourly.soil_moisture_7_to_28cm,hourly.soil_moisture_28_to_100cm,hourly.soil_moisture_100_to_255cm,hourly.is_day,hourly.sunshine_duration,hourly.shortwave_radiation_instant,hourly.direct_radiation_instant,hourly.diffuse_radiation_instant,hourly.direct_normal_irradiance_instant,hourly.global_tilted_irradiance_instant,hourly.terrestrial_radiation_instant,hourly.shortwave_radiation,hourly.direct_radiation,hourly.diffuse_radiation,hourly.direct_normal_irradiance,hourly.global_tilted_irradiance,hourly.terrestrial_radiation,scientificNames
2011,2011-10-06,Setúbal,Almada,Feijó,AV HENRIQUE BARBEITOS (Avenida Dom Afonso Henriques),38.6529791,-9.1665562,NC,61.0,2011-10-06T14:00,29.2,39,13.7,27.1,0.0,0.0,0.0,0.0,0,1021.6,1014.6,6,0,0,19,0.59,2.47,26.7,36.4,355,359,47.5,30.6,24.6,23.0,21.5,0.136,0.16,0.207,0.326,1,3600.0,655.3,560.1,95.3,853.5,655.3,898.2,688.0,588.0,100.0,853.5,688.0,943.0,Magnoliopsida; Tracheophyta
2011,2011-10-19,Aveiro,Murtosa,Bunheiro,Entrada de Sedouros,40.7601193,-8.639049,Desconhecida,7.0,2011-10-19T11:00,20.8,60,12.8,18.7,0.0,0.0,0.0,0.0,0,1022.6,1021.8,10,0,6,23,0.32,0.98,20.1,25.4,350,353,35.3,22.4,20.3,22.5,21.5,0.088,0.128,0.173,0.286,1,3600.0,553.7,442.9,110.7,752.2,553.7,812.0,515.0,412.0,103.0,752.2,515.0,755.3,Tracheophyta; Pinus pinaster Aiton; Eucalyptus L'Hér.; Oryza sativa L.; Magnoliopsida; 
2011,2011-10-18,Lisboa,Torres Vedras,São Pedro e São Tiago,Fonte Grada,39.09299855,-9.25866085,Desconhecida,33.0,2011-10-18T12:00,22.7,56,13.4,21.9,0.0,0.0,0.0,0.0,0,1020.4,1016.5,0,0,0,0,0.41,1.23,16.6,20.2,2,5,31.7,26.6,21.9,22.6,21.9,0.089,0.156,0.211,0.316,1,3600.0,662.5,567.9,94.6,865.4,662.5,904.3,644.0,552.0,92.0,865.4,644.0,879.0,Tracheophyta; Magnoliopsida
2011,2011-10-01,Viana do Castelo,Ponte da Barca,Sampriz,PEDRA - SAMPRIZ (Pedra),41.7862876,-8.3880126,NC,342.0,2011-10-01T14:00,28.3,35,11.4,27.9,0.0,0.0,0.0,0.0,0,1016.1,977.6,11,0,0,36,0.49,2.5,9.3,12.3,164,159,28.1,29.2,21.4,19.7,18.7,0.115,0.173,0.208,0.318,1,3600.0,614.3,481.0,133.3,749.7,614.3,875.7,645.0,505.0,140.0,749.7,645.0,919.4,Magnoliopsida; Tracheophyta; Vitis vinifera L.
2011,2011-10-01,Aveiro,Santa Maria da Feira,Caldas de São Jorge,Rua do Monte Grande,40.9671644,-8.5125911,Desconhecida,255.0,2011-10-01T15:00,29.9,31,10.9,29.1,0.0,0.0,0.0,0.0,0,1015.1,986.4,3,0,3,4,0.45,2.91,8.2,11.4,151,145,20.5,31.0,22.9,20.8,19.8,0.113,0.161,0.199,0.316,1,3600.0,518.7,422.4,96.3,770.5,518.7,748.3,571.0,465.0,106.0,770.5,571.0,823.7,Tracheophyta; Eucalyptus L'Hér.; Pinales; Magnoliopsida
2011,2011-10-01,Porto,Marco de Canaveses,Santo Isidoro,Corredoura,41.2130031,-8.1438411,NC,169.0,2011-10-01T15:00,30.0,32,11.7,29.5,0.0,0.0,0.0,0.0,0,1015.4,996.3,9,0,0,30,0.43,2.87,7.2,9.4,143,140,21.2,30.6,22.9,20.9,20.0,0.113,0.171,0.205,0.315,1,3600.0,505.6,382.1,123.4,702.7,505.6,742.2,557.0,421.0,136.0,702.7,557.0,817.8,Magnoliopsida; Pinales; Pinus pinaster Aiton; Tracheophyta; Vitis vinifera L.; 
2011,2011-10-01,Vila Real,Montalegre,Reigoso,REIGOSO,41.8250403,-7.790913,NC,1001.0,2011-10-01T15:00,23.4,35,6.9,20.8,0.0,0.0,0.0,0.0,1,1017.5,907.8,24,0,0,80,0.4,1.88,12.0,16.5,134,134,32.8,25.1,19.1,17.8,16.7,0.239,0.28,0.308,0.414,1,3600.0,483.2,325.4,157.7,607.2,483.2,731.5,533.0,359.0,174.0,607.2,533.0,806.9,Pinales; Tracheophyta; Magnoliopsida
2011,2011-10-01,Vila Real,Montalegre,Vilar Perdizes (São Miguel),Vilar de Perdizes (CABANA DE VILAR),41.8558666,-7.6343095,NC,803.0,2011-10-01T16:00,24.7,30,5.9,22.0,0.0,0.0,0.0,0.0,1,1017.8,929.0,25,0,0,83,0.33,2.18,11.6,16.1,126,129,31.7,25.2,19.5,17.9,17.2,0.137,0.166,0.22,0.325,1,3600.0,342.4,239.2,103.2,615.3,342.4,530.6,408.0,285.0,123.0,615.3,408.0,632.2,Magnoliopsida; Castanea sativa Mill.; Tracheophyta
2011,2011-10-03,Braga,Braga,Fradelos,ETAR(FRADELOS)M1 (CRESPOS),41.50834255,-8.47704829606748,NC,135.0,2011-10-03T19:00,22.8,58,14.2,23.3,0.0,0.0,0.0,0.0,1,1024.7,1008.9,23,0,0,76,0.06,1.16,6.1,12.6,315,336,18.0,24.9,23.7,21.1,19.9,0.102,0.155,0.191,0.306,0,0.0,0.0,0.0,0.0,0.0,0.0,0.0,1.0,0.0,1.0,0.0,1.0,8.5,Tracheophyta; Magnoliopsida; Eucalyptus L'Hér.
2011,2011-10-03,Bragança,Torre de Moncorvo,Felgar,Felgar,41.2150631,-6.9569527,NC,517.0,2011-10-03T19:00,24.7,35,8.0,22.8,0.0,0.0,0.0,0.0,0,1023.7,965.1,0,0,0,0,0.09,2.03,9.0,12.6,247,267,16.9,24.3,22.4,20.7,20.1,0.138,0.169,0.201,0.319,0,0.0,0.0,0.0,0.0,0.0,0.0,0.0,0.0,0.0,0.0,0.0,0.0,0.0,Olea europaea L.; Tracheophyta; Magnoliopsida; Vitis vinifera L.
2011,2011-10-03,Viana do Castelo,Ponte de Lima,Gondufe,PARAÍSO - GONDUFE (Paraíso),41.7655223,-8.5126716,NC,154.0,2011-10-03T20:00,21.7,68,15.5,22.8,0.0,0.0,0.0,0.0,0,1025.1,1007.0,16,0,0,53,0.01,0.83,5.0,11.7,339,351,13.7,23.3,23.3,20.8,19.6,0.102,0.162,0.197,0.31,0,0.0,0.0,0.0,0.0,0.0,0.0,0.0,0.0,0.0,0.0,0.0,0.0,0.0,Magnoliopsida; Eucalyptus L'Hér.; Vitis vinifera L.; Tracheophyta
2011,2011-10-03,Viana do Castelo,Ponte da Barca,Sampriz,CARDELHE - SAMPRIZ (Cardelhe),41.7862876,-8.3880126,NC,342.0,2011-10-03T19:00,22.8,61,14.9,23.6,0.0,0.0,0.0,0.0,1,1025.2,985.7,25,0,0,83,0.05,1.08,5.6,10.5,333,344,18.0,24.0,22.4,19.9,18.8,0.107,0.168,0.207,0.317,0,0.0,0.0,0.0,0.0,0.0,0.0,0.0,1.0,0.0,1.0,0.0,1.0,7.4,Magnoliopsida; Tracheophyta; Vitis vinifera L.
2011,2011-10-03,Vila Real,Chaves,Cimo de Vila de Castanheira,Castanheira (Castelãos),41.7949389,-7.2574252,NC,784.0,2011-10-03T22:00,18.8,56,10.0,17.6,0.0,0.0,0.0,0.0,0,1027.1,937.8,16,0,0,52,0.04,0.95,8.6,14.0,338,348,19.4,20.3,21.5,19.5,18.3,0.122,0.136,0.173,0.314,0,0.0,0.0,0.0,0.0,0.0,0.0,0.0,0.0,0.0,0.0,0.0,0.0,0.0,Magnoliopsida; Tracheophyta
2011,2011-10-04,Braga,Póvoa de Lanhoso,Ferreiros,BOUCINHA (FERREIROS) (Boucinha),41.583655,-8.2993072,NC,411.0,2011-10-04T23:00,17.5,74,12.7,17.0,0.0,0.0,0.0,0.0,0,1023.7,975.6,0,0,0,0,0.02,0.53,9.2,10.8,51,30,15.1,19.4,22.7,20.4,19.1,0.098,0.151,0.187,0.304,0,0.0,0.0,0.0,0.0,0.0,0.0,0.0,0.0,0.0,0.0,0.0,0.0,0.0,Pinus pinaster Aiton; Tracheophyta; Magnoliopsida; Vitis vinifera L.; Eucalyptus L'Hér.; 
2011,2011-10-11,Aveiro,Santa Maria da Feira,Caldas de São Jorge,Rua do Monte Grande,40.9671644,-8.5125911,Desconhecida,255.0,2011-10-11T20:00,22.3,45,9.9,20.9,0.0,0.0,0.0,0.0,0,1022.7,993.1,0,0,0,0,0.07,1.47,9.6,18.4,20,12,19.8,22.7,22.5,21.0,20.1,0.103,0.149,0.193,0.311,0,0.0,0.0,0.0,0.0,0.0,0.0,0.0,0.0,0.0,0.0,0.0,0.0,0.0,Tracheophyta; Eucalyptus L'Hér.; Pinales; Magnoliopsida
2011,2011-10-11,Porto,Vila Nova de Gaia,Olival,ARNELAS,41.0827135,-8.5235322,NC,29.0,2011-10-11T21:00,22.5,51,11.9,21.0,0.0,0.0,0.0,0.0,0,1022.2,1018.8,0,0,0,0,0.1,1.33,14.4,28.1,13,16,22.3,23.1,24.2,22.5,21.3,0.089,0.119,0.16,0.291,0,0.0,0.0,0.0,0.0,0.0,0.0,0.0,0.0,0.0,0.0,0.0,0.0,0.0,Tracheophyta; Magnoliopsida; Eucalyptus L'Hér.
2011,2011-10-12,Vila Real,Montalegre,Meixedo,MEIXEDO,41.8241208,-7.7288829,NC,977.0,2011-10-12T02:00,14.4,56,5.7,12.1,0.0,0.0,0.0,0.0,0,1023.4,912.4,0,0,0,0,0.04,0.73,8.9,13.7,47,55,18.4,12.6,17.1,17.2,16.5,0.215,0.271,0.3,0.408,0,0.0,0.0,0.0,0.0,0.0,0.0,0.0,0.0,0.0,0.0,0.0,0.0,0.0,Magnoliopsida; Tracheophyta; Quercus L.
2011,2011-10-14,Porto,Gondomar,São Pedro da Cova,ESTRADA D.MIGUEL (Estrada de Dom Miguel),41.1613882,-8.5183379,NC,174.0,2011-10-14T16:00,30.9,19,4.9,28.8,0.0,0.0,0.0,0.0,0,1015.9,996.3,0,0,0,0,0.29,3.59,5.3,6.4,332,333,14.0,30.9,22.8,21.4,20.4,0.104,0.141,0.183,0.309,1,3600.0,315.6,256.7,58.9,768.3,315.6,459.4,386.0,314.0,72.0,768.3,386.0,562.0,Tracheophyta; Magnoliopsida; Eucalyptus L'Hér.
2011,2011-10-12,Porto,Lousada,Lustosa,LG. IRMIDA (ARNOSO),41.3321025,-8.3085374,NC,411.0,2011-10-12T03:00,12.0,71,7.0,10.2,0.0,0.0,0.0,0.0,0,1021.7,972.8,0,0,0,0,0.01,0.4,6.9,11.1,99,77,15.1,14.3,19.8,19.9,19.1,0.098,0.145,0.184,0.301,0,0.0,0.0,0.0,0.0,0.0,0.0,0.0,0.0,0.0,0.0,0.0,0.0,0.0,Vitis vinifera L.; Eucalyptus L'Hér.; Tracheophyta; Magnoliopsida
2011,2011-10-12,Porto,Santo Tirso,Reguenga,ALTO CALVÁRIO (Alto Catorze),41.2755959,-8.4572825,NC,157.0,2011-10-12T10:00,25.0,39,10.1,24.2,0.0,0.0,0.0,0.0,0,1022.2,1004.0,0,0,0,0,0.31,1.93,6.2,9.1,69,81,15.1,22.7,20.6,21.3,20.3,0.119,0.141,0.178,0.311,1,3600.0,507.8,420.3,87.5,800.8,507.8,720.8,447.0,370.0,77.0,800.8,447.0,634.6,Pinus pinaster Aiton; Eucalyptus L'Hér.; Tracheophyta; Vitis vinifera L.
2011,2011-10-12,Porto,Lousada,Vilar do Torno e Alentém,MATA DE VILAR (Mata),41.2820939,-8.2173313,NC,255.0,2011-10-12T11:00,27.1,29,7.5,25.7,0.0,0.0,0.0,0.0,0,1022.2,993.1,0,0,0,0,0.42,2.55,6.8,9.0,90,90,17.3,25.3,19.7,20.7,20.0,0.092,0.15,0.195,0.308,1,3600.0,625.6,533.5,92.1,865.8,625.6,846.3,584.0,498.0,86.0,865.8,584.0,789.9,Eucalyptus L'Hér.; Tracheophyta; Vitis vinifera L.; Pinus pinaster Aiton; Quercus L.
2011,2011-10-11,Vila Real,Chaves,Cimo de Vila de Castanheira,Dadim,41.8021564,-7.2940196,NC,856.0,2011-10-11T07:00,9.1,75,5.0,7.5,0.0,0.0,0.0,0.0,0,1026.2,926.1,0,0,0,0,0.02,0.29,3.1,5.1,69,135,10.1,10.7,16.7,18.7,18.0,0.12,0.135,0.171,0.312,1,0.0,13.1,5.2,7.9,60.1,4.6,83.3,5.0,2.0,3.0,30.0,5.0,31.8,Castanea sativa Mill.; Tracheophyta; Magnoliopsida
2011,2011-10-11,Viseu,Lamego,Vila Nova Souto DEl-Rei,Juvandes,41.0630216,-7.8352759,Desconhecida,810.0,2011-10-11T14:00,25.7,25,4.3,24.5,0.0,0.0,0.0,0.0,0,1023.8,934.0,0,0,0,0,0.44,2.47,3.4,4.0,72,80,17.3,27.2,18.5,19.0,18.5,0.128,0.146,0.183,0.317,1,3600.0,619.7,536.5,83.3,900.2,619.7,818.1,655.0,567.0,88.0,900.2,655.0,864.7,Tracheophyta; Magnoliopsida
2011,2011-10-01,Porto,Lousada,Lodares,Sequeiros,41.2389255,-8.2922928,NC,201.0,2011-10-01T14:00,29.5,33,11.7,29.2,0.0,0.0,0.0,0.0,0,1015.7,993.0,6,0,1,17,0.51,2.75,10.0,13.1,120,122,25.2,30.4,22.4,20.7,19.8,0.119,0.162,0.194,0.316,1,3600.0,619.9,481.8,138.1,744.3,619.9,883.6,651.0,506.0,145.0,744.3,651.0,927.9,Magnoliopsida; Tracheophyta; Eucalyptus L'Hér.; Pinus pinaster Aiton
2011,2011-10-16,Vila Real,Peso da Régua,Sedielos,Passos,41.1896842,-7.8733195,NC,640.0,2011-10-16T19:00,20.0,51,9.5,19.2,0.0,0.0,0.0,0.0,1,1020.8,947.9,29,0,0,97,0.02,1.15,4.4,4.8,279,283,8.6,21.8,20.4,19.4,18.9,0.1,0.147,0.192,0.309,0,0.0,0.0,0.0,0.0,0.0,0.0,0.0,0.0,0.0,0.0,0.0,0.0,0.0,Vitis vinifera L.; Pinales; Tracheophyta; Magnoliopsida; Quercus L.; Pinus pinaster Aiton
2011,2011-10-16,Lisboa,Torres Vedras,Dois Portos,Dois Portos,39.0425609,-9.184645,Desconhecida,80.0,2011-10-16T19:00,20.6,71,15.2,21.0,0.0,0.0,0.0,0.0,1,1019.9,1010.5,27,0,9,72,0.03,0.71,9.3,15.6,347,352,14.0,23.1,23.1,22.4,21.6,0.089,0.156,0.212,0.316,0,0.0,0.0,0.0,0.0,0.0,0.0,0.0,0.0,0.0,0.0,0.0,0.0,0.0,Vitis vinifera L.; Eucalyptus L'Hér.; Magnoliopsida; Tracheophyta; 
2011,2011-10-16,Viana do Castelo,Monção,Cortes,PERAFITA,42.0701828,-8.5137925,Desconhecida,53.0,2011-10-16T19:00,19.5,77,15.3,20.6,0.0,0.0,0.0,0.0,0,1020.9,1014.6,17,0,0,58,0.0,0.52,4.9,5.9,36,43,6.8,21.7,21.6,20.7,19.9,0.098,0.151,0.199,0.309,0,0.0,0.0,0.0,0.0,0.0,0.0,0.0,0.0,0.0,0.0,0.0,0.0,0.0,Tracheophyta; Vitis vinifera L.; Magnoliopsida; Pinus pinaster Aiton; Eucalyptus L'Hér.; 
2011,2011-10-20,Braga,Póvoa de Lanhoso,Galegos,L. OUTEIRO(GALEGOS)M7 (FRIANDE),41.5665114,-8.2823015,NC,325.0,2011-10-20T00:00,11.9,84,9.3,10.2,0.0,0.0,0.0,0.0,0,1022.3,983.4,2,2,0,0,0.01,0.23,10.6,24.5,55,60,26.6,13.8,18.6,19.9,19.4,0.098,0.145,0.19,0.304,0,0.0,0.0,0.0,0.0,0.0,0.0,0.0,0.0,0.0,0.0,0.0,0.0,0.0,Eucalyptus L'Hér.; Tracheophyta; Magnoliopsida; Quercus L.
2011,2011-10-20,Lisboa,ODIVELAS,Famoes,QTA DAS QUEIMADAS (Vale Maior),38.7912413,-9.2108576,NC,134.0,2011-10-20T00:00,16.2,86,13.9,13.9,0.0,0.0,0.0,0.0,0,1020.9,1004.9,4,5,0,0,0.03,0.26,24.8,36.0,351,352,41.8,17.9,21.0,22.1,21.4,0.118,0.16,0.21,0.315,0,0.0,0.0,0.0,0.0,0.0,0.0,0.0,0.0,0.0,0.0,0.0,0.0,0.0,Tracheophyta; Olea europaea L.
2011,2011-10-20,Viseu,Castro Daire,Castro Daire,Custilhão,40.9262732,-7.9049666,Desconhecida,769.0,2011-10-20T01:00,11.4,74,7.0,8.8,0.0,0.0,0.0,0.0,0,1022.8,933.3,4,4,0,0,0.02,0.35,12.2,26.5,66,69,36.0,12.5,17.4,18.7,18.5,0.105,0.146,0.193,0.311,0,0.0,0.0,0.0,0.0,0.0,0.0,0.0,0.0,0.0,0.0,0.0,0.0,0.0,Pinus pinaster Aiton; Magnoliopsida; Tracheophyta; Olea europaea L.
2011,2011-10-19,Viana do Castelo,Arcos de Valdevez,Aboim das Choças,JNT CAMPO DE FUTEBOL - ABOIM DAS CHOCAS (GAVIEIRA),41.9237483,-8.456035,NC,146.0,2011-10-19T10:00,17.8,76,13.5,17.6,0.0,0.0,0.0,0.0,2,1023.6,1006.2,64,60,17,0,0.15,0.49,9.0,11.5,360,2,14.0,18.7,18.2,20.2,19.7,0.1,0.152,0.201,0.311,1,3600.0,274.7,169.4,105.3,348.7,274.7,669.8,240.0,148.0,92.0,348.7,240.0,585.2,Quercus L.; Magnoliopsida; Pinus pinaster Aiton; Acacia Mill.; Tracheophyta
2011,2011-10-18,Viana do Castelo,Arcos de Valdevez,Vale,TORA - VALE (Rio Tora),41.8384985,-8.3696615,NC,185.0,2011-10-18T07:00,12.7,88,10.7,12.1,0.0,0.0,0.0,0.0,0,1021.0,998.7,4,5,0,0,0.02,0.18,5.1,7.9,4,3,11.5,12.8,18.9,20.5,19.7,0.097,0.146,0.191,0.305,1,0.0,0.0,0.0,0.0,0.0,0.0,27.0,0.0,0.0,0.0,0.0,0.0,3.5,Vitis vinifera L.; Pinus pinaster Aiton; Tracheophyta; Magnoliopsida; Quercus L.; Eucalyptus L'Hér.; Acacia Mill.; 
2011,2011-10-08,Viana do Castelo,Ponte de Lima,Gondufe,PARASÍSO - GONDUFE (RENDUFE),41.7655223,-8.5126716,NC,154.0,2011-10-08T22:00,15.9,61,8.5,14.4,0.0,0.0,0.0,0.0,0,1024.1,1005.7,0,0,0,0,0.03,0.7,7.4,15.5,51,65,15.1,18.0,21.0,21.0,19.7,0.099,0.155,0.195,0.308,0,0.0,0.0,0.0,0.0,0.0,0.0,0.0,0.0,0.0,0.0,0.0,0.0,0.0,Magnoliopsida; Eucalyptus L'Hér.; Vitis vinifera L.; Tracheophyta
2011,2011-10-08,Viana do Castelo,Ponte de Lima,Vitorino dos Piães,CARREIRAS - VITORINO DE PIAES (Carreiras),41.6815613,-8.6232985,NC,129.0,2011-10-08T23:00,15.4,64,8.7,13.5,0.0,0.0,0.0,0.0,0,1024.5,1009.0,0,0,0,0,0.04,0.63,10.8,18.7,37,56,23.4,17.7,21.3,21.3,20.0,0.099,0.154,0.193,0.306,0,0.0,0.0,0.0,0.0,0.0,0.0,0.0,0.0,0.0,0.0,0.0,0.0,0.0,Tracheophyta; Eucalyptus L'Hér.
2011,2011-10-13,Vila Real,Chaves,Nogueira da Montanha,GONDAR,41.6660184,-7.4317518,NC,823.0,2011-10-13T11:00,22.4,28,3.0,20.4,0.0,0.0,0.0,0.0,0,1022.5,930.5,0,0,0,0,0.37,1.95,3.7,4.4,191,189,17.3,22.8,17.5,18.4,18.2,0.101,0.152,0.207,0.319,1,3600.0,618.9,530.2,88.7,868.0,618.9,839.4,579.0,496.0,83.0,868.0,579.0,785.3,Magnoliopsida; Castanea sativa Mill.; Tracheophyta
2011,2011-10-13,Bragança,Torre de Moncorvo,Açoreira,Sequeiros,41.1394582,-7.0406665,NC,395.0,2011-10-13T20:00,24.0,30,5.4,22.2,0.0,0.0,0.0,0.0,0,1019.0,973.9,0,0,0,0,0.05,2.08,4.8,6.0,297,343,11.2,20.8,21.6,20.8,21.1,0.12,0.163,0.197,0.306,0,0.0,0.0,0.0,0.0,0.0,0.0,0.0,0.0,0.0,0.0,0.0,0.0,0.0,Olea europaea L.; Tracheophyta; Pinales; Magnoliopsida
2011,2011-10-17,Viana do Castelo,Ponte de Lima,Bárrio,POÇO DO RIBEIRO - BARRIO (Poço de Cabaços),41.8345128,-8.5850074,NC,140.0,2011-10-17T00:00,15.6,84,12.9,16.1,0.0,0.0,0.0,0.0,0,1020.9,1004.2,1,0,1,0,0.0,0.29,2.9,3.6,83,135,5.8,16.0,20.8,20.8,19.8,0.098,0.151,0.197,0.308,0,0.0,0.0,0.0,0.0,0.0,0.0,0.0,0.0,0.0,0.0,0.0,0.0,0.0,Pinus pinaster Aiton; Tracheophyta; Magnoliopsida; Quercus L.; Vitis vinifera L.; Eucalyptus L'Hér.
2011,2011-10-17,Vila Real,Valpaços,Vassal,Monsalvargas (Monsalvarga),41.6331936,-7.3641666,NC,538.0,2011-10-17T01:00,14.1,62,7.0,12.6,0.0,0.0,0.0,0.0,0,1021.4,958.5,13,0,11,20,0.01,0.61,5.1,9.0,39,74,10.1,15.2,20.0,20.1,19.9,0.12,0.147,0.171,0.308,0,0.0,0.0,0.0,0.0,0.0,0.0,0.0,0.0,0.0,0.0,0.0,0.0,0.0,Olea europaea L.; Tracheophyta; Magnoliopsida; Pinus pinaster Aiton; Vitis vinifera L.; Castanea sativa Mill.
2011,2011-10-17,Porto,Baião,Santa Marinha do Zêzere,Fonseca,41.1418377,-7.9500623,Desconhecida,317.0,2011-10-17T02:00,14.9,79,11.4,14.8,0.0,0.0,0.0,0.0,0,1020.7,983.2,2,0,4,0,0.0,0.35,3.9,5.0,68,111,10.4,15.4,20.4,20.3,19.7,0.096,0.15,0.198,0.309,0,0.0,0.0,0.0,0.0,0.0,0.0,0.0,0.0,0.0,0.0,0.0,0.0,0.0,Tracheophyta; Magnoliopsida; Eucalyptus L'Hér.; Vitis vinifera L.
2011,2011-10-17,Porto,Baião,Gestaçô,FURA CASAS (Furacasas),41.1677523,-7.9285981,Desconhecida,618.0,2011-10-17T02:00,14.9,72,10.0,14.5,0.0,0.0,0.0,0.0,0,1021.1,949.4,12,0,20,1,0.0,0.47,2.9,4.1,30,45,7.2,14.0,18.6,18.5,18.3,0.118,0.149,0.19,0.312,0,0.0,0.0,0.0,0.0,0.0,0.0,0.0,0.0,0.0,0.0,0.0,0.0,0.0,Pinus pinaster Aiton; Magnoliopsida; Eucalyptus L'Hér.; Tracheophyta; Vitis vinifera L.; Quercus L.; 
2011,2011-08-20,Portalegre,Elvas,Assunção,QUINTA DAS GALEGAS,38.867436350000006,-7.1730740566036335,Desconhecida,275.0,2011-08-20T07:00,24.8,61,16.8,26.0,0.0,0.0,0.0,0.0,1,1014.3,982.9,27,0,0,91,0.08,1.22,8.2,15.9,345,342,13.3,25.5,28.3,26.1,22.0,0.15,0.163,0.205,0.294,1,1712.7,111.3,35.3,76.0,154.5,95.6,305.5,63.0,20.0,43.0,132.7,63.0,172.9,Quercus suber L.; Tracheophyta; Quercus rotundifolia Lam.; Magnoliopsida; Olea europaea L.; Pinus pinea L.; Vitis vinifera L.; Pinus pinaster Aiton; 
2011,2011-08-22,Castelo Branco,Fundão,Bogas de Cima,Boxinos,40.0879098,-7.6742972,NC,674.0,2011-08-22T14:00,23.4,53,13.2,23.1,0.0,0.0,0.0,0.0,3,1016.3,940.9,100,93,89,0,0.34,1.36,9.4,12.0,220,221,24.8,27.1,24.2,24.3,19.7,0.197,0.198,0.258,0.372,1,2861.67,438.3,128.7,309.6,155.4,438.3,1107.3,453.0,133.0,320.0,155.4,453.0,1144.4,Olea europaea L.; Eucalyptus L'Hér.; Pinus pinaster Aiton; Magnoliopsida; Pinales; Tracheophyta; Pinus pinea L.; 
2011,2011-10-12,Porto,Maia,Águas Santas,RUA CORISCOS (Rua dos Coriscos),41.2077591,-8.5727501,NC,123.0,2011-10-12T16:00,28.3,35,11.2,27.2,0.0,0.0,0.0,0.0,0,1020.2,1006.1,0,0,0,0,0.33,2.51,10.0,13.0,300,304,17.3,29.9,22.9,21.5,20.5,0.115,0.143,0.188,0.315,1,3600.0,323.9,263.9,60.0,766.6,323.9,472.9,394.0,321.0,73.0,766.6,394.0,575.2,Tracheophyta; Pinus pinaster Aiton; Magnoliopsida; Eucalyptus L'Hér.; 
2011,2011-10-12,Porto,Gondomar,São Pedro da Cova,Beloi,41.1364483,-8.4900971,NC,51.0,2011-10-12T17:00,27.8,39,12.4,27.3,0.0,0.0,0.0,0.0,0,1020.3,1014.4,0,0,0,0,0.2,2.29,8.3,13.0,304,309,17.3,29.6,23.7,22.2,21.2,0.115,0.139,0.178,0.316,1,3600.0,144.5,107.4,37.1,619.2,144.5,238.2,218.0,162.0,56.0,619.2,218.0,359.4,Tracheophyta; Eucalyptus L'Hér.; Magnoliopsida; Pinus pinaster Aiton
2011,2011-10-12,Porto,Amarante,Travanca,Carreira,41.27837235,-8.192587428399488,NC,226.0,2011-10-12T18:00,26.2,37,10.6,25.4,0.0,0.0,0.0,0.0,0,1020.6,994.7,0,0,0,0,0.09,2.13,7.3,8.7,279,294,14.0,26.2,22.0,20.6,19.8,0.112,0.148,0.188,0.312,0,1832.4,0.0,0.0,0.0,0.0,0.0,0.0,49.0,30.0,19.0,248.7,49.0,106.6,Tracheophyta; Magnoliopsida; Eucalyptus L'Hér.; Vitis vinifera L.; Pinus pinaster Aiton; 
2011,2011-10-12,Bragança,Vinhais,Penhas Juntas,PENHAS JUNTAS,41.741252,-7.012273,NC,749.0,2011-10-12T19:00,22.2,33,5.1,20.5,0.0,0.0,0.0,0.0,0,1021.6,937.5,0,0,0,0,0.03,1.8,3.9,5.4,326,270,10.1,22.5,21.0,19.8,19.5,0.125,0.14,0.17,0.311,0,0.0,0.0,0.0,0.0,0.0,0.0,0.0,0.0,0.0,0.0,0.0,0.0,0.0,Magnoliopsida; Tracheophyta; Castanea sativa Mill.; Pinales
2011,2011-08-20,Leiria,Leiria,Colmeias,Barreiro,39.5856923,-8.8578576,Desconhecida,158.0,2011-08-20T21:00,29.8,41,15.3,29.8,0.0,0.0,0.0,0.0,1,1011.0,993.2,29,0,7,81,0.12,2.46,12.2,27.0,88,92,30.2,28.8,27.0,22.8,20.4,0.059,0.081,0.13,0.232,0,0.0,0.0,0.0,0.0,0.0,0.0,0.0,0.0,0.0,0.0,0.0,0.0,0.0,Tracheophyta; Pinus pinaster Aiton; Eucalyptus L'Hér.; Magnoliopsida; Acacia Mill.; Olea europaea L.; Quercus L.
2011,2011-08-21,Porto,Baião,Ancede,PICÕES (OVIL),41.1153141,-8.0617223,Desconhecida,340.0,2011-08-21T02:00,22.6,61,14.6,23.1,0.0,0.0,0.0,0.0,0,1012.2,973.4,19,0,24,15,0.03,1.08,6.9,10.9,99,98,15.5,23.4,26.4,22.2,18.4,0.097,0.142,0.214,0.33,0,0.0,0.0,0.0,0.0,0.0,0.0,0.0,0.0,0.0,0.0,0.0,0.0,0.0,Magnoliopsida; Pinus pinaster Aiton; Tracheophyta; Vitis vinifera L.; Quercus suber L.; Acacia Mill.; Eucalyptus L'Hér.; Quercus L.; 
2011,2011-08-21,Porto,Maia,Pedrouços,Teibas,41.1870487,-8.5951001,NC,112.0,2011-08-21T02:00,23.6,82,20.4,26.9,0.0,0.0,0.0,0.0,0,1011.7,998.8,11,0,17,4,0.0,0.52,5.4,10.9,70,84,14.4,24.4,26.2,22.4,19.4,0.119,0.139,0.204,0.334,0,0.0,0.0,0.0,0.0,0.0,0.0,0.0,0.0,0.0,0.0,0.0,0.0,0.0,Tracheophyta; Magnoliopsida; 
2011,2011-08-21,Lisboa,Torres Vedras,Matacães,Serra dos Moinhos,39.09477445,-9.206868333706554,Desconhecida,191.0,2011-08-21T00:00,19.7,86,17.4,20.8,0.0,0.0,0.0,0.0,0,1013.6,991.3,12,6,0,21,0.01,0.31,10.6,19.1,242,248,28.8,23.3,26.7,23.1,20.2,0.084,0.16,0.225,0.323,0,0.0,0.0,0.0,0.0,0.0,0.0,0.0,0.0,0.0,0.0,0.0,0.0,0.0,Tracheophyta; Vitis vinifera L.; Eucalyptus L'Hér.; Magnoliopsida; Pinus pinaster Aiton; Olea europaea L.; 
2011,2011-08-21,Porto,Gondomar,Fânzeres,ESTAÇÃO DE FANZERES (Estação Elevatória e Depósito de Água),41.1712712,-8.54277892397772,NC,113.0,2011-08-21T07:00,23.8,71,18.3,25.5,0.0,0.0,0.0,0.0,1,1012.4,999.3,20,0,9,49,0.07,0.84,8.9,17.4,159,167,22.3,23.5,25.9,22.9,19.6,0.106,0.138,0.199,0.329,1,2608.65,115.3,58.5,56.7,276.1,93.8,283.4,63.0,32.0,31.0,224.8,63.0,154.9,Magnoliopsida; Tracheophyta
2011,2011-08-21,Vila Real,Montalegre,Vila da Ponte,Pisões (TOURÉM),41.7206089,-7.8962885,NC,742.0,2011-08-21T09:00,25.3,48,13.4,25.7,0.0,0.0,0.0,0.0,2,1015.2,933.2,57,0,46,97,0.22,1.69,4.9,6.9,144,141,23.4,24.4,23.5,20.5,16.5,0.099,0.147,0.22,0.334,1,3600.0,331.4,107.4,224.1,188.2,331.4,762.2,284.0,92.0,192.0,188.2,284.0,653.2,Tracheophyta; Magnoliopsida; Pinus pinaster Aiton
2011,2011-10-17,Porto,Gondomar,São Cosme,ISABEL LARAÑAGA (FANZERES),41.1548538,-8.5535287,NC,55.0,2011-10-17T20:00,18.3,82,15.1,19.1,0.0,0.0,0.0,0.0,0,1020.8,1014.2,0,0,0,0,0.0,0.39,6.0,9.4,343,353,14.8,21.0,22.3,22.0,21.0,0.114,0.14,0.187,0.313,0,0.0,0.0,0.0,0.0,0.0,0.0,0.0,0.0,0.0,0.0,0.0,0.0,0.0,Magnoliopsida; Tracheophyta; Eucalyptus L'Hér.
2011,2011-10-17,Porto,Marco de Canaveses,Vila Boa do Bispo,R. NOVA DAS PEREIRAS (Regada Nova),41.1332787,-8.2097194,NC,208.0,2011-10-17T20:00,20.1,64,13.2,20.9,0.0,0.0,0.0,0.0,0,1020.9,996.5,0,0,0,0,0.0,0.84,1.5,2.3,256,321,8.6,20.9,22.0,21.0,20.4,0.1,0.149,0.199,0.312,0,0.0,0.0,0.0,0.0,0.0,0.0,0.0,0.0,0.0,0.0,0.0,0.0,0.0,Tracheophyta; Pinus pinaster Aiton; Vitis vinifera L.; Quercus L.; Eucalyptus L'Hér.; Magnoliopsida; Acacia Mill.; 
2011,2011-10-13,Braga,Guimarães,São Torcato,SOBREDO (S. TORCATO) (Sobredo),41.48619595,-8.256837325287776,NC,283.0,2011-10-13T18:00,27.4,29,7.8,25.7,0.0,0.0,0.0,0.0,0,1018.6,986.4,0,0,0,0,0.1,2.58,7.6,10.9,315,326,15.1,27.1,22.6,20.7,19.8,0.094,0.144,0.184,0.301,0,1725.34,0.0,0.0,0.0,0.0,0.0,0.0,45.0,27.0,18.0,229.6,45.0,102.4,Magnoliopsida; Pinus pinaster Aiton; Tracheophyta; Vitis vinifera L.
2011,2011-10-13,Porto,Marco de Canaveses,Avessadas,BALHÃES (BANHO E CARVALHOSA),41.1593952,-8.1791206,NC,239.0,2011-10-13T22:00,20.1,47,8.4,18.7,0.0,0.0,0.0,0.0,0,1018.7,990.8,0,0,0,0,0.05,1.25,7.2,9.2,84,45,14.0,18.8,21.7,20.4,19.7,0.104,0.154,0.199,0.311,0,0.0,0.0,0.0,0.0,0.0,0.0,0.0,0.0,0.0,0.0,0.0,0.0,0.0,Magnoliopsida; Tracheophyta; Pinus pinaster Aiton; Eucalyptus L'Hér.; Vitis vinifera L.; Pinales; Acacia Mill.; 
2011,2011-10-04,Porto,Amarante,Mancelos,Fundo de Vila,41.2757739,-8.1585546,NC,247.0,2011-10-04T01:00,18.6,72,13.5,19.1,0.0,0.0,0.0,0.0,0,1024.8,995.7,7,0,0,23,0.0,0.6,4.5,6.0,104,57,8.3,18.5,22.7,21.1,19.9,0.093,0.158,0.198,0.311,0,0.0,0.0,0.0,0.0,0.0,0.0,0.0,0.0,0.0,0.0,0.0,0.0,0.0,Tracheophyta; Magnoliopsida; Eucalyptus L'Hér.; Pinus pinaster Aiton; Vitis vinifera L.; 
2011,2011-10-04,Porto,Vila do Conde,Mindelo,RUA VIA CIRCULAR (RIO MAU),41.3135328,-8.7229571,NC,31.0,2011-10-04T05:00,16.9,94,16.0,17.8,0.0,0.0,0.0,0.0,0,1024.2,1020.5,12,0,0,40,0.0,0.11,8.4,14.5,25,27,14.4,18.6,23.0,22.0,20.6,0.092,0.15,0.202,0.312,0,0.0,0.0,0.0,0.0,0.0,0.0,0.0,0.0,0.0,0.0,0.0,0.0,0.0,Eucalyptus L'Hér.; Tracheophyta; Pinus pinaster Aiton
2011,2011-10-04,Braga,Amares,Paranhos,MONTE S.PEDRO (PARANHOS) M.2 (Devesa do Monte),41.6702569,-8.344370479057591,NC,418.0,2011-10-04T12:00,28.2,31,9.4,28.5,0.0,0.0,0.0,0.0,0,1025.3,978.1,0,0,0,0,0.46,2.65,2.5,3.3,352,13,15.5,28.1,20.5,19.5,18.4,0.108,0.167,0.206,0.316,1,3600.0,684.4,590.0,94.4,853.1,684.4,945.4,667.0,575.0,92.0,853.1,667.0,921.5,Magnoliopsida; Eucalyptus L'Hér.; Tracheophyta; Pinus pinaster Aiton; Quercus L.; 
2011,2011-09-20,Porto,Santo Tirso,Reguenga,STA.MARIA (Enfermaria),41.2755959,-8.4572825,NC,157.0,2011-09-20T15:00,27.2,31,8.4,26.4,0.0,0.0,0.0,0.0,0,1017.4,999.4,15,0,0,49,0.48,2.51,7.6,8.6,301,303,20.2,29.5,21.2,20.9,20.0,0.139,0.165,0.184,0.319,1,3600.0,614.4,527.2,87.3,873.5,614.4,818.7,669.0,574.0,95.0,873.5,669.0,891.4,Pinus pinaster Aiton; Eucalyptus L'Hér.; Tracheophyta; Vitis vinifera L.
2011,2011-09-20,Braga,VIZELA,Caldas de Vizela_Sao Miguel,FRADES DE CIMA (S.MIGUEL)M2 (Souto dos Frades),41.381217,-8.304166266030755,NC,173.0,2011-09-20T18:00,23.9,46,11.5,23.2,0.0,0.0,0.0,0.0,1,1017.6,997.6,28,0,0,94,0.13,1.61,8.7,15.5,315,324,19.8,25.4,21.4,20.4,19.6,0.117,0.175,0.195,0.311,1,3600.0,71.1,37.3,33.7,371.7,71.1,136.2,139.0,73.0,66.0,371.7,139.0,266.4,Magnoliopsida; Tracheophyta; Eucalyptus L'Hér.
2011,2011-09-20,Viana do Castelo,Arcos de Valdevez,Távora (Santa Maria),SILVEIROS - TAVORA STª MARIA (Silveira),41.8138422,-8.46216,NC,95.0,2011-09-20T21:00,18.3,81,15.0,18.2,0.0,0.0,0.0,0.0,1,1018.2,1006.9,27,0,0,90,0.02,0.4,12.4,21.7,350,355,19.8,20.1,21.5,20.5,19.8,0.126,0.19,0.202,0.315,0,0.0,0.0,0.0,0.0,0.0,0.0,0.0,0.0,0.0,0.0,0.0,0.0,0.0,Tracheophyta; Vitis vinifera L.; Eucalyptus L'Hér.; Magnoliopsida
2011,2011-10-06,Viana do Castelo,Ponte de Lima,Boalhosa,ARMADA - BOALHOSA (Armada),41.7352953,-8.4788464,NC,538.0,2011-10-06T05:00,14.5,80,11.0,13.8,0.0,0.0,0.0,0.0,0,1023.8,960.8,8,0,8,11,0.0,0.34,6.6,12.0,49,16,25.2,15.4,19.9,18.9,17.5,0.105,0.165,0.206,0.316,0,0.0,0.0,0.0,0.0,0.0,0.0,0.0,0.0,0.0,0.0,0.0,0.0,0.0,Magnoliopsida; Eucalyptus L'Hér.; Tracheophyta
2011,2011-10-04,Porto,Maia,Águas Santas,CORISCOS (CORIM),41.2065185,-8.5670605,NC,137.0,2011-10-04T07:00,16.0,95,15.3,16.7,0.0,0.0,0.0,0.0,0,1024.4,1008.0,8,0,0,28,0.01,0.09,7.6,11.8,59,59,16.6,17.6,22.0,21.5,20.2,0.12,0.148,0.192,0.318,1,0.0,15.0,5.0,10.0,57.3,6.0,98.5,6.0,2.0,4.0,27.6,6.0,39.4,Tracheophyta; Pinus pinaster Aiton; Magnoliopsida; Eucalyptus L'Hér.; 
2011,2011-10-12,Bragança,Vinhais,Fresulfe,DINE - PNM (Dine),41.8891449,-6.9179449,NC,795.0,2011-10-12T09:00,20.2,36,4.7,18.2,0.0,0.0,0.0,0.0,0,1024.7,934.9,0,0,0,0,0.19,1.52,5.2,8.6,56,57,15.5,17.0,17.6,19.2,18.7,0.121,0.136,0.178,0.317,1,3600.0,369.0,291.0,78.0,720.7,369.0,554.5,298.0,235.0,63.0,720.7,298.0,447.8,Tracheophyta; Magnoliopsida; Quercus L.; Castanea sativa Mill.; Pinales
2011,2011-10-12,Porto,Paredes,Sobrosa,Lomba,41.2497289,-8.3552315,NC,315.0,2011-10-12T12:00,28.3,25,6.6,27.3,0.0,0.0,0.0,0.0,0,1021.9,986.2,0,0,0,0,0.48,2.88,6.2,8.0,100,98,17.6,27.2,19.8,20.2,19.4,0.122,0.14,0.175,0.314,1,3600.0,680.5,588.2,92.4,893.1,680.5,904.5,663.0,573.0,90.0,893.1,663.0,881.2,Magnoliopsida; Pinus pinaster Aiton; Eucalyptus L'Hér.; Tracheophyta; Vitis vinifera L.
2011,2011-10-11,Lisboa,ODIVELAS,Ramada,SERRA DA AMOREIRA (Bairro Novo Casal da Serra),38.80800875,-9.196381569305192,NC,233.0,2011-10-11T03:00,16.7,68,10.9,16.1,0.0,0.0,0.0,0.0,0,1022.4,994.8,0,0,0,0,0.01,0.6,6.2,13.3,10,41,11.5,17.1,22.3,22.5,21.4,0.089,0.155,0.208,0.315,0,0.0,0.0,0.0,0.0,0.0,0.0,0.0,0.0,0.0,0.0,0.0,0.0,0.0,Eucalyptus L'Hér.; Tracheophyta; Magnoliopsida; Olea europaea L.; Pinus pinea L.; 
2011,2011-10-11,Bragança,Vinhais,Vale das Fontes,VALE DAS FONTES,41.7210369,-7.1343806,NC,478.0,2011-10-11T10:00,22.6,36,6.8,21.5,0.0,0.0,0.0,0.0,0,1026.7,971.8,0,0,0,0,0.28,1.76,2.2,2.6,81,74,12.2,21.4,18.5,20.9,20.4,0.117,0.135,0.169,0.307,1,3600.0,524.6,437.8,86.9,819.0,524.6,733.7,465.0,388.0,77.0,819.0,465.0,650.3,Olea europaea L.; Magnoliopsida; Vitis vinifera L.; Castanea sativa Mill.; Pinus pinaster Aiton; Tracheophyta
2011,2011-10-11,Porto,Paredes,Aguiar de Sousa,Alvre,41.1312572,-8.4159602,NC,83.0,2011-10-11T14:00,30.5,24,7.7,29.9,0.0,0.0,0.0,0.0,0,1022.9,1013.4,0,0,0,0,0.46,3.32,4.0,4.5,333,346,11.5,31.6,21.9,21.8,20.9,0.11,0.147,0.19,0.314,1,3600.0,611.2,526.9,84.3,881.0,611.2,820.9,645.0,556.0,89.0,881.0,645.0,866.3,Magnoliopsida; Pinus pinaster Aiton; Eucalyptus L'Hér.; Tracheophyta; Vitis vinifera L.; Pinales
2011,2011-10-10,Porto,Gondomar,Lomba,LUGAR LAVERCOS (Lugar Cheio),41.0617409,-8.4108172,NC,76.0,2011-10-10T01:00,15.2,66,9.0,13.2,0.0,0.0,0.0,0.0,0,1022.9,1013.7,0,0,0,0,0.04,0.58,12.0,24.1,81,93,18.4,16.7,21.3,22.0,20.9,0.111,0.149,0.191,0.315,0,0.0,0.0,0.0,0.0,0.0,0.0,0.0,0.0,0.0,0.0,0.0,0.0,0.0,Magnoliopsida; Eucalyptus L'Hér.; Vitis vinifera L.; Pinus pinaster Aiton; Tracheophyta; 
2011,2011-10-11,Faro,Silves,Pêra,Várzeas de Armação de Pêra,37.1205458,-8.3412517,Desconhecida,39.0,2011-10-11T16:00,26.9,43,13.2,26.3,0.0,0.0,0.0,0.0,0,1020.9,1016.4,0,0,0,0,0.34,2.03,11.4,14.3,145,141,30.2,30.9,24.6,24.6,23.8,0.087,0.155,0.202,0.29,1,3600.0,358.4,290.5,67.9,764.4,358.4,521.8,433.0,351.0,82.0,764.4,433.0,630.4,Olea europaea L.; Tracheophyta; Magnoliopsida; Vitis vinifera L.; Quercus suber L.; 
2011,2011-10-01,Aveiro,Águeda,Borralha,Souto Rio (Souto do Rio),40.5608336,-8.424946263874578,Desconhecida,13.0,2011-10-01T03:00,17.9,85,15.3,18.9,0.0,0.0,0.0,0.0,0,1015.5,1014.0,18,0,0,60,0.0,0.31,5.4,12.1,82,120,10.1,18.4,23.9,22.1,21.0,0.064,0.087,0.102,0.212,0,0.0,0.0,0.0,0.0,0.0,0.0,0.0,0.0,0.0,0.0,0.0,0.0,0.0,Eucalyptus L'Hér.; Tracheophyta; Magnoliopsida; Acacia Mill.
2011,2011-10-01,Porto,Vila Nova de Gaia,São Felix da Marinha,Brito,41.0245589,-8.64506813846685,NC,0.0,2011-10-01T17:00,31.1,28,10.4,30.9,0.0,0.0,0.0,0.0,0,1014.6,1014.6,0,0,0,0,0.18,3.26,2.3,8.2,108,128,23.8,32.6,25.1,22.3,21.3,0.093,0.125,0.164,0.294,1,3600.0,198.6,152.9,45.7,656.6,198.6,317.9,274.0,211.0,63.0,656.6,274.0,438.6,Tracheophyta; Magnoliopsida; Pinales; Eucalyptus L'Hér.
2011,2011-10-16,Braga,Póvoa de Lanhoso,Galegos,BARREIROS(GALEGOS)M7 (Barreiros),41.5665114,-8.2823015,NC,325.0,2011-10-16T21:00,17.8,68,11.8,17.6,0.0,0.0,0.0,0.0,1,1021.3,983.2,20,0,2,63,0.01,0.65,5.1,4.9,51,54,8.3,19.2,21.3,20.3,19.3,0.098,0.146,0.191,0.305,0,0.0,0.0,0.0,0.0,0.0,0.0,0.0,0.0,0.0,0.0,0.0,0.0,0.0,Eucalyptus L'Hér.; Tracheophyta; Magnoliopsida; Quercus L.
2011,2011-10-16,Lisboa,Sobral Monte Agraço,São Quintino,Chã,39.005968800000005,-9.144093214982062,Desconhecida,280.0,2011-10-16T21:00,19.5,67,13.2,19.2,0.0,0.0,0.0,0.0,1,1020.3,987.6,35,0,17,82,0.03,0.75,9.7,19.9,345,355,16.9,21.0,22.6,22.1,21.1,0.089,0.154,0.206,0.314,0,0.0,0.0,0.0,0.0,0.0,0.0,0.0,0.0,0.0,0.0,0.0,0.0,0.0,Tracheophyta; Eucalyptus L'Hér.; Magnoliopsida
2011,2011-10-16,Vila Real,Valpaços,Lebução,LEBUÇÃO,41.7686864,-7.2364979,NC,586.0,2011-10-16T22:00,16.6,45,4.7,14.6,0.0,0.0,0.0,0.0,1,1022.1,954.3,41,0,22,94,0.03,1.04,5.0,2.8,30,50,8.3,18.2,20.8,20.3,19.9,0.121,0.134,0.167,0.307,0,0.0,0.0,0.0,0.0,0.0,0.0,0.0,0.0,0.0,0.0,0.0,0.0,0.0,Magnoliopsida; Vitis vinifera L.; Castanea sativa Mill.; Tracheophyta; Pinus pinaster Aiton
2011,2011-10-16,Porto,Baião,Santa Cruz do Douro,Pazide,41.124492,-8.0130669,Desconhecida,449.0,2011-10-16T22:00,19.1,62,11.6,19.0,0.0,0.0,0.0,0.0,0,1021.9,969.9,16,0,2,50,0.01,0.84,3.7,4.4,79,55,7.2,18.8,21.2,20.2,19.6,0.119,0.14,0.178,0.314,0,0.0,0.0,0.0,0.0,0.0,0.0,0.0,0.0,0.0,0.0,0.0,0.0,0.0,Magnoliopsida; Pinus pinaster Aiton; Vitis vinifera L.; Quercus L.; Tracheophyta; Eucalyptus L'Hér.; Olea europaea L.; 
2011,2011-10-16,Braga,Braga,Escudeiros,MONTE(ESCUDEIROS)M1 (Monte),41.4755351,-8.430083150526482,NC,229.0,2011-10-16T23:00,15.5,78,11.8,15.3,0.0,0.0,0.0,0.0,0,1021.1,993.9,1,0,0,2,0.0,0.38,5.5,7.2,58,84,7.6,17.2,21.3,20.7,19.7,0.098,0.144,0.186,0.301,0,0.0,0.0,0.0,0.0,0.0,0.0,0.0,0.0,0.0,0.0,0.0,0.0,0.0,Eucalyptus L'Hér.; Pinales; Pinus pinaster Aiton; Tracheophyta; Magnoliopsida
2011,2011-10-09,Aveiro,Santa Maria da Feira,Sanguedo,Rua da Boa Nova (Rua da Fonte da Ribeira),41.0083552,-8.5188259,Desconhecida,158.0,2011-10-09T01:00,14.1,73,9.3,12.7,0.0,0.0,0.0,0.0,0,1023.7,1004.7,0,0,0,0,0.02,0.43,8.6,19.8,75,78,20.9,16.1,21.7,21.9,20.5,0.107,0.122,0.151,0.289,0,0.0,0.0,0.0,0.0,0.0,0.0,0.0,0.0,0.0,0.0,0.0,0.0,0.0,Tracheophyta; Magnoliopsida; Eucalyptus L'Hér.
2011,2011-10-09,Porto,Gondomar,São Cosme,ESTRADA Dº MIGUEL (Estrada),41.14252425,-8.574888868245907,NC,22.0,2011-10-09T01:00,15.6,83,12.7,15.1,0.0,0.0,0.0,0.0,0,1023.9,1021.2,0,0,0,0,0.01,0.31,9.4,15.5,50,77,16.9,17.6,22.2,22.4,21.0,0.116,0.146,0.195,0.323,0,0.0,0.0,0.0,0.0,0.0,0.0,0.0,0.0,0.0,0.0,0.0,0.0,0.0,Tracheophyta; Magnoliopsida; Eucalyptus L'Hér.
2011,2011-10-09,Porto,Vila Nova de Gaia,Pedroso,Rua de Molares,41.064143,-8.5572235,NC,131.0,2011-10-09T02:00,15.0,78,11.2,13.9,0.0,0.0,0.0,0.0,0,1023.8,1008.0,0,0,0,0,0.02,0.38,10.5,24.0,74,82,23.8,16.4,21.3,21.7,20.3,0.116,0.146,0.195,0.323,0,0.0,0.0,0.0,0.0,0.0,0.0,0.0,0.0,0.0,0.0,0.0,0.0,0.0,Magnoliopsida; Eucalyptus L'Hér.; Tracheophyta
2011,2011-10-09,Porto,Felgueiras,Idães,Barrosas,41.3268566,-8.261018678170327,NC,487.0,2011-10-09T05:00,10.9,65,4.6,8.4,0.0,0.0,0.0,0.0,0,1025.7,967.7,0,0,0,0,0.02,0.46,8.3,20.9,88,90,33.1,12.5,18.3,19.7,18.6,0.099,0.148,0.185,0.302,0,0.0,0.0,0.0,0.0,0.0,0.0,0.0,0.0,0.0,0.0,0.0,0.0,0.0,Eucalyptus L'Hér.; Tracheophyta; Vitis vinifera L.; Magnoliopsida; Pinus pinaster Aiton
2011,2011-10-21,Vila Real,Montalegre,Salto,Pereira,41.6692333,-7.9148985,NC,865.0,2011-10-21T14:00,16.9,40,3.1,14.8,0.0,0.0,0.0,0.0,0,1016.2,918.6,0,0,0,0,0.34,1.16,5.4,6.8,176,180,19.4,20.4,14.5,17.3,17.6,0.106,0.158,0.216,0.32,1,3600.0,559.3,480.4,79.0,894.7,559.3,741.2,595.0,511.0,84.0,894.7,595.0,788.4,Magnoliopsida; Tracheophyta; Pinales; Pinus pinaster Aiton; Quercus L.
2011,2011-10-21,Aveiro,Arouca,Albergaria da Serra,Mizarela,40.8643485,-8.2826711,Desconhecida,910.0,2011-10-21T15:00,18.9,31,1.4,16.2,0.0,0.0,0.0,0.0,0,1015.4,913.8,0,0,0,0,0.3,1.51,5.5,7.1,101,105,21.2,22.0,15.6,17.4,17.2,0.116,0.141,0.182,0.313,1,3600.0,439.7,369.7,70.0,836.6,439.7,610.0,496.0,417.0,79.0,836.6,496.0,688.1,Magnoliopsida; Quercus L.; Eucalyptus L'Hér.; Tracheophyta
2011,2011-10-21,Porto,Póvoa de Varzim,Estela,SERRALHEIRA (Serra),41.450335,-8.7529154,NC,25.0,2011-10-21T15:00,23.6,31,5.6,21.7,0.0,0.0,0.0,0.0,0,1014.6,1011.7,0,0,0,0,0.33,2.01,5.9,8.4,169,160,15.1,26.1,19.8,21.1,20.8,0.095,0.14,0.186,0.299,1,3600.0,436.0,364.1,71.9,828.1,436.0,607.0,491.0,410.0,81.0,828.1,491.0,683.5,Tracheophyta
2011,2011-10-21,Porto,Felgueiras,Margaride Santa Eulália,RUA BOMBEIROS VOLUNTÁRIOS (JUGUEIROS),41.3667229,-8.203496330346734,NC,298.0,2011-10-21T15:00,21.3,33,4.4,19.2,0.0,0.0,0.0,0.0,0,1014.9,980.5,0,0,0,0,0.31,1.7,5.4,6.3,110,114,20.2,24.4,18.0,20.0,19.9,0.098,0.141,0.181,0.297,1,3600.0,438.5,367.6,70.9,843.1,438.5,602.0,495.0,415.0,80.0,843.1,495.0,679.6,Magnoliopsida; Tracheophyta; Eucalyptus L'Hér.
2011,2011-10-13,Porto,Vila Nova de Gaia,Vilar de Andorinho,HEROIS DO ULTRAMAR (VILAR DE ANDORINHO),41.1046652,-8.573538,NC,130.0,2011-10-13T22:00,22.0,51,11.4,21.3,0.0,0.0,0.0,0.0,0,1018.4,1003.2,0,0,0,0,0.05,1.3,7.7,15.2,62,36,17.3,22.0,23.2,21.6,20.4,0.114,0.143,0.192,0.321,0,0.0,0.0,0.0,0.0,0.0,0.0,0.0,0.0,0.0,0.0,0.0,0.0,0.0,Tracheophyta; Magnoliopsida
2011,2011-10-13,Setúbal,Barreiro,Santo António da Charneca,"QTª DA ALEGRIA, PENALVA (SANTO ANTÓNIO DA CHARNECA)",38.6030836,-9.0203391,NC,59.0,2011-10-13T22:00,20.3,76,16.0,21.4,0.0,0.0,0.0,0.0,0,1017.9,1010.9,0,0,0,0,0.01,0.57,7.1,10.8,300,334,12.6,21.0,24.0,23.0,21.9,0.052,0.061,0.083,0.189,0,0.0,0.0,0.0,0.0,0.0,0.0,0.0,0.0,0.0,0.0,0.0,0.0,0.0,Magnoliopsida; Tracheophyta; Quercus suber L.; Pinus pinaster Aiton; Pinus pinea L.; ; Eucalyptus L'Hér.
2011,2011-10-13,Aveiro,Albergaria-a-Velha,Albergaria-a-Velha,Cubatas (RIBEIRA DE FRÁGOAS),40.690328,-8.479538190307041,Desconhecida,121.0,2011-10-13T23:00,21.0,48,9.4,19.6,0.0,0.0,0.0,0.0,0,1018.0,1003.8,0,0,0,0,0.06,1.3,8.4,15.1,70,52,14.8,21.3,24.1,22.1,20.8,0.065,0.09,0.112,0.221,0,0.0,0.0,0.0,0.0,0.0,0.0,0.0,0.0,0.0,0.0,0.0,0.0,0.0,Tracheophyta; Eucalyptus L'Hér.
2011,2011-09-27,Lisboa,Sobral Monte Agraço,São Quintino,Pedralvo,39.005968800000005,-9.144093214982062,Desconhecida,280.0,2011-09-27T21:00,19.9,63,12.7,19.1,0.0,0.0,0.0,0.0,1,1021.2,988.5,29,0,0,97,0.05,0.86,11.6,21.8,344,351,21.6,21.8,23.1,21.4,20.7,0.09,0.157,0.213,0.319,0,0.0,0.0,0.0,0.0,0.0,0.0,0.0,0.0,0.0,0.0,0.0,0.0,0.0,Tracheophyta; Eucalyptus L'Hér.; Magnoliopsida
2011,2011-09-28,Braga,VIZELA,Caldas de Vizela_Sao Miguel,L. FRADES CIMA (S. MIGUEL) (NESPEREIRA),41.381217,-8.304166266030755,NC,173.0,2011-09-28T15:00,25.8,48,14.0,26.0,0.0,0.0,0.0,0.0,3,1020.0,1000.1,83,0,91,95,0.26,1.72,7.6,10.3,155,151,23.0,25.7,21.6,20.4,19.7,0.11,0.163,0.193,0.309,1,3600.0,281.5,109.3,172.2,195.3,281.5,762.9,309.0,120.0,189.0,195.3,309.0,837.4,Magnoliopsida; Tracheophyta; Eucalyptus L'Hér.
2011,2011-09-28,Porto,TROFA,Coronado_Sao Romao,BELAVISTA (Bela),41.2814055,-8.5561704,NC,125.0,2011-09-28T18:00,25.7,51,14.7,26.8,0.0,0.0,0.0,0.0,1,1019.8,1005.3,21,0,32,6,0.07,1.62,2.7,4.1,23,45,9.7,25.8,22.6,20.8,20.1,0.115,0.154,0.194,0.315,1,3306.84,36.4,21.9,14.5,251.2,34.6,77.4,98.0,59.0,39.0,366.9,98.0,208.5,Tracheophyta; Pinus pinaster Aiton; Magnoliopsida; Eucalyptus L'Hér.
2011,2011-10-12,Viana do Castelo,Ponte de Lima,Calvelo,RUA DA FROCA - CALVELO (Rua Direita),41.6824982,-8.5451768,NC,197.0,2011-10-12T19:00,23.4,53,13.1,23.0,0.0,0.0,0.0,0.0,0,1020.9,998.0,0,0,0,0,0.06,1.37,9.6,13.4,13,8,14.8,23.7,22.0,20.4,19.5,0.098,0.151,0.193,0.307,0,0.0,0.0,0.0,0.0,0.0,0.0,0.0,0.0,0.0,0.0,0.0,0.0,0.0,Acacia Mill.; Magnoliopsida; Eucalyptus L'Hér.; Tracheophyta
2011,2011-10-12,Porto,Lousada,Vilar do Torno e Alentém,FEJO (Agueiros),41.2820939,-8.2173313,NC,255.0,2011-10-12T21:00,22.2,47,10.4,21.9,0.0,0.0,0.0,0.0,0,1021.2,991.6,0,0,0,0,0.01,1.41,3.1,2.6,111,34,7.2,20.4,22.0,20.7,20.0,0.091,0.149,0.195,0.308,0,0.0,0.0,0.0,0.0,0.0,0.0,0.0,0.0,0.0,0.0,0.0,0.0,0.0,Eucalyptus L'Hér.; Tracheophyta; Vitis vinifera L.; Pinus pinaster Aiton; Quercus L.
2011,2011-10-12,Lisboa,Loures,Bucelas,Vila Nova,38.9016248,-9.118728,NC,89.0,2011-10-12T23:00,22.9,37,7.5,21.0,0.0,0.0,0.0,0.0,0,1019.4,1009.0,0,0,0,0,0.08,1.76,8.9,22.7,43,54,19.1,22.5,24.8,23.3,22.2,0.098,0.165,0.22,0.325,0,0.0,0.0,0.0,0.0,0.0,0.0,0.0,0.0,0.0,0.0,0.0,0.0,0.0,Magnoliopsida; Tracheophyta; Olea europaea L.; Pinus pinea L.; Pinus pinaster Aiton; Eucalyptus L'Hér.; Vitis vinifera L.; 
2011,2011-10-13,Porto,TROFA,Coronado_Sao Romao,SEIXINHO (Salgueirinho),41.2814055,-8.5561704,NC,125.0,2011-10-13T00:00,16.9,85,14.4,17.5,0.0,0.0,0.0,0.0,0,1020.3,1005.4,0,0,0,0,0.0,0.29,5.9,6.5,79,71,12.2,18.1,22.5,21.5,20.4,0.104,0.143,0.189,0.31,0,0.0,0.0,0.0,0.0,0.0,0.0,0.0,0.0,0.0,0.0,0.0,0.0,0.0,Tracheophyta; Pinus pinaster Aiton; Magnoliopsida; Eucalyptus L'Hér.
2011,2011-10-13,Braga,Póvoa de Lanhoso,Ferreiros,BOUCINHA- FERREIROS - M3 (Boucinha),41.5935188,-8.3149681,NC,200.0,2011-10-13T01:00,15.4,75,11.0,14.8,0.0,0.0,0.0,0.0,0,1020.4,996.6,0,0,0,0,0.01,0.44,6.3,6.4,59,63,12.6,17.2,21.8,20.9,20.1,0.098,0.149,0.192,0.307,0,0.0,0.0,0.0,0.0,0.0,0.0,0.0,0.0,0.0,0.0,0.0,0.0,0.0,Pinus pinaster Aiton; Tracheophyta; Magnoliopsida; Vitis vinifera L.; Eucalyptus L'Hér.; 
2011,2011-10-11,Vila Real,Montalegre,Cabril,BOSTO CHÃO - PARQUE NACIONAL P. GERES(PONG) (Bosto Chão),41.7137049,-8.0360313,NC,287.0,2011-10-11T20:00,22.3,47,10.5,21.6,0.0,0.0,0.0,0.0,0,1023.1,989.8,0,0,0,0,0.04,1.42,5.7,7.9,18,344,11.5,21.8,22.1,21.1,20.5,0.102,0.153,0.198,0.311,0,0.0,0.0,0.0,0.0,0.0,0.0,0.0,0.0,0.0,0.0,0.0,0.0,0.0,Pinus pinaster Aiton; Magnoliopsida
2011,2011-10-17,Bragança,Vinhais,Soeira,SOEIRA PNM (Cerro da Soeira),41.8679384,-6.9023269,NC,982.0,2011-10-17T09:00,17.0,31,-0.3,14.2,0.0,0.0,0.0,0.0,0,1023.3,912.7,11,0,14,8,0.15,1.34,4.7,7.3,90,99,15.5,15.2,16.6,17.9,17.3,0.179,0.211,0.242,0.373,1,3600.0,320.5,220.3,100.2,575.7,320.5,527.1,256.0,176.0,80.0,575.7,256.0,421.0,Magnoliopsida; Quercus L.; Tracheophyta; Pinales
2011,2011-10-17,Viana do Castelo,Caminha,Orbacém,CABANAS - ORBACEM (Cabanas),41.8051662,-8.7630794,Desconhecida,165.0,2011-10-17T09:00,17.6,70,12.1,17.9,0.0,0.0,0.0,0.0,0,1021.3,1001.7,14,0,0,48,0.12,0.61,2.7,4.0,67,80,10.8,17.1,18.8,20.5,19.7,0.08,0.16,0.219,0.318,1,3600.0,300.9,216.7,84.1,592.6,300.9,503.7,236.0,170.0,66.0,592.6,236.0,395.1,Tracheophyta; Pinus pinaster Aiton; Magnoliopsida; Eucalyptus L'Hér.
2011,2011-10-15,Viana do Castelo,Viana do Castelo,Cardielos,S. SILVESTRE - CARDIELOS (São Silvestre),41.7130468,-8.7391575,Desconhecida,34.0,2011-10-15T08:00,15.7,70,10.2,14.6,0.0,0.0,0.0,0.0,0,1017.8,1013.7,0,0,0,0,0.05,0.54,8.4,7.6,83,90,14.4,16.6,21.2,21.2,20.3,0.083,0.16,0.216,0.318,1,2721.73,151.2,96.7,54.5,459.2,127.2,289.7,86.0,55.0,31.0,386.2,86.0,164.8,Magnoliopsida; Eucalyptus L'Hér.; Tracheophyta
2011,2011-10-15,Braga,Vila Nova de Famalicão,Calendário,PENEDA DA MOURA (Penedo),41.3999934,-8.5231027,NC,88.0,2011-10-15T08:00,16.3,63,9.3,14.7,0.0,0.0,0.0,0.0,0,1018.0,1007.5,0,0,0,0,0.07,0.68,9.6,9.2,77,101,16.9,16.8,21.2,21.6,20.6,0.116,0.142,0.179,0.308,1,2829.51,155.3,100.1,55.2,461.8,134.0,298.2,90.0,58.0,32.0,398.5,90.0,172.8,Tracheophyta; Magnoliopsida
2011,2011-10-15,Porto,Paços de Ferreira,Eiriz,Torre,41.3049149,-8.3821976,NC,329.0,2011-10-15T11:00,26.5,29,6.8,25.2,0.0,0.0,0.0,0.0,0,1019.1,981.7,0,0,0,0,0.38,2.47,4.0,4.8,117,117,15.1,24.9,19.9,20.3,19.5,0.094,0.145,0.193,0.307,1,3600.0,609.3,519.2,90.1,863.0,609.3,827.7,568.0,484.0,84.0,863.0,568.0,771.6,Tracheophyta; Eucalyptus L'Hér.; Magnoliopsida; ; Pinus pinaster Aiton; Quercus L.
2011,2011-10-15,Vila Real,Montalegre,Covelo do Gerez,Covelo (Covelo do Gerês),41.719162,-7.9806545,NC,600.0,2011-10-15T11:00,25.7,27,5.4,24.4,0.0,0.0,0.0,0.0,0,1019.7,952.5,0,0,0,0,0.36,2.41,1.6,2.3,117,129,12.2,24.0,18.7,19.2,18.5,0.1,0.15,0.197,0.309,1,3600.0,603.5,514.5,89.0,860.8,603.5,822.3,563.0,480.0,83.0,860.8,563.0,767.2,Tracheophyta; Pinus pinaster Aiton; Magnoliopsida
2011,2011-10-15,Braga,Celorico de Basto,Infesta,LAMELA(INFESTA)M-3 (Lamelas),41.4008308,-8.048084608930965,NC,433.0,2011-10-15T11:00,25.9,29,6.6,24.4,0.0,0.0,0.0,0.0,0,1019.7,970.7,0,0,0,0,0.4,2.37,5.8,7.6,90,90,19.8,24.5,19.3,20.0,19.5,0.098,0.145,0.188,0.303,1,3600.0,612.9,525.0,87.9,871.6,612.9,828.8,572.0,490.0,82.0,871.6,572.0,773.5,Magnoliopsida; Pinus pinaster Aiton; Vitis vinifera L.; Tracheophyta
2011,2011-10-13,Vila Real,Montalegre,Pitões das Junias,FRAGA DA ESPINHEIRA,41.8416862,-7.9505044,Desconhecida,1121.0,2011-10-13T10:00,20.8,37,5.5,19.0,0.0,0.0,0.0,0.0,0,1022.6,899.1,0,0,0,0,0.28,1.56,5.2,7.1,102,105,16.2,18.8,16.1,16.7,15.9,0.212,0.287,0.312,0.418,1,3600.0,505.6,420.6,85.0,810.0,505.6,713.6,446.0,371.0,75.0,810.0,446.0,629.4,Tracheophyta; Magnoliopsida
2011,2011-10-13,Braga,Póvoa de Lanhoso,Monsul,NEGRELOS(MONSUL)M3 (Negrelos),41.616209,-8.3065166,NC,103.0,2011-10-13T23:00,17.6,62,10.2,16.6,0.0,0.0,0.0,0.0,0,1018.5,1006.3,0,0,0,0,0.03,0.77,7.7,16.8,62,42,15.8,19.0,22.6,21.1,20.2,0.097,0.148,0.192,0.306,0,0.0,0.0,0.0,0.0,0.0,0.0,0.0,0.0,0.0,0.0,0.0,0.0,0.0,Tracheophyta; Pinus pinaster Aiton; Magnoliopsida; Quercus L.
2011,2011-10-13,Porto,Marco de Canaveses,Tuias,CURTINHO (Caminho Largo),41.17549355,-8.16457827943076,NC,213.0,2011-10-13T11:00,27.8,31,9.0,26.5,0.0,0.0,0.0,0.0,0,1020.7,996.4,0,0,0,0,0.43,2.59,8.3,10.8,88,88,19.4,25.3,20.0,20.5,19.9,0.104,0.155,0.2,0.311,1,3600.0,620.4,529.3,91.1,862.9,620.4,842.9,579.0,494.0,85.0,862.9,579.0,786.7,Tracheophyta; Magnoliopsida; Pinus pinaster Aiton; Vitis vinifera L.
2011,2011-10-14,Porto,Marco de Canaveses,São Lourenço do Douro,LG. GRANJA (Laranjal),41.1026966,-8.1962033,NC,276.0,2011-10-14T00:00,17.1,58,8.8,15.7,0.0,0.0,0.0,0.0,0,1018.3,985.9,0,0,0,0,0.03,0.82,7.9,13.2,90,55,15.5,17.2,21.6,20.5,19.9,0.1,0.153,0.201,0.313,0,0.0,0.0,0.0,0.0,0.0,0.0,0.0,0.0,0.0,0.0,0.0,0.0,0.0,Tracheophyta; Pinus pinaster Aiton; Vitis vinifera L.; Eucalyptus L'Hér.; Castanea sativa Mill.; Magnoliopsida; 
2011,2011-10-14,Braga,Vila Nova de Famalicão,Calendário,PENEDO MOURA(CALENDARIO)M3 (Penedo),41.40025,-8.5260957,NC,111.0,2011-10-14T02:00,16.6,64,9.8,15.1,0.0,0.0,0.0,0.0,0,1017.7,1004.5,0,0,0,0,0.03,0.68,9.6,18.1,56,49,16.9,18.1,22.3,21.4,20.4,0.116,0.143,0.18,0.308,0,0.0,0.0,0.0,0.0,0.0,0.0,0.0,0.0,0.0,0.0,0.0,0.0,0.0,Tracheophyta; Magnoliopsida
2011,2011-10-14,Porto,TROFA,Muro,LG. S. PANTALEÃO (Pelisqueira),41.3010941,-8.5941379,NC,119.0,2011-10-14T00:00,18.7,64,11.6,17.9,0.0,0.0,0.0,0.0,0,1017.9,1003.8,0,0,0,0,0.03,0.78,8.7,17.8,66,48,16.9,19.7,22.8,21.6,20.5,0.104,0.142,0.188,0.31,0,0.0,0.0,0.0,0.0,0.0,0.0,0.0,0.0,0.0,0.0,0.0,0.0,0.0,Tracheophyta; Eucalyptus L'Hér.; Magnoliopsida
2011,2011-10-14,Braga,Guimarães,Longos,SANTIAGO(LONGOS)M5 (SANTIAGO),41.5203519,-8.36354,NC,231.0,2011-10-14T01:00,15.7,61,8.3,13.9,0.0,0.0,0.0,0.0,0,1018.5,991.1,0,0,0,0,0.04,0.69,9.3,15.9,54,52,19.4,17.3,21.7,20.6,19.7,0.098,0.146,0.187,0.303,0,0.0,0.0,0.0,0.0,0.0,0.0,0.0,0.0,0.0,0.0,0.0,0.0,0.0,Eucalyptus L'Hér.; Magnoliopsida; Tracheophyta; Vitis vinifera L.
2011,2011-10-14,Aveiro,Santa Maria da Feira,São João de Ver,Pinhal do Conde,40.95685195,-8.545842089183466,Desconhecida,217.0,2011-10-14T04:00,15.6,62,8.4,13.9,0.0,0.0,0.0,0.0,0,1016.7,991.0,0,0,0,0,0.03,0.67,8.6,14.7,88,73,17.3,16.7,22.0,21.4,20.2,0.105,0.12,0.149,0.287,0,0.0,0.0,0.0,0.0,0.0,0.0,0.0,0.0,0.0,0.0,0.0,0.0,0.0,Tracheophyta; Pinus pinaster Aiton; Eucalyptus L'Hér.; Quercus suber L.; Magnoliopsida
2011,2011-10-09,Braga,Póvoa de Lanhoso,Garfe,GONDIÃES (GARFE)M5 (Gondim),41.5228966,-8.2527016,NC,242.0,2011-10-09T19:00,23.4,35,7.1,22.0,0.0,0.0,0.0,0.0,0,1023.4,995.3,0,0,0,0,0.04,1.88,4.5,6.8,61,90,13.3,22.0,21.2,21.1,20.0,0.095,0.147,0.186,0.302,0,0.0,0.0,0.0,0.0,0.0,0.0,0.0,0.0,0.0,0.0,0.0,0.0,0.0,Eucalyptus L'Hér.; Pinales; Tracheophyta; Magnoliopsida; Acacia Mill.
2011,2011-10-09,Bragança,Mirandela,Vale de Salgueiro,MIRADES (Miradeses),41.5668016,-7.2565388,NC,243.0,2011-10-09T21:00,17.8,52,7.7,16.0,0.0,0.0,0.0,0.0,0,1025.1,996.3,0,0,0,0,0.05,0.98,8.5,13.6,62,79,22.0,17.8,20.5,21.6,21.3,0.13,0.16,0.19,0.315,0,0.0,0.0,0.0,0.0,0.0,0.0,0.0,0.0,0.0,0.0,0.0,0.0,0.0,Vitis vinifera L.; Olea europaea L.; Magnoliopsida
2011,2011-10-09,Porto,Póvoa de Varzim,Amorim,ZONA INDUSTRIAL DE AMORIM (ESTELA),41.40198615,-8.754111938004414,NC,21.0,2011-10-09T22:00,19.0,70,13.3,18.7,0.0,0.0,0.0,0.0,0,1023.8,1021.3,0,0,0,0,0.03,0.67,9.4,12.1,47,53,14.4,20.1,22.3,22.1,20.8,0.091,0.147,0.2,0.31,0,0.0,0.0,0.0,0.0,0.0,0.0,0.0,0.0,0.0,0.0,0.0,0.0,0.0,Tracheophyta; Magnoliopsida
2011,2011-10-10,Viana do Castelo,Monção,Tangil,ARMADA - TANGIL (Armada),42.022956,-8.364877,Desconhecida,134.0,2011-10-10T07:00,10.5,90,8.9,9.1,0.0,0.0,0.0,0.0,0,1024.1,1007.7,0,0,0,0,0.02,0.13,7.7,15.5,79,93,21.6,12.6,18.2,20.1,19.3,0.103,0.158,0.203,0.314,1,0.0,8.6,2.9,5.7,32.7,2.4,66.1,3.0,1.0,2.0,16.5,3.0,23.2,Magnoliopsida; Pinus pinaster Aiton; Vitis vinifera L.; Tracheophyta; Quercus L.; 
2011,2011-10-10,Guarda,Aguiar da Beira,Gradiz,Quinta do Ranhadoiro,40.8592374,-7.5282442,Desconhecida,659.0,2011-10-10T08:00,11.8,74,7.2,9.8,0.0,0.0,0.0,0.0,0,1026.9,949.4,0,0,0,0,0.06,0.36,8.9,15.6,63,67,20.5,13.2,17.7,20.5,19.9,0.122,0.145,0.166,0.29,1,3414.05,190.1,126.8,63.4,508.8,184.4,341.8,120.0,80.0,40.0,493.5,120.0,215.7,Magnoliopsida; Pinus pinaster Aiton; Tracheophyta
2011,2011-10-20,Aveiro,Santa Maria da Feira,Canedo,Lousado,41.010877,-8.46002306037475,Desconhecida,222.0,2011-10-20T16:00,22.6,31,4.6,19.7,0.0,0.0,0.0,0.0,0,1019.3,993.6,0,0,0,0,0.28,1.9,11.1,14.8,54,61,24.8,25.5,19.6,20.9,20.3,0.104,0.118,0.148,0.285,1,3600.0,283.4,227.2,56.2,747.5,283.4,419.4,353.0,283.0,70.0,747.5,353.0,522.4,Eucalyptus L'Hér.; Tracheophyta; Pinus pinaster Aiton; Magnoliopsida
2011,2011-10-20,Lisboa,Sobral Monte Agraço,São Quintino,Freiria,39.005968800000005,-9.144093214982062,Desconhecida,280.0,2011-10-20T18:00,20.7,50,9.8,19.0,0.0,0.0,0.0,0.0,0,1016.9,984.4,0,0,0,0,0.09,1.23,11.2,21.2,360,10,21.2,23.6,21.5,21.7,21.2,0.089,0.154,0.206,0.313,0,1491.98,0.0,0.0,0.0,0.0,0.0,0.0,36.0,21.0,15.0,186.7,36.0,95.8,Tracheophyta; Eucalyptus L'Hér.; Magnoliopsida
2011,2011-10-20,Viana do Castelo,Ponte da Barca,Cuide de Vila Verde,DANAIA - CUIDE VILA VERDE (Danaia),41.7780312,-8.4172177,NC,71.0,2011-10-20T19:00,19.4,41,5.8,16.8,0.0,0.0,0.0,0.0,0,1019.9,1011.5,0,0,0,0,0.08,1.32,10.4,13.3,34,49,16.2,19.4,19.9,20.8,20.4,0.098,0.145,0.19,0.304,0,0.0,0.0,0.0,0.0,0.0,0.0,0.0,0.0,0.0,0.0,0.0,0.0,0.0,Vitis vinifera L.; Tracheophyta; Magnoliopsida; Pinus pinaster Aiton
2011,2011-10-05,Porto,Santo Tirso,São Salvador do Campo,RUA NOSSA SENHORA DA SAÚDE (AVES),41.3587032,-8.3514372,NC,138.0,2011-10-05T22:00,19.8,72,14.7,20.4,0.0,0.0,0.0,0.0,0,1023.3,1007.0,19,0,0,63,0.01,0.64,6.6,14.1,9,6,15.5,21.5,23.9,21.5,20.2,0.105,0.156,0.196,0.309,0,0.0,0.0,0.0,0.0,0.0,0.0,0.0,0.0,0.0,0.0,0.0,0.0,0.0,Tracheophyta; Magnoliopsida; Eucalyptus L'Hér.; Vitis vinifera L.; Pinus pinaster Aiton
2011,2011-10-04,Vila Real,Chaves,Redondelo,Casas Novas,41.70276435,-7.5692990320500915,NC,532.0,2011-10-04T11:00,25.4,32,7.4,24.4,0.0,0.0,0.0,0.0,0,1027.0,966.7,7,0,0,22,0.42,2.21,5.1,6.8,94,93,16.6,26.2,20.7,20.2,19.5,0.099,0.16,0.22,0.324,1,3600.0,653.9,557.9,96.0,857.9,653.9,889.1,613.0,523.0,90.0,857.9,613.0,833.5,Tracheophyta; Pinus pinaster Aiton; Magnoliopsida
2011,2011-10-04,Vila Real,Montalegre,Chã,Gralhós,41.82110155,-7.764050987928204,NC,987.0,2011-10-04T13:00,24.7,32,7.0,24.2,0.0,0.0,0.0,0.0,0,1026.0,917.3,2,0,0,6,0.48,2.1,4.8,6.3,117,114,17.3,26.5,19.1,18.0,16.9,0.221,0.278,0.307,0.413,1,3600.0,694.6,602.7,91.9,883.9,694.6,932.3,703.0,610.0,93.0,883.9,703.0,943.5,Magnoliopsida; Tracheophyta; Pinus pinaster Aiton
2011,2011-10-21,Vila Real,Ribeira de Pena,Santa Marinha,SOBRADO VELHO,41.5242543,-7.7820587,Desconhecida,392.0,2011-10-21T14:00,19.3,38,4.8,17.4,0.0,0.0,0.0,0.0,0,1016.1,970.8,0,0,0,0,0.36,1.38,6.2,8.0,100,100,23.8,23.0,17.0,19.7,19.9,0.101,0.146,0.196,0.308,1,3600.0,561.2,481.3,79.9,893.7,561.2,743.5,597.0,512.0,85.0,893.7,597.0,790.9,Magnoliopsida; Tracheophyta; Vitis vinifera L.; Pinus pinaster Aiton
2011,2011-10-21,Aveiro,Oliveira de Azemeis,Carregosa,Silvares,40.8958234,-8.4254771,Desconhecida,348.0,2011-10-21T15:00,22.7,30,4.0,20.6,0.0,0.0,0.0,0.0,0,1014.7,974.9,0,0,0,0,0.32,1.95,5.1,6.4,129,133,19.1,25.6,18.8,20.2,20.0,0.099,0.145,0.196,0.308,1,3600.0,442.0,371.0,71.0,835.6,442.0,613.0,498.0,418.0,80.0,835.6,498.0,690.6,Tracheophyta; Magnoliopsida; Pinus pinaster Aiton; Eucalyptus L'Hér.
2011,2011-10-21,Braga,Guimarães,Serzedelo,CHAMOSINHOS(SERZEDELO)M-5 (Chamosinhos),41.40283515,-8.36486433641491,NC,146.0,2011-10-21T16:00,22.5,32,4.8,20.7,0.0,0.0,0.0,0.0,0,1014.1,997.2,0,0,0,0,0.21,1.86,3.5,4.3,156,156,11.9,24.4,19.1,20.5,20.4,0.103,0.145,0.191,0.304,1,3600.0,278.0,222.9,55.1,755.3,278.0,407.4,348.0,279.0,69.0,755.3,348.0,510.0,Vitis vinifera L.; Magnoliopsida; Tracheophyta; Eucalyptus L'Hér.; Pinales
2011,2011-10-21,Braga,Guimarães,Moreira de Cónegos,PEREIRINHAS(MOREIRA CONEGOS)M-5 (Pereirinhas),41.3832257,-8.335183247020549,NC,174.0,2011-10-21T17:00,21.7,33,4.6,20.1,0.0,0.0,0.0,0.0,0,1014.4,994.2,0,0,0,0,0.09,1.75,2.5,3.6,188,180,11.9,23.2,19.0,20.3,20.1,0.098,0.142,0.185,0.3,1,3600.0,101.2,72.5,28.7,587.3,101.2,170.5,173.0,124.0,49.0,587.3,173.0,291.5,Eucalyptus L'Hér.; Tracheophyta; Magnoliopsida
2011,2011-10-21,Porto,Amarante,Gatão,ESTAÇÃO,41.2915468,-8.0691688,NC,173.0,2011-10-21T17:00,21.5,37,6.3,19.9,0.0,0.0,0.0,0.0,0,1014.5,994.4,0,0,0,0,0.11,1.61,4.3,4.7,85,94,14.0,22.7,18.8,20.2,20.2,0.103,0.149,0.197,0.308,1,3600.0,100.1,71.7,28.4,594.5,100.1,166.6,173.0,124.0,49.0,594.5,173.0,287.9,Magnoliopsida; Tracheophyta
2011,2011-10-10,Porto,Amarante,Vila Caiz,BELO MONTE (Belos Ares),41.229918,-8.1252874,NC,157.0,2011-10-10T12:00,25.7,37,10.1,25.2,0.0,0.0,0.0,0.0,0,1024.8,1006.6,0,0,0,0,0.47,2.07,8.7,11.1,114,115,24.5,25.4,19.4,21.0,20.2,0.105,0.158,0.201,0.312,1,3600.0,682.4,589.0,93.4,881.2,682.4,916.9,665.0,574.0,91.0,881.2,665.0,893.6,Magnoliopsida; Pinus pinaster Aiton; Tracheophyta; Vitis vinifera L.; Eucalyptus L'Hér.; 
2011,2011-10-10,Aveiro,Santa Maria da Feira,Nogueira da Regedoura,Avº da Bessada (CANEDO),41.0093311,-8.5864831,Desconhecida,125.0,2011-10-10T16:00,28.6,26,7.3,27.3,0.0,0.0,0.0,0.0,0,1022.7,1008.3,0,0,0,0,0.28,2.89,4.1,4.7,345,356,10.8,31.9,22.7,21.9,20.7,0.089,0.12,0.16,0.291,1,3600.0,334.3,273.0,61.2,763.6,334.3,490.6,404.0,330.0,74.0,763.6,404.0,593.0,Tracheophyta; Magnoliopsida; Eucalyptus L'Hér.
2011,2011-10-10,Aveiro,Albergaria-a-Velha,Alquerubim,Lugar de Fial (RIBEIRA DE FRÁGOAS),40.6211753,-8.5090385,Desconhecida,49.0,2011-10-10T17:00,28.9,26,7.8,27.3,0.0,0.0,0.0,0.0,0,1022.5,1016.9,0,0,0,0,0.2,2.93,6.9,10.6,321,325,16.6,31.4,23.5,22.3,21.1,0.061,0.081,0.099,0.208,1,3600.0,156.8,117.6,39.2,632.9,156.8,255.0,232.0,174.0,58.0,632.9,232.0,377.2,Magnoliopsida; Eucalyptus L'Hér.; Tracheophyta; Pinus pinaster Aiton; 
2011,2011-10-10,Bragança,Miranda do Douro,Miranda do Douro,Palancar,41.5000816,-6.271331,NC,680.0,2011-10-10T17:00,23.9,32,6.1,22.8,0.0,0.0,0.0,0.0,0,1024.5,948.0,0,0,0,0,0.1,2.03,0.8,1.3,63,56,6.8,23.7,18.9,19.4,19.7,0.15,0.19,0.224,0.329,1,3600.0,128.0,94.6,33.4,619.8,128.0,209.3,203.0,150.0,53.0,619.8,203.0,332.1,Tracheophyta; Magnoliopsida
2011,2011-10-16,Braga,Vieira do Minho,Ruivães,BOTICA(RUIVÃES)M6 (Botica),41.680827050000005,-8.047601299533635,NC,568.0,2011-10-16T21:00,18.4,57,9.9,17.8,0.0,0.0,0.0,0.0,0,1021.6,956.2,17,0,2,52,0.01,0.9,4.3,2.7,66,67,10.4,18.6,20.4,19.4,18.7,0.1,0.149,0.196,0.309,0,0.0,0.0,0.0,0.0,0.0,0.0,0.0,0.0,0.0,0.0,0.0,0.0,0.0,Magnoliopsida; Quercus L.; Pinus pinaster Aiton; Tracheophyta
2011,2011-10-16,Leiria,Alcobaça,Turquel,Carvalhal,39.46873435,-8.959823763448608,Desconhecida,171.0,2011-10-16T14:00,26.0,38,10.6,25.8,0.0,0.0,0.0,0.0,1,1020.2,1000.5,28,0,1,91,0.41,2.08,4.7,5.4,238,228,19.4,31.8,22.6,22.2,21.1,0.082,0.131,0.172,0.276,1,3600.0,564.3,436.5,127.8,733.4,564.3,819.2,596.0,461.0,135.0,733.4,596.0,865.3,Tracheophyta; Magnoliopsida; Olea europaea L.
2011,2011-10-17,Aveiro,Santa Maria da Feira,Nogueira da Regedoura,av da Bessada,41.0041921,-8.59044,Desconhecida,109.0,2011-10-17T00:00,18.7,81,15.3,20.1,0.0,0.0,0.0,0.0,0,1020.8,1007.9,3,0,5,0,0.0,0.42,2.5,4.7,98,99,10.1,17.6,22.6,22.1,20.9,0.089,0.117,0.158,0.289,0,0.0,0.0,0.0,0.0,0.0,0.0,0.0,0.0,0.0,0.0,0.0,0.0,0.0,Tracheophyta; Eucalyptus L'Hér.; Magnoliopsida; Pinus pinaster Aiton
2011,2011-10-11,Bragança,Macedo de Cavaleiros,Podence,PODENCE,41.562716,-6.9444115,NC,683.0,2011-10-11T20:00,21.0,34,4.4,19.1,0.0,0.0,0.0,0.0,0,1023.8,946.3,0,0,0,0,0.03,1.65,4.0,4.7,350,279,7.9,20.6,21.3,20.6,20.3,0.135,0.148,0.174,0.315,0,0.0,0.0,0.0,0.0,0.0,0.0,0.0,0.0,0.0,0.0,0.0,0.0,0.0,Olea europaea L.; Castanea sativa Mill.; Quercus L.; Magnoliopsida; Tracheophyta; Quercus suber L.
2011,2011-10-11,Coimbra,Coimbra,Vil de Matos,VIL DE MATOS,40.2796464,-8.4837913,Natural,34.0,2011-10-11T22:00,21.1,47,9.3,19.8,0.0,0.0,0.0,0.0,0,1022.2,1018.2,0,0,0,0,0.05,1.34,7.7,14.3,62,39,14.0,21.4,23.9,22.5,21.4,0.045,0.062,0.073,0.177,0,0.0,0.0,0.0,0.0,0.0,0.0,0.0,0.0,0.0,0.0,0.0,0.0,0.0,Olea europaea L.; Pinales; Tracheophyta; Vitis vinifera L.; Eucalyptus L'Hér.; Magnoliopsida
2011,2011-10-11,Braga,Braga,São Vicente,L. MONTARIOL (S. VICENTE) M1 (CRESPOS),41.56249955,-8.429867703056743,NC,98.0,2011-10-11T23:00,16.6,70,11.1,15.8,0.0,0.0,0.0,0.0,0,1023.0,1011.3,0,0,0,0,0.02,0.57,7.8,13.8,34,28,14.8,18.3,22.0,21.2,20.2,0.098,0.15,0.193,0.307,0,0.0,0.0,0.0,0.0,0.0,0.0,0.0,0.0,0.0,0.0,0.0,0.0,0.0,Tracheophyta; Magnoliopsida
2011,2011-10-12,Vila Real,Montalegre,Negrões,Lamachã,41.7412557,-7.783486,NC,879.0,2011-10-12T12:00,24.7,29,5.4,23.5,0.0,0.0,0.0,0.0,0,1023.6,926.3,0,0,0,0,0.45,2.22,5.1,6.4,129,128,17.6,24.4,16.9,17.7,17.5,0.116,0.162,0.216,0.322,1,3600.0,676.5,587.3,89.2,899.7,676.5,896.5,660.0,573.0,87.0,899.7,660.0,874.7,Tracheophyta; Magnoliopsida
2011,2011-10-12,Aveiro,Santa Maria da Feira,Lourosa,Rua  da Escola,40.983541,-8.5499188,Desconhecida,164.0,2011-10-12T12:00,29.8,24,6.9,29.5,0.0,0.0,0.0,0.0,0,1021.6,1002.9,0,0,0,0,0.45,3.2,1.8,3.6,127,127,13.7,30.3,21.7,21.7,20.6,0.106,0.12,0.15,0.288,1,3600.0,677.8,585.4,92.4,884.3,677.8,909.2,660.0,570.0,90.0,884.3,660.0,885.3,Tracheophyta; Magnoliopsida; Pinus pinaster Aiton; Eucalyptus L'Hér.
2011,2011-10-12,Aveiro,Santa Maria da Feira,Canedo,Carvoeiro (Carvalhal),41.017568,-8.4518566,Desconhecida,188.0,2011-10-12T13:00,30.2,23,6.6,29.6,0.0,0.0,0.0,0.0,0,1021.2,999.8,0,0,0,0,0.48,3.32,3.6,4.1,233,225,14.0,32.0,21.9,21.5,20.4,0.106,0.12,0.15,0.287,1,3600.0,671.5,582.6,88.9,892.3,671.5,896.8,680.0,590.0,90.0,892.3,680.0,908.2,Pinus pinaster Aiton; Tracheophyta; Eucalyptus L'Hér.; Magnoliopsida
2011,2011-10-17,Porto,Gondomar,Lomba,Lavercos,41.0617409,-8.4108172,NC,76.0,2011-10-17T14:00,27.9,32,9.5,26.1,0.0,0.0,0.0,0.0,0,1019.9,1011.1,0,0,0,0,0.47,2.57,12.6,12.7,301,305,24.1,30.2,21.9,21.8,21.0,0.109,0.143,0.187,0.312,1,3600.0,560.7,472.9,87.8,834.2,560.7,780.8,594.0,501.0,93.0,834.2,594.0,827.3,Magnoliopsida; Eucalyptus L'Hér.; Vitis vinifera L.; Pinus pinaster Aiton; Tracheophyta; 
2011,2011-10-10,Porto,TROFA,Bougado_Santiago,CIDAE (Videira),41.3302367,-8.5724918,NC,31.0,2011-10-10T15:00,28.7,28,8.2,27.5,0.0,0.0,0.0,0.0,0,1023.1,1019.5,0,0,0,0,0.39,2.85,5.1,3.3,315,311,13.3,31.0,22.4,22.1,21.0,0.105,0.144,0.189,0.311,1,3600.0,493.3,416.8,76.5,835.7,493.3,684.2,548.0,463.0,85.0,835.7,548.0,760.1,Tracheophyta; Magnoliopsida; Pinales
2011,2011-10-10,Viana do Castelo,Paredes de Coura,Paredes de Coura,CABANELA - PAREDES DE COURA (Cabanela),41.91106,-8.55959,NC,374.0,2011-10-10T15:00,26.0,30,7.0,24.4,0.0,0.0,0.0,0.0,0,1023.8,981.2,0,0,0,0,0.38,2.35,5.6,6.4,297,297,18.0,28.2,19.6,19.6,18.7,0.1,0.156,0.198,0.31,1,3600.0,487.4,411.9,75.5,839.0,487.4,673.5,542.0,458.0,84.0,839.0,542.0,749.0,Tracheophyta; Magnoliopsida; Quercus L.; Pinus pinaster Aiton
2011,2011-10-10,Vila Real,Vila Real,Abaças,Quinta da Veiga,41.2239731,-7.6939715,Desconhecida,564.0,2011-10-10T18:00,22.0,41,8.1,20.6,0.0,0.0,0.0,0.0,0,1024.3,960.0,0,0,0,0,0.06,1.57,6.3,7.9,66,74,14.0,22.5,19.1,19.6,19.2,0.129,0.143,0.18,0.313,0,1908.1,0.0,0.0,0.0,0.0,0.0,0.0,52.0,32.0,20.0,260.4,52.0,109.5,Tracheophyta; Vitis vinifera L.; Pinus pinaster Aiton; Olea europaea L.; Magnoliopsida
2011,2011-10-10,Porto,Santo Tirso,Guimarei,LUGAR DA IGREJA (Lugar de Baixo),41.2999527,-8.4792107,NC,202.0,2011-10-10T18:00,24.6,38,9.2,22.9,0.0,0.0,0.0,0.0,0,1023.0,999.6,0,0,0,0,0.11,1.93,10.3,16.4,335,341,15.5,25.5,21.9,21.1,20.0,0.12,0.142,0.178,0.312,1,2091.65,0.0,0.0,0.0,0.0,0.0,0.0,58.0,36.0,22.0,282.2,58.0,120.3,Pinus pinaster Aiton; Magnoliopsida; Eucalyptus L'Hér.; Vitis vinifera L.; Tracheophyta
2011,2011-10-01,Braga,Cabeceiras de Basto,Cabeceiras de Basto,L. LAPELA(CAB. BASTO)M1 (GONDIÃES),41.5654887,-8.010196481857573,NC,706.0,2011-10-01T16:00,25.6,35,8.9,23.7,0.0,0.0,0.0,0.0,1,1017.2,938.9,20,0,0,68,0.33,2.14,11.0,15.1,122,123,30.6,26.6,20.4,18.6,17.8,0.125,0.167,0.209,0.318,1,3600.0,346.6,245.7,101.0,622.8,346.6,538.5,412.0,292.0,120.0,622.8,412.0,640.0,Pinus pinaster Aiton; Magnoliopsida; Eucalyptus L'Hér.
2011,2011-10-01,Porto,TROFA,Coronado_Sao Mamede,LOUREDO (Loureiro),41.2748271,-8.5739705,NC,139.0,2011-10-01T17:00,29.6,31,10.5,29.3,0.0,0.0,0.0,0.0,0,1015.0,999.2,3,0,1,7,0.19,2.88,3.4,3.3,328,354,15.1,30.2,23.6,21.0,20.1,0.109,0.15,0.193,0.314,1,3600.0,192.4,148.3,44.1,643.3,192.4,314.7,266.0,205.0,61.0,643.3,266.0,435.0,Magnoliopsida; Pinales; Tracheophyta; Eucalyptus L'Hér.
2011,2011-10-17,Viseu,São João da Pesqueira,São João da Pesqueira,CANEIRO (Carneiro),41.1477561,-7.4077803,Desconhecida,600.0,2011-10-17T01:00,16.0,64,9.1,15.6,0.0,0.0,0.0,0.0,0,1021.3,951.9,15,0,15,20,0.0,0.66,1.3,3.3,304,49,7.2,15.2,19.9,20.1,20.2,0.112,0.154,0.175,0.305,0,0.0,0.0,0.0,0.0,0.0,0.0,0.0,0.0,0.0,0.0,0.0,0.0,0.0,Olea europaea L.; Vitis vinifera L.; Magnoliopsida; Tracheophyta
2011,2011-10-17,Braga,Braga,São Victor,7 FONTES(S. VITOR)M1 (ADAÚFE),41.55502095,-8.406467857126696,NC,182.0,2011-10-17T02:00,13.1,87,10.9,12.9,0.0,0.0,0.0,0.0,0,1020.4,998.5,0,0,0,0,0.0,0.2,3.1,4.1,69,135,7.6,15.3,20.7,20.7,19.8,0.097,0.146,0.19,0.305,0,0.0,0.0,0.0,0.0,0.0,0.0,0.0,0.0,0.0,0.0,0.0,0.0,0.0,Tracheophyta
2011,2011-10-07,Porto,Vila Nova de Gaia,Pedroso,Rua do Carvalhal,41.064143,-8.5572235,NC,131.0,2011-10-07T15:00,25.4,30,6.7,22.0,0.0,0.0,0.0,0.0,1,1022.5,1007.3,28,0,0,93,0.46,2.27,18.1,24.0,13,17,37.1,27.3,22.1,21.8,20.3,0.117,0.146,0.195,0.323,1,3600.0,496.7,404.6,92.1,783.7,496.7,707.1,550.0,448.0,102.0,783.7,550.0,783.0,Magnoliopsida; Eucalyptus L'Hér.; Tracheophyta
2011,2011-10-07,Braga,Fafe,Revelhe,ALTO SABUGAL (REVELHE) M2 (Alto da Cachadinha),41.4850642,-8.15906990010636,NC,382.0,2011-10-07T15:00,23.8,31,5.6,20.6,0.0,0.0,0.0,0.0,1,1023.3,979.5,28,0,0,94,0.42,2.04,14.7,20.0,28,30,35.6,27.1,21.0,20.7,19.3,0.098,0.148,0.186,0.303,1,3600.0,499.3,413.7,85.6,813.9,499.3,696.2,554.0,459.0,95.0,813.9,554.0,772.4,Tracheophyta; Magnoliopsida; Vitis vinifera L.; Pinales
2011,2011-10-07,Viana do Castelo,Ponte da Barca,Vila Nova de Muia,STª RITA- VILA NOVA DE MUIA (LINDOSO),41.8066265,-8.4012727,NC,48.0,2011-10-07T15:00,23.6,35,7.1,18.9,0.0,0.0,0.0,0.0,1,1023.8,1018.2,28,0,0,92,0.46,1.91,27.0,36.5,2,5,48.2,27.0,22.1,21.8,20.4,0.1,0.157,0.195,0.309,1,3600.0,497.2,408.8,88.4,804.6,497.2,695.8,551.0,453.0,98.0,804.6,551.0,771.1,Tracheophyta; Vitis vinifera L.; Magnoliopsida; Eucalyptus L'Hér.; Pinus pinaster Aiton
2011,2011-10-07,Aveiro,Espinho,Silvalde,Seara (Traseiras do campo de futebol),40.9903511,-8.6407154,Desconhecida,8.0,2011-10-07T16:00,26.0,31,7.4,21.2,0.0,0.0,0.0,0.0,1,1021.9,1021.0,28,0,0,93,0.44,2.34,28.8,38.8,351,354,47.5,29.2,23.6,22.9,21.4,0.09,0.121,0.161,0.292,1,3600.0,342.6,267.6,75.0,716.6,342.6,511.5,411.0,321.0,90.0,716.6,411.0,613.6,Tracheophyta
2011,2011-10-07,Braga,Cabeceiras de Basto,Outeiro,ERVIDEIRO (OUTEIRO) M3 (ERVIDEIRO),41.5093153,-8.036059588052112,NC,620.0,2011-10-07T17:00,20.7,37,5.3,17.3,0.0,0.0,0.0,0.0,1,1023.8,953.1,29,0,0,95,0.22,1.55,15.5,24.0,22,24,42.5,23.8,20.3,19.8,18.7,0.118,0.148,0.184,0.312,1,3600.0,153.4,102.9,50.4,544.1,153.4,259.1,225.0,151.0,74.0,544.1,225.0,380.1,Magnoliopsida; Tracheophyta; Vitis vinifera L.
2011,2011-10-21,Porto,Marco de Canaveses,Vila Boa de Quires,Buriz,41.2028475,-8.2047635,Desconhecida,275.0,2011-10-21T16:00,21.5,34,5.1,19.8,0.0,0.0,0.0,0.0,0,1014.4,982.7,0,0,0,0,0.21,1.69,3.5,4.7,114,122,16.6,23.3,18.0,19.5,19.6,0.104,0.149,0.197,0.308,1,3600.0,277.7,222.7,55.1,755.4,277.7,406.9,348.0,279.0,69.0,755.4,348.0,509.9,Pinus pinaster Aiton; Tracheophyta; Eucalyptus L'Hér.; Magnoliopsida; Vitis vinifera L.; Quercus L.; Pinales; 
2011,2011-10-20,Vila Real,Ribeira de Pena,Cerva,ribeiro - seco,41.472873,-7.8475324,NC,328.0,2011-10-20T12:00,18.3,45,6.2,15.2,0.0,0.0,0.0,0.0,0,1023.1,984.6,0,0,0,0,0.38,1.15,17.7,24.5,88,88,50.8,21.0,18.1,20.4,20.3,0.101,0.146,0.196,0.308,1,3600.0,645.2,555.9,89.2,901.2,645.2,851.1,629.0,542.0,87.0,901.2,629.0,829.8,Magnoliopsida; Pinus pinaster Aiton; Tracheophyta
2011,2011-10-21,Porto,TROFA,Coronado_Sao Romao,lugar dos carvoeiros (Lugar de Baixo),41.2814055,-8.5561704,NC,125.0,2011-10-21T18:00,21.0,37,5.9,19.4,0.0,0.0,0.0,0.0,0,1014.2,999.6,0,0,0,0,0.04,1.56,4.1,4.2,15,31,10.4,21.9,20.0,20.8,20.5,0.104,0.14,0.186,0.307,0,696.18,0.0,0.0,0.0,0.0,0.0,0.0,26.0,14.0,12.0,141.4,26.0,77.2,Tracheophyta; Pinus pinaster Aiton; Magnoliopsida; Eucalyptus L'Hér.
2011,2011-10-21,Porto,Felgueiras,Vila Cova de Lixa,Casal,41.3243291,-8.1571341,NC,306.0,2011-10-21T20:00,14.9,54,5.6,12.3,0.0,0.0,0.0,0.0,0,1014.6,978.6,0,0,0,0,0.05,0.78,9.7,13.3,86,87,16.2,16.8,18.4,19.7,19.8,0.091,0.144,0.192,0.305,0,0.0,0.0,0.0,0.0,0.0,0.0,0.0,0.0,0.0,0.0,0.0,0.0,0.0,Magnoliopsida; Tracheophyta; Vitis vinifera L.; Eucalyptus L'Hér.
2011,2011-10-21,Viana do Castelo,Arcos de Valdevez,Prozelo,CAMPO FUTEBOL - PROZELO (Campo),41.8659112,-8.4389934,NC,129.0,2011-10-21T20:00,16.4,56,7.5,14.9,0.0,0.0,0.0,0.0,0,1014.4,999.1,0,0,0,0,0.03,0.82,6.2,4.7,54,67,10.1,16.6,18.4,19.9,19.9,0.1,0.149,0.2,0.31,0,0.0,0.0,0.0,0.0,0.0,0.0,0.0,0.0,0.0,0.0,0.0,0.0,0.0,Eucalyptus L'Hér.; Magnoliopsida; Quercus L.
2011,2011-10-21,Braga,Cabeceiras de Basto,Rio Douro,CAMBESES(RIO DOURO)M2 (Cambeses),41.551208,-7.9678771,NC,403.0,2011-10-21T21:00,11.9,65,5.6,9.7,0.0,0.0,0.0,0.0,0,1015.2,967.5,0,0,0,0,0.02,0.48,7.9,11.5,90,92,17.3,14.7,17.8,19.5,19.5,0.097,0.141,0.183,0.299,0,0.0,0.0,0.0,0.0,0.0,0.0,0.0,0.0,0.0,0.0,0.0,0.0,0.0,Pinus pinaster Aiton; Magnoliopsida; Tracheophyta; Eucalyptus L'Hér.
2011,2011-10-14,Porto,Lousada,Lustosa,LG. IGREJA (Lugar da Igreja),41.3321025,-8.3085374,NC,411.0,2011-10-14T04:00,13.4,60,5.8,11.3,0.0,0.0,0.0,0.0,0,1017.3,968.9,0,0,0,0,0.02,0.61,6.6,12.8,99,79,16.6,14.9,20.2,19.9,19.2,0.098,0.144,0.183,0.3,0,0.0,0.0,0.0,0.0,0.0,0.0,0.0,0.0,0.0,0.0,0.0,0.0,0.0,Vitis vinifera L.; Eucalyptus L'Hér.; Tracheophyta; Magnoliopsida
2011,2011-10-14,Leiria,Leiria,Caranguejeira,CARANGUEJEIRA,39.7522575,-8.7150854,Desconhecida,94.0,2011-10-14T06:00,15.4,51,5.2,13.2,0.0,0.0,0.0,0.0,0,1016.2,1005.0,0,0,0,0,0.03,0.86,6.4,10.0,133,131,11.2,17.1,23.3,22.4,21.2,0.075,0.105,0.133,0.241,0,0.0,0.0,0.0,0.0,0.0,0.0,0.0,0.0,0.0,0.0,0.0,0.0,0.0,Tracheophyta; Pinus pinaster Aiton; Eucalyptus L'Hér.; Magnoliopsida; Acacia Mill.; Pinales
2011,2011-10-22,Braga,Vila Nova de Famalicão,Fradelos,SAPUGAL(FRADELOS) (Sapugal),41.3867182,-8.5872799,NC,111.0,2011-10-22T14:00,22.8,37,7.2,20.6,0.0,0.0,0.0,0.0,0,1011.7,998.8,8,0,14,0,0.36,1.76,10.0,13.1,195,189,27.0,24.6,18.5,20.5,20.4,0.1,0.14,0.184,0.3,1,3600.0,472.7,334.2,138.4,620.4,472.7,744.1,502.0,355.0,147.0,620.4,502.0,790.3,Eucalyptus L'Hér.; Magnoliopsida; Pinus pinaster Aiton; Tracheophyta
2011,2011-10-22,Aveiro,Vale de Cambra,Cepelos,Casal de Arão,40.843105,-8.344178,Desconhecida,440.0,2011-10-22T14:00,21.1,47,9.5,18.6,0.5,0.5,0.0,0.0,53,1011.9,961.7,26,1,41,0,0.31,1.32,16.2,21.6,183,183,43.2,23.4,18.4,20.3,20.2,0.108,0.143,0.19,0.304,1,3600.0,381.1,214.6,166.6,394.0,381.1,752.3,405.0,228.0,177.0,394.0,405.0,799.4,Eucalyptus L'Hér.; Magnoliopsida; Pinus pinaster Aiton; Tracheophyta
2011,2011-08-21,Aveiro,Santa Maria da Feira,Espargo,R. Espargo de Baixo (Rua do Monte de Baixo),40.9258202,-8.5814824,Desconhecida,98.0,2011-08-21T04:00,22.9,74,18.0,25.1,0.0,0.0,0.0,0.0,0,1011.3,999.9,16,0,25,2,0.01,0.73,5.0,8.0,90,108,19.4,23.2,26.6,22.7,19.6,0.105,0.108,0.144,0.29,0,0.0,0.0,0.0,0.0,0.0,0.0,0.0,0.0,0.0,0.0,0.0,0.0,0.0,Eucalyptus L'Hér.; Tracheophyta; Pinus pinaster Aiton
2011,2011-08-21,Porto,Felgueiras,Sendim,Casal,41.38328,-8.1805182,NC,356.0,2011-08-21T07:00,21.7,66,15.1,22.4,0.0,0.0,0.0,0.0,1,1013.0,972.2,40,0,17,98,0.06,0.88,6.8,12.0,93,136,18.0,22.2,25.3,22.1,18.3,0.099,0.139,0.199,0.321,1,2707.99,118.2,59.1,59.1,272.6,98.9,289.8,66.0,33.0,33.0,227.9,66.0,161.8,Vitis vinifera L.; Eucalyptus L'Hér.; Tracheophyta; Pinus pinaster Aiton; Magnoliopsida
2011,2011-08-21,Porto,Amarante,Telões,Igreja,41.3096543,-8.1007731,Desconhecida,242.0,2011-08-21T10:00,28.9,45,15.8,30.6,0.0,0.0,0.0,0.0,1,1014.4,987.1,35,0,8,100,0.3,2.19,1.5,1.9,166,158,14.0,28.5,25.3,22.2,18.6,0.105,0.144,0.216,0.331,1,3600.0,444.9,172.2,272.7,242.8,444.9,947.8,403.0,156.0,247.0,242.8,403.0,858.6,Magnoliopsida; Pinus pinaster Aiton; Tracheophyta; Vitis vinifera L.; Eucalyptus L'Hér.; 
2011,2011-10-20,Viana do Castelo,Viana do Castelo,Mujães,PAÇO - MUJÃES (Paço),41.6587624,-8.7124886,Desconhecida,74.0,2011-10-20T19:00,18.4,50,7.7,16.7,0.0,0.0,0.0,0.0,0,1020.0,1011.2,0,0,0,0,0.05,1.07,7.8,10.9,22,27,13.3,19.8,20.0,20.7,20.3,0.099,0.149,0.196,0.306,0,0.0,0.0,0.0,0.0,0.0,0.0,0.0,0.0,0.0,0.0,0.0,0.0,0.0,Magnoliopsida; Tracheophyta; Eucalyptus L'Hér.
2011,2011-10-20,Viana do Castelo,Ponte da Barca,Vila Nova de Muia,LAGES - VILA NOVA DE MUIA (Lages),41.8066265,-8.4012727,NC,48.0,2011-10-20T20:00,16.6,51,6.4,14.4,0.0,0.0,0.0,0.0,0,1019.9,1014.1,0,0,0,0,0.05,0.93,9.1,16.2,56,78,16.6,17.7,20.0,20.9,20.6,0.098,0.145,0.19,0.304,0,0.0,0.0,0.0,0.0,0.0,0.0,0.0,0.0,0.0,0.0,0.0,0.0,0.0,Tracheophyta; Vitis vinifera L.; Magnoliopsida; Eucalyptus L'Hér.; Pinus pinaster Aiton
2011,2011-10-20,Aveiro,Arouca,Albergaria da Serra,Mizarela,40.8643485,-8.2826711,Desconhecida,910.0,2011-10-20T20:00,12.8,41,-0.1,9.3,0.0,0.0,0.0,0.0,0,1020.7,916.6,0,0,0,0,0.06,0.87,9.3,21.3,77,78,28.4,14.9,16.5,17.5,17.2,0.116,0.141,0.182,0.313,0,0.0,0.0,0.0,0.0,0.0,0.0,0.0,0.0,0.0,0.0,0.0,0.0,0.0,Magnoliopsida; Quercus L.; Eucalyptus L'Hér.; Tracheophyta
2011,2011-10-20,Braga,Braga,São Pedro (Este),ALTO BELA(ESTE S.PEDRO)M1 (Alto da Moreira),41.5672086,-8.371143403297701,NC,219.0,2011-10-20T21:00,13.5,51,3.5,10.5,0.0,0.0,0.0,0.0,0,1020.1,993.9,0,0,0,0,0.05,0.76,10.1,23.3,90,98,22.0,15.4,18.8,19.9,19.6,0.098,0.144,0.19,0.303,0,0.0,0.0,0.0,0.0,0.0,0.0,0.0,0.0,0.0,0.0,0.0,0.0,0.0,Tracheophyta; Magnoliopsida; Eucalyptus L'Hér.; Pinus pinaster Aiton
2011,2011-10-13,Aveiro,Santa Maria da Feira,Canedo,Lousado,41.010877,-8.46002306037475,Desconhecida,222.0,2011-10-13T15:00,31.4,19,5.1,28.6,0.0,0.0,0.0,0.0,0,1018.1,993.1,0,0,0,0,0.47,3.71,10.8,13.3,356,358,20.5,32.6,22.5,21.3,20.2,0.105,0.12,0.149,0.287,1,3600.0,482.3,408.8,73.5,844.1,482.3,665.6,538.0,456.0,82.0,844.1,538.0,742.4,Eucalyptus L'Hér.; Tracheophyta; Pinus pinaster Aiton; Magnoliopsida
2011,2011-10-21,Porto,Felgueiras,Borba de Godim,Vilar,41.3219949,-8.1424064,NC,386.0,2011-10-21T17:00,19.4,38,4.8,17.8,0.0,0.0,0.0,0.0,0,1014.5,970.0,0,0,0,0,0.09,1.4,2.9,3.0,90,104,13.3,21.6,17.6,19.2,19.4,0.094,0.146,0.194,0.306,1,3600.0,100.1,71.7,28.4,594.5,100.1,166.6,173.0,124.0,49.0,594.5,173.0,287.9,Vitis vinifera L.; Tracheophyta; Magnoliopsida
2011,2011-10-21,Bragança,Carrazeda de Ansiães,Vilarinho da Castanheira,PINHAL DO DOURO,41.1668888,-7.222148,NC,673.0,2011-10-21T12:00,13.8,47,2.8,11.8,0.0,0.0,0.0,0.0,0,1019.7,941.8,0,0,0,0,0.33,0.83,5.8,7.0,112,111,22.0,17.6,14.5,18.3,19.2,0.122,0.16,0.191,0.309,1,3600.0,641.9,552.8,89.1,896.8,641.9,851.0,627.0,540.0,87.0,896.8,627.0,831.2,Magnoliopsida; Pinales; Pinus pinaster Aiton; Olea europaea L.; Vitis vinifera L.; Quercus L.
2011,2011-10-21,Lisboa,Vila Franca de Xira,São João dos Montes,SÃO ROMÃO (JNT EÓLICAS) (SÃO ROMÃO),38.95160115,-9.058406471474944,Desconhecida,177.0,2011-10-21T18:00,20.9,59,12.5,20.9,0.0,0.0,0.0,0.0,0,1013.7,993.1,13,0,22,0,0.04,1.02,5.6,11.0,285,281,13.7,24.4,22.3,22.6,22.2,0.082,0.152,0.201,0.305,0,1200.1,0.0,0.0,0.0,0.0,0.0,0.0,32.0,18.0,14.0,164.7,32.0,91.5,Magnoliopsida; Tracheophyta; Pinus pinaster Aiton; Vitis vinifera L.; Olea europaea L.; Eucalyptus L'Hér.; Pinales; 
2011,2011-10-21,Aveiro,Oliveira de Azemeis,São Martinho da Gândara,Quintã,40.8583646,-8.5166831,Desconhecida,200.0,2011-10-21T19:00,18.6,50,7.8,17.4,0.0,0.0,0.0,0.0,0,1014.3,990.9,0,0,0,0,0.02,1.08,4.5,9.0,14,358,11.9,20.6,20.4,21.0,20.6,0.106,0.139,0.182,0.307,0,0.0,0.0,0.0,0.0,0.0,0.0,0.0,0.0,0.0,0.0,0.0,0.0,0.0,Pinus pinaster Aiton; Eucalyptus L'Hér.; Magnoliopsida; Tracheophyta
2011,2011-10-21,Porto,Paços de Ferreira,Ferreira,SRA DA LUZ (Senhora da Luz),41.2664886,-8.363174,NC,317.0,2011-10-21T19:00,17.2,47,5.7,14.8,0.0,0.0,0.0,0.0,0,1014.7,977.7,0,0,0,0,0.06,1.05,9.2,11.3,79,81,15.5,18.7,18.5,19.7,19.6,0.094,0.143,0.191,0.305,0,0.0,0.0,0.0,0.0,0.0,0.0,0.0,0.0,0.0,0.0,0.0,0.0,0.0,Eucalyptus L'Hér.; Tracheophyta; Magnoliopsida; Quercus L.; Pinus pinaster Aiton; 
2011,2011-10-21,Vila Real,Chaves,Santa Maria Maior,Alto da Forca,41.7368323,-7.480509154651061,NC,365.0,2011-10-21T20:00,14.2,53,4.6,12.3,0.0,0.0,0.0,0.0,0,1015.9,972.9,0,0,0,0,0.01,0.77,4.3,4.0,42,85,6.1,15.1,17.3,19.9,20.3,0.111,0.137,0.179,0.311,0,0.0,0.0,0.0,0.0,0.0,0.0,0.0,0.0,0.0,0.0,0.0,0.0,0.0,Tracheophyta; Magnoliopsida
2011,2011-10-17,Aveiro,Oliveira de Azemeis,São Martinho da Gândara,Quintã,40.8583646,-8.5166831,Desconhecida,200.0,2011-10-17T05:00,14.5,78,10.8,14.2,0.0,0.0,0.0,0.0,0,1020.0,996.1,5,0,9,0,0.0,0.36,4.0,5.5,80,58,9.7,15.6,21.2,21.8,20.5,0.106,0.141,0.183,0.308,0,0.0,0.0,0.0,0.0,0.0,0.0,0.0,0.0,0.0,0.0,0.0,0.0,0.0,Pinus pinaster Aiton; Eucalyptus L'Hér.; Magnoliopsida; Tracheophyta
2011,2011-10-17,Braga,VIZELA,Barrosas_Santa Eulalia,REQEIXO (SANTA EULALIA) M.3 (ED309 (ED309) Km 53),41.3494036,-8.3185051,NC,446.0,2011-10-17T06:00,10.9,79,7.4,9.5,0.0,0.0,0.0,0.0,0,1020.5,967.5,15,0,25,0,0.0,0.28,4.9,6.8,107,90,10.4,13.3,19.0,19.7,18.9,0.098,0.142,0.182,0.299,0,0.0,0.0,0.0,0.0,0.0,0.0,0.0,0.0,0.0,0.0,0.0,0.0,0.0,Magnoliopsida; Tracheophyta; Eucalyptus L'Hér.
2011,2011-10-15,Porto,Vila Nova de Gaia,Pedroso,SOUTO (PEDROSO),41.0642312,-8.5628486,NC,153.0,2011-10-15T14:00,30.1,23,6.7,28.7,0.0,0.0,0.0,0.0,0,1017.9,1000.5,0,0,0,0,0.48,3.3,7.2,8.1,288,291,13.7,31.3,22.5,21.5,20.3,0.114,0.142,0.191,0.321,1,3600.0,589.2,506.9,82.3,876.0,589.2,796.2,623.0,536.0,87.0,876.0,623.0,841.9,Magnoliopsida; Eucalyptus L'Hér.; Tracheophyta
2011,2011-10-15,Setúbal,Setúbal,São Sebastião,RUA SERRA DO LOURO (Rua António Carvalho Serra),38.5268073,-8.8684822,NC,40.0,2011-10-15T15:00,26.1,47,13.8,25.4,0.0,0.0,0.0,0.0,0,1017.8,1013.2,9,1,13,0,0.4,1.8,12.9,14.8,243,241,25.6,31.5,23.2,23.4,22.3,0.054,0.059,0.069,0.181,1,3600.0,483.8,394.1,89.8,782.9,483.8,692.5,539.0,439.0,100.0,782.9,539.0,771.5,Tracheophyta; Magnoliopsida
2011,2011-10-15,Braga,VIZELA,Vizela_Sao Paio,R.MOÍNHOS(VIZELA S.PAIO)-3 (NESPEREIRA),41.38681455,-8.258183304744154,NC,172.0,2011-10-15T17:00,28.5,23,5.6,26.7,0.0,0.0,0.0,0.0,0,1017.5,997.9,0,0,0,0,0.15,2.98,4.7,7.9,293,300,14.4,28.8,22.7,21.0,20.0,0.098,0.145,0.186,0.302,1,3600.0,129.1,94.8,34.4,616.3,129.1,211.6,203.0,149.0,54.0,616.3,203.0,332.7,Tracheophyta; Pinus pinaster Aiton; Magnoliopsida; Eucalyptus L'Hér.
2011,2011-10-15,Porto,Póvoa de Varzim,Terroso,POÇAS (ESTELA),41.40198615,-8.754111938004414,NC,21.0,2011-10-15T19:00,23.1,61,15.0,23.6,0.0,0.0,0.0,0.0,0,1018.2,1015.7,4,0,0,14,0.04,1.12,8.1,9.3,339,347,11.2,25.0,23.8,22.1,20.9,0.09,0.143,0.197,0.308,0,0.0,0.0,0.0,0.0,0.0,0.0,0.0,0.0,0.0,0.0,0.0,0.0,0.0,Tracheophyta; Magnoliopsida
2011,2011-10-10,Lisboa,Sobral Monte Agraço,Sapataria,CASAL FONTE DAS POMBAS (Casal Barqueira),38.9687636,-9.1958697,Desconhecida,176.0,2011-10-10T21:00,19.5,57,10.8,18.1,0.0,0.0,0.0,0.0,0,1023.6,1002.8,0,0,0,0,0.06,0.97,11.2,22.0,354,358,18.4,21.5,23.6,22.7,21.7,0.088,0.154,0.206,0.312,0,0.0,0.0,0.0,0.0,0.0,0.0,0.0,0.0,0.0,0.0,0.0,0.0,0.0,Tracheophyta; Olea europaea L.; Magnoliopsida
2011,2011-10-11,Porto,Felgueiras,Penacova,Senhora dos Perdidos,41.3711444,-8.2502985,Desconhecida,316.0,2011-10-11T02:00,12.6,74,8.0,11.2,0.0,0.0,0.0,0.0,0,1024.0,986.2,0,0,0,0,0.01,0.39,6.5,11.2,96,92,14.8,15.1,20.1,20.5,19.5,0.098,0.148,0.188,0.303,0,0.0,0.0,0.0,0.0,0.0,0.0,0.0,0.0,0.0,0.0,0.0,0.0,0.0,Magnoliopsida; Vitis vinifera L.; Tracheophyta; Eucalyptus L'Hér.; Pinus pinaster Aiton
2011,2011-10-11,Aveiro,Santa Maria da Feira,Espargo,Barracão (sul),40.9258202,-8.5814824,Desconhecida,98.0,2011-10-11T07:00,16.5,54,7.1,14.3,0.0,0.0,0.0,0.0,0,1024.0,1012.2,0,0,0,0,0.07,0.87,10.1,12.8,92,101,20.9,16.9,21.8,22.0,20.7,0.1,0.11,0.135,0.273,1,0.0,8.6,2.9,5.8,33.0,2.4,64.9,3.0,1.0,2.0,16.7,3.0,22.6,Eucalyptus L'Hér.; Tracheophyta; Pinus pinaster Aiton
2011,2011-10-11,Bragança,Miranda do Douro,Miranda do Douro,Palancar,41.5000816,-6.271331,NC,680.0,2011-10-11T08:00,12.7,75,8.3,11.3,0.0,0.0,0.0,0.0,0,1027.0,947.4,0,0,0,0,0.06,0.37,6.3,10.4,66,88,12.2,12.8,16.5,19.3,19.7,0.151,0.19,0.224,0.329,1,3600.0,198.0,135.1,62.9,523.2,198.0,354.4,129.0,88.0,41.0,523.2,129.0,230.8,Tracheophyta; Magnoliopsida
2011,2011-10-11,Porto,Paredes,Louredo,Santiago,41.2375906,-8.3423236,NC,224.0,2011-10-11T08:00,14.7,75,10.3,13.5,0.0,0.0,0.0,0.0,0,1024.9,998.1,0,0,0,0,0.06,0.42,9.1,11.5,97,94,19.1,14.9,19.0,20.6,19.8,0.112,0.15,0.19,0.313,1,3153.86,175.6,116.5,59.1,496.0,162.4,322.3,107.0,71.0,36.0,458.7,107.0,196.5,Tracheophyta; Magnoliopsida; Eucalyptus L'Hér.; Pinus pinaster Aiton; Vitis vinifera L.; 
2011,2011-10-11,Lisboa,ODIVELAS,Canecas,MONTEMOR / SERRA DA SAUDE (Montemor),38.8181117,-9.2047501,NC,259.0,2011-10-11T10:00,21.9,39,7.3,20.2,0.0,0.0,0.0,0.0,0,1024.1,993.9,0,0,0,0,0.31,1.61,7.2,9.4,84,83,20.5,22.9,21.1,22.2,21.2,0.089,0.155,0.208,0.315,1,3600.0,535.4,443.4,92.1,806.0,535.4,755.0,471.0,390.0,81.0,806.0,471.0,664.2,Tracheophyta; Magnoliopsida; Eucalyptus L'Hér.
2011,2011-09-28,Aveiro,Águeda,Valongo do Vouga,Veiga,40.6276005,-8.4437336,Desconhecida,20.0,2011-09-28T17:00,28.4,40,13.5,27.7,0.0,0.0,0.0,0.0,0,1019.4,1017.1,11,0,17,2,0.26,2.32,12.2,14.5,313,316,12.6,29.7,23.9,21.7,21.0,0.068,0.089,0.103,0.213,1,3600.0,187.5,133.6,53.9,532.8,187.5,341.7,254.0,181.0,73.0,532.8,254.0,462.9,Tracheophyta; Eucalyptus L'Hér.; Magnoliopsida; Pinus pinaster Aiton
2011,2011-09-29,Braga,Cabeceiras de Basto,Cabeceiras de Basto,GONDARÉM (S. NICOLAU) (Gondarém),41.5654887,-8.010196481857573,NC,706.0,2011-09-29T12:00,25.5,36,9.5,24.8,0.0,0.0,0.0,0.0,0,1020.2,941.6,2,0,0,6,0.5,2.07,9.4,12.0,130,131,25.9,25.1,18.2,18.4,17.7,0.144,0.17,0.21,0.319,1,3600.0,718.9,607.1,111.8,847.7,718.9,976.4,701.0,592.0,109.0,847.7,701.0,952.1,Pinus pinaster Aiton; Magnoliopsida; Eucalyptus L'Hér.
2011,2011-10-04,Lisboa,Sintra,Montelavar,Ribeira dos Tostães,38.8605695,-9.3325261,Desconhecida,158.0,2011-10-04T15:00,27.5,39,12.2,25.8,0.0,0.0,0.0,0.0,0,1021.4,1003.3,0,0,0,1,0.49,2.24,18.2,23.8,352,360,29.2,33.3,24.6,22.8,21.5,0.083,0.157,0.215,0.323,1,3600.0,555.5,475.5,80.0,848.9,555.5,765.8,611.0,523.0,88.0,848.9,611.0,842.3,Tracheophyta; Magnoliopsida; Pinus pinaster Aiton; Eucalyptus L'Hér.; Vitis vinifera L.; 
2011,2011-10-04,Porto,Lousada,Santo Estevão (Barrosas),LG. MARAGOUTOS (ARROIOS),41.3304749,-8.278377873955424,NC,382.0,2011-10-04T09:00,22.0,56,12.9,21.9,0.0,0.0,0.0,0.0,0,1025.5,981.3,2,0,0,5,0.2,1.16,6.8,12.2,90,90,19.4,20.3,20.4,20.2,19.0,0.094,0.157,0.197,0.31,1,3600.0,373.4,290.9,82.6,680.3,373.4,584.5,303.0,236.0,67.0,680.3,303.0,474.2,Magnoliopsida; Eucalyptus L'Hér.; Quercus L.; Tracheophyta
2011,2011-10-04,Braga,Guimarães,Gémeos,CAMPO DE FUTEBOL(GEMEOS)M.3 (ED309 (ED309) Km 53),41.40135035,-8.255283927635988,NC,313.0,2011-10-04T10:00,25.8,36,9.6,24.3,0.0,0.0,0.0,0.0,0,1025.8,989.9,1,0,0,4,0.36,2.13,9.7,13.0,88,87,18.7,23.9,21.0,20.6,19.4,0.099,0.154,0.19,0.306,1,3600.0,529.0,434.2,94.7,775.6,529.0,765.4,469.0,385.0,84.0,775.6,469.0,678.6,Vitis vinifera L.; Eucalyptus L'Hér.; Tracheophyta; Magnoliopsida; Pinus pinaster Aiton
2011,2011-10-04,Vila Real,Vila Pouca de Aguiar,Telões,Tourencinho,41.4259187,-7.6784217,Desconhecida,664.0,2011-10-04T11:00,23.8,34,6.9,22.2,0.0,0.0,0.0,0.0,0,1027.1,952.1,0,0,0,0,0.42,1.95,8.0,10.5,95,94,22.0,24.4,19.8,19.4,18.5,0.13,0.15,0.182,0.317,1,3600.0,649.5,556.8,92.8,851.4,649.5,894.0,609.0,522.0,87.0,851.4,609.0,838.2,Pinus pinaster Aiton; Tracheophyta; Quercus L.; Magnoliopsida
2011,2011-10-04,Porto,TROFA,Muro,ALTO DE VILARES (Alto Catorze),41.3010941,-8.5941379,NC,119.0,2011-10-04T13:00,30.2,29,10.0,30.4,0.0,0.0,0.0,0.0,0,1024.2,1010.6,0,0,0,0,0.52,3.07,5.1,6.6,39,49,13.7,31.6,22.9,21.6,20.3,0.107,0.148,0.192,0.313,1,3600.0,694.8,599.8,95.0,870.0,694.8,942.6,702.0,606.0,96.0,870.0,702.0,952.4,Tracheophyta; Eucalyptus L'Hér.; Magnoliopsida
2011,2011-10-04,Castelo Branco,Sertã,Cernache do Bonjardim,Brejo Fundeiro,39.8165101,-8.1862538,Desconhecida,402.0,2011-10-04T14:00,31.7,19,5.0,30.0,0.0,0.0,0.0,0.0,0,1022.6,977.7,0,0,0,0,0.56,3.81,9.1,11.7,7,11,27.4,34.4,24.1,22.3,21.0,0.106,0.156,0.175,0.293,1,3600.0,654.0,565.6,88.4,873.9,654.0,884.8,688.0,595.0,93.0,873.9,688.0,930.8,Olea europaea L.; Tracheophyta; Pinus pinaster Aiton; Eucalyptus L'Hér.
2011,2011-10-07,Porto,Lousada,Casais,Lugar da Ponte,41.2669142,-8.3115127,Desconhecida,217.0,2011-10-07T19:00,20.4,41,6.6,18.2,0.0,0.0,0.0,0.0,1,1023.8,998.3,28,0,0,94,0.08,1.43,9.5,22.6,25,29,28.1,22.5,22.2,21.5,20.1,0.093,0.152,0.195,0.309,0,0.0,0.0,0.0,0.0,0.0,0.0,0.0,0.0,0.0,0.0,0.0,0.0,0.0,Pinus pinaster Aiton; Tracheophyta; Magnoliopsida; Eucalyptus L'Hér.
