year,date,district,municipality,parish,local,latitude,longitude,cause,elevation,hourly.time,hourly.temperature_2m,hourly.relative_humidity_2m,hourly.dew_point_2m,hourly.apparent_temperature,hourly.precipitation,hourly.rain,hourly.snowfall,hourly.snow_depth,hourly.weather_code,hourly.pressure_msl,hourly.surface_pressure,hourly.cloud_cover,hourly.cloud_cover_low,hourly.cloud_cover_mid,hourly.cloud_cover_high,hourly.et0_fao_evapotranspiration,hourly.vapour_pressure_deficit,hourly.wind_speed_10m,hourly.wind_speed_100m,hourly.wind_direction_10m,hourly.wind_direction_100m,hourly.wind_gusts_10m,hourly.soil_temperature_0_to_7cm,hourly.soil_temperature_7_to_28cm,hourly.soil_temperature_28_to_100cm,hourly.soil_temperature_100_to_255cm,hourly.soil_moisture_0_to_7cm,hourly.soil_moisture_7_to_28cm,hourly.soil_moisture_28_to_100cm,hourly.soil_moisture_100_to_255cm,hourly.is_day,hourly.sunshine_duration,hourly.shortwave_radiation_instant,hourly.direct_radiation_instant,hourly.diffuse_radiation_instant,hourly.direct_normal_irradiance_instant,hourly.global_tilted_irradiance_instant,hourly.terrestrial_radiation_instant,hourly.shortwave_radiation,hourly.direct_radiation,hourly.diffuse_radiation,hourly.direct_normal_irradiance,hourly.global_tilted_irradiance,hourly.terrestrial_radiation,scientificNames
2015,2015-03-26,Braga,Guimarães,Guardizela,DEVESAS,41.3879009999169,-8.36509099960327,Reacendimento,129.0,2015-03-26T01:00,6.0,81,3.0,2.8,0.0,0.0,0.0,0.0,2,1021.2,1005.2,60,1,51,95,0.01,0.17,10.8,18.7,334,337,22.3,7.6,10.2,10.9,10.4,0.285,0.313,0.359,0.402,0,0.0,0.0,0.0,0.0,0.0,0.0,0.0,0.0,0.0,0.0,0.0,0.0,0.0,Tracheophyta; Magnoliopsida; Pinus pinaster Aiton; Eucalyptus L'Hér.
2015,2015-03-28,Braga,Guimarães,Moreira de Cónegos,R. DO OUTEIRO,41.3793529997932,-8.34110300011105,NC,152.0,2015-03-28T14:00,17.9,61,10.2,17.1,0.0,0.0,0.0,0.0,0,1031.6,1013.4,0,0,0,0,0.43,0.8,15.1,19.4,310,313,30.6,18.6,12.3,10.7,10.1,0.276,0.307,0.355,0.402,1,3600.0,777.7,677.3,100.5,918.5,777.7,1013.1,805.0,701.0,104.0,918.5,805.0,1048.6,Eucalyptus L'Hér.; Magnoliopsida; Tracheophyta; Pinales
2015,2015-03-28,Braga,Fafe,Arões (São Romão),Portela,41.4574499999152,-8.22070700009664,Reacendimento,335.0,2015-03-28T18:00,14.6,69,9.1,13.2,0.0,0.0,0.0,0.0,0,1030.2,990.2,8,0,0,26,0.11,0.51,8.5,13.9,282,291,27.7,15.9,13.0,9.9,9.2,0.276,0.309,0.355,0.404,1,3600.0,135.7,101.9,33.8,645.0,135.7,217.1,217.0,163.0,54.0,645.0,217.0,347.2,Eucalyptus L'Hér.; Pinales; Tracheophyta; Magnoliopsida; Pinus pinaster Aiton
2015,2015-03-28,Braga,Braga,Tebosa,MONTE DE TEBOSA,41.4830459997389,-8.4835400000049,NC,182.0,2015-03-28T20:00,10.5,87,8.4,8.3,0.0,0.0,0.0,0.0,1,1031.8,1009.5,31,7,0,81,0.0,0.17,12.0,22.2,316,324,25.9,12.4,12.9,10.6,10.0,0.269,0.303,0.353,0.4,0,0.0,0.0,0.0,0.0,0.0,0.0,0.0,0.0,0.0,0.0,0.0,0.0,0.0,Eucalyptus L'Hér.; Tracheophyta; Pinus pinaster Aiton; Magnoliopsida; Pinales
2015,2015-03-29,Braga,Vila Verde,Travassós,L.IGREJA,41.6636569997999,-8.46035499996609,Desconhecida,174.0,2015-03-29T16:00,14.8,70,9.4,13.3,0.0,0.0,0.0,0.0,1,1031.2,1010.2,41,15,0,91,0.25,0.51,9.8,11.6,298,300,25.6,17.4,12.9,10.6,9.8,0.269,0.304,0.352,0.405,1,3600.0,431.1,276.8,154.3,536.8,431.1,708.1,489.0,314.0,175.0,536.8,489.0,803.2,Eucalyptus L'Hér.; Magnoliopsida; Pinus pinaster Aiton; Vitis vinifera L.
2015,2015-03-29,Braga,Vila Nova de Famalicão,Requião,S. JOÃO PEDRA LEITAL,41.4115700001187,-8.47935299979316,NC,109.0,2015-03-29T20:00,11.2,87,9.2,10.1,0.0,0.0,0.0,0.0,1,1031.8,1018.4,30,0,0,99,0.0,0.17,6.0,11.3,295,307,15.1,13.1,13.7,11.5,10.7,0.273,0.298,0.346,0.397,0,0.0,0.0,0.0,0.0,0.0,0.0,0.0,0.0,0.0,0.0,0.0,0.0,0.0,Tracheophyta; Vitis vinifera L.; Magnoliopsida; Pinus pinaster Aiton
2015,2015-03-29,Braga,Guimarães,Selho (São Cristovão),L. SRª MONTES,41.4151629998949,-8.3471460003323,NC,190.0,2015-03-29T20:00,11.3,88,9.4,10.3,0.0,0.0,0.0,0.0,1,1031.8,1008.6,30,0,0,99,0.0,0.16,6.0,11.3,295,307,15.1,13.0,13.5,10.9,10.0,0.269,0.304,0.353,0.402,0,0.0,0.0,0.0,0.0,0.0,0.0,0.0,0.0,0.0,0.0,0.0,0.0,0.0,Magnoliopsida; Eucalyptus L'Hér.; Vitis vinifera L.; Tracheophyta
2015,2015-03-30,Braga,Guimarães,Infantas,R. DE CAMOES,41.4279399998983,-8.24353299988641,NC,292.0,2015-03-30T15:00,17.7,66,11.2,17.7,0.0,0.0,0.0,0.0,0,1030.5,995.9,1,1,0,0,0.4,0.7,10.1,13.1,297,302,30.2,18.9,12.5,10.4,9.4,0.268,0.304,0.352,0.402,1,3600.0,686.6,592.8,93.8,909.0,686.6,895.0,739.0,638.0,101.0,909.0,739.0,963.2,Magnoliopsida; Eucalyptus L'Hér.; Pinus pinaster Aiton; Tracheophyta; Vitis vinifera L.
2015,2015-03-30,Braga,Guimarães,Moreira de Cónegos,OUTEIRO,41.3793529997932,-8.34110300011105,NC,152.0,2015-03-30T16:00,17.0,67,10.9,15.7,0.0,0.0,0.0,0.0,0,1030.6,1012.4,0,0,0,0,0.31,0.64,12.8,16.0,310,314,32.4,18.4,13.2,11.0,10.1,0.261,0.3,0.351,0.401,1,3600.0,521.2,423.3,97.9,813.2,521.2,714.4,591.0,480.0,111.0,813.2,591.0,810.1,Eucalyptus L'Hér.; Magnoliopsida; Tracheophyta; Pinales
2015,2015-03-30,Braga,Guimarães,Castelões,LAÇOS (CASTELÕES),41.5541666666667,-8.2025,NC,249.0,2015-03-30T17:00,16.5,67,10.5,15.4,0.0,0.0,0.0,0.0,0,1029.9,1000.2,0,0,0,0,0.22,0.61,9.0,11.9,293,299,28.4,17.8,13.2,10.6,9.6,0.255,0.298,0.35,0.403,1,3600.0,341.0,278.9,62.1,790.0,341.0,484.5,423.0,346.0,77.0,790.0,423.0,601.0,Eucalyptus L'Hér.; Magnoliopsida; Pinales; Tracheophyta
2015,2015-03-30,Braga,Braga,Esporões,Marinhais (Rua dos Marinhais 15. 4705 Esporões. Portugal),41.5088888888889,-8.41138888888889,Desconhecida,251.0,2015-03-30T18:00,14.4,74,9.9,12.6,0.0,0.0,0.0,0.0,0,1030.6,1000.4,0,0,0,0,0.11,0.43,12.5,18.8,303,306,28.8,15.8,12.9,10.4,9.5,0.26,0.3,0.351,0.401,1,3600.0,144.8,106.3,38.4,631.5,144.8,231.1,226.0,166.0,60.0,631.5,226.0,360.7,Eucalyptus L'Hér.; Magnoliopsida; Pinus pinaster Aiton; Tracheophyta
2015,2015-03-30,Braga,Guimarães,Urgezes,Vila Chã,41.4211111111111,-8.29194444444444,NC,235.0,2015-03-30T21:00,10.3,96,9.8,9.4,0.0,0.0,0.0,0.0,0,1032.1,1003.4,4,5,0,0,0.0,0.05,5.7,9.3,305,324,16.2,12.2,13.3,10.8,9.8,0.263,0.301,0.351,0.402,0,0.0,0.0,0.0,0.0,0.0,0.0,0.0,0.0,0.0,0.0,0.0,0.0,0.0,Magnoliopsida; Vitis vinifera L.; Tracheophyta
2015,2015-03-31,Braga,Barcelos,Rio Covo (Santa Eulália),Traz da Fonte (EM560. 4755. Portugal),41.535,-8.62222222222222,Desconhecida,40.0,2015-03-31T12:00,18.5,57,9.9,16.4,0.0,0.0,0.0,0.0,0,1032.1,1027.3,0,0,0,0,0.44,0.91,22.7,28.6,342,345,39.2,17.8,12.8,12.1,11.2,0.255,0.293,0.346,0.396,1,3600.0,851.7,761.9,89.8,971.6,851.7,1075.7,825.0,738.0,87.0,971.6,825.0,1041.9,Tracheophyta; Magnoliopsida
2015,2015-03-31,Braga,Vizela,Caldas de Vizela (São Miguel),MONTE S. BENTO,41.3755260001289,-8.30920500013563,NC,146.0,2015-03-31T14:00,20.8,47,9.0,19.4,0.0,0.0,0.0,0.0,0,1029.6,1012.3,0,0,0,0,0.51,1.31,17.5,23.1,341,345,31.7,19.6,12.7,11.2,10.2,0.256,0.297,0.349,0.401,1,3600.0,809.7,715.0,94.7,954.7,809.7,1027.3,838.0,740.0,98.0,954.7,838.0,1063.2,Tracheophyta; Eucalyptus L'Hér.; Magnoliopsida
2015,2015-03-31,Braga,Guimarães,Infantas,L. LAPINHA,41.4279399998983,-8.24353299988641,NC,292.0,2015-03-31T15:00,21.7,41,7.8,21.0,0.0,0.0,0.0,0.0,0,1028.6,994.5,0,0,0,0,0.48,1.54,9.4,12.4,337,343,25.6,20.2,12.9,10.5,9.4,0.26,0.3,0.35,0.401,1,3600.0,703.6,617.1,86.4,941.1,703.6,899.4,757.0,664.0,93.0,941.1,757.0,967.8,Magnoliopsida; Eucalyptus L'Hér.; Pinus pinaster Aiton; Tracheophyta; Vitis vinifera L.
2015,2015-03-31,Braga,Vila Nova De Famalicão,Vila Nova De Famalicão,R. DOS CASAIS (Rua Adolfo Casais Monteiro),41.4058333333333,-8.52305555555555,NC,86.0,2015-03-31T16:00,19.8,54,10.3,17.8,0.0,0.0,0.0,0.0,0,1028.6,1018.3,0,0,0,0,0.37,1.06,16.9,23.4,331,335,38.2,19.4,13.9,11.9,10.9,0.262,0.292,0.342,0.396,1,3600.0,543.9,465.3,78.6,885.7,543.9,720.5,616.0,527.0,89.0,885.7,616.0,816.0,Tracheophyta; Magnoliopsida; Eucalyptus L'Hér.
2015,2015-04-02,Braga,Vieira do Minho,Guilhofrei,CALVELOS,41.5684599999587,-8.13602799998389,Desconhecida,360.0,2015-04-02T21:00,14.5,58,6.3,12.4,0.0,0.0,0.0,0.0,1,1021.7,979.1,30,0,0,100,0.03,0.7,7.9,8.2,51,38,14.4,13.2,14.0,10.8,9.2,0.23,0.287,0.345,0.401,0,0.0,0.0,0.0,0.0,0.0,0.0,0.0,0.0,0.0,0.0,0.0,0.0,0.0,Magnoliopsida; Pinus pinaster Aiton; Quercus L.; Tracheophyta; Eucalyptus L'Hér.
2015,2015-04-02,Braga,Celorico de Basto,Agilde,LADÁRIO,41.3639570003086,-8.12136900001102,Reacendimento,529.0,2015-04-02T23:00,11.4,61,4.2,9.0,0.0,0.0,0.0,0.0,1,1021.6,959.1,30,0,0,100,0.02,0.53,6.8,10.5,90,82,20.2,10.7,12.5,9.7,8.0,0.246,0.292,0.342,0.396,0,0.0,0.0,0.0,0.0,0.0,0.0,0.0,0.0,0.0,0.0,0.0,0.0,0.0,Eucalyptus L'Hér.; Pinus pinaster Aiton; Tracheophyta; Vitis vinifera L.; Magnoliopsida
2015,2015-04-03,Braga,Guimarães,Infantas,CARREIRA,41.4279399998983,-8.24353299988641,Desconhecida,292.0,2015-04-03T08:00,13.2,62,6.0,10.6,0.0,0.0,0.0,0.0,2,1019.8,985.0,66,0,60,99,0.09,0.58,10.9,20.2,73,85,25.9,11.6,12.4,11.1,9.5,0.238,0.288,0.344,0.399,1,1425.45,172.6,35.1,137.5,107.5,172.6,446.9,123.0,25.0,98.0,107.5,123.0,318.4,Magnoliopsida; Eucalyptus L'Hér.; Pinus pinaster Aiton; Tracheophyta; Vitis vinifera L.
2015,2015-04-03,Braga,Amares,Bouro (Santa Marta),FELGUEIRAS,41.6721759997474,-8.2882149998347,Reacendimento,474.0,2015-04-03T09:00,16.5,55,7.5,14.7,0.0,0.0,0.0,0.0,2,1020.2,965.0,79,0,81,100,0.18,0.85,8.3,14.6,72,81,25.9,13.3,11.8,10.4,8.7,0.24,0.289,0.344,0.402,1,3600.0,350.7,139.3,211.4,279.9,350.7,681.8,292.0,116.0,176.0,279.9,292.0,567.6,Eucalyptus L'Hér.; Magnoliopsida; Tracheophyta; Pinus pinaster Aiton; Quercus L.
2015,2015-04-03,Braga,Amares,Vilela,URJAL,41.6693239998817,-8.32058499998517,NC,347.0,2015-04-03T09:00,17.9,57,9.4,16.8,0.0,0.0,0.0,0.0,2,1019.9,979.4,64,0,57,100,0.17,0.88,7.0,9.5,78,81,18.7,14.1,12.3,10.7,9.1,0.236,0.286,0.343,0.402,1,3600.0,323.4,119.0,204.4,239.7,323.4,679.9,269.0,99.0,170.0,239.7,269.0,565.6,Magnoliopsida; Eucalyptus L'Hér.; Tracheophyta; Vitis vinifera L.; Pinus pinaster Aiton; Quercus L.; 
2015,2015-04-03,Braga,Braga,Palmeira,Carreiro (Rua das Cobrasseiras 12. 4700-727 Palmeira. Portugal),41.5894444444444,-8.43277777777778,Desconhecida,77.0,2015-04-03T11:00,22.2,39,7.6,20.3,0.0,0.0,0.0,0.0,2,1019.1,1010.1,77,0,78,100,0.39,1.64,9.3,13.0,74,76,22.3,18.6,14.3,12.3,10.8,0.229,0.282,0.342,0.396,1,3600.0,595.3,276.8,318.5,374.0,595.3,1013.5,557.0,259.0,298.0,374.0,557.0,948.3,Tracheophyta; Magnoliopsida
2015,2015-01-28,Braga,Amares,Vilela,URJAL,41.6693239998817,-8.32058499998517,NC,347.0,2015-01-28T19:00,8.4,93,7.4,7.2,0.0,0.0,0.0,0.0,3,1027.2,985.0,100,100,0,97,0.0,0.08,3.8,7.3,221,237,15.8,7.8,7.1,7.5,10.3,0.374,0.383,0.402,0.405,0,0.0,0.0,0.0,0.0,0.0,0.0,0.0,0.0,0.0,0.0,0.0,0.0,0.0,Magnoliopsida; Eucalyptus L'Hér.; Tracheophyta; Vitis vinifera L.; Pinus pinaster Aiton; Quercus L.; 
2015,2015-04-03,Braga,Guimarães,Moreira de Cónegos,RUA DO OUTEIRO,41.3793529997932,-8.34110300011105,NC,152.0,2015-04-03T14:00,24.5,35,7.9,24.6,0.0,0.0,0.0,0.0,2,1017.2,999.6,59,0,49,100,0.49,2.0,3.6,5.2,6,16,18.0,21.9,14.7,11.8,10.2,0.225,0.283,0.342,0.399,1,3600.0,702.5,455.1,247.4,598.8,702.5,1040.8,727.0,471.0,256.0,598.8,727.0,1077.1,Eucalyptus L'Hér.; Magnoliopsida; Tracheophyta; Pinales
2015,2015-04-03,Braga,Vila Verde,Dossãos,RUA SRA.MILAGRES,41.678609000312,-8.46873600006104,Desconhecida,256.0,2015-04-03T14:00,24.3,37,8.5,24.4,0.0,0.0,0.0,0.0,1,1017.4,988.0,42,0,20,100,0.54,1.92,7.0,9.0,348,355,23.0,22.3,14.3,11.1,9.4,0.225,0.283,0.342,0.401,1,3600.0,772.9,600.9,172.0,793.8,772.9,1036.6,800.0,622.0,178.0,793.8,800.0,1072.9,Magnoliopsida; Eucalyptus L'Hér.; Tracheophyta; Pinus pinaster Aiton
2015,2015-04-03,Braga,Braga,Escudeiros,ED309 (ED309) Km 26 (N309 1136. 4770 Portela. Portugal),41.4797222222222,-8.44055555555556,Desconhecida,257.0,2015-04-03T15:00,23.9,36,7.9,23.2,0.0,0.0,0.0,0.0,1,1016.7,987.2,47,0,30,98,0.44,1.91,5.3,7.0,332,339,18.7,21.6,14.4,11.1,9.5,0.223,0.282,0.342,0.399,1,3600.0,600.2,369.4,230.8,553.9,600.2,913.1,645.0,397.0,248.0,553.9,645.0,981.3,Eucalyptus L'Hér.; Magnoliopsida; Pinus pinaster Aiton; Vitis vinifera L.
2015,2015-04-03,Braga,Vila Nova de Famalicão,Vermoim,BREIA CIMA,41.4216020001305,-8.45102700001664,Reacendimento,176.0,2015-04-03T18:00,21.6,56,12.4,21.4,0.0,0.0,0.0,0.0,1,1015.1,994.6,32,0,5,98,0.14,1.14,6.1,12.9,315,337,17.6,19.6,15.8,12.0,10.4,0.235,0.277,0.335,0.394,1,3600.0,128.3,61.9,66.5,340.0,128.3,249.1,195.0,94.0,101.0,340.0,195.0,378.5,Tracheophyta; Eucalyptus L'Hér.
2015,2015-04-03,Braga,Guimarães,São Torcato,CORREDOURA,41.4859139998754,-8.25949099964566,NC,287.0,2015-04-03T19:00,20.9,52,10.6,20.4,0.0,0.0,0.0,0.0,1,1015.6,982.4,34,0,8,99,0.05,1.19,4.9,7.0,306,325,13.7,17.7,15.3,11.2,9.5,0.214,0.279,0.342,0.4,0,1104.09,0.0,0.0,0.0,0.0,0.0,0.0,46.0,16.0,30.0,126.3,46.0,114.2,Magnoliopsida; Pinus pinaster Aiton; Tracheophyta; Vitis vinifera L.
2015,2015-04-03,Braga,Póvoa de Lanhoso,Vilela,Boucinha,41.554383000003,-8.25845000002119,Desconhecida,184.0,2015-04-03T20:00,16.8,65,10.1,15.8,0.0,0.0,0.0,0.0,1,1015.1,993.4,29,0,0,98,0.02,0.68,7.2,15.2,3,5,14.8,16.0,15.7,11.6,9.9,0.221,0.281,0.342,0.4,0,0.0,0.0,0.0,0.0,0.0,0.0,0.0,0.0,0.0,0.0,0.0,0.0,0.0,Magnoliopsida; Eucalyptus L'Hér.; Tracheophyta; Vitis vinifera L.; Pinus pinaster Aiton; Quercus L.; 
2015,2015-04-03,Braga,Amares,Paranhos,Igreja,41.6719444444444,-8.34472222222222,NC,414.0,2015-04-03T21:00,13.1,63,6.2,10.6,0.0,0.0,0.0,0.0,1,1017.4,968.6,30,0,0,99,0.03,0.56,10.9,24.9,46,51,34.2,13.3,14.6,10.4,8.6,0.223,0.282,0.341,0.402,0,0.0,0.0,0.0,0.0,0.0,0.0,0.0,0.0,0.0,0.0,0.0,0.0,0.0,Magnoliopsida; Eucalyptus L'Hér.; Tracheophyta; Pinus pinaster Aiton; Quercus L.; 
2015,2015-04-03,Braga,Vila Verde,Turiz,L. PENEDOS ALTOS,41.6325640000237,-8.45064500000742,Desconhecida,86.0,2015-04-03T21:00,15.6,64,8.9,12.9,0.0,0.0,0.0,0.0,1,1015.4,1005.1,30,0,0,100,0.06,0.63,16.5,30.0,10,20,26.3,15.4,16.2,12.3,10.6,0.219,0.281,0.342,0.399,0,0.0,0.0,0.0,0.0,0.0,0.0,0.0,0.0,0.0,0.0,0.0,0.0,0.0,Eucalyptus L'Hér.; Tracheophyta; Magnoliopsida; Pinus pinaster Aiton
2015,2015-04-03,Braga,Vila Verde,Valdreu,Chão,41.7329009999169,-8.33110800001356,Desconhecida,316.0,2015-04-03T22:00,12.2,67,6.3,9.9,0.0,0.0,0.0,0.0,1,1016.5,978.9,28,0,0,94,0.02,0.47,9.7,25.2,39,47,29.9,12.9,15.0,11.1,9.3,0.223,0.282,0.341,0.402,0,0.0,0.0,0.0,0.0,0.0,0.0,0.0,0.0,0.0,0.0,0.0,0.0,0.0,Magnoliopsida; Tracheophyta
2015,2015-04-03,Braga,Cabeceiras De Basto,Gondiães,GONDIÃES,41.5916666666667,-7.84472222222222,Desconhecida,614.0,2015-04-03T23:00,9.0,84,6.5,6.8,0.0,0.0,0.0,0.0,1,1016.3,944.0,30,0,4,91,0.0,0.18,8.7,15.8,7,21,21.2,10.7,13.4,10.0,7.9,0.241,0.288,0.34,0.395,0,0.0,0.0,0.0,0.0,0.0,0.0,0.0,0.0,0.0,0.0,0.0,0.0,0.0,Magnoliopsida; Pinus pinaster Aiton; Tracheophyta
2015,2015-04-04,Braga,Vizela,Caldas de Vizela (São Miguel),L. FORMIGOSA,41.3755260001289,-8.30920500013563,NC,146.0,2015-04-04T01:00,11.5,64,4.9,9.1,0.0,0.0,0.0,0.0,1,1014.2,996.6,22,0,0,75,0.02,0.49,8.1,19.2,58,60,18.0,12.1,15.0,12.1,10.3,0.223,0.281,0.342,0.398,0,0.0,0.0,0.0,0.0,0.0,0.0,0.0,0.0,0.0,0.0,0.0,0.0,0.0,Tracheophyta; Eucalyptus L'Hér.; Magnoliopsida
2015,2015-04-04,Braga,Guimarães,Infantas,Arieiro,41.4266560003493,-8.23072399987115,Desconhecida,241.0,2015-04-04T02:00,10.0,64,3.6,6.7,0.0,0.0,0.0,0.0,0,1014.2,985.2,0,0,0,1,0.03,0.44,12.1,27.3,63,67,29.2,10.9,14.2,11.6,9.8,0.216,0.279,0.341,0.4,0,0.0,0.0,0.0,0.0,0.0,0.0,0.0,0.0,0.0,0.0,0.0,0.0,0.0,Eucalyptus L'Hér.; Magnoliopsida; Tracheophyta; Pinus pinaster Aiton; Pinales
2015,2015-04-04,Braga,Fafe,Quinchães,L. CASADELA,41.4315509997474,-8.13562600003348,Desconhecida,596.0,2015-04-04T04:00,5.3,83,2.7,2.2,0.0,0.0,0.0,0.0,0,1014.2,943.2,0,0,0,0,0.0,0.15,9.8,20.5,62,75,28.4,7.1,11.2,9.6,7.6,0.242,0.287,0.34,0.396,0,0.0,0.0,0.0,0.0,0.0,0.0,0.0,0.0,0.0,0.0,0.0,0.0,0.0,Magnoliopsida; Tracheophyta; Pinales; Eucalyptus L'Hér.
2015,2015-04-04,Braga,Fafe,Quinchães,L. CASADELA,41.4315509997474,-8.13562600003348,Desconhecida,596.0,2015-04-04T04:00,5.3,83,2.7,2.2,0.0,0.0,0.0,0.0,0,1014.2,943.2,0,0,0,0,0.0,0.15,9.8,20.5,62,75,28.4,7.1,11.2,9.6,7.6,0.242,0.287,0.34,0.396,0,0.0,0.0,0.0,0.0,0.0,0.0,0.0,0.0,0.0,0.0,0.0,0.0,0.0,Magnoliopsida; Tracheophyta; Pinales; Eucalyptus L'Hér.
2015,2015-04-04,Braga,Braga,Guisande,Portela,41.4813888888889,-8.44166666666667,Reacendimento,243.0,2015-04-04T08:00,11.5,66,5.4,8.3,0.0,0.0,0.0,0.0,0,1013.1,984.1,0,0,0,0,0.1,0.46,14.1,25.0,77,83,29.5,10.9,12.7,11.5,9.7,0.225,0.281,0.341,0.398,1,3600.0,285.0,212.4,72.7,644.3,285.0,451.1,204.0,152.0,52.0,644.3,204.0,322.9,Eucalyptus L'Hér.; Magnoliopsida; Tracheophyta; Pinus pinaster Aiton; Vitis vinifera L.
2015,2015-04-04,Braga,Vizela,Caldas de Vizela (São Miguel),S. BENTO PÊRAS,41.3755260001289,-8.30920500013563,NC,146.0,2015-04-04T11:00,18.6,40,4.9,15.6,0.0,0.0,0.0,0.0,0,1011.8,994.7,0,0,0,0,0.45,1.27,18.8,25.5,97,98,40.0,17.4,13.6,12.1,10.3,0.222,0.28,0.341,0.398,1,3600.0,796.7,697.4,99.3,934.1,796.7,1021.8,746.0,653.0,93.0,934.1,746.0,956.8,Tracheophyta; Eucalyptus L'Hér.; Magnoliopsida
2015,2015-04-04,Braga,Vila Verde,Travassós,PALMARES,41.6636569997999,-8.46035499996609,Desconhecida,174.0,2015-04-04T12:00,20.2,40,6.0,19.3,0.0,0.0,0.0,0.0,0,1012.5,992.2,0,0,0,0,0.51,1.43,10.4,14.3,46,56,24.8,19.5,13.8,11.9,10.0,0.219,0.279,0.34,0.4,1,3600.0,857.6,756.6,101.0,946.0,857.6,1094.5,832.0,734.0,98.0,946.0,832.0,1061.9,Eucalyptus L'Hér.; Magnoliopsida; Pinus pinaster Aiton; Vitis vinifera L.
2015,2015-04-04,Braga,Celorico De Basto,Veade,Águas Férreas,41.4144444444444,-7.96638888888889,Reacendimento,159.0,2015-04-04T13:00,20.1,36,4.4,18.0,0.0,0.0,0.0,0.0,0,1011.5,993.0,0,0,0,0,0.55,1.52,17.3,23.8,92,93,44.6,19.7,13.8,12.1,10.2,0.223,0.282,0.341,0.397,1,3600.0,887.0,788.2,98.8,976.1,887.0,1105.0,889.0,790.0,99.0,976.1,889.0,1107.6,Magnoliopsida; Pinus pinaster Aiton; Vitis vinifera L.; Tracheophyta
2015,2015-04-04,Braga,Braga,Adaúfe,Estrada (Rua do Pinhal 12. 4710 Adaúfe. Portugal),41.5966261312697,-8.39004635810852,Desconhecida,79.0,2015-04-04T14:00,22.0,31,4.3,20.1,0.0,0.0,0.0,0.0,0,1011.1,1001.9,0,0,0,0,0.56,1.81,14.5,19.6,97,97,35.6,21.1,15.1,12.7,10.9,0.213,0.276,0.339,0.395,1,3600.0,827.2,731.6,95.7,960.2,827.2,1042.6,856.0,757.0,99.0,960.2,856.0,1078.8,Magnoliopsida; Pinus pinaster Aiton; Tracheophyta
2015,2015-04-04,Braga,Guimarães,Guardizela,DEVESAS,41.3879009999169,-8.36509099960327,Desconhecida,129.0,2015-04-04T14:00,21.6,31,3.7,19.5,0.0,0.0,0.0,0.0,0,1010.7,995.7,0,0,0,0,0.56,1.79,15.5,20.5,85,87,31.3,20.5,14.7,12.4,10.6,0.227,0.282,0.34,0.396,1,3600.0,827.1,733.4,93.7,960.4,827.1,1045.1,856.0,759.0,97.0,960.4,856.0,1081.5,Tracheophyta; Magnoliopsida; Pinus pinaster Aiton; Eucalyptus L'Hér.
2015,2015-04-04,Braga,Fafe,Várzea Cova,MARINHAO (Marinhas),41.5122222222222,-8.09472222222222,Desconhecida,650.0,2015-04-04T15:00,18.4,31,0.8,15.3,0.0,0.0,0.0,0.0,0,1011.3,937.7,0,0,0,0,0.48,1.47,15.5,21.3,95,96,43.2,18.6,12.4,9.9,7.8,0.231,0.287,0.343,0.398,1,3600.0,718.4,633.8,84.6,951.2,718.4,911.9,773.0,682.0,91.0,951.2,773.0,981.2,Magnoliopsida; Tracheophyta
2015,2015-04-04,Braga,Vila Verde,Atiães,CRISTOVAO,41.628269999822,-8.49211799992455,Desconhecida,84.0,2015-04-04T15:00,22.4,30,4.1,20.7,0.0,0.0,0.0,0.0,0,1010.5,1000.7,0,0,0,0,0.51,1.9,10.6,15.2,62,76,27.4,21.6,15.2,12.4,10.6,0.21,0.277,0.34,0.399,1,3600.0,713.0,623.7,89.4,931.7,713.0,916.0,766.0,670.0,96.0,931.7,766.0,984.1,Eucalyptus L'Hér.; Vitis vinifera L.; Magnoliopsida; Pinus pinaster Aiton
2015,2015-02-09,Braga,Póvoa de Lanhoso,Frades,São Mamede (Rua de Portela. 4830. Portugal),41.6252777777778,-8.24416666666667,Desconhecida,675.0,2015-02-09T14:00,8.4,49,-1.7,3.9,0.0,0.0,0.0,0.0,0,1020.6,940.9,2,2,0,0,0.24,0.57,15.6,22.2,116,117,42.5,6.1,2.4,4.5,8.1,0.381,0.391,0.41,0.416,1,3600.0,542.1,461.5,80.6,891.4,542.1,727.7,565.0,481.0,84.0,891.4,565.0,758.4,Magnoliopsida; Tracheophyta; Eucalyptus L'Hér.; Pinus pinaster Aiton
2015,2015-04-04,Braga,Guimarães,Serzedelo,SRA. DOS MONTES,41.404638999833,-8.366757999998,NC,136.0,2015-04-04T15:00,22.1,29,3.2,19.6,0.0,0.0,0.0,0.0,0,1010.1,994.4,0,0,0,0,0.52,1.89,14.6,19.6,81,84,28.8,20.8,14.9,12.4,10.5,0.225,0.281,0.34,0.396,1,3600.0,716.6,630.0,86.6,938.6,716.6,918.6,770.0,677.0,93.0,938.6,770.0,987.1,Magnoliopsida; Tracheophyta; Vitis vinifera L.; Eucalyptus L'Hér.; Pinales
2015,2015-04-04,Braga,Guimarães,Donim,RUA CIMO VILA (DONIM),41.5313888888889,-8.29944444444445,NC,163.0,2015-04-04T16:00,22.0,29,3.0,19.1,0.0,0.0,0.0,0.0,0,1010.1,991.3,0,0,0,0,0.43,1.89,12.3,16.7,95,96,30.2,20.8,14.9,11.9,10.0,0.211,0.277,0.34,0.4,1,3600.0,559.3,481.4,77.9,896.4,559.3,734.9,632.0,544.0,88.0,896.4,632.0,830.4,Tracheophyta; Eucalyptus L'Hér.; Quercus L.; Magnoliopsida; Pinus pinaster Aiton; Pinales
2015,2015-04-04,Braga,Vila Nova de Famalicão,Vermoim,BREIA DE CIMA,41.4216020001305,-8.45102700001664,Reacendimento,176.0,2015-04-04T16:00,21.9,28,2.7,18.9,0.0,0.0,0.0,0.0,0,1010.1,989.8,0,0,0,0,0.43,1.89,12.3,16.7,95,96,30.2,20.5,15.1,12.2,10.4,0.227,0.272,0.333,0.394,1,3600.0,559.2,481.4,77.9,895.9,559.2,735.3,632.0,544.0,88.0,895.9,632.0,831.0,Tracheophyta; Eucalyptus L'Hér.
2015,2015-04-04,Braga,Vila Verde,Valdreu,CHÃO,41.7404219998254,-8.33312699953715,Desconhecida,396.0,2015-04-04T17:00,20.4,29,1.8,17.7,0.0,0.0,0.0,0.0,0,1010.1,964.8,0,0,0,0,0.28,1.7,5.9,9.0,79,85,21.6,19.2,14.3,10.8,8.8,0.212,0.277,0.339,0.401,1,3600.0,362.8,301.0,61.8,813.9,362.8,506.0,446.0,370.0,76.0,813.9,446.0,622.1,Magnoliopsida; Tracheophyta; Pinus pinaster Aiton
2015,2015-04-04,Braga,Vila Verde,Travassós,PALMARES,41.6636569997999,-8.46035499996609,Desconhecida,174.0,2015-04-04T17:00,21.9,29,3.2,19.3,0.0,0.0,0.0,0.0,0,1009.9,989.8,0,0,0,0,0.3,1.86,7.3,8.7,20,38,17.6,20.4,15.4,11.9,10.0,0.209,0.276,0.339,0.4,1,3600.0,363.1,300.4,62.7,808.8,363.1,508.3,446.0,369.0,77.0,808.8,446.0,624.3,Eucalyptus L'Hér.; Magnoliopsida; Pinus pinaster Aiton; Vitis vinifera L.
2015,2015-04-04,Braga,Vila Verde,Atães,Igreja,41.7127777777778,-8.40388888888889,Desconhecida,224.0,2015-04-04T18:00,20.5,41,6.9,19.1,0.0,0.0,0.0,0.0,0,1010.1,984.2,0,0,0,0,0.14,1.41,3.7,8.3,101,108,19.8,18.8,15.2,11.6,9.6,0.206,0.275,0.339,0.401,1,3600.0,164.7,126.2,38.5,678.9,164.7,254.3,248.0,190.0,58.0,678.9,248.0,383.0,Tracheophyta; Magnoliopsida; Quercus L.; Pinus pinaster Aiton; Eucalyptus L'Hér.
2015,2015-04-04,Braga,Vieira do Minho,Louredo,FORMIGA,41.6770239999559,-8.1238699997796,Desconhecida,474.0,2015-04-04T20:00,14.1,45,2.4,10.9,0.0,0.0,0.0,0.0,0,1010.9,955.8,0,0,0,0,0.06,0.89,10.5,16.0,84,99,27.4,13.9,14.1,10.8,8.8,0.216,0.279,0.341,0.4,0,0.0,0.0,0.0,0.0,0.0,0.0,0.0,0.0,0.0,0.0,0.0,0.0,0.0,Tracheophyta; Eucalyptus L'Hér.; Quercus L.; Pinus pinaster Aiton
2015,2015-04-04,Braga,Vila Verde,Cabanelas,REGALDE,41.5888390000661,-8.49339699957106,Desconhecida,25.0,2015-04-04T21:00,16.4,40,2.8,12.9,0.0,0.0,0.0,0.0,0,1009.9,1006.9,0,0,0,0,0.09,1.12,13.0,23.7,56,73,21.2,15.6,16.5,13.3,11.5,0.205,0.272,0.336,0.393,0,0.0,0.0,0.0,0.0,0.0,0.0,0.0,0.0,0.0,0.0,0.0,0.0,0.0,Tracheophyta; Magnoliopsida; Eucalyptus L'Hér.
2015,2015-04-04,Braga,Vila Verde,Loureira,R. MONTE,41.6316340001424,-8.42754799948798,NC,69.0,2015-04-04T23:00,14.6,40,1.3,10.1,0.0,0.0,0.0,0.0,0,1009.9,1001.7,0,0,0,0,0.11,0.99,17.8,33.1,83,89,26.3,13.6,15.6,12.8,10.9,0.208,0.274,0.338,0.395,0,0.0,0.0,0.0,0.0,0.0,0.0,0.0,0.0,0.0,0.0,0.0,0.0,0.0,Tracheophyta; Magnoliopsida; Eucalyptus L'Hér.; Vitis vinifera L.
2015,2015-04-04,Braga,Póvoa De Lanhoso,Monsul,ESTRELA DO PARAISO (Estremadouro),41.6194444444444,-8.30138888888889,NC,117.0,2015-04-04T23:00,11.7,52,2.1,7.5,0.0,0.0,0.0,0.0,0,1010.0,995.9,0,0,0,0,0.07,0.66,16.6,35.3,85,89,30.2,11.8,14.9,12.3,10.3,0.21,0.276,0.339,0.4,0,0.0,0.0,0.0,0.0,0.0,0.0,0.0,0.0,0.0,0.0,0.0,0.0,0.0,Tracheophyta; Pinus pinaster Aiton; Magnoliopsida; Quercus L.
2015,2015-04-05,Braga,Braga,Arcos,Capela (Rua João Paulo II 37. 4705 Braga. Portugal),41.5611111111111,-8.41972222222222,Desconhecida,188.0,2015-04-05T00:00,11.0,53,1.9,7.0,0.0,0.0,0.0,0.0,0,1010.1,987.6,0,0,0,0,0.06,0.62,15.2,32.4,86,91,31.3,11.0,14.2,11.8,9.9,0.21,0.276,0.339,0.4,0,0.0,0.0,0.0,0.0,0.0,0.0,0.0,0.0,0.0,0.0,0.0,0.0,0.0,Tracheophyta; Pinus pinaster Aiton; Magnoliopsida
2015,2015-04-05,Braga,Vila Verde,Valdreu,AFURADA (Aradas),41.7613888888889,-8.31111111111111,Desconhecida,766.0,2015-04-05T00:00,7.1,65,1.1,3.6,0.0,0.0,0.0,0.0,0,1012.3,922.8,0,0,0,0,0.02,0.35,10.8,17.5,92,98,27.0,8.9,12.5,9.9,7.9,0.26,0.308,0.362,0.423,0,0.0,0.0,0.0,0.0,0.0,0.0,0.0,0.0,0.0,0.0,0.0,0.0,0.0,Tracheophyta; Magnoliopsida; Quercus L.
2015,2015-04-05,Braga,Póvoa de Lanhoso,Serzedelo,FRAGA,41.6153149996863,-8.21598100026449,NC,490.0,2015-04-05T03:00,8.8,62,2.0,5.6,0.0,0.0,0.0,0.0,0,1011.6,953.6,0,0,0,0,0.03,0.43,10.1,24.9,88,88,36.4,9.1,12.4,10.8,8.7,0.219,0.279,0.34,0.4,0,0.0,0.0,0.0,0.0,0.0,0.0,0.0,0.0,0.0,0.0,0.0,0.0,0.0,Eucalyptus L'Hér.; Tracheophyta
2015,2015-04-05,Braga,Fafe,Medelo,PINHEIROS,41.4698200000657,-8.15961300002204,Reacendimento,357.0,2015-04-05T03:00,10.2,58,2.2,6.4,0.0,0.0,0.0,0.0,0,1010.3,967.9,0,0,0,0,0.05,0.53,14.5,31.4,83,87,36.7,10.2,13.1,11.3,9.3,0.212,0.276,0.34,0.399,0,0.0,0.0,0.0,0.0,0.0,0.0,0.0,0.0,0.0,0.0,0.0,0.0,0.0,Magnoliopsida; Tracheophyta; Pinales
2015,2015-04-05,Braga,Vila Nova de Famalicão,Vermoim,L. BREIA DE CIMA,41.4216020001305,-8.45102700001664,Reacendimento,176.0,2015-04-05T08:00,13.1,53,3.8,9.0,0.0,0.0,0.0,0.0,0,1010.0,989.0,0,0,0,0,0.14,0.71,17.7,32.0,88,89,37.1,12.8,13.9,12.4,10.5,0.226,0.271,0.332,0.393,1,3600.0,280.4,206.8,73.6,617.4,280.4,458.3,202.0,149.0,53.0,617.4,202.0,330.1,Tracheophyta; Eucalyptus L'Hér.
2015,2015-04-05,Braga,Esposende,Gemeses,R. DO PASSO,41.5178539999326,-8.72680200046963,Desconhecida,18.0,2015-04-05T09:00,16.4,49,5.7,12.6,0.0,0.0,0.0,0.0,0,1009.5,1007.4,0,0,0,0,0.25,0.95,18.8,27.6,97,97,36.4,15.4,15.0,13.7,11.8,0.208,0.271,0.335,0.392,1,3600.0,475.0,387.5,87.6,770.0,475.0,688.3,396.0,323.0,73.0,770.0,396.0,573.8,Tracheophyta; Eucalyptus L'Hér.; Pinus pinaster Aiton
2015,2015-04-05,Braga,Guimarães,Atães,S. COSME (São Cosme),41.4763888888889,-8.24861111111111,NC,284.0,2015-04-05T10:00,16.8,45,4.8,13.0,0.0,0.0,0.0,0.0,0,1010.6,977.4,0,0,0,0,0.35,1.05,18.7,25.6,88,88,42.5,15.4,12.8,11.8,9.8,0.211,0.276,0.339,0.399,1,3600.0,666.4,570.4,96.0,879.6,666.4,887.0,597.0,511.0,86.0,879.6,597.0,794.6,Tracheophyta; Magnoliopsida; Vitis vinifera L.; Eucalyptus L'Hér.
2015,2015-04-05,Braga,Guimarães,Moreira de Cónegos,OUTEIRO,41.3793529997932,-8.34110300011105,NC,152.0,2015-04-05T11:00,19.6,41,6.0,17.3,0.0,0.0,0.0,0.0,0,1009.9,992.2,3,0,0,11,0.45,1.35,15.9,21.3,95,96,37.4,17.8,13.8,12.3,10.3,0.209,0.274,0.338,0.397,1,3600.0,781.3,668.2,113.1,889.8,781.3,1027.1,732.0,626.0,106.0,889.8,732.0,962.3,Eucalyptus L'Hér.; Magnoliopsida; Tracheophyta; Pinales
2015,2015-04-05,Braga,Amares,Vilela,L. URJAL,41.6693239998817,-8.32058499998517,NC,347.0,2015-04-05T11:00,19.5,40,5.7,18.8,0.0,0.0,0.0,0.0,0,1010.0,970.1,0,0,0,0,0.44,1.35,5.8,7.9,83,87,19.8,17.3,12.4,11.2,9.2,0.212,0.275,0.338,0.4,1,3600.0,784.3,686.1,98.2,916.3,784.3,1024.2,735.0,643.0,92.0,916.3,735.0,959.8,Magnoliopsida; Eucalyptus L'Hér.; Tracheophyta; Vitis vinifera L.; Pinus pinaster Aiton; Quercus L.; 
2015,2015-04-05,Braga,Braga,Lomar,L. (Laboriz),41.5186111111111,-8.43583333333333,Reacendimento,154.0,2015-04-05T12:00,21.2,39,6.7,19.9,0.0,0.0,0.0,0.0,0,1009.5,991.6,7,0,0,24,0.52,1.53,13.3,17.3,103,102,33.8,19.5,14.1,12.3,10.3,0.207,0.273,0.338,0.397,1,3600.0,850.0,731.5,118.5,908.4,850.0,1101.4,825.0,710.0,115.0,908.4,825.0,1069.0,Tracheophyta; Magnoliopsida; Pinus pinaster Aiton
2015,2015-04-05,Braga,Terras de Bouro,Carvalheira,ERVIDEIROS,41.7486819998423,-8.23340999999808,Reacendimento,564.0,2015-04-05T12:00,19.4,39,5.0,18.4,0.0,0.0,0.0,0.0,0,1009.9,945.9,0,0,0,0,0.51,1.38,9.8,12.7,98,98,29.9,18.0,12.0,10.5,8.4,0.228,0.282,0.341,0.401,1,3600.0,864.0,764.1,99.9,950.8,864.0,1099.2,839.0,742.0,97.0,950.8,839.0,1067.3,Pinus pinaster Aiton; Quercus L.; Magnoliopsida; Eucalyptus L'Hér.; Tracheophyta; Pinales
2015,2015-04-05,Porto,Santo Tirso,Sequeiró,Fojo,41.3658333333333,-8.44305555555556,NC,105.0,2015-04-05T13:00,22.7,38,7.5,22.0,0.0,0.0,0.0,0.0,0,1009.1,997.0,13,0,0,42,0.56,1.73,12.0,15.4,106,106,26.6,21.2,14.8,12.7,10.7,0.202,0.271,0.336,0.395,1,3600.0,848.6,709.8,138.8,873.7,848.6,1111.2,850.0,711.0,139.0,873.7,850.0,1113.1,Tracheophyta
2015,2015-04-05,Braga,Vila Verde,Turiz,S. SIMÃO,41.6325640000237,-8.45064500000742,Desconhecida,86.0,2015-04-05T13:00,23.1,38,8.2,23.3,0.0,0.0,0.0,0.0,0,1009.2,999.3,7,0,0,23,0.55,1.74,7.4,11.9,113,115,22.0,21.6,14.6,12.6,10.6,0.202,0.272,0.338,0.398,1,3600.0,843.5,700.7,142.7,865.6,843.5,1107.2,845.0,702.0,143.0,865.6,845.0,1109.2,Eucalyptus L'Hér.; Tracheophyta; Magnoliopsida; Pinus pinaster Aiton
2015,2015-04-05,Braga,Braga,Penso (são Vicente),ENTRE PORTAS (Entre Águas),41.4872222222222,-8.43888888888889,NC,198.0,2015-04-05T13:00,22.1,37,6.8,21.4,0.0,0.0,0.0,0.0,0,1009.2,986.4,9,0,0,31,0.55,1.67,10.8,14.1,111,109,29.5,20.6,14.1,12.0,10.0,0.205,0.273,0.338,0.397,1,3600.0,853.4,716.7,136.7,883.8,853.4,1109.1,855.0,718.0,137.0,883.8,855.0,1111.2,Vitis vinifera L.; Tracheophyta; Eucalyptus L'Hér.; Pinus pinaster Aiton; Magnoliopsida
2015,2015-04-05,Braga,Cabeceiras de Basto,Basto,DEVESA,41.4813839997186,-7.98973900000254,Desconhecida,236.0,2015-04-05T13:00,21.1,40,6.9,20.1,0.0,0.0,0.0,0.0,0,1009.4,982.2,13,0,0,43,0.54,1.51,13.1,17.5,99,99,37.1,20.4,13.8,12.0,9.9,0.211,0.277,0.34,0.397,1,3600.0,853.9,712.3,141.7,878.8,853.9,1108.6,856.0,714.0,142.0,878.8,856.0,1111.3,Magnoliopsida; Tracheophyta; Pinus pinaster Aiton; Eucalyptus L'Hér.; Vitis vinifera L.
2015,2015-04-05,Braga,Terras De Bouro,Cibões,CAVENCO (Cabenco),41.7533333333333,-8.26555555555556,Reacendimento,467.0,2015-04-05T15:00,22.4,35,6.3,21.9,0.0,0.0,0.0,0.0,0,1008.7,956.0,0,0,0,0,0.49,1.75,5.8,7.2,158,153,21.2,21.3,13.6,10.9,8.8,0.224,0.278,0.338,0.4,1,3600.0,706.2,617.8,88.4,921.6,706.2,916.8,759.0,664.0,95.0,921.6,759.0,985.4,Magnoliopsida; Tracheophyta; Quercus L.; Eucalyptus L'Hér.; Pinus pinaster Aiton
2015,2015-04-05,Braga,Guimarães,Serzedelo,SR. DOS MONTES,41.404638999833,-8.366757999998,Desconhecida,136.0,2015-04-05T15:00,23.6,35,7.2,23.6,0.0,0.0,0.0,0.0,0,1008.2,992.6,1,0,0,4,0.49,1.9,4.3,6.0,132,123,20.9,22.1,15.4,12.6,10.6,0.213,0.276,0.338,0.396,1,3600.0,700.0,605.1,94.9,896.8,700.0,922.7,752.0,650.0,102.0,896.8,752.0,991.3,Magnoliopsida; Tracheophyta; Vitis vinifera L.; Eucalyptus L'Hér.; Pinales
2015,2015-04-05,Braga,Póvoa De Lanhoso,Travassos,L. LEIRADELA (Leiradela),41.5844444444444,-8.19361111111111,NC,364.0,2015-04-05T15:00,22.3,35,6.1,21.3,0.0,0.0,0.0,0.0,0,1008.6,967.2,0,0,0,0,0.49,1.75,8.4,10.5,130,128,27.4,21.2,14.0,11.3,9.3,0.202,0.273,0.338,0.399,1,3600.0,704.5,610.5,94.0,908.1,704.5,919.5,757.0,656.0,101.0,908.1,757.0,988.0,Vitis vinifera L.; Eucalyptus L'Hér.; Magnoliopsida; Pinus pinaster Aiton
2015,2015-04-05,Braga,Fafe,Fornelos,QUINTÃ,41.4667969999959,-8.17587400012546,Reacendimento,320.0,2015-04-05T15:00,22.6,35,6.4,21.7,0.0,0.0,0.0,0.0,0,1008.6,972.1,0,0,0,0,0.5,1.78,8.4,10.5,130,128,27.4,21.5,14.3,11.6,9.6,0.202,0.273,0.338,0.399,1,3600.0,704.2,610.2,94.0,907.8,704.2,919.4,757.0,656.0,101.0,907.8,757.0,988.3,Magnoliopsida; Tracheophyta; Pinales
2015,2015-04-05,Braga,Guimarães,Serzedo,R. DO ARCO (Bouça do Arco),41.3980555555556,-8.22916666666667,NC,172.0,2015-04-05T17:00,23.8,33,6.6,22.5,0.0,0.0,0.0,0.0,0,1007.5,987.8,4,0,0,14,0.28,1.98,3.2,3.6,270,264,15.5,21.7,15.7,12.4,10.3,0.191,0.269,0.337,0.399,1,3600.0,360.2,293.4,66.8,782.1,360.2,513.0,442.0,360.0,82.0,782.1,442.0,629.5,Magnoliopsida; Pinus pinaster Aiton; Eucalyptus L'Hér.; Tracheophyta; Vitis vinifera L.
2015,2015-04-05,Braga,Vila Verde,Aboim Da Nóbrega,L. PORTELA DE CIMA (ABOIM DA NOBREGA),41.7505555555556,-8.39222222222222,Desconhecida,413.0,2015-04-05T17:00,21.8,38,6.8,20.5,0.0,0.0,0.0,0.0,0,1007.8,960.9,0,0,0,1,0.27,1.62,3.6,4.3,270,270,13.3,20.6,14.3,11.0,8.9,0.206,0.274,0.338,0.4,1,3600.0,359.8,297.1,62.7,799.5,359.8,508.2,442.0,365.0,77.0,799.5,442.0,624.3,Magnoliopsida; Tracheophyta
2015,2015-04-05,Braga,Braga,Pedralva,Ranhó (Rua Professor Manuel Antunes 40. 4715 Pedralva. Portugal),41.55,-8.3325,Desconhecida,410.0,2015-04-05T18:00,21.0,57,12.3,21.2,0.0,0.0,0.0,0.0,0,1008.0,961.3,20,0,9,48,0.14,1.06,4.1,6.4,218,218,14.4,18.9,14.5,11.1,9.0,0.199,0.272,0.338,0.398,1,3600.0,147.9,102.8,45.1,553.6,147.9,253.9,223.0,155.0,68.0,553.6,223.0,382.9,Tracheophyta; Pinus pinaster Aiton; Eucalyptus L'Hér.; Magnoliopsida
2015,2015-04-05,Braga,Fafe,Silvares (São Martinho),ASNELA,41.4108350001441,-8.16614899953206,Desconhecida,434.0,2015-04-05T21:00,16.1,54,6.9,15.0,0.0,0.0,0.0,0.0,1,1009.1,958.9,47,0,45,66,0.0,0.84,2.3,2.2,219,270,6.5,13.5,14.1,10.8,8.7,0.205,0.273,0.338,0.397,0,0.0,0.0,0.0,0.0,0.0,0.0,0.0,0.0,0.0,0.0,0.0,0.0,0.0,Magnoliopsida; Tracheophyta; Pinales; Eucalyptus L'Hér.; Pinus pinaster Aiton
2015,2015-04-05,Braga,Amares,Goães,RUA DA IGREJA,41.6532899999619,-8.31142800013224,NC,72.0,2015-04-05T22:00,17.3,61,9.8,16.4,0.0,0.0,0.0,0.0,0,1009.8,1001.3,20,0,13,40,0.02,0.77,5.9,8.3,166,185,9.0,14.3,16.0,12.8,10.7,0.2,0.271,0.337,0.399,0,0.0,0.0,0.0,0.0,0.0,0.0,0.0,0.0,0.0,0.0,0.0,0.0,0.0,Magnoliopsida; Eucalyptus L'Hér.; Pinus pinaster Aiton; Tracheophyta; Vitis vinifera L.; Quercus L.; 
2015,2015-04-06,Braga,Vila Verde,Oleiros,RUA DE BRITOS,41.6113830004798,-8.49293000009325,Desconhecida,60.0,2015-04-06T00:00,13.5,77,9.6,11.9,0.0,0.0,0.0,0.0,0,1010.2,1003.0,4,3,0,4,0.02,0.35,10.8,16.2,176,179,14.4,13.0,15.7,12.9,10.8,0.198,0.27,0.337,0.398,0,0.0,0.0,0.0,0.0,0.0,0.0,0.0,0.0,0.0,0.0,0.0,0.0,0.0,Magnoliopsida; Pinus pinaster Aiton; Vitis vinifera L.; Tracheophyta; Eucalyptus L'Hér.
2015,2015-04-06,Braga,Guimarães,Serzedelo,SRA. DOS MONTES,41.404638999833,-8.366757999998,NC,136.0,2015-04-06T00:00,12.6,80,9.2,11.8,0.0,0.0,0.0,0.0,0,1010.3,994.0,1,0,0,2,0.0,0.3,4.0,9.7,175,178,10.4,12.9,15.6,12.7,10.6,0.212,0.274,0.337,0.395,0,0.0,0.0,0.0,0.0,0.0,0.0,0.0,0.0,0.0,0.0,0.0,0.0,0.0,Magnoliopsida; Tracheophyta; Vitis vinifera L.; Eucalyptus L'Hér.; Pinales
2015,2015-04-06,Braga,Vila Verde,Freiriz,COSTEIRA,41.6432280000051,-8.50890300008986,Desconhecida,99.0,2015-04-06T01:00,12.7,78,8.9,10.8,0.0,0.0,0.0,0.0,0,1010.5,998.6,4,4,0,1,0.02,0.32,11.2,15.1,178,183,14.4,12.1,15.2,12.7,10.6,0.198,0.27,0.337,0.397,0,0.0,0.0,0.0,0.0,0.0,0.0,0.0,0.0,0.0,0.0,0.0,0.0,0.0,Pinus pinaster Aiton; Eucalyptus L'Hér.; Tracheophyta
2015,2015-04-06,Braga,Vila Verde,Gondiães,Boucinhas,41.6775,-8.45194444444444,Desconhecida,225.0,2015-04-06T04:00,8.2,87,6.2,6.4,0.0,0.0,0.0,0.0,0,1010.5,983.3,0,0,0,0,0.0,0.14,5.4,7.2,86,117,15.5,9.8,13.7,11.9,9.8,0.202,0.27,0.337,0.399,0,0.0,0.0,0.0,0.0,0.0,0.0,0.0,0.0,0.0,0.0,0.0,0.0,0.0,Magnoliopsida; Tracheophyta; Eucalyptus L'Hér.; Vitis vinifera L.; Pinus pinaster Aiton
2015,2015-04-06,Braga,Guimarães,Guardizela,RUA DEVESA,41.3879009999169,-8.36509099960327,NC,129.0,2015-04-06T04:00,8.4,87,6.4,7.0,0.0,0.0,0.0,0.0,1,1010.5,994.8,49,54,0,0,0.0,0.14,3.4,6.5,122,109,12.6,10.8,14.6,12.8,10.6,0.214,0.274,0.337,0.395,0,0.0,0.0,0.0,0.0,0.0,0.0,0.0,0.0,0.0,0.0,0.0,0.0,0.0,Tracheophyta; Magnoliopsida; Pinus pinaster Aiton; Eucalyptus L'Hér.
2015,2015-04-06,Braga,Guimarães,Serzedelo,SRA.MONTES,41.404638999833,-8.366757999998,NC,136.0,2015-04-06T06:00,8.9,77,5.0,7.1,0.0,0.0,0.0,0.0,2,1011.8,995.3,55,61,0,1,0.0,0.26,3.9,10.7,112,104,18.7,10.3,14.0,12.8,10.6,0.214,0.274,0.337,0.395,0,0.0,0.0,0.0,0.0,0.0,0.0,0.0,0.0,0.0,0.0,0.0,0.0,0.0,Magnoliopsida; Tracheophyta; Vitis vinifera L.; Eucalyptus L'Hér.; Pinales
2015,2015-04-06,Braga,Póvoa De Lanhoso,Fonte Arcada,Arrifana,41.5733333333333,-8.24861111111111,Desconhecida,238.0,2015-04-06T08:00,12.5,64,5.9,10.0,0.0,0.0,0.0,0.0,0,1013.4,985.0,4,0,0,15,0.11,0.52,9.9,17.7,80,86,25.2,11.6,13.1,12.1,10.0,0.196,0.268,0.336,0.399,1,3600.0,280.9,206.5,74.4,605.7,280.9,466.1,204.0,150.0,54.0,605.7,204.0,338.6,Eucalyptus L'Hér.; Tracheophyta; Magnoliopsida; Pinus pinaster Aiton
2015,2015-04-06,Braga,Cabeceiras de Basto,Rio Douro,L. CAMBESES,41.5574269999398,-7.94072700023651,Reacendimento,918.0,2015-04-06T08:00,9.1,64,2.6,6.2,0.0,0.0,0.0,0.0,0,1014.3,908.7,5,0,0,18,0.1,0.42,8.6,14.6,92,99,25.2,8.7,9.7,9.1,6.8,0.236,0.285,0.339,0.396,1,3600.0,289.6,217.2,72.4,625.6,289.6,474.7,212.0,159.0,53.0,625.6,212.0,347.5,Magnoliopsida; Pinus pinaster Aiton
2015,2015-04-06,Braga,Fafe,Silvares (São Martinho),ORTEZEDO,41.4108350001441,-8.16614899953206,Reacendimento,434.0,2015-04-06T10:00,16.0,42,3.3,12.8,0.0,0.0,0.0,0.0,1,1014.6,964.1,35,0,35,47,0.33,1.05,12.2,16.6,92,91,36.0,14.7,11.9,10.9,8.7,0.207,0.272,0.338,0.397,1,3600.0,649.8,537.3,112.6,820.6,649.8,895.0,583.0,482.0,101.0,820.6,583.0,803.0,Magnoliopsida; Tracheophyta; Pinales; Eucalyptus L'Hér.; Pinus pinaster Aiton
2015,2015-03-31,Braga,Vila Nova De Famalicão,Joane,L. MEAES (JOANE),41.4380555555556,-8.41555555555555,Desconhecida,157.0,2015-03-31T17:00,19.5,55,10.1,17.0,0.0,0.0,0.0,0.0,0,1028.5,1009.9,0,0,0,1,0.28,1.03,17.2,25.1,327,331,38.5,18.7,13.8,11.3,10.3,0.261,0.299,0.349,0.399,1,3600.0,350.7,288.5,62.2,805.3,350.7,491.4,434.0,357.0,77.0,805.3,434.0,608.0,Vitis vinifera L.; Tracheophyta; Magnoliopsida; Castanea sativa Mill.; Pinus pinaster Aiton; Eucalyptus L'Hér.
2015,2015-03-31,Braga,Vizela,Caldas de Vizela (São Miguel),L. DE FIGUEIRÓ,41.3755260001289,-8.30920500013563,NC,146.0,2015-03-31T17:00,19.4,53,9.5,16.5,0.0,0.0,0.0,0.0,0,1028.5,1011.1,0,0,0,0,0.28,1.06,18.5,27.2,327,331,35.3,18.7,13.7,11.2,10.2,0.251,0.296,0.349,0.401,1,3600.0,349.9,288.5,61.4,804.9,349.9,491.5,433.0,357.0,76.0,804.9,433.0,608.3,Tracheophyta; Eucalyptus L'Hér.; Magnoliopsida
2015,2015-03-31,Braga,Fafe,Quinchães,R. DO PINHEIRO,41.4315509997474,-8.13562600003348,Desconhecida,596.0,2015-03-31T18:00,17.7,50,7.1,16.1,0.0,0.0,0.0,0.0,0,1028.2,959.1,2,0,0,7,0.13,1.01,5.9,11.1,322,335,23.8,16.6,12.5,8.8,7.5,0.265,0.302,0.346,0.398,1,3600.0,146.7,112.2,34.4,673.1,146.7,228.7,230.0,176.0,54.0,673.1,230.0,358.6,Magnoliopsida; Tracheophyta; Pinales; Eucalyptus L'Hér.
2015,2015-03-31,Braga,Vila Verde,Atiães,IGREJA,41.628269999822,-8.49211799992455,Desconhecida,84.0,2015-03-31T18:00,17.2,63,10.1,13.3,0.0,0.0,0.0,0.0,0,1029.3,1019.2,4,0,0,12,0.17,0.73,27.1,40.9,338,342,47.9,17.3,14.0,11.5,10.5,0.249,0.295,0.348,0.401,1,3600.0,151.8,115.0,36.8,668.5,151.8,235.9,235.0,178.0,57.0,668.5,235.0,365.2,Eucalyptus L'Hér.; Vitis vinifera L.; Magnoliopsida; Pinus pinaster Aiton
2015,2015-03-31,Braga,Amares,Vilela,ASSENTO,41.6693239998817,-8.32058499998517,NC,347.0,2015-03-31T19:00,15.1,58,6.9,12.4,0.0,0.0,0.0,0.0,0,1031.1,989.7,13,0,0,44,0.07,0.72,13.0,26.6,6,13,38.2,14.8,12.9,10.1,9.0,0.253,0.297,0.348,0.404,0,1815.27,0.0,0.0,0.0,0.0,0.0,0.0,49.0,25.0,24.0,205.5,49.0,107.1,Magnoliopsida; Eucalyptus L'Hér.; Tracheophyta; Vitis vinifera L.; Pinus pinaster Aiton; Quercus L.; 
2015,2015-03-31,Braga,Vila Verde,Coucieiro,L. VILAR,41.6776019997067,-8.40024599999189,Desconhecida,110.0,2015-03-31T20:00,14.3,69,8.7,10.4,0.0,0.0,0.0,0.0,0,1030.5,1017.1,0,0,0,0,0.06,0.5,24.2,39.6,355,360,47.5,14.3,13.9,11.3,10.3,0.25,0.295,0.348,0.401,0,0.0,0.0,0.0,0.0,0.0,0.0,0.0,0.0,0.0,0.0,0.0,0.0,0.0,Vitis vinifera L.; Eucalyptus L'Hér.; Pinus pinaster Aiton; Tracheophyta
2015,2015-04-01,Braga,Terras De Bouro,Campo Do Gerês,L. CORTINHAS (CAMPO DO GERÊS),41.7591666666667,-8.19861111111111,Reacendimento,660.0,2015-04-01T09:00,12.0,67,6.0,9.1,0.0,0.0,0.0,0.0,1,1030.0,952.3,25,0,0,84,0.18,0.46,13.4,19.8,63,63,38.9,10.7,9.8,9.1,7.8,0.292,0.31,0.351,0.407,1,3600.0,465.8,375.3,90.5,771.1,465.8,667.3,386.0,311.0,75.0,771.1,386.0,552.9,Tracheophyta; Quercus L.; Pinus pinaster Aiton; Magnoliopsida
2015,2015-04-01,Braga,Vila Nova de Famalicão,Calendário,RUA DE MEÃES,41.3987800004747,-8.53091499964396,Desconhecida,92.0,2015-04-01T10:00,17.3,58,8.9,15.6,0.0,0.0,0.0,0.0,1,1028.9,1017.8,23,0,0,77,0.31,0.84,10.3,14.2,61,63,25.9,15.4,12.6,11.9,10.9,0.262,0.291,0.342,0.396,1,3600.0,630.7,515.1,115.6,819.1,630.7,862.2,562.0,459.0,103.0,819.1,562.0,768.2,Tracheophyta; Magnoliopsida; Eucalyptus L'Hér.
2015,2015-04-01,Braga,Guimarães,Moreira de Cónegos,RUA OUTEIRO,41.3793529997932,-8.34110300011105,NC,152.0,2015-04-01T11:00,19.1,51,8.7,18.2,0.0,0.0,0.0,0.0,0,1028.5,1010.4,19,0,0,64,0.42,1.09,10.3,13.9,65,69,25.6,16.9,12.2,11.3,10.2,0.253,0.294,0.348,0.4,1,3600.0,761.8,634.5,127.3,865.2,761.8,1005.4,712.0,593.0,119.0,865.2,712.0,939.6,Eucalyptus L'Hér.; Magnoliopsida; Tracheophyta; Pinales
2015,2015-04-01,Braga,VIZELA,Caldas de Vizela_Sao Miguel,MONTE SÃO BENTO,41.3755260001289,-8.30920500013563,NC,146.0,2015-04-01T12:00,20.7,47,8.9,20.0,0.0,0.0,0.0,0.0,0,1027.7,1010.4,2,0,0,6,0.5,1.3,12.8,17.2,68,70,24.5,18.6,12.6,11.3,10.2,0.251,0.294,0.347,0.4,1,3600.0,842.9,732.5,110.4,926.9,842.9,1083.4,817.0,710.0,107.0,926.9,817.0,1050.1,Tracheophyta; Eucalyptus L'Hér.; Magnoliopsida
2015,2015-04-01,Braga,Braga,Palmeira,Carreiro (Rua de São Sebastião 47. 4700-727 Palmeira. Portugal),41.5894444444444,-8.43277777777778,Desconhecida,77.0,2015-04-01T13:00,22.2,45,9.7,22.5,0.0,0.0,0.0,0.0,0,1027.1,1018.0,2,0,0,7,0.54,1.47,9.7,13.3,75,77,24.8,20.3,13.5,11.8,10.8,0.246,0.291,0.346,0.397,1,3600.0,856.9,750.1,106.9,943.8,856.9,1089.4,858.0,751.0,107.0,943.8,858.0,1090.8,Tracheophyta; Magnoliopsida
2015,2015-04-01,Braga,Cabeceiras De Basto,Gondiães,L. CALVELOS (GONDIÃES),41.5916666666667,-7.84472222222222,Desconhecida,614.0,2015-04-01T13:00,18.4,45,6.4,17.1,0.0,0.0,0.0,0.0,0,1028.2,957.3,3,0,0,11,0.5,1.16,14.2,18.8,83,83,37.4,17.8,11.1,9.3,7.9,0.263,0.3,0.344,0.397,1,3600.0,856.7,753.0,103.7,948.6,856.7,1088.2,859.0,755.0,104.0,948.6,859.0,1091.1,Magnoliopsida; Pinus pinaster Aiton; Tracheophyta
2015,2015-04-01,Braga,Vila Nova De Famalicão,Calendário,ALTO DE QUINTELA (Alto),41.3841666666667,-8.52694444444444,NC,87.0,2015-04-01T14:00,23.0,43,9.7,23.4,0.0,0.0,0.0,0.0,0,1026.5,1016.3,2,0,0,8,0.54,1.61,8.6,11.9,75,76,23.4,21.0,14.0,12.0,10.9,0.256,0.288,0.341,0.395,1,3600.0,803.2,694.9,108.2,922.5,803.2,1032.6,831.0,719.0,112.0,922.5,831.0,1068.4,Tracheophyta; Magnoliopsida; Eucalyptus L'Hér.
2015,2015-04-01,Braga,Guimarães,Moreira de Cónegos,RUA OUTEIRO,41.3793529997932,-8.34110300011105,NC,152.0,2015-04-01T15:00,23.3,40,8.9,23.1,0.0,0.0,0.0,0.0,0,1025.7,1007.9,1,0,0,3,0.49,1.72,8.0,11.2,72,75,21.6,21.1,13.8,11.3,10.2,0.244,0.292,0.347,0.4,1,3600.0,696.5,605.4,91.1,916.1,696.5,905.9,749.0,651.0,98.0,916.1,749.0,974.1,Eucalyptus L'Hér.; Magnoliopsida; Tracheophyta; Pinales
2015,2015-04-01,Braga,Vila Verde,Dossãos,RUA STª IRIA,41.678609000312,-8.46873600006104,Desconhecida,256.0,2015-04-01T16:00,22.6,41,8.6,21.6,0.0,0.0,0.0,0.0,0,1025.2,995.4,0,0,0,0,0.4,1.63,7.1,9.9,41,46,21.6,20.4,13.4,10.5,9.4,0.241,0.291,0.346,0.403,1,3600.0,536.8,459.1,77.7,874.6,536.8,719.5,608.0,520.0,88.0,874.6,608.0,815.0,Magnoliopsida; Eucalyptus L'Hér.; Tracheophyta; Pinus pinaster Aiton
2015,2015-04-01,Braga,Amares,Vilela,Charril,41.6638279999627,-8.30844300005171,NC,150.0,2015-04-01T16:00,23.4,40,8.9,22.5,0.0,0.0,0.0,0.0,0,1024.8,1007.3,0,0,0,1,0.4,1.73,6.4,9.4,63,67,19.8,20.9,14.0,11.2,10.0,0.242,0.292,0.347,0.402,1,3600.0,539.7,460.2,79.5,874.6,539.7,721.3,611.0,521.0,90.0,874.6,611.0,816.6,Magnoliopsida; Eucalyptus L'Hér.; Tracheophyta; Vitis vinifera L.; Pinus pinaster Aiton; Quercus L.; 
2015,2015-04-02,Braga,Vieira do Minho,Louredo,L. FORMIGA,41.6770239999559,-8.1238699997796,Reacendimento,474.0,2015-04-02T11:00,18.0,38,3.6,15.5,0.0,0.0,0.0,0.0,1,1025.1,969.9,30,0,0,99,0.4,1.28,11.2,15.2,84,85,33.1,15.7,11.4,10.1,8.7,0.248,0.293,0.346,0.402,1,3600.0,704.2,452.0,252.2,613.9,704.2,1008.9,659.0,423.0,236.0,613.9,659.0,944.0,Tracheophyta; Eucalyptus L'Hér.; Quercus L.; Pinus pinaster Aiton
2015,2015-04-02,Braga,Fafe,Regadas,RUA DA CRUZ,41.3939939996931,-8.14856900003221,Desconhecida,464.0,2015-04-02T12:00,18.3,34,2.3,16.0,0.0,0.0,0.0,0.0,1,1025.0,971.0,30,0,0,100,0.47,1.38,13.0,18.0,93,93,38.9,16.5,11.2,9.8,8.3,0.244,0.293,0.346,0.399,1,3600.0,804.8,570.9,233.9,717.8,804.8,1089.6,781.0,554.0,227.0,717.8,781.0,1057.4,Pinales; Magnoliopsida; Tracheophyta
2015,2015-04-06,Braga,Vila Nova De Famalicão,Arnoso (santa Maria),R. DO ALTINHO (ARNOSO),41.4672222222222,-8.49722222222222,Reacendimento,162.0,2015-04-06T10:00,17.9,44,5.6,15.4,0.0,0.0,0.0,0.0,0,1013.5,994.4,1,0,0,3,0.33,1.14,10.4,14.0,92,91,24.8,16.5,13.7,12.5,10.4,0.2,0.268,0.335,0.394,1,3600.0,626.2,513.4,112.7,788.1,626.2,890.7,561.0,460.0,101.0,788.1,561.0,798.0,Eucalyptus L'Hér.; Tracheophyta; Vitis vinifera L.
2015,2015-04-06,Braga,Guimarães,Moreira de Cónegos,R. OUTEIRO,41.3793529997932,-8.34110300011105,NC,152.0,2015-04-06T11:00,20.1,39,5.7,18.7,0.0,0.0,0.0,0.0,0,1013.8,996.0,2,0,1,5,0.45,1.44,9.5,12.4,99,98,25.2,18.4,13.9,12.5,10.4,0.201,0.269,0.336,0.397,1,3600.0,775.5,668.9,106.7,885.7,775.5,1032.3,727.0,627.0,100.0,885.7,727.0,967.7,Eucalyptus L'Hér.; Magnoliopsida; Tracheophyta; Pinales
2015,2015-04-06,Braga,Vila Nova de Famalicão,Vermoim,BREIA CIMA,41.4216020001305,-8.45102700001664,Reacendimento,176.0,2015-04-06T12:00,21.1,38,6.0,20.6,0.0,0.0,0.0,0.0,0,1013.7,993.2,4,0,0,14,0.51,1.56,7.5,9.8,107,107,24.5,19.7,14.3,12.6,10.5,0.215,0.264,0.329,0.392,1,3600.0,844.6,735.4,109.2,908.0,844.6,1107.2,820.0,714.0,106.0,908.0,820.0,1075.0,Tracheophyta; Eucalyptus L'Hér.
2015,2015-02-10,Braga,Guimarães,Donim,RUA DA IGREJA (DONIM),41.5313888888889,-8.29944444444445,NC,163.0,2015-02-10T15:00,12.9,52,3.2,10.4,0.0,0.0,0.0,0.0,0,1019.3,999.7,4,0,0,12,0.25,0.72,6.8,8.8,108,109,22.3,11.0,5.9,7.0,10.5,0.37,0.382,0.405,0.415,1,3600.0,453.5,377.2,76.3,849.0,453.5,624.2,499.0,415.0,84.0,849.0,499.0,686.8,Tracheophyta; Eucalyptus L'Hér.; Quercus L.; Magnoliopsida; Pinus pinaster Aiton; Pinales
2015,2015-04-06,Braga,Braga,Palmeira,SÃO SEBASTIÃO (Rua do Milénio 62. 4700-727 Palmeira. Portugal),41.5894444444444,-8.43277777777778,Desconhecida,77.0,2015-04-06T14:00,23.5,35,7.3,24.5,0.0,0.0,0.0,0.0,0,1013.6,1004.7,10,0,0,33,0.54,1.87,2.0,3.6,135,127,21.6,22.9,15.5,13.1,10.9,0.193,0.265,0.334,0.394,1,3600.0,813.8,718.1,95.7,933.8,813.8,1051.1,842.0,743.0,99.0,933.8,842.0,1087.6,Tracheophyta; Magnoliopsida
2015,2015-04-06,Braga,Vila Verde,Aboim Da Nóbrega,L. BOUCINHA (ABOIM DA NOBREGA),41.7505555555556,-8.39222222222222,Desconhecida,413.0,2015-04-06T15:00,22.0,39,7.4,21.8,0.0,0.0,0.0,0.0,0,1013.7,966.6,11,0,5,26,0.48,1.62,5.0,5.8,300,300,23.8,22.2,14.3,11.2,8.9,0.201,0.27,0.336,0.4,1,3600.0,695.2,590.1,105.2,875.8,695.2,920.9,747.0,634.0,113.0,875.8,747.0,989.5,Magnoliopsida; Tracheophyta
2015,2015-04-06,Braga,Celorico De Basto,Canedo De Basto,Padredo,41.4325,-7.97055555555556,Desconhecida,267.0,2015-04-06T15:00,22.5,34,5.9,22.7,0.0,0.0,0.0,0.0,1,1013.3,982.6,38,0,18,89,0.45,1.8,0.4,1.1,90,90,23.8,21.9,14.5,11.8,9.6,0.198,0.271,0.336,0.395,1,3600.0,678.3,574.1,104.2,849.8,678.3,923.5,729.0,617.0,112.0,849.8,729.0,992.4,Eucalyptus L'Hér.; Olea europaea L.; Vitis vinifera L.; Pinus pinaster Aiton; Magnoliopsida; Tracheophyta
2015,2015-04-06,Braga,Celorico de Basto,Borba de Montanha,CRASTO,41.3900719997618,-8.09407100041707,Reacendimento,548.0,2015-04-06T15:00,20.5,34,4.3,19.6,0.0,0.0,0.0,0.0,1,1013.9,951.7,25,0,4,75,0.46,1.59,5.5,7.0,113,111,27.4,20.0,12.9,10.3,8.0,0.214,0.275,0.335,0.394,1,3600.0,693.9,591.5,102.3,876.3,693.9,922.7,746.0,636.0,110.0,876.3,746.0,992.1,Pinus pinaster Aiton; Magnoliopsida; Tracheophyta
2015,2015-04-06,Braga,Póvoa de Lanhoso,Fonte Arcada,Picoto (Unnamed Road. 4830. Portugal),41.6436111111111,-8.27833333333333,Desconhecida,215.0,2015-04-06T15:00,23.5,33,6.1,23.1,0.0,0.0,0.0,0.0,0,1013.5,988.8,17,0,1,55,0.49,1.95,4.8,5.2,283,286,20.2,22.8,15.2,12.3,10.0,0.192,0.266,0.335,0.399,1,3600.0,694.5,589.3,105.2,872.8,694.5,922.9,746.0,633.0,113.0,872.8,746.0,991.4,Magnoliopsida; Pinus pinaster Aiton; Quercus L.; Eucalyptus L'Hér.; Tracheophyta
2015,2015-04-06,Braga,Vieira do Minho,Guilhofrei,CALVELOS,41.5684599999587,-8.13602799998389,Desconhecida,360.0,2015-04-06T15:00,22.6,32,4.9,22.3,0.0,0.0,0.0,0.0,1,1013.5,972.4,22,0,4,65,0.47,1.87,2.6,3.3,146,139,23.8,21.7,14.3,11.6,9.4,0.193,0.268,0.336,0.398,1,3600.0,696.3,591.1,105.2,874.9,696.3,923.6,748.0,635.0,113.0,874.9,748.0,992.1,Magnoliopsida; Pinus pinaster Aiton; Quercus L.; Tracheophyta; Eucalyptus L'Hér.
2015,2015-04-06,Braga,Vila Verde,Travassós,L. DA IGREJA,41.6636569997999,-8.46035499996609,Desconhecida,174.0,2015-04-06T16:00,22.0,48,10.4,20.7,0.0,0.0,0.0,0.0,0,1014.0,993.8,18,0,17,27,0.38,1.39,11.3,13.8,307,313,25.6,22.7,15.7,12.3,10.1,0.192,0.266,0.335,0.399,1,3600.0,516.7,430.7,86.0,793.1,516.7,742.3,583.0,486.0,97.0,793.1,583.0,837.6,Eucalyptus L'Hér.; Magnoliopsida; Pinus pinaster Aiton; Vitis vinifera L.
2015,2015-04-06,Braga,Guimarães,Abação (são Tomé),L. REAL (Corte Real),41.4122222222222,-8.26444444444444,NC,455.0,2015-04-06T17:00,21.1,34,4.7,19.2,0.0,0.0,0.0,0.0,1,1013.6,961.7,46,0,27,98,0.2,1.65,4.4,5.2,279,286,14.8,19.9,14.3,11.0,8.7,0.191,0.267,0.336,0.398,1,3600.0,234.7,116.5,118.1,310.5,234.7,512.9,288.0,143.0,145.0,310.5,288.0,629.5,Eucalyptus L'Hér.; Tracheophyta; Magnoliopsida; Pinales; Pinus pinaster Aiton
2015,2015-04-06,Braga,Póvoa de Lanhoso,Taíde,QUINTELA,41.5594050004747,-8.23034399986267,Desconhecida,168.0,2015-04-06T18:00,20.7,50,9.8,19.0,0.0,0.0,0.0,0.0,1,1014.6,995.0,36,1,9,98,0.17,1.22,11.1,16.9,283,286,24.1,20.3,16.2,12.7,10.4,0.183,0.264,0.335,0.398,1,3600.0,128.5,63.6,64.9,333.5,128.5,260.6,192.0,95.0,97.0,333.5,192.0,389.4,Vitis vinifera L.; Tracheophyta; Pinales; Eucalyptus L'Hér.; Magnoliopsida
2015,2015-04-06,Braga,Celorico de Basto,Basto (São Clemente),PEREIRA,41.4661609999339,-8.04561100006103,Reacendimento,564.0,2015-04-06T18:00,19.3,43,6.5,17.7,0.0,0.0,0.0,0.0,1,1014.1,949.8,35,0,9,99,0.13,1.27,5.6,8.4,255,263,13.7,17.8,13.6,10.2,8.0,0.203,0.273,0.337,0.396,1,3600.0,124.5,64.2,60.2,346.4,124.5,253.4,188.0,97.0,91.0,346.4,188.0,382.7,Pinus pinaster Aiton; Magnoliopsida; Vitis vinifera L.; Tracheophyta
2015,2015-04-06,Braga,Vila Verde,Dossãos,L. MORENTA,41.678609000312,-8.46873600006104,Desconhecida,256.0,2015-04-06T18:00,19.1,60,11.2,18.6,0.0,0.0,0.0,0.0,1,1014.5,984.7,40,0,19,95,0.13,0.89,6.3,10.0,294,296,18.0,19.7,15.6,11.8,9.6,0.192,0.266,0.335,0.399,1,3600.0,143.3,86.4,56.9,452.8,143.3,260.8,214.0,129.0,85.0,452.8,214.0,389.4,Magnoliopsida; Eucalyptus L'Hér.; Tracheophyta; Pinus pinaster Aiton
2015,2015-04-06,Braga,Guimarães,Infantas,RUA DO OUTEIRO,41.4279399998983,-8.24353299988641,NC,292.0,2015-04-06T18:00,19.8,49,8.7,18.0,0.0,0.0,0.0,0.0,1,1014.4,980.5,36,0,11,99,0.16,1.18,9.8,16.2,264,270,21.2,19.2,15.3,11.9,9.6,0.196,0.269,0.336,0.397,1,3600.0,126.3,61.5,64.8,323.0,126.3,260.2,189.0,92.0,97.0,323.0,189.0,389.3,Magnoliopsida; Eucalyptus L'Hér.; Pinus pinaster Aiton; Tracheophyta; Vitis vinifera L.
2015,2015-04-06,Braga,Cabeceiras De Basto,Gondiães,Penedo,41.5927777777778,-7.83361111111111,Desconhecida,514.0,2015-04-06T18:00,19.9,48,8.5,18.6,0.0,0.0,0.0,0.0,1,1014.1,955.4,37,0,12,100,0.13,1.22,6.1,11.9,270,275,15.8,18.2,14.1,10.7,8.4,0.211,0.276,0.337,0.395,1,3600.0,104.7,40.4,64.3,217.8,104.7,253.7,158.0,61.0,97.0,217.8,158.0,382.8,Magnoliopsida; Tracheophyta; Pinus pinaster Aiton
2015,2015-04-06,Braga,Braga,Espinho,Bairro (N309 3. 4715 Braga. Portugal),41.5436111111111,-8.35666666666667,Desconhecida,421.0,2015-04-06T19:00,16.3,67,10.2,15.6,0.0,0.0,0.0,0.0,1,1014.7,965.7,37,2,9,99,0.04,0.61,5.2,10.8,258,274,22.7,17.1,14.7,11.0,8.8,0.19,0.265,0.335,0.399,1,431.88,0.0,0.0,0.0,0.0,0.0,0.0,46.0,11.0,35.0,84.0,46.0,125.7,Magnoliopsida; Pinus pinaster Aiton; Eucalyptus L'Hér.; Tracheophyta
2015,2015-04-06,Braga,Vila Nova De Famalicão,Oliveira (Santa Maria),LG. DO MONTE,41.4061519998974,-8.40210699995359,NC,138.0,2015-04-06T20:00,15.0,81,11.8,14.9,0.0,0.0,0.0,0.0,1,1015.7,999.2,39,2,14,97,0.0,0.32,4.3,6.1,275,310,14.0,16.6,16.2,12.9,10.6,0.204,0.27,0.335,0.395,0,0.0,0.0,0.0,0.0,0.0,0.0,0.0,0.0,0.0,0.0,0.0,0.0,0.0,Tracheophyta; Vitis vinifera L.; Eucalyptus L'Hér.
2015,2015-04-06,Braga,Vila Verde,Valdreu,Cela,41.7301860004001,-8.31756600002448,Desconhecida,201.0,2015-04-06T21:00,14.7,84,12.0,15.0,0.0,0.0,0.0,0.0,1,1016.3,992.4,49,4,29,92,0.0,0.27,2.3,0.4,198,270,9.4,15.1,15.6,12.2,9.9,0.192,0.266,0.335,0.398,0,0.0,0.0,0.0,0.0,0.0,0.0,0.0,0.0,0.0,0.0,0.0,0.0,0.0,Tracheophyta; Magnoliopsida; Eucalyptus L'Hér.
2015,2015-04-07,Braga,Guimarães,Selho (São Jorge),Paraíso,41.4358940000004,-8.36764900002215,NC,140.0,2015-04-07T00:00,12.3,91,10.8,11.7,0.0,0.0,0.0,0.0,1,1016.8,999.9,42,0,26,88,0.0,0.13,5.3,5.5,118,148,7.6,13.2,15.6,12.9,10.6,0.206,0.27,0.335,0.395,0,0.0,0.0,0.0,0.0,0.0,0.0,0.0,0.0,0.0,0.0,0.0,0.0,0.0,Magnoliopsida; Tracheophyta; Eucalyptus L'Hér.; Pinus pinaster Aiton
2015,2015-04-07,Braga,Vila Nova De Famalicão,Gavião,RUA DOUTOR MARIO MARTINS (Rua do Alto),41.4197222222222,-8.4975,NC,128.0,2015-04-07T01:00,11.2,94,10.3,10.5,0.0,0.0,0.0,0.0,1,1017.4,1001.9,38,0,22,82,0.0,0.08,5.6,6.6,105,139,9.7,12.8,15.5,13.1,10.8,0.211,0.262,0.328,0.392,0,0.0,0.0,0.0,0.0,0.0,0.0,0.0,0.0,0.0,0.0,0.0,0.0,0.0,Pinales; Pinus pinea L.; Tracheophyta; Magnoliopsida; Eucalyptus L'Hér.
2015,2015-04-07,Braga,Fafe,São Gens,OUTEIRO,41.4475949997372,-8.11140199979146,Reacendimento,480.0,2015-04-07T08:00,12.4,66,6.2,9.8,0.0,0.0,0.0,0.0,0,1020.2,963.6,8,0,0,25,0.11,0.49,11.3,18.1,83,85,31.0,11.2,12.0,10.7,8.4,0.2,0.269,0.336,0.396,1,3600.0,283.7,203.2,80.5,581.0,283.7,477.8,208.0,149.0,59.0,581.0,208.0,350.4,Magnoliopsida; Tracheophyta; Pinales; Castanea sativa Mill.; Eucalyptus L'Hér.
2015,2015-04-07,Braga,Guimarães,Serzedelo,SRA DOS MONTES,41.404638999833,-8.366757999998,NC,136.0,2015-04-07T10:00,18.8,51,8.5,16.4,0.0,0.0,0.0,0.0,0,1018.7,1002.6,11,0,15,8,0.35,1.06,15.2,20.2,94,95,31.3,17.2,14.3,13.0,10.7,0.207,0.269,0.335,0.394,1,3600.0,645.3,547.2,98.1,832.1,645.3,898.5,579.0,491.0,88.0,832.1,579.0,806.2,Magnoliopsida; Tracheophyta; Vitis vinifera L.; Eucalyptus L'Hér.; Pinales
2015,2015-04-07,Braga,Celorico de Basto,Fervença,ALTO DA CAIXINHA,41.3534369998508,-8.08954800022973,Desconhecida,376.0,2015-04-07T10:00,16.9,54,7.6,14.7,0.0,0.0,0.0,0.0,0,1019.6,975.6,11,0,1,34,0.33,0.88,12.3,16.6,85,85,35.3,16.1,12.8,11.4,9.1,0.199,0.269,0.336,0.396,1,3600.0,652.5,554.5,98.0,840.5,652.5,901.4,586.0,498.0,88.0,840.5,586.0,809.5,Vitis vinifera L.; Magnoliopsida; Pinus pinaster Aiton; Tracheophyta
2015,2015-04-07,Braga,Vila Verde,Valdreu,Mixões de Baixo,41.7336630000008,-8.32215600013733,Desconhecida,286.0,2015-04-07T11:00,20.2,50,9.5,19.7,0.0,0.0,0.0,0.0,0,1018.6,985.3,15,1,24,0,0.44,1.17,9.5,12.4,99,98,28.1,19.1,13.9,12.1,9.7,0.196,0.265,0.334,0.399,1,3600.0,769.6,665.1,104.5,879.1,769.6,1033.6,722.0,624.0,98.0,879.1,722.0,969.7,Tracheophyta; Magnoliopsida
2015,2015-04-07,Braga,Vieira do Minho,Mosteiro,EN304 (EN304) Km 94 (N304. 4850. Portugal),41.5990651745266,-8.12732987297906,Reacendimento,388.0,2015-04-07T13:00,20.9,45,8.4,20.7,0.0,0.0,0.0,0.0,0,1018.0,973.3,8,1,12,0,0.52,1.36,9.3,12.2,118,114,31.7,20.8,13.9,11.6,9.2,0.19,0.264,0.334,0.397,1,3600.0,820.8,702.1,118.7,859.1,820.8,1116.5,823.0,704.0,119.0,859.1,823.0,1119.4,Magnoliopsida; Eucalyptus L'Hér.; Quercus L.; Pinus pinaster Aiton
2015,2015-04-07,Braga,Póvoa de Lanhoso,Galegos,BARREIRAS,41.5633439996507,-8.28001100010342,Desconhecida,315.0,2015-04-07T13:00,21.5,45,9.1,21.5,0.0,0.0,0.0,0.0,0,1018.0,981.6,8,1,12,0,0.52,1.41,9.3,12.2,118,114,31.7,21.3,14.3,11.8,9.4,0.189,0.263,0.333,0.398,1,3600.0,821.0,702.3,118.7,859.2,821.0,1116.7,823.0,704.0,119.0,859.2,823.0,1119.4,Eucalyptus L'Hér.; Tracheophyta; Pinus pinea L.; Magnoliopsida
2015,2015-04-07,Braga,Guimarães,Arosa,Pontinha,41.5483333333333,-8.21777777777778,NC,160.0,2015-04-07T14:00,23.1,42,9.6,23.8,0.0,0.0,0.0,0.0,0,1017.7,999.1,5,0,7,1,0.5,1.63,4.1,5.4,135,127,24.8,22.8,15.6,12.9,10.5,0.181,0.261,0.333,0.397,1,3600.0,744.0,628.0,115.9,813.7,744.0,1054.4,770.0,650.0,120.0,813.7,770.0,1091.3,Pinales; Magnoliopsida; Tracheophyta
2015,2015-04-07,Braga,Vila Nova De Famalicão,Calendário,ALTO DA QUINTELA (Alto),41.3841666666667,-8.52694444444444,Reacendimento,87.0,2015-04-07T15:00,22.9,42,9.4,23.0,0.0,0.0,0.0,0.0,0,1017.0,1006.9,13,2,18,1,0.38,1.62,0.5,1.5,135,104,21.2,22.6,16.3,13.5,11.2,0.206,0.258,0.326,0.392,1,3600.0,557.1,398.8,158.4,584.4,557.1,932.1,598.0,428.0,170.0,584.4,598.0,1000.5,Tracheophyta; Magnoliopsida; Eucalyptus L'Hér.
2015,2015-04-07,Braga,Vila Verde,Cabanelas,LOT DA ESPINHEIRA,41.5888390000661,-8.49339699957106,Desconhecida,25.0,2015-04-07T15:00,23.0,44,10.2,22.5,0.0,0.0,0.0,0.0,0,1017.2,1014.3,11,2,15,1,0.42,1.57,7.1,7.0,294,291,18.0,23.4,16.7,13.9,11.6,0.184,0.259,0.33,0.391,1,3600.0,577.7,418.4,159.3,614.4,577.7,930.3,620.0,449.0,171.0,614.4,620.0,998.3,Tracheophyta; Magnoliopsida; Eucalyptus L'Hér.
2015,2015-02-10,Braga,Póvoa de Lanhoso,Vilela,L. POÇAS,41.5533720000585,-8.26091000027127,Desconhecida,141.0,2015-02-10T20:00,6.0,79,2.6,3.3,0.0,0.0,0.0,0.0,1,1019.8,1002.4,42,9,15,83,0.0,0.2,6.8,11.5,72,76,13.3,5.5,6.7,7.2,10.6,0.37,0.381,0.405,0.415,0,0.0,0.0,0.0,0.0,0.0,0.0,0.0,0.0,0.0,0.0,0.0,0.0,0.0,Magnoliopsida; Eucalyptus L'Hér.; Tracheophyta; Vitis vinifera L.; Pinus pinaster Aiton; Quercus L.; 
2015,2015-04-07,Braga,Barcelos,Panque,CAMPILHÓS,41.6306069999271,-8.59064799997542,Reacendimento,124.0,2015-04-07T15:00,22.4,46,10.1,22.0,0.0,0.0,0.0,0.0,1,1017.4,1002.9,25,10,24,4,0.43,1.47,7.7,8.1,298,291,20.2,23.2,16.1,13.1,10.8,0.184,0.261,0.333,0.395,1,3600.0,617.8,471.5,146.3,692.9,617.8,929.7,663.0,506.0,157.0,692.9,663.0,997.6,Magnoliopsida; Eucalyptus L'Hér.; Tracheophyta; Pinus pinaster Aiton
2015,2015-04-07,Braga,Cabeceiras de Basto,Rio Douro,CAMBESES,41.5574269999398,-7.94072700023651,Reacendimento,918.0,2015-04-07T17:00,18.0,40,4.3,15.3,0.0,0.0,0.0,0.0,1,1017.1,914.2,35,7,43,9,0.23,1.24,8.9,13.0,104,104,33.8,17.5,12.8,9.4,6.9,0.22,0.278,0.336,0.395,1,3600.0,273.5,207.6,65.9,555.4,273.5,510.5,336.0,255.0,81.0,555.4,336.0,627.1,Magnoliopsida; Pinus pinaster Aiton
2015,2015-04-07,Braga,Guimarães,Moreira de Cónegos,RUA DO  OUTEIRO,41.3793529997932,-8.34110300011105,NC,152.0,2015-04-07T17:00,22.1,44,9.3,20.8,0.0,0.0,0.0,0.0,1,1016.5,998.8,29,0,36,24,0.25,1.49,7.6,9.7,295,301,26.6,21.5,16.2,12.8,10.4,0.187,0.262,0.333,0.396,1,3600.0,289.4,196.2,93.2,514.1,289.4,521.3,354.0,240.0,114.0,514.1,354.0,637.7,Eucalyptus L'Hér.; Magnoliopsida; Tracheophyta; Pinales
2015,2015-04-07,Braga,Guimarães,Nespereira,CORTINHAS (Cortinha),41.41,-8.3225,NC,175.0,2015-04-07T18:00,20.7,50,9.8,19.4,0.0,0.0,0.0,0.0,1,1016.8,996.4,24,0,29,22,0.14,1.22,8.6,14.8,285,293,24.1,20.0,16.2,12.6,10.3,0.188,0.262,0.333,0.396,1,3600.0,103.8,53.3,50.6,272.7,103.8,266.9,154.0,79.0,75.0,272.7,154.0,395.8,Tracheophyta; Magnoliopsida; Eucalyptus L'Hér.
2015,2015-04-07,Braga,Póvoa De Lanhoso,Ferreiros,Primavera,41.5983333333333,-8.31777777777778,Desconhecida,236.0,2015-04-07T19:00,19.2,56,10.3,18.2,0.0,0.0,0.0,0.0,1,1017.4,989.8,40,0,49,35,0.06,0.97,7.4,14.5,219,228,17.6,18.4,16.2,12.5,10.0,0.188,0.261,0.333,0.398,1,2257.71,0.2,0.1,0.1,1.0,0.1,0.5,46.0,26.0,20.0,194.7,46.0,132.9,Pinus pinaster Aiton; Tracheophyta; Magnoliopsida; Vitis vinifera L.; Eucalyptus L'Hér.; 
2015,2015-04-07,Braga,Guimarães,Conde,Conde e Gandarela (CONDE),41.3891666666667,-8.33722222222222,Desconhecida,177.0,2015-04-07T19:00,18.5,59,10.4,17.7,0.0,0.0,0.0,0.0,1,1017.4,996.6,39,0,45,40,0.05,0.87,6.3,12.7,246,263,19.8,18.4,16.3,12.7,10.3,0.188,0.262,0.333,0.396,1,2273.56,0.5,0.3,0.2,3.0,0.3,1.3,49.0,27.0,22.0,201.3,49.0,134.2,Eucalyptus L'Hér.; Tracheophyta; Magnoliopsida; Vitis vinifera L.
2015,2015-04-07,Braga,Guimarães,Moreira de Cónegos,R. OUTEIRO,41.3793529997932,-8.34110300011105,NC,152.0,2015-04-07T20:00,16.8,70,11.3,16.4,0.0,0.0,0.0,0.0,1,1018.1,1000.1,37,0,39,44,0.01,0.57,5.6,9.4,230,252,14.0,17.2,16.4,12.8,10.4,0.188,0.262,0.333,0.396,0,0.0,0.0,0.0,0.0,0.0,0.0,0.0,0.0,0.0,0.0,0.0,0.0,0.0,Eucalyptus L'Hér.; Magnoliopsida; Tracheophyta; Pinales
2015,2015-04-07,Braga,Terras De Bouro,Campo Do Gerês,L. DE CABENCO (CAMPO DO GERÊS),41.7591666666667,-8.19861111111111,Reacendimento,660.0,2015-04-07T22:00,12.9,74,8.3,11.4,0.0,0.0,0.0,0.0,0,1019.9,943.1,5,0,0,16,0.01,0.39,7.6,10.6,149,170,19.4,12.5,14.1,10.6,8.1,0.244,0.275,0.335,0.402,0,0.0,0.0,0.0,0.0,0.0,0.0,0.0,0.0,0.0,0.0,0.0,0.0,0.0,Tracheophyta; Quercus L.; Pinus pinaster Aiton; Magnoliopsida
2015,2015-04-07,Braga,Vila Verde,Cabanelas,L. S. Sebastião,41.5888390000661,-8.49339699957106,Desconhecida,25.0,2015-04-07T22:00,14.2,87,12.1,13.8,0.0,0.0,0.0,0.0,0,1019.2,1016.2,15,0,17,15,0.0,0.21,6.5,5.0,96,90,11.9,15.5,17.1,14.0,11.6,0.187,0.258,0.33,0.391,0,0.0,0.0,0.0,0.0,0.0,0.0,0.0,0.0,0.0,0.0,0.0,0.0,0.0,Tracheophyta; Magnoliopsida; Eucalyptus L'Hér.
2015,2015-04-08,Braga,Póvoa de Lanhoso,Serzedelo,L. PARDIEIROS,41.6153149996863,-8.21598100026449,NC,490.0,2015-04-08T01:00,9.1,83,6.4,6.7,0.0,0.0,0.0,0.0,0,1020.2,961.8,8,0,0,27,0.0,0.19,10.1,17.0,96,107,29.9,10.6,14.0,11.4,8.8,0.198,0.265,0.334,0.398,0,0.0,0.0,0.0,0.0,0.0,0.0,0.0,0.0,0.0,0.0,0.0,0.0,0.0,Eucalyptus L'Hér.; Tracheophyta
2015,2015-04-08,Braga,Terras de Bouro,Carvalheira,L. ERVIDEIROS,41.7486819998423,-8.23340999999808,Reacendimento,564.0,2015-04-08T01:00,9.4,82,6.5,7.3,0.0,0.0,0.0,0.0,0,1020.2,953.4,0,0,0,0,0.0,0.21,8.0,11.8,85,130,23.8,10.5,13.8,11.1,8.5,0.213,0.271,0.335,0.399,0,0.0,0.0,0.0,0.0,0.0,0.0,0.0,0.0,0.0,0.0,0.0,0.0,0.0,Pinus pinaster Aiton; Quercus L.; Magnoliopsida; Eucalyptus L'Hér.; Tracheophyta; Pinales
2015,2015-01-04,Braga,Braga,Este (São Mamede),Pau de Bandeira (Rua do Regueiro 830. 4715 Sobreposta. Portugal),41.55,-8.3325,Desconhecida,410.0,2015-01-04T19:00,5.9,87,3.8,3.3,0.0,0.0,0.0,0.0,0,1031.5,981.2,19,0,16,32,0.0,0.12,8.1,8.0,69,85,13.7,5.6,6.3,7.1,12.1,0.345,0.355,0.375,0.408,0,0.0,0.0,0.0,0.0,0.0,0.0,0.0,0.0,0.0,0.0,0.0,0.0,0.0,Tracheophyta; Pinus pinaster Aiton; Eucalyptus L'Hér.; Magnoliopsida
2015,2015-04-08,Braga,Braga,Mire de Tibães,Boavista (CM1279 51. 4700-565 Padim da Graça. Portugal),41.5613888888889,-8.48277777777778,Desconhecida,79.0,2015-04-08T08:00,14.5,52,4.6,11.2,0.0,0.0,0.0,0.0,1,1020.9,1011.4,38,3,14,88,0.13,0.8,13.8,25.1,96,97,30.2,13.0,14.4,13.3,10.8,0.195,0.261,0.333,0.396,1,3600.0,214.1,103.7,110.5,296.8,214.1,476.9,157.0,76.0,81.0,296.8,157.0,349.7,Tracheophyta; Magnoliopsida; Pinus pinaster Aiton; Eucalyptus L'Hér.
2015,2015-04-08,Braga,Braga,Espinho,Aldeia Nova (CM1338. 4715 Braga. Portugal),41.5436111111111,-8.35666666666667,Desconhecida,421.0,2015-04-08T10:00,14.1,47,2.9,10.2,0.0,0.0,0.0,0.0,1,1021.7,972.0,43,0,33,77,0.26,0.86,15.8,22.0,91,93,40.7,13.7,12.4,11.4,8.8,0.195,0.261,0.332,0.398,1,3600.0,486.1,226.9,259.2,342.3,486.1,905.2,437.0,204.0,233.0,342.3,437.0,813.7,Magnoliopsida; Pinus pinaster Aiton; Eucalyptus L'Hér.; Tracheophyta
2015,2015-04-08,Braga,Amares,Vilela,URJAL,41.6693239998817,-8.32058499998517,NC,347.0,2015-04-08T10:00,14.5,50,4.2,11.9,0.3,0.3,0.0,0.0,51,1021.4,980.3,49,0,34,96,0.27,0.83,8.9,11.9,117,115,28.8,14.1,12.9,11.9,9.3,0.204,0.262,0.332,0.398,1,3600.0,545.3,325.0,220.4,491.9,545.3,902.0,490.0,292.0,198.0,491.9,490.0,810.5,Magnoliopsida; Eucalyptus L'Hér.; Tracheophyta; Vitis vinifera L.; Pinus pinaster Aiton; Quercus L.; 
2015,2015-04-08,Braga,Braga,Braga (são Vítor),MONTE PICOTO (Convento de Monteriol),41.5697222222222,-8.41083333333333,NC,266.0,2015-04-08T13:00,17.9,43,5.1,15.5,0.0,0.0,0.0,0.0,2,1020.3,989.0,52,1,37,96,0.39,1.17,11.3,14.7,117,115,34.2,18.3,13.7,12.0,9.5,0.195,0.26,0.332,0.397,1,3600.0,632.4,423.9,208.5,516.3,632.4,1121.0,634.0,425.0,209.0,516.3,634.0,1123.8,Magnoliopsida; Tracheophyta; Eucalyptus L'Hér.; Pinales; Pinus pinaster Aiton; Quercus L.
2015,2015-04-08,Braga,Esposende,Gemeses,R. DO PAÇO,41.5178539999326,-8.72680200046963,Desconhecida,18.0,2015-04-08T17:00,18.8,47,7.2,16.8,0.0,0.0,0.0,0.0,3,1019.9,1017.8,93,7,95,100,0.15,1.15,8.8,11.3,279,277,15.5,19.4,16.8,14.3,11.9,0.186,0.256,0.328,0.39,1,0.0,125.6,9.8,115.7,25.4,125.6,529.4,153.0,12.0,141.0,25.4,153.0,645.1,Tracheophyta; Eucalyptus L'Hér.; Pinus pinaster Aiton
2015,2015-04-08,Braga,Cabeceiras de Basto,Rio Douro,CAMBESES,41.5574269999398,-7.94072700023651,Reacendimento,918.0,2015-04-08T19:00,9.7,84,7.2,8.4,0.6,0.6,0.0,0.0,53,1021.4,915.3,100,52,99,100,0.02,0.19,4.1,6.4,135,142,15.8,11.7,11.5,9.5,6.9,0.247,0.276,0.335,0.395,1,0.0,0.0,0.0,0.0,0.0,0.0,0.0,17.0,0.0,17.0,0.0,17.0,128.3,Magnoliopsida; Pinus pinaster Aiton
2015,2015-04-08,Braga,Braga,Vilaça,Entre Muros,41.5188888888889,-8.48722222222222,NC,198.0,2015-04-08T21:00,12.8,80,9.5,12.2,0.6,0.6,0.0,0.0,53,1022.2,998.4,100,95,97,100,0.0,0.29,3.3,3.8,257,253,9.0,14.3,15.1,12.8,10.2,0.196,0.257,0.329,0.393,0,0.0,0.0,0.0,0.0,0.0,0.0,0.0,0.0,0.0,0.0,0.0,0.0,0.0,Tracheophyta; Eucalyptus L'Hér.; Pinus pinaster Aiton; Magnoliopsida; Pinales
2015,2015-04-12,Braga,Vila Nova De Famalicão,Gavião,R. ALTO DA QUINTELA (Rua do Alto),41.4197222222222,-8.4975,Reacendimento,128.0,2015-04-12T14:00,22.7,43,9.5,23.2,0.0,0.0,0.0,0.0,0,1021.0,1006.0,2,0,4,0,0.52,1.57,6.6,8.8,103,102,22.3,21.6,14.9,13.3,11.1,0.279,0.267,0.32,0.389,1,3600.0,785.1,647.8,137.3,819.3,785.1,1077.0,812.0,670.0,142.0,819.3,812.0,1113.9,Pinales; Pinus pinea L.; Tracheophyta; Magnoliopsida; Eucalyptus L'Hér.
2015,2015-04-12,Braga,Barcelos,Bastuço (Santo Estevão),BASTUCO (EM561. 4755. Portugal),41.535,-8.62222222222222,NC,40.0,2015-04-12T14:00,23.1,44,10.2,24.5,0.0,0.0,0.0,0.0,0,1021.1,1016.4,2,0,4,0,0.52,1.57,2.1,1.5,329,45,17.6,22.6,15.5,14.0,11.7,0.249,0.258,0.323,0.388,1,3600.0,779.3,644.9,134.4,816.3,779.3,1076.3,806.0,667.0,139.0,816.3,806.0,1113.1,Tracheophyta; Magnoliopsida
2015,2015-04-12,Braga,Póvoa de Lanhoso,Lanhoso,Cimo de Vila (Rua dos Tinocos 50. 4830. Portugal),41.5741666666667,-8.29444444444444,Desconhecida,298.0,2015-04-12T15:00,22.5,40,8.3,20.9,0.0,0.0,0.0,0.0,0,1020.6,986.2,10,1,15,0,0.44,1.62,11.4,15.4,108,106,27.0,20.7,14.4,12.2,9.9,0.288,0.287,0.327,0.395,1,3600.0,600.4,498.8,101.6,717.7,600.4,946.6,644.0,535.0,109.0,717.7,644.0,1015.4,Eucalyptus L'Hér.; Magnoliopsida; Tracheophyta; Quercus L.
2015,2015-04-12,Braga,Fafe,Fafe,RUA DE S. PEDRO - PARDELHAS,41.449617000156,-8.17523899979062,Desconhecida,326.0,2015-04-12T16:00,22.3,37,6.9,20.3,0.0,0.0,0.0,0.0,1,1020.2,982.6,26,0,43,0,0.36,1.7,8.4,12.1,110,107,25.2,20.1,14.4,12.0,9.7,0.282,0.284,0.328,0.393,1,3600.0,462.0,336.7,125.3,601.0,462.0,763.1,520.0,379.0,141.0,601.0,520.0,859.0,Magnoliopsida; Tracheophyta
2015,2015-04-12,Braga,Guimarães,Serzedelo,L. SRª DOS MONTES,41.404638999833,-8.366757999998,Desconhecida,136.0,2015-04-12T17:00,22.6,41,8.7,21.1,0.0,0.0,0.0,0.0,0,1020.1,1004.2,14,0,23,0,0.27,1.62,8.1,12.4,328,334,16.9,20.5,15.7,13.2,10.9,0.28,0.28,0.327,0.391,1,3600.0,303.1,228.2,75.0,574.1,303.1,541.3,368.0,277.0,91.0,574.1,368.0,657.2,Magnoliopsida; Tracheophyta; Vitis vinifera L.; Eucalyptus L'Hér.; Pinales
2015,2015-04-12,Braga,Guimarães,Selho (São Cristovão),SENHORA DOS MONTES,41.4151629998949,-8.3471460003323,NC,190.0,2015-04-12T20:00,17.8,59,9.7,16.4,0.0,0.0,0.0,0.0,0,1020.9,998.4,6,0,10,0,0.07,0.83,9.1,17.2,342,344,20.2,16.2,15.7,12.9,10.6,0.279,0.283,0.327,0.393,0,0.0,0.0,0.0,0.0,0.0,0.0,0.0,0.0,0.0,0.0,0.0,0.0,1.6,Magnoliopsida; Eucalyptus L'Hér.; Vitis vinifera L.; Tracheophyta
2015,2015-04-13,Braga,Guimarães,Abação (são Tomé),Pena Redonda,41.4169444444444,-8.26333333333333,Desconhecida,472.0,2015-04-13T11:00,20.1,41,6.4,18.0,0.0,0.0,0.0,0.0,0,1022.5,968.1,0,0,0,0,0.48,1.39,15.9,22.4,86,86,42.5,17.5,12.5,11.3,9.0,0.27,0.281,0.327,0.393,1,3600.0,819.0,719.1,99.8,917.8,819.0,1066.7,771.0,677.0,94.0,917.8,771.0,1004.3,Eucalyptus L'Hér.; Tracheophyta; Magnoliopsida; Vitis vinifera L.; Pinales; Pinus pinaster Aiton
2015,2015-04-13,Braga,Vizela,Caldas de Vizela (São Miguel),MONTE S. BENTO,41.3755260001289,-8.30920500013563,NC,146.0,2015-04-13T11:00,22.1,40,7.9,20.3,0.0,0.0,0.0,0.0,0,1022.0,1004.9,0,0,0,0,0.5,1.59,15.9,21.3,85,86,29.9,19.3,14.4,13.1,10.8,0.263,0.273,0.325,0.392,1,3600.0,809.9,708.9,101.0,905.6,809.9,1065.8,762.0,667.0,95.0,905.6,762.0,1002.8,Tracheophyta; Eucalyptus L'Hér.; Magnoliopsida
2015,2015-04-13,Braga,Cabeceiras De Basto,Cavez,PALHEIROS,41.5220940001806,-7.89534200032552,Reacendimento,283.0,2015-04-13T13:00,23.8,36,7.8,23.4,0.0,0.0,0.0,0.0,0,1020.5,987.9,1,0,0,2,0.61,1.89,12.2,16.6,88,88,37.1,21.5,14.5,12.5,10.1,0.266,0.285,0.329,0.393,1,3600.0,891.8,791.1,100.6,943.6,891.8,1141.4,895.0,794.0,101.0,943.6,895.0,1145.6,Pinus pinaster Aiton; Magnoliopsida; Tracheophyta; Vitis vinifera L.; Eucalyptus L'Hér.
2015,2015-04-13,Braga,Guimarães,Lordelo,MONTE,41.3716780000263,-8.37648800002204,NC,120.0,2015-04-13T14:00,24.8,33,7.5,24.5,0.0,0.0,0.0,0.0,0,1020.1,1006.2,6,0,1,17,0.59,2.09,9.5,12.7,81,83,23.8,22.5,15.7,13.4,11.1,0.263,0.278,0.325,0.391,1,3600.0,825.7,722.3,103.5,909.2,825.7,1081.5,854.0,747.0,107.0,909.2,854.0,1118.5,Tracheophyta; Magnoliopsida; Vitis vinifera L.
2015,2015-04-13,Braga,Vizela,Caldas de Vizela (São Miguel),Monte S. Bento,41.3755260001289,-8.30920500013563,NC,146.0,2015-04-13T14:00,25.0,33,7.6,24.7,0.0,0.0,0.0,0.0,0,1020.1,1003.2,6,0,1,17,0.59,2.12,9.5,12.7,81,83,23.8,22.5,15.5,13.1,10.8,0.253,0.271,0.325,0.392,1,3600.0,825.5,722.1,103.4,909.7,825.5,1080.6,854.0,747.0,107.0,909.7,854.0,1118.0,Tracheophyta; Eucalyptus L'Hér.; Magnoliopsida
2015,2015-04-13,Braga,Póvoa de Lanhoso,Lanhoso,Cimo de Vila (Rua dos Tinocos 50. 4830. Portugal),41.5741666666667,-8.29444444444444,Reacendimento,298.0,2015-04-13T14:00,24.4,33,7.1,23.5,0.0,0.0,0.0,0.0,0,1020.3,986.1,7,0,4,15,0.59,2.05,12.9,17.6,103,101,37.8,21.8,14.8,12.3,9.9,0.265,0.284,0.326,0.394,1,3600.0,828.3,725.8,102.4,917.0,828.3,1077.6,857.0,751.0,106.0,917.0,857.0,1115.0,Eucalyptus L'Hér.; Magnoliopsida; Tracheophyta; Quercus L.
2015,2015-04-13,Braga,Amares,Caires,RUA BORRALHA,41.6470979997847,-8.35281499995126,NC,260.0,2015-04-13T15:00,24.9,32,7.1,24.5,0.0,0.0,0.0,0.0,0,1019.7,989.8,9,0,7,16,0.51,2.13,5.9,8.8,104,99,31.0,22.0,15.1,12.3,9.9,0.254,0.276,0.325,0.394,1,3600.0,702.3,598.7,103.5,858.2,702.3,949.7,753.0,642.0,111.0,858.2,753.0,1018.4,Magnoliopsida; Pinus pinaster Aiton; Eucalyptus L'Hér.; Tracheophyta; 
2015,2015-04-13,Braga,Póvoa De Lanhoso,Ferreiros,Av. de São Pedro (Chã de São Pedro),41.6013888888889,-8.31638888888889,NC,238.0,2015-04-13T16:00,25.1,32,7.3,23.2,0.0,0.0,0.0,0.0,0,1018.9,991.6,16,0,10,33,0.42,2.16,8.8,12.4,109,107,34.6,22.0,15.8,12.7,10.3,0.26,0.283,0.325,0.394,1,3600.0,502.6,371.8,130.8,659.1,502.6,768.0,565.0,418.0,147.0,659.1,565.0,863.3,Pinus pinaster Aiton; Tracheophyta; Magnoliopsida; Vitis vinifera L.; Eucalyptus L'Hér.; 
2015,2015-04-13,Braga,Vila Verde,Parada de Gatim,SOUTO NOVO,41.6203490000301,-8.52492699993981,Desconhecida,98.0,2015-04-13T16:00,25.7,31,7.5,25.2,0.0,0.0,0.0,0.0,0,1018.9,1007.6,14,0,8,29,0.37,2.27,0.8,1.8,117,101,26.3,22.9,16.5,13.4,10.9,0.238,0.266,0.324,0.392,1,3600.0,516.5,386.5,130.0,682.2,516.5,771.2,580.0,434.0,146.0,682.2,580.0,866.0,Pinus pinaster Aiton; Eucalyptus L'Hér.; Tracheophyta
2015,2015-04-14,Braga,Vila Verde,Prado (São Miguel),VILELA DE CIMA,41.7025299999449,-8.43456900000572,Desconhecida,325.0,2015-04-14T00:00,10.8,81,7.7,9.4,0.0,0.0,0.0,0.0,0,1020.2,981.2,1,0,2,0,0.0,0.25,5.8,12.2,68,92,19.4,12.1,15.0,12.3,9.7,0.272,0.29,0.326,0.394,0,0.0,0.0,0.0,0.0,0.0,0.0,0.0,0.0,0.0,0.0,0.0,0.0,0.0,Eucalyptus L'Hér.; Pinus pinaster Aiton; Magnoliopsida; Quercus L.; Tracheophyta
2015,2015-04-14,Braga,Vila Nova De Famalicão,Sezures,Quintela,41.4677777777778,-8.4825,Reacendimento,142.0,2015-04-14T08:00,16.5,57,7.8,13.7,0.0,0.0,0.0,0.0,1,1017.6,1000.7,44,0,29,88,0.15,0.82,15.3,27.1,81,85,30.2,14.2,14.7,13.4,10.9,0.237,0.262,0.322,0.389,1,3600.0,253.4,139.3,114.1,370.1,253.4,512.3,191.0,105.0,86.0,370.1,191.0,386.1,Eucalyptus L'Hér.; Tracheophyta; Pinus pinaster Aiton
2015,2015-04-14,Braga,Barcelos,Oliveira,R. DA MOTA,41.5855339999994,-8.54910799980164,Desconhecida,105.0,2015-04-14T11:00,22.8,41,8.7,20.6,0.0,0.0,0.0,0.0,1,1016.8,1004.6,32,0,4,99,0.45,1.65,15.9,21.7,96,97,36.7,19.6,15.2,13.5,10.9,0.235,0.265,0.324,0.392,1,3600.0,670.6,365.6,305.0,466.3,670.6,1066.7,631.0,344.0,287.0,466.3,631.0,1003.8,Tracheophyta; Pinus pinaster Aiton; Vitis vinifera L.
2015,2015-04-14,Braga,Esposende,Marinhas,Rua 15 de Agosto,41.5418080001407,-8.77323000007206,Desconhecida,18.0,2015-04-14T17:00,21.7,56,12.5,21.6,0.2,0.2,0.0,0.0,51,1012.9,1010.8,84,0,100,81,0.13,1.15,6.5,7.2,354,18,12.6,20.8,17.6,14.6,12.1,0.189,0.24,0.313,0.382,1,0.0,110.1,2.5,107.6,6.1,110.1,553.2,133.0,3.0,130.0,6.1,133.0,668.3,Pinus pinaster Aiton; Tracheophyta
2015,2015-04-14,Braga,Vila Verde,Cervães,ESPESSANTE,41.5996250004239,-8.52367699993981,Desconhecida,117.0,2015-04-14T18:00,20.6,61,12.7,20.8,0.1,0.1,0.0,0.0,51,1013.0,999.3,64,0,59,96,0.07,0.96,4.1,5.8,345,7,17.6,19.2,16.8,13.5,10.9,0.228,0.263,0.323,0.392,1,0.0,39.3,0.0,39.3,0.0,39.3,299.6,56.0,0.0,56.0,0.0,56.0,427.0,Pinus pinaster Aiton; Eucalyptus L'Hér.; Magnoliopsida; Tracheophyta
2015,2015-04-14,Braga,Amares,Caires,MONTE DE CIMA,41.6470979997847,-8.35281499995126,NC,260.0,2015-04-14T21:00,16.9,63,9.9,16.0,0.0,0.0,0.0,0.0,1,1013.5,983.0,31,0,12,79,0.02,0.71,6.4,12.6,16,5,15.5,15.0,15.6,12.5,9.9,0.245,0.272,0.324,0.393,0,0.0,0.0,0.0,0.0,0.0,0.0,0.0,0.0,0.0,0.0,0.0,0.0,0.0,Magnoliopsida; Pinus pinaster Aiton; Eucalyptus L'Hér.; Tracheophyta; 
2015,2015-04-14,Braga,Barcelos,Oliveira,SOBRADO,41.5855339999994,-8.54910799980164,Reacendimento,105.0,2015-04-14T21:00,17.3,70,11.8,16.7,0.0,0.0,0.0,0.0,1,1012.9,1000.5,34,0,21,73,0.02,0.59,8.1,15.1,21,12,13.3,16.0,16.7,13.6,10.9,0.228,0.263,0.323,0.392,0,0.0,0.0,0.0,0.0,0.0,0.0,0.0,0.0,0.0,0.0,0.0,0.0,0.0,Tracheophyta; Pinus pinaster Aiton; Vitis vinifera L.
2015,2015-04-14,Braga,Vila Verde,Cabanelas,AVENIDA DO RIO,41.5888390000661,-8.49339699957106,NC,25.0,2015-04-14T22:00,16.3,77,12.3,15.7,0.0,0.0,0.0,0.0,1,1013.8,1010.8,34,0,12,89,0.01,0.42,9.1,11.9,353,360,15.8,16.1,17.4,14.5,11.9,0.213,0.252,0.319,0.387,0,0.0,0.0,0.0,0.0,0.0,0.0,0.0,0.0,0.0,0.0,0.0,0.0,0.0,Tracheophyta; Magnoliopsida; Eucalyptus L'Hér.
2015,2015-04-15,Braga,Barcelos,Oliveira,AVENIDA DA CITANIA,41.5855339999994,-8.54910799980164,Reacendimento,105.0,2015-04-15T00:00,14.0,84,11.3,13.4,0.0,0.0,0.0,0.0,1,1014.0,1001.4,47,0,28,100,0.0,0.26,6.9,11.5,133,166,16.2,14.3,16.2,13.6,11.0,0.229,0.263,0.323,0.392,0,0.0,0.0,0.0,0.0,0.0,0.0,0.0,0.0,0.0,0.0,0.0,0.0,0.0,Tracheophyta; Pinus pinaster Aiton; Vitis vinifera L.
2015,2015-04-15,Braga,Vila Verde,Turiz,Penedos Altos,41.6395530001322,-8.45785200013055,Desconhecida,162.0,2015-04-15T02:00,13.8,82,10.8,13.2,0.0,0.0,0.0,0.0,1,1014.1,994.8,49,0,33,96,0.0,0.28,5.8,12.2,173,194,24.5,13.6,15.5,13.3,10.6,0.23,0.263,0.323,0.391,0,0.0,0.0,0.0,0.0,0.0,0.0,0.0,0.0,0.0,0.0,0.0,0.0,0.0,Pinus pinaster Aiton; Eucalyptus L'Hér.; Magnoliopsida
2015,2015-04-17,Braga,Guimarães,Souto (santa Maria),Ramos,41.5094444444444,-8.28611111111111,NC,190.0,2015-04-17T17:00,13.1,65,6.6,9.8,0.0,0.0,0.0,0.0,2,1017.6,994.8,64,27,51,30,0.16,0.53,16.4,22.5,220,220,36.7,15.3,14.3,13.4,10.8,0.324,0.292,0.322,0.391,1,2858.09,231.3,63.8,167.5,155.3,231.3,558.4,279.0,77.0,202.0,155.3,279.0,673.6,Eucalyptus L'Hér.; Magnoliopsida; Tracheophyta
2015,2015-02-19,Braga,Guimarães,Selho (São Cristovão),L. SRª DOS MONTES,41.4151629998949,-8.3471460003323,Desconhecida,190.0,2015-02-19T19:00,10.0,80,6.8,8.3,0.0,0.0,0.0,0.0,3,1028.3,1005.0,88,0,97,99,0.02,0.24,6.1,7.1,310,319,9.7,9.2,8.3,8.1,10.0,0.374,0.386,0.406,0.412,0,0.0,0.0,0.0,0.0,0.0,0.0,0.0,0.0,0.0,0.0,0.0,0.0,4.6,Magnoliopsida; Eucalyptus L'Hér.; Vitis vinifera L.; Tracheophyta
2015,2015-04-02,Braga,Vila Nova De Famalicão,Oliveira (Santa Maria),L.MONTE,41.4061519998974,-8.40210699995359,NC,138.0,2015-04-02T13:00,22.0,33,4.8,20.7,0.0,0.0,0.0,0.0,1,1023.2,1007.0,27,0,0,91,0.55,1.79,12.0,16.3,99,98,29.9,19.7,13.8,11.8,10.5,0.246,0.291,0.345,0.398,1,3600.0,846.8,683.0,163.8,853.7,846.8,1096.2,848.0,684.0,164.0,853.7,848.0,1097.8,Tracheophyta; Vitis vinifera L.; Eucalyptus L'Hér.
2015,2015-04-02,Braga,Vila Nova de Famalicão,Vermoim,L. VILAR,41.4216020001305,-8.45102700001664,Reacendimento,176.0,2015-04-02T13:00,21.8,33,4.8,20.4,0.0,0.0,0.0,0.0,1,1023.2,1002.6,27,0,0,91,0.55,1.75,12.0,16.3,99,98,29.9,19.4,13.7,11.7,10.4,0.248,0.284,0.338,0.395,1,3600.0,846.8,683.0,163.8,853.7,846.8,1096.2,848.0,684.0,164.0,853.7,848.0,1097.8,Tracheophyta; Eucalyptus L'Hér.
2015,2015-04-02,Braga,Vila Verde,Dossãos,RUA SUBRIBEIRO,41.678609000312,-8.46873600006104,NC,256.0,2015-04-02T14:00,22.8,33,5.8,22.8,0.0,0.0,0.0,0.0,1,1022.8,993.1,24,0,0,79,0.54,1.85,4.8,6.5,117,109,20.5,20.7,13.2,10.8,9.4,0.234,0.287,0.344,0.402,1,3600.0,804.8,677.2,127.5,899.0,804.8,1032.1,833.0,701.0,132.0,899.0,833.0,1068.3,Magnoliopsida; Eucalyptus L'Hér.; Tracheophyta; Pinus pinaster Aiton
2015,2015-04-02,Braga,Fafe,Fafe,COMIEIRA,41.449617000156,-8.17523899979062,Desconhecida,326.0,2015-04-02T14:00,21.7,32,4.3,20.2,0.0,0.0,0.0,0.0,1,1022.9,985.1,21,0,0,69,0.55,1.77,12.2,16.5,104,101,31.7,19.6,12.9,10.7,9.3,0.239,0.29,0.346,0.4,1,3600.0,813.1,689.5,123.6,913.7,813.1,1033.8,842.0,714.0,128.0,913.7,842.0,1070.6,Magnoliopsida; Tracheophyta
2015,2015-04-02,Braga,Fafe,São Gens,Vilela,41.4151460001204,-8.12732899983724,Desconhecida,550.0,2015-04-02T15:00,20.5,32,3.2,19.2,0.0,0.0,0.0,0.0,1,1022.5,959.5,20,0,0,67,0.47,1.64,6.5,8.0,124,117,24.1,18.8,11.9,9.5,7.8,0.248,0.293,0.343,0.397,1,3600.0,704.3,610.5,93.8,923.7,704.3,905.4,758.0,657.0,101.0,923.7,758.0,974.4,Pinales; Eucalyptus L'Hér.; Magnoliopsida; Pinus pinaster Aiton; Tracheophyta
2015,2015-04-02,Braga,Guimarães,Silvares,RUA DA COSTA,41.4451579994626,-8.33566199991438,NC,127.0,2015-04-02T16:00,23.6,32,5.9,22.0,0.0,0.0,0.0,0.0,1,1021.5,1006.7,30,0,0,100,0.36,1.99,4.1,7.4,75,76,18.0,21.1,14.7,11.7,10.4,0.23,0.286,0.344,0.399,1,3600.0,486.9,310.2,176.7,584.6,486.9,726.9,551.0,351.0,200.0,584.6,551.0,822.5,Tracheophyta; Eucalyptus L'Hér.; Magnoliopsida; Quercus L.; Pinus pinaster Aiton; Pinales
2015,2015-04-02,Braga,Amares,Goães,RUA IGREJA,41.6532899999619,-8.31142800013224,NC,72.0,2015-04-02T19:00,19.8,56,10.7,19.1,0.0,0.0,0.0,0.0,1,1021.3,1012.8,30,0,0,100,0.06,1.03,7.0,10.8,348,358,11.5,17.6,15.5,12.0,10.6,0.23,0.286,0.344,0.401,0,0.0,0.0,0.0,0.0,0.0,0.0,0.0,39.0,5.0,34.0,39.7,39.0,112.9,Magnoliopsida; Eucalyptus L'Hér.; Pinus pinaster Aiton; Tracheophyta; Vitis vinifera L.; Quercus L.; 
2015,2015-04-20,Braga,Vila Verde,Oleiros,Monte de Santa Marinha (Rua do Maninho 549. 4730. Portugal),41.6097222222222,-8.49166666666667,Desconhecida,50.0,2015-04-20T13:00,18.2,61,10.6,18.6,0.0,0.0,0.0,0.0,0,1019.5,1013.5,10,0,17,0,0.43,0.81,7.0,7.0,291,291,18.4,19.4,13.7,13.6,11.6,0.336,0.344,0.321,0.389,1,3600.0,745.4,528.1,217.2,613.9,745.4,1166.7,748.0,530.0,218.0,613.9,748.0,1170.8,Magnoliopsida; Pinus pinaster Aiton; Tracheophyta; Eucalyptus L'Hér.
2015,2015-04-23,Braga,Esposende,Antas,GUILHETA,41.6013239999612,-8.7716770002577,NC,75.0,2015-04-23T18:00,16.0,73,11.1,14.8,0.0,0.0,0.0,0.0,2,1017.6,1008.6,67,0,61,100,0.12,0.5,10.8,13.4,249,246,19.1,17.7,15.8,14.0,12.2,0.351,0.363,0.318,0.382,1,1875.11,140.0,30.6,109.4,122.5,140.0,338.5,192.0,42.0,150.0,122.5,192.0,464.1,Pinus pinaster Aiton; Pinales; Vitis vinifera L.; Tracheophyta; Magnoliopsida
2015,2015-05-10,Braga,Guimarães,Caldelas,RUA DO RABELO,41.4915750000212,-8.34435400009155,NC,133.0,2015-05-10T20:00,18.0,89,16.1,18.9,0.0,0.0,0.0,0.0,1,1019.9,1004.1,29,0,0,98,0.02,0.23,8.4,12.6,317,333,16.9,18.7,18.3,14.1,11.8,0.373,0.39,0.411,0.401,0,0.0,0.0,0.0,0.0,0.0,0.0,0.0,15.0,3.0,12.0,33.1,15.0,62.7,Magnoliopsida; Eucalyptus L'Hér.; Tracheophyta; Pinus pinaster Aiton; Quercus L.; 
2015,2015-05-11,Braga,Amares,Goães,MONTE S. JORGE,41.6532899999619,-8.31142800013224,NC,72.0,2015-05-11T13:00,25.8,54,15.8,29.6,0.0,0.0,0.0,0.0,1,1018.9,1010.6,29,0,0,95,0.65,1.53,4.7,4.7,274,274,17.3,24.4,17.5,14.7,12.2,0.365,0.384,0.409,0.402,1,3600.0,946.9,800.5,146.4,880.5,946.9,1219.7,951.0,804.0,147.0,880.5,951.0,1225.0,Magnoliopsida; Eucalyptus L'Hér.; Pinus pinaster Aiton; Tracheophyta; Vitis vinifera L.; Quercus L.; 
2015,2015-05-11,Braga,Vila Nova De Famalicão,Antas,RUA DE PEREIRAS (Rua de António Azevedo Menezes),41.4041666666667,-8.5175,NC,84.0,2015-05-11T15:00,25.1,61,17.1,28.4,0.0,0.0,0.0,0.0,1,1018.2,1008.5,30,0,0,99,0.55,1.25,6.6,7.8,283,283,19.4,24.6,18.3,14.9,12.6,0.365,0.381,0.403,0.39,1,3600.0,777.6,636.7,140.9,826.1,777.6,1034.0,828.0,678.0,150.0,826.1,828.0,1100.9,Tracheophyta; Pinus pinaster Aiton; Magnoliopsida
2015,2015-05-11,Braga,Vila Nova De Famalicão,Gavião,RUA DO MIRADOURO (Rua do Moço Morto),41.4188888888889,-8.49888888888889,NC,120.0,2015-05-11T20:00,19.7,83,16.6,21.3,0.0,0.0,0.0,0.0,1,1018.0,1003.9,30,0,0,99,0.02,0.4,5.0,5.5,339,11,9.7,19.6,18.8,14.7,12.3,0.362,0.378,0.402,0.39,0,0.0,0.0,0.0,0.0,0.0,0.0,0.0,16.0,3.0,13.0,32.4,16.0,65.3,Pinales; Pinus pinea L.; Tracheophyta; Magnoliopsida; Eucalyptus L'Hér.
2015,2015-05-13,Braga,Guimarães,Nespereira,RUA DAS PORTELAS,41.4067480002509,-8.32721300019158,NC,212.0,2015-05-13T17:00,20.9,71,15.5,21.6,0.0,0.0,0.0,0.0,1,1021.2,996.4,39,0,15,99,0.21,0.7,8.0,9.8,275,276,21.2,21.9,19.0,15.1,11.8,0.333,0.361,0.398,0.395,1,2413.11,265.4,67.4,198.0,140.4,265.4,643.3,311.0,79.0,232.0,140.4,311.0,753.9,Eucalyptus L'Hér.; Tracheophyta; Magnoliopsida; Pinus pinaster Aiton
2015,2015-05-14,Braga,Braga,Escudeiros,ESCUDEIROS (Rua das Poças 12. 4705. Portugal),41.48,-8.42805555555556,Desconhecida,192.0,2015-05-14T11:00,15.4,70,10.0,13.1,0.0,0.0,0.0,0.0,3,1024.0,1001.0,100,79,0,99,0.29,0.52,15.8,20.5,319,321,36.4,17.2,15.8,14.9,11.8,0.347,0.361,0.397,0.398,1,3600.0,583.8,232.5,351.4,268.1,583.8,1161.7,555.0,221.0,334.0,268.1,555.0,1104.3,Eucalyptus L'Hér.; Pinales; Tracheophyta; Pinus pinaster Aiton; Magnoliopsida; Vitis vinifera L.
2015,2015-05-17,Braga,Guimarães,Airão (Santa Maria),RUA DA IGREJA,41.4550270001094,-8.40702800008986,Desconhecida,231.0,2015-05-17T11:00,23.0,52,12.6,24.1,0.0,0.0,0.0,0.0,0,1021.6,994.8,0,0,0,0,0.54,1.36,10.0,13.4,69,70,29.9,21.4,16.8,14.7,11.7,0.301,0.338,0.386,0.397,1,3600.0,895.8,784.4,111.5,899.1,895.8,1167.3,852.0,746.0,106.0,899.1,852.0,1110.2,Eucalyptus L'Hér.; Tracheophyta; Magnoliopsida
