year,date,district,municipality,parish,local,latitude,longitude,cause,elevation,hourly.time,hourly.temperature_2m,hourly.relative_humidity_2m,hourly.dew_point_2m,hourly.apparent_temperature,hourly.precipitation,hourly.rain,hourly.snowfall,hourly.snow_depth,hourly.weather_code,hourly.pressure_msl,hourly.surface_pressure,hourly.cloud_cover,hourly.cloud_cover_low,hourly.cloud_cover_mid,hourly.cloud_cover_high,hourly.et0_fao_evapotranspiration,hourly.vapour_pressure_deficit,hourly.wind_speed_10m,hourly.wind_speed_100m,hourly.wind_direction_10m,hourly.wind_direction_100m,hourly.wind_gusts_10m,hourly.soil_temperature_0_to_7cm,hourly.soil_temperature_7_to_28cm,hourly.soil_temperature_28_to_100cm,hourly.soil_temperature_100_to_255cm,hourly.soil_moisture_0_to_7cm,hourly.soil_moisture_7_to_28cm,hourly.soil_moisture_28_to_100cm,hourly.soil_moisture_100_to_255cm,hourly.is_day,hourly.sunshine_duration,hourly.shortwave_radiation_instant,hourly.direct_radiation_instant,hourly.diffuse_radiation_instant,hourly.direct_normal_irradiance_instant,hourly.global_tilted_irradiance_instant,hourly.terrestrial_radiation_instant,hourly.shortwave_radiation,hourly.direct_radiation,hourly.diffuse_radiation,hourly.direct_normal_irradiance,hourly.global_tilted_irradiance,hourly.terrestrial_radiation,scientificNames
2017,2017-11-19,Lisboa,Sintra,Sintra (São Martinho),Pena (Serra de Sintra) (Quinta do Vale dos Anjos),38.79,-9.39193999979231,NC,388.0,2017-11-19T05:00,9.3,74,4.9,6.8,0.0,0.0,0.0,0.0,0,1019.0,972.5,0,0,0,0,0.01,0.3,8.2,19.4,41,48,15.1,9.4,12.3,14.4,18.2,0.224,0.256,0.234,0.299,0,0.0,0.0,0.0,0.0,0.0,0.0,0.0,0.0,0.0,0.0,0.0,0.0,0.0,Magnoliopsida; Pinales; Pinus pinaster Aiton; Tracheophyta
2017,2017-11-19,Lisboa,Alenquer,Carregado,Carregado (Charnequinha),39.0316700002882,-8.99639000044929,NC,47.0,2017-11-19T17:00,16.6,66,10.3,15.4,0.0,0.0,0.0,0.0,0,1020.3,1014.7,0,0,0,0,0.06,0.64,8.8,13.4,12,31,12.2,17.2,15.0,16.4,21.2,0.146,0.22,0.192,0.243,1,3008.69,31.5,19.7,11.7,226.5,28.4,60.8,94.0,59.0,35.0,410.2,94.0,181.8,Magnoliopsida; Tracheophyta; Vitis vinifera L.
2017,2017-11-19,Lisboa,Arruda Dos Vinhos,Arranhó,A do Baço (Casal do Rossio),38.9663900004493,-9.16222000016107,NC,281.0,2017-11-19T17:00,15.5,65,8.9,14.2,0.0,0.0,0.0,0.0,0,1020.4,987.1,0,0,0,0,0.06,0.62,7.4,13.0,47,44,16.2,16.5,14.0,15.3,19.8,0.126,0.205,0.199,0.221,1,3047.6,33.0,20.7,12.4,237.0,30.0,63.5,96.0,60.0,36.0,414.3,96.0,184.4,Tracheophyta; Magnoliopsida; Pinus pinea L.
2017,2017-11-19,Lisboa,Torres Vedras,Turcifal,Aldeia da Serra (Casal Rosmaninho),39.0163220002916,-9.2357509999805,NC,174.0,2017-11-19T19:00,12.8,74,8.2,11.1,0.0,0.0,0.0,0.0,0,1020.7,999.7,0,0,0,0,0.01,0.39,8.5,15.0,54,48,12.6,13.7,14.4,15.5,19.7,0.135,0.201,0.209,0.267,0,0.0,0.0,0.0,0.0,0.0,0.0,0.0,0.0,0.0,0.0,0.0,0.0,0.0,Tracheophyta; Castanea sativa Mill.; Vitis vinifera L.; Magnoliopsida; Pinales; Eucalyptus L'Hér.; 
2017,2017-11-20,Lisboa,Torres Vedras,São Pedro da Cadeira,EN 247 (Vale da Fonte),39.0740919997957,-9.40073000000583,NC,33.0,2017-11-20T15:00,20.0,52,9.8,19.1,0.0,0.0,0.0,,0,1020.6,1016.7,0,0,0,0,0.24,1.14,6.1,5.5,270,247,13.0,19.1,14.6,16.0,20.0,0.175,0.238,0.243,0.318,1,3600.0,342.9,278.6,64.2,790.2,342.9,494.1,395.0,321.0,74.0,790.2,395.0,569.3,Magnoliopsida; Tracheophyta; Vitis vinifera L.; Eucalyptus L'Hér.; 
2017,2017-11-20,Lisboa,Mafra,Mafra,Zambujal (Rua da Escola),38.9482510005103,-9.37656799952189,NC,112.0,2017-11-20T17:00,15.5,86,13.2,15.8,0.0,0.0,0.0,0.0,0,1021.4,1008.0,0,0,0,0,0.04,0.25,5.2,7.7,326,311,11.2,17.8,15.3,16.0,20.0,0.135,0.211,0.233,0.301,1,3064.66,33.9,21.3,12.6,244.8,31.0,64.8,97.0,61.0,36.0,420.8,97.0,185.3,Magnoliopsida; Tracheophyta; Eucalyptus L'Hér.
2017,2017-11-20,Lisboa,Sintra,Sintra (São Martinho),Rua do moinho (Moinho do Gato),38.8227799998389,-9.39889000044929,NC,125.0,2017-11-20T19:00,12.4,84,9.8,11.3,0.0,0.0,0.0,0.0,0,1021.7,1006.6,0,0,0,0,0.0,0.23,7.2,5.9,360,317,9.0,14.0,15.2,15.8,19.5,0.198,0.247,0.245,0.307,0,0.0,0.0,0.0,0.0,0.0,0.0,0.0,0.0,0.0,0.0,0.0,0.0,0.0,Pinales; Magnoliopsida; Tracheophyta; Pinus pinaster Aiton
2017,2017-11-21,Lisboa,Torres Vedras,Ventosa,Quinta do Infesta de Cima (Casal do Campos),39.059912999471,-9.29188199996948,NC,84.0,2017-11-21T15:00,19.6,63,12.4,17.8,0.0,0.0,0.0,0.0,0,1018.0,1008.1,1,1,0,0,0.24,0.85,17.7,23.1,186,184,32.8,18.7,14.4,16.0,20.1,0.129,0.202,0.211,0.267,1,3600.0,329.4,260.0,69.3,745.0,329.4,489.3,380.0,300.0,80.0,745.0,380.0,564.5,Vitis vinifera L.; Eucalyptus L'Hér.; Tracheophyta; Magnoliopsida; 
2017,2017-04-05,Lisboa,Lourinhã,Lourinhã,Seixal (Rio Grande),39.2603850004408,-9.32993599997626,Desconhecida,3.0,2017-04-05T18:00,20.3,69,14.4,19.8,0.0,0.0,0.0,0.0,0,1017.2,1016.8,6,0,0,19,0.16,0.75,13.3,21.0,13,22,26.3,21.3,18.3,14.6,13.5,0.166,0.215,0.255,0.247,1,3600.0,167.0,115.6,51.4,570.2,167.0,277.2,247.0,171.0,76.0,570.2,247.0,410.0,Tracheophyta; Acacia Mill.; Magnoliopsida
2017,2017-11-21,Lisboa,Mafra,Sobral da Abelheira,Codeçal,38.9669920000103,-9.30651799996694,NC,115.0,2017-11-21T17:00,16.7,85,14.2,15.9,0.0,0.0,0.0,0.0,1,1018.1,1004.4,23,26,0,0,0.05,0.28,14.8,25.0,183,186,35.6,17.5,15.1,16.0,19.9,0.121,0.197,0.218,0.267,1,2995.12,27.6,15.0,12.7,171.9,24.9,60.1,83.0,45.0,38.0,314.4,83.0,180.6,Pinus pinaster Aiton; Eucalyptus L'Hér.; Magnoliopsida; Tracheophyta; Pinales
2017,2017-11-21,Lisboa,Sintra,Agualva,Alto do Colaride (Colaride),38.7675760000282,-9.28462900002797,NC,192.0,2017-11-21T18:00,15.2,98,14.8,15.1,0.0,0.0,0.0,0.0,1,1018.2,995.3,22,25,0,0,0.01,0.04,11.2,22.1,184,192,26.3,15.0,14.0,15.4,19.2,0.211,0.249,0.233,0.299,0,0.0,0.0,0.0,0.0,0.0,0.0,0.0,2.0,0.0,2.0,0.0,2.0,22.0,Tracheophyta; Magnoliopsida; 
2017,2017-11-22,Lisboa,Lourinhã,Moledo,MOLEDO,39.2845390000608,-9.25617499987284,NC,136.0,2017-11-22T14:00,19.4,60,11.4,16.1,0.0,0.0,0.0,0.0,1,1010.9,995.0,46,0,77,0,0.21,0.9,25.2,36.5,170,171,41.8,16.7,14.5,15.4,19.1,0.063,0.132,0.124,0.205,1,1674.34,209.3,51.4,157.9,115.8,209.3,622.4,224.0,55.0,169.0,115.8,224.0,666.0,Magnoliopsida; Eucalyptus L'Hér.; Tracheophyta; Vitis vinifera L.; Pinales; 
2017,2017-11-22,Lisboa,Loures,Fanhões,FANHÕES (Casal da Boca),38.8783820003933,-9.15064500000742,NC,147.0,2017-11-22T15:00,18.8,66,12.3,16.4,0.0,0.0,0.0,0.0,1,1011.7,994.5,39,1,63,0,0.2,0.73,21.6,31.1,184,186,44.3,17.7,15.0,15.6,20.7,0.085,0.179,0.173,0.026,1,3600.0,240.7,127.3,113.4,366.6,240.7,486.9,278.0,147.0,131.0,366.6,278.0,562.3,Magnoliopsida; Tracheophyta; Eucalyptus L'Hér.; 
2017,2017-11-22,Lisboa,Torres Vedras,Dois Portos,Murteira,39.0430340003967,-9.17148599995507,NC,144.0,2017-11-22T16:00,18.4,69,12.7,15.4,0.0,0.0,0.0,0.0,1,1011.1,994.2,41,0,57,24,0.15,0.65,26.1,40.0,174,177,48.2,17.0,14.9,15.9,20.3,0.122,0.207,0.214,0.258,1,3600.0,129.7,64.5,65.2,311.8,129.7,290.1,175.0,87.0,88.0,311.8,175.0,391.3,Vitis vinifera L.; Eucalyptus L'Hér.; Magnoliopsida; Tracheophyta; 
2017,2017-11-22,Lisboa,Sintra,Almargem do Bispo,Olival do Santissimo (Casal do Bretão),38.8141700002882,-9.2416699997584,NC,266.0,2017-11-22T21:00,15.8,83,12.9,14.2,0.1,0.1,0.0,0.0,51,1012.3,981.1,57,0,45,99,0.02,0.31,17.1,31.6,202,201,41.0,15.2,15.2,15.6,19.3,0.137,0.191,0.201,0.264,0,0.0,0.0,0.0,0.0,0.0,0.0,0.0,0.0,0.0,0.0,0.0,0.0,0.0,Tracheophyta; Magnoliopsida; Pinus pinaster Aiton; Eucalyptus L'Hér.; Vitis vinifera L.; 
2017,2017-11-22,Lisboa,Azambuja,Aveiras de Cima,Casais das comeiras (Casais Penedos),39.1358299999767,-8.88443999999099,NC,89.0,2017-11-22T23:00,16.2,83,13.4,15.1,0.0,0.0,0.0,0.0,3,1012.3,1001.7,87,0,96,99,0.02,0.3,14.8,27.3,181,189,33.1,15.4,15.4,16.3,20.8,0.093,0.181,0.176,0.231,0,0.0,0.0,0.0,0.0,0.0,0.0,0.0,0.0,0.0,0.0,0.0,0.0,0.0,Tracheophyta; Olea europaea L.; Vitis vinifera L.; Magnoliopsida; Pinus pinea L.
2017,2017-11-23,Lisboa,Torres Vedras,Dois Portos,Mouguelas,39.0313879998525,-9.16438700040182,NC,166.0,2017-11-23T11:00,17.2,81,14.0,15.7,0.0,0.0,0.0,0.0,3,1014.9,995.3,88,1,95,100,0.11,0.36,18.9,28.2,141,150,32.4,16.0,15.5,15.9,20.0,0.178,0.206,0.214,0.258,1,0.0,180.2,22.0,158.2,47.7,180.2,646.1,164.0,20.0,144.0,47.7,164.0,588.2,Vitis vinifera L.; Eucalyptus L'Hér.; Magnoliopsida; Tracheophyta; 
2017,2017-11-30,Lisboa,Torres Vedras,Dois Portos,Casal Sao Pedro (Dois Portos),39.0428889995151,-9.18765400012334,NC,97.0,2017-11-30T16:00,11.5,58,3.4,7.3,0.0,0.0,0.0,0.0,0,1020.6,1008.8,0,0,0,0,0.14,0.57,18.0,26.3,358,359,33.1,13.3,12.3,16.0,19.9,0.302,0.269,0.215,0.258,1,3600.0,174.4,129.7,44.7,667.8,174.4,273.2,238.0,177.0,61.0,667.8,238.0,372.8,Vitis vinifera L.; Eucalyptus L'Hér.; Magnoliopsida; Tracheophyta; 
2017,2017-11-30,Lisboa,Torres Vedras,Dois Portos,Dois Portos,39.0428889995151,-9.18765400012334,NC,97.0,2017-11-30T23:00,6.4,75,2.3,3.2,0.0,0.0,0.0,0.0,0,1024.5,1012.4,0,0,0,0,0.01,0.24,10.1,25.2,6,14,18.7,8.1,11.7,15.9,19.9,0.299,0.269,0.215,0.258,0,0.0,0.0,0.0,0.0,0.0,0.0,0.0,0.0,0.0,0.0,0.0,0.0,0.0,Vitis vinifera L.; Eucalyptus L'Hér.; Magnoliopsida; Tracheophyta; 
2017,2017-12-01,Lisboa,Vila Franca de Xira,São João Dos Montes,A-dos-Loucos,38.9398160001967,-9.0177360000213,NC,147.0,2017-12-01T09:00,8.1,67,2.4,3.9,0.0,0.0,0.0,0.0,0,1025.1,1007.0,0,0,0,0,0.06,0.35,17.1,29.5,352,359,33.5,7.7,10.0,15.0,20.2,0.265,0.21,0.171,0.026,1,3248.37,164.5,105.0,59.5,483.2,155.5,305.6,105.0,67.0,38.0,456.6,105.0,195.1,Magnoliopsida; Tracheophyta; Pinus pinaster Aiton; Vitis vinifera L.; Olea europaea L.; Eucalyptus L'Hér.; Pinales; 
2017,2017-12-01,Lisboa,Azambuja,Alcoentre,Casais das Boiças (ALCOENTRE),39.2067940002018,-8.9689839998881,NC,135.0,2017-12-01T12:00,12.7,63,5.8,8.5,0.0,0.0,0.0,0.0,2,1024.8,1008.4,53,58,2,0,0.22,0.55,21.7,28.6,353,354,35.6,10.7,9.7,15.1,19.6,0.271,0.228,0.186,0.242,1,3600.0,477.1,392.9,84.2,818.7,477.1,675.2,459.0,378.0,81.0,818.7,459.0,649.5,Vitis vinifera L.; Tracheophyta; Eucalyptus L'Hér.; Magnoliopsida; Olea europaea L.
2017,2017-12-02,Lisboa,Loures,Fanhões,FANHÕES (Casal da Boca),38.8783820003933,-9.15064500000742,NC,147.0,2017-12-02T13:00,10.5,45,-1.0,6.7,0.0,0.0,0.0,0.0,0,1026.7,1008.7,0,0,0,0,0.24,0.71,10.9,14.0,46,46,24.8,11.1,9.9,14.4,20.2,0.245,0.212,0.171,0.026,1,3600.0,491.1,408.1,83.0,853.5,491.1,672.9,497.0,413.0,84.0,853.5,497.0,681.0,Magnoliopsida; Tracheophyta; Eucalyptus L'Hér.; 
2017,2017-04-06,Lisboa,Sintra,São João das Lampas,Assafora,38.9056139998966,-9.40464200019836,Desconhecida,121.0,2017-04-06T16:00,22.3,38,7.4,20.1,0.0,0.0,0.0,0.0,0,1016.7,1002.6,0,0,0,0,0.44,1.66,14.6,18.9,50,55,27.4,22.1,16.8,14.3,13.3,0.235,0.319,0.37,0.348,1,3600.0,579.3,492.2,87.1,864.6,579.3,777.9,652.0,554.0,98.0,864.6,652.0,875.5,Tracheophyta; Magnoliopsida; Pinus pinaster Aiton; Pinus pinea L.; Vitis vinifera L.; Pinales; Olea europaea L.; 
2017,2017-12-03,Lisboa,Mafra,Enxara do Bispo,São Sebastião (Casal das Pucaricas Novas),39.0046039999856,-9.23672299994363,NC,146.0,2017-12-03T12:00,10.4,53,1.1,5.8,0.0,0.0,0.0,0.0,0,1030.1,1012.2,0,0,0,0,0.22,0.6,18.6,24.5,75,76,35.3,9.8,9.2,14.3,18.8,0.253,0.244,0.218,0.267,1,3600.0,480.2,394.8,85.4,826.0,480.2,672.8,461.0,379.0,82.0,826.0,461.0,645.9,Tracheophyta; Eucalyptus L'Hér.; Vitis vinifera L.; Magnoliopsida
2017,2017-04-06,Lisboa,Torres Vedras,Torres Vedras (São Pedro e São Tiago),Fonte Grada,39.1057500002119,-9.301880999936,Desconhecida,22.0,2017-04-06T15:00,23.1,37,7.6,21.6,0.0,0.0,0.0,0.0,0,1017.2,1014.6,0,0,0,0,0.53,1.78,14.8,18.6,67,68,31.0,22.1,16.8,14.7,13.7,0.235,0.309,0.335,0.3,1,3600.0,737.0,636.3,100.8,904.6,737.0,961.1,790.0,682.0,108.0,904.6,790.0,1030.2,Tracheophyta; Vitis vinifera L.; Eucalyptus L'Hér.; Magnoliopsida
2017,2017-12-03,Lisboa,Mafra,Milharado,Vale da Guarda (Casal do Outeiro),38.9557620000839,-9.25788200007545,NC,188.0,2017-12-03T14:00,11.4,48,0.9,7.0,0.0,0.0,0.0,0.0,0,1029.1,1006.2,0,0,0,0,0.23,0.69,16.1,20.9,70,71,34.9,11.3,9.4,14.0,18.5,0.25,0.244,0.218,0.267,1,3600.0,426.4,351.6,74.8,828.8,426.4,597.1,456.0,376.0,80.0,828.8,456.0,638.6,Eucalyptus L'Hér.; Tracheophyta; Pinus pinaster Aiton
2017,2017-12-03,Lisboa,Alenquer,Abrigada,ABRIGADA,39.1532710001204,-9.02040700011783,NC,74.0,2017-12-03T17:00,9.8,63,3.1,7.0,0.0,0.0,0.0,0.0,0,1029.8,1020.6,0,0,0,0,0.04,0.45,8.2,18.4,41,50,18.7,10.7,10.1,14.4,19.7,0.256,0.262,0.19,0.245,1,2614.21,17.9,10.9,7.0,125.5,14.8,35.8,77.0,47.0,30.0,355.6,77.0,154.1,Magnoliopsida; Eucalyptus L'Hér.; Tracheophyta; Vitis vinifera L.
2017,2017-04-06,Lisboa,Torres Vedras,Ventosa,Figueiras (Forte do Outeiro da Prata),39.0769320000543,-9.30140500002437,Desconhecida,74.0,2017-04-06T14:00,22.2,39,7.6,20.8,0.0,0.0,0.0,0.0,0,1017.7,1009.0,0,0,0,0,0.57,1.63,17.1,21.4,75,77,36.0,21.3,16.1,14.4,13.4,0.237,0.31,0.34,0.3,1,3600.0,848.0,738.6,109.4,926.6,848.0,1089.3,876.0,763.0,113.0,926.6,876.0,1125.3,Vitis vinifera L.; Eucalyptus L'Hér.; Tracheophyta; Magnoliopsida; 
2017,2017-12-04,Lisboa,Mafra,Igreja Nova,Murtal,38.8946159998576,-9.33759700006909,NC,150.0,2017-12-04T12:00,11.1,50,1.1,6.2,0.0,0.0,0.0,0.0,0,1033.2,1014.8,0,0,0,0,0.23,0.66,20.2,26.7,92,92,34.6,9.3,8.5,13.9,18.9,0.235,0.247,0.247,0.307,1,3600.0,487.9,405.6,82.4,850.9,487.9,671.1,468.0,389.0,79.0,850.9,468.0,643.7,Tracheophyta; Magnoliopsida
2017,2017-12-04,Lisboa,Sintra,Agualva,Rua da telheirinha (Agualva-Cacém),38.7699329998758,-9.2941039996677,NC,142.0,2017-12-04T14:00,12.4,49,1.9,8.4,0.0,0.0,0.0,0.0,0,1032.1,1014.7,0,0,0,0,0.23,0.74,14.6,20.8,81,80,35.6,11.1,9.6,13.9,18.5,0.303,0.314,0.24,0.298,1,3600.0,431.4,356.5,74.9,836.7,431.4,600.1,461.0,381.0,80.0,836.7,461.0,641.3,Tracheophyta; Magnoliopsida; 
2017,2017-12-04,Lisboa,Sintra,Almargem do Bispo,Casal do Brejo (Dona Maria),38.8169400000075,-9.25777999983893,NC,281.0,2017-12-04T15:00,11.7,48,0.9,7.7,0.0,0.0,0.0,0.0,0,1032.1,998.0,0,0,0,0,0.19,0.72,13.8,19.8,75,74,32.8,10.8,8.8,13.2,18.2,0.255,0.257,0.201,0.264,1,3600.0,319.0,255.0,64.0,776.2,319.0,462.6,369.0,295.0,74.0,776.2,369.0,535.2,Tracheophyta; Magnoliopsida; Pinus pinaster Aiton; Eucalyptus L'Hér.; Vitis vinifera L.; 
2017,2017-12-04,Lisboa,Mafra,Enxara do Bispo,Enxara dos Cavaleiros (Quinta do Anjo),38.9816700002882,-9.21832999997669,NC,191.0,2017-12-04T15:00,12.5,48,1.7,8.2,0.0,0.0,0.0,0.0,0,1032.1,1008.8,0,0,0,0,0.2,0.76,16.6,22.4,86,86,34.6,11.3,9.1,13.4,18.3,0.237,0.242,0.217,0.267,1,3600.0,316.3,253.2,63.1,774.6,316.3,460.3,366.0,293.0,73.0,774.6,366.0,532.7,Magnoliopsida; Tracheophyta; Pinales; Pinus pinaster Aiton
2017,2017-12-04,Lisboa,Torres Vedras,Dois Portos,Dois Portos,39.0428889995151,-9.18765400012334,NC,97.0,2017-12-04T16:00,12.7,52,3.1,9.3,0.0,0.0,0.0,0.0,0,1032.3,1020.4,0,0,0,0,0.13,0.7,12.0,20.8,81,81,29.2,11.6,9.5,13.9,19.4,0.249,0.264,0.215,0.257,1,3600.0,168.2,125.1,43.1,655.9,168.2,268.5,230.0,171.0,59.0,655.9,230.0,367.1,Vitis vinifera L.; Eucalyptus L'Hér.; Magnoliopsida; Tracheophyta; 
2017,2017-12-04,Lisboa,Odivelas,Ramada,Rua Soalheira (Ramada),38.8014269999663,-9.19444099956089,NC,109.0,2017-12-04T17:00,11.3,52,1.8,7.6,0.0,0.0,0.0,0.0,0,1032.2,1018.8,0,0,0,0,0.08,0.64,12.7,25.8,45,54,25.6,11.2,10.6,14.3,19.3,0.272,0.279,0.217,0.278,1,2718.92,21.7,13.3,8.5,152.0,18.4,42.7,82.0,50.0,32.0,370.9,82.0,161.2,Eucalyptus L'Hér.; Tracheophyta; Magnoliopsida; Olea europaea L.; Pinus pinea L.; 
2017,2017-12-05,Lisboa,Sintra,Sintra (Santa Maria e São Miguel),Quinta da Penha Verde (Monte Santos),38.8058129999373,-9.38789899984996,NC,151.0,2017-12-05T12:00,12.1,56,3.5,8.7,0.0,0.0,0.0,0.0,0,1034.4,1015.9,7,0,0,23,0.22,0.62,12.2,16.4,109,105,28.1,10.2,9.3,13.4,18.2,0.27,0.29,0.252,0.306,1,3600.0,480.8,397.4,83.4,835.6,480.8,669.9,461.0,381.0,80.0,835.6,461.0,642.2,Tracheophyta; Magnoliopsida
2017,2017-12-05,Lisboa,Torres Vedras,Carmões,Rua do Olival (Braçal),39.0460300000509,-9.13803399986691,NC,172.0,2017-12-05T15:00,12.8,55,3.9,9.8,0.0,0.0,0.0,0.0,1,1033.0,1012.0,28,0,0,92,0.18,0.67,10.3,12.9,102,103,21.6,12.1,9.2,13.0,18.8,0.241,0.261,0.213,0.257,1,3600.0,308.2,239.1,69.1,737.9,308.2,456.5,357.0,277.0,80.0,737.9,357.0,528.8,Vitis vinifera L.; Magnoliopsida; Eucalyptus L'Hér.; Tracheophyta; Pinus pinea L.; 
2017,2017-12-05,Lisboa,Arruda Dos Vinhos,Arruda Dos Vinhos,Casal Doutor (ARRUDA),38.9834970000055,-9.07598299980164,NC,96.0,2017-12-05T16:00,12.7,59,4.8,10.4,0.0,0.0,0.0,0.0,1,1033.0,1021.2,23,0,0,76,0.11,0.61,7.3,10.9,101,99,18.0,12.4,10.0,13.6,19.5,0.24,0.264,0.2,0.221,1,3600.0,163.9,114.9,49.0,602.4,163.9,268.6,224.0,157.0,67.0,602.4,224.0,367.1,Tracheophyta; Vitis vinifera L.
2017,2017-12-06,Lisboa,Sintra,São Marcos,Quinta das Estribeiras (São Marcos),38.7545190000534,-9.29612499978807,NC,168.0,2017-12-06T17:00,8.9,79,5.4,6.9,0.0,0.0,0.0,0.0,0,1031.7,1011.0,8,0,11,3,0.03,0.24,6.3,6.3,77,66,9.4,10.7,10.1,13.0,18.1,0.29,0.304,0.239,0.298,1,2734.88,21.5,11.4,10.1,131.1,18.3,44.1,79.0,42.0,37.0,311.4,79.0,162.0,Tracheophyta; Magnoliopsida; 
2017,2017-12-06,Lisboa,Odivelas,Pontinha,Bairro Olival do Pancas (Pontinha),38.7649330001407,-9.2002410000066,NC,87.0,2017-12-06T16:00,11.5,62,4.6,9.6,0.0,0.0,0.0,0.0,1,1031.8,1021.1,25,0,8,66,0.1,0.51,4.3,6.0,66,65,15.5,11.9,10.4,13.9,19.2,0.259,0.273,0.215,0.278,1,3600.0,169.0,119.7,49.2,619.1,169.0,272.5,230.0,163.0,67.0,619.1,230.0,371.0,Pinus pinea L.; Olea europaea L.; Tracheophyta; Magnoliopsida; 
2017,2017-12-07,Lisboa,Arruda Dos Vinhos,Arranhó,A dos Arcos (ARRANHÓ),38.9569070000119,-9.13215700043572,NC,255.0,2017-12-07T13:00,12.3,54,3.2,10.7,0.0,0.0,0.0,0.0,0,1031.6,1000.7,15,0,21,9,0.2,0.66,0.4,0.4,90,270,14.0,10.9,8.0,12.0,18.3,0.227,0.252,0.194,0.221,1,3600.0,417.7,296.9,120.7,634.2,417.7,659.9,422.0,300.0,122.0,634.2,422.0,666.7,Tracheophyta; Magnoliopsida; Olea europaea L.
2017,2017-12-09,Lisboa,Torres Vedras,Turcifal,Casal de Barbas (Fonte de Barbas),39.0205599999428,-9.23667000002331,NC,140.0,2017-12-09T15:00,15.8,83,13.0,13.6,0.2,0.2,0.0,0.0,51,1027.9,1011.1,85,93,0,4,0.13,0.3,21.9,28.8,312,312,38.2,15.4,13.6,13.0,18.1,0.241,0.244,0.212,0.267,1,3600.0,212.7,115.9,96.9,359.7,212.7,454.2,246.0,134.0,112.0,359.7,246.0,525.2,Tracheophyta; Castanea sativa Mill.; Vitis vinifera L.; Magnoliopsida; Pinales; Eucalyptus L'Hér.; 
2017,2017-04-07,Lisboa,Torres Vedras,Torres Vedras (Santa Maria do Castelo e São Miguel),Aldeia Nova (Vala dos Ameais),39.1147200001611,-9.22694000032213,Desconhecida,99.0,2017-04-07T23:00,14.6,64,7.9,12.8,0.0,0.0,0.0,0.0,0,1017.1,1005.2,0,0,0,0,0.03,0.59,8.7,22.1,48,26,18.0,15.3,17.3,14.5,13.2,0.214,0.297,0.333,0.3,0,0.0,0.0,0.0,0.0,0.0,0.0,0.0,0.0,0.0,0.0,0.0,0.0,0.0,Eucalyptus L'Hér.; Vitis vinifera L.; Magnoliopsida; Pinus pinaster Aiton; Tracheophyta
2017,2017-12-13,Lisboa,Sintra,Belas,Estrada do Mirante (Idanha),38.7709799999661,-9.27107900010215,NC,178.0,2017-12-13T22:00,12.2,99,12.0,12.0,0.0,0.0,0.0,0.0,2,1028.1,1006.5,50,56,0,0,0.0,0.02,5.6,13.8,297,298,10.8,10.7,11.4,13.2,17.3,0.351,0.349,0.249,0.298,0,0.0,0.0,0.0,0.0,0.0,0.0,0.0,0.0,0.0,0.0,0.0,0.0,0.0,Pinus pinaster Aiton; Tracheophyta; Pinales; Eucalyptus L'Hér.; Magnoliopsida; 
2017,2017-04-07,Lisboa,Torres Vedras,Turcifal,Qta do Manjapão (Regueira das Hortas do Manjapão),39.0367100000381,-9.24899699952867,Desconhecida,72.0,2017-04-07T21:00,15.4,65,8.9,13.8,0.0,0.0,0.0,0.0,0,1017.1,1008.5,0,0,0,0,0.03,0.61,9.0,23.8,29,18,14.8,17.1,18.1,14.8,13.4,0.214,0.299,0.338,0.3,0,0.0,0.0,0.0,0.0,0.0,0.0,0.0,0.0,0.0,0.0,0.0,0.0,0.0,Tracheophyta; Castanea sativa Mill.; Vitis vinifera L.; Magnoliopsida; Pinales; Eucalyptus L'Hér.; 
2017,2017-12-16,Lisboa,Lisboa,Beato,Azinhaga das Salgadas (Beato),38.7325069999695,-9.11368099954393,NC,56.0,2017-12-16T18:00,10.0,72,5.2,6.6,0.0,0.0,0.0,0.0,0,1025.4,1018.5,0,0,0,0,0.05,0.35,15.5,29.2,356,1,29.2,12.1,12.8,14.2,18.1,0.325,0.323,0.235,0.292,0,0.0,0.0,0.0,0.0,0.0,0.0,0.0,1.0,0.0,1.0,0.0,1.0,13.9,Tracheophyta; Magnoliopsida
2017,2017-12-18,Lisboa,Loures,Fanhões,Reserva (Casal do Quadradinho),38.8955949995253,-9.14843299971687,NC,256.0,2017-12-18T15:00,11.8,49,1.3,8.1,0.0,0.0,0.0,0.0,0,1031.4,1000.3,0,0,0,0,0.19,0.71,12.1,16.2,23,21,25.9,11.0,8.4,11.7,18.2,0.241,0.244,0.169,0.026,1,3600.0,309.9,247.4,62.5,765.8,309.9,456.5,357.0,285.0,72.0,765.8,357.0,525.8,Magnoliopsida; Tracheophyta; Eucalyptus L'Hér.; ; Pinus pinaster Aiton
2017,2017-12-19,Lisboa,Alenquer,Carnota,Santana da Carnota (Casal do Mourão),39.0369400000572,-9.05944000032213,NC,199.0,2017-12-19T13:00,16.6,62,9.2,14.8,0.0,0.0,0.0,0.0,0,1029.0,1005.2,0,0,0,0,0.25,0.72,10.9,13.7,46,45,21.2,12.5,9.1,12.0,17.0,0.266,0.274,0.192,0.242,1,3600.0,452.3,370.8,81.5,810.4,452.3,646.4,455.0,373.0,82.0,810.4,455.0,650.3,Tracheophyta; Vitis vinifera L.; Magnoliopsida
2017,2017-12-20,Lisboa,Torres Vedras,Torres Vedras (Santa Maria do Castelo e São Miguel),sevelheira (Praceta José Gouveia),39.0947119998932,-9.25029600001044,NC,30.0,2017-12-20T18:00,10.8,84,8.2,9.1,0.0,0.0,0.0,0.0,0,1033.3,1029.6,0,0,0,0,0.02,0.21,8.3,19.8,2,2,13.3,11.9,12.0,13.2,17.4,0.297,0.313,0.222,0.273,0,0.0,0.0,0.0,0.0,0.0,0.0,0.0,2.0,0.0,2.0,0.0,2.0,14.9,Tracheophyta; Magnoliopsida; Olea europaea L.; Vitis vinifera L.
2017,2017-12-23,Lisboa,Alenquer,Meca,Catém (Casal do Barro),39.0855449999703,-9.04267100016276,NC,105.0,2017-12-23T15:00,14.8,58,6.5,12.2,0.0,0.0,0.0,0.0,0,1030.3,1017.6,0,0,0,0,0.19,0.71,11.3,14.7,59,59,22.0,13.4,10.8,12.3,17.2,0.238,0.261,0.193,0.242,1,3600.0,307.4,242.9,64.4,747.7,307.4,459.3,353.0,279.0,74.0,747.7,353.0,527.5,Magnoliopsida; Tracheophyta; Vitis vinifera L.
2017,2017-12-23,Lisboa,Sobral de Monte Agraço,Sapataria,Fetelaria,38.9633299997118,-9.17082999997669,NC,297.0,2017-12-23T17:00,11.0,74,6.5,9.0,0.0,0.0,0.0,0.0,0,1030.3,994.3,0,0,0,0,0.04,0.34,7.1,16.3,60,59,19.1,11.7,10.7,11.5,15.7,0.259,0.281,0.215,0.266,1,2922.58,28.8,17.4,11.4,199.5,25.6,57.9,86.0,52.0,34.0,377.9,86.0,173.0,Tracheophyta; Magnoliopsida
2017,2017-04-07,Lisboa,Azambuja,Aveiras de Cima,Vale de Tábuas,39.1584270000458,-8.93023200035095,Desconhecida,49.0,2017-04-07T17:00,25.1,34,8.2,23.2,0.0,0.0,0.0,0.0,0,1015.2,1009.5,0,0,0,0,0.35,2.1,10.0,12.0,334,339,17.3,24.3,18.1,14.8,13.4,0.172,0.273,0.29,0.272,1,3600.0,375.9,307.9,68.0,777.9,375.9,540.6,459.0,376.0,83.0,777.9,459.0,660.1,Tracheophyta; Pinus pinea L.; Eucalyptus L'Hér.; Vitis vinifera L.; Quercus suber L.; Olea europaea L.; Magnoliopsida
2017,2017-12-24,Lisboa,Torres Vedras,Silveira,SILVEIRA (Portelinhas),39.1104490004645,-9.37016800006231,NC,53.0,2017-12-24T22:00,10.0,93,8.9,7.9,0.0,0.0,0.0,,1,1026.9,1020.4,29,19,20,0,0.0,0.09,12.6,25.0,127,137,20.5,10.2,11.3,12.7,16.9,0.275,0.296,0.224,0.272,0,0.0,0.0,0.0,0.0,0.0,0.0,0.0,0.0,0.0,0.0,0.0,0.0,0.0,Tracheophyta; Magnoliopsida; Vitis vinifera L.; Eucalyptus L'Hér.; 
2017,2017-04-07,Lisboa,Alenquer,Aldeia Gavinha,MONTE GIL,39.0817870002323,-9.06226899994744,Desconhecida,155.0,2017-04-07T16:00,24.4,34,7.5,23.2,0.0,0.0,0.0,0.0,0,1015.3,997.4,0,0,0,0,0.44,2.01,7.6,9.3,341,344,17.3,23.7,16.9,14.2,12.9,0.186,0.282,0.3,0.268,1,3600.0,571.7,485.6,86.1,855.1,571.7,775.6,644.0,547.0,97.0,855.1,644.0,873.6,Vitis vinifera L.; Tracheophyta; Magnoliopsida
2017,2017-04-07,Lisboa,Torres Vedras,Silveira,Praia Azul,39.1130660004086,-9.39349399990506,Desconhecida,0.0,2017-04-07T15:00,22.1,60,13.9,22.8,0.0,0.0,0.0,,0,1016.0,1016.0,0,0,0,0,0.48,1.06,12.6,15.5,290,295,27.0,23.8,17.4,15.0,13.8,0.216,0.299,0.333,0.3,1,3600.0,731.6,632.7,98.9,895.5,731.6,964.8,784.0,678.0,106.0,895.5,784.0,1033.9,Tracheophyta; Magnoliopsida; Vitis vinifera L.; Eucalyptus L'Hér.; 
2017,2017-04-07,Lisboa,Alenquer,Abrigada,Casais da Pedreira (Serra de Montejunto),39.1674750000238,-9.04719799995422,Desconhecida,455.0,2017-04-07T15:00,22.4,31,4.5,22.5,0.0,0.0,0.0,0.0,0,1015.6,963.8,0,0,0,0,0.49,1.86,1.1,1.4,198,180,15.5,22.4,14.7,12.3,10.9,0.18,0.278,0.294,0.279,1,3600.0,732.1,635.1,97.0,901.9,732.1,961.6,785.0,681.0,104.0,901.9,785.0,1031.2,Magnoliopsida; Tracheophyta; Eucalyptus L'Hér.
2017,2017-01-14,Lisboa,Sobral de Monte Agraço,Santo Quintino,Casal das Figueiras (Casal de Alqueidão),38.980373000039,-9.14173999998305,Desconhecida,347.0,2017-01-14T15:00,10.4,46,-0.7,6.0,0.0,0.0,0.0,0.0,0,1029.2,987.2,0,0,0,0,0.21,0.68,15.0,19.7,27,28,29.5,10.9,9.0,11.1,13.8,0.307,0.33,0.314,0.292,1,3600.0,376.9,304.5,72.3,807.6,376.9,533.1,422.0,341.0,81.0,807.6,422.0,597.0,Vitis vinifera L.; Tracheophyta; Magnoliopsida; Eucalyptus L'Hér.
2017,2017-04-08,Lisboa,Sintra,Belas,CREL Km1?? lado Esquerdo (Quinta do Porto),38.762621000078,-9.27761299981011,Desconhecida,199.0,2017-04-08T21:00,14.6,63,7.7,12.1,0.0,0.0,0.0,0.0,0,1017.1,993.4,1,0,0,2,0.05,0.61,13.0,23.6,3,12,24.8,16.7,17.5,14.6,12.9,0.265,0.31,0.357,0.339,0,0.0,0.0,0.0,0.0,0.0,0.0,0.0,0.0,0.0,0.0,0.0,0.0,0.0,Pinus pinaster Aiton; Tracheophyta; Pinales; Eucalyptus L'Hér.; Magnoliopsida; 
2017,2017-04-09,Lisboa,Sintra,Agualva,Cacém,38.7653149996863,-9.29745100021362,Desconhecida,122.0,2017-04-09T02:00,13.7,83,10.8,12.5,0.0,0.0,0.0,0.0,1,1016.8,1002.2,20,0,0,67,0.01,0.27,9.7,19.1,88,131,21.6,15.2,17.1,15.1,13.4,0.265,0.309,0.357,0.339,0,0.0,0.0,0.0,0.0,0.0,0.0,0.0,0.0,0.0,0.0,0.0,0.0,0.0,Tracheophyta; Magnoliopsida; 
2017,2017-04-09,Lisboa,Torres Vedras,Matacães,Lapas Pequenas (Ordasqueira),39.0966270001729,-9.22081999990675,NC,81.0,2017-04-09T19:00,16.8,81,13.5,16.7,0.0,0.0,0.0,0.0,1,1016.7,1007.1,28,0,0,92,0.04,0.37,8.4,8.9,317,291,14.0,19.9,18.2,15.0,13.4,0.185,0.282,0.331,0.3,1,1385.5,7.8,2.3,5.5,25.9,6.2,19.6,62.0,18.0,44.0,125.1,62.0,156.6,Tracheophyta; Vitis vinifera L.; Eucalyptus L'Hér.; Magnoliopsida; Pinus pinaster Aiton; Olea europaea L.; 
2017,2017-04-09,Lisboa,Azambuja,Vila Nova da Rainha,A1 S/N lado direito Km33 (A1-S-N Km 34),39.0427799998389,-8.94277999983894,Desconhecida,3.0,2017-04-09T17:00,26.5,27,6.2,23.8,0.0,0.0,0.0,0.0,1,1015.8,1015.5,29,0,0,98,0.37,2.51,12.0,18.1,173,167,32.0,23.4,18.1,15.5,14.2,0.283,0.385,0.415,0.369,1,3600.0,360.4,259.4,101.0,645.5,360.4,548.2,439.0,316.0,123.0,645.5,439.0,667.8,Tracheophyta; Magnoliopsida; Quercus suber L.
2017,2017-01-14,Lisboa,Cascais,São Domingos de Rana,Parque Industrial Talaide (Quinta do Sirgado),38.7408720000585,-9.30970399962531,Desconhecida,124.0,2017-01-14T15:00,12.1,44,0.2,8.1,0.0,0.0,0.0,0.0,0,1028.9,1013.8,0,0,0,0,0.22,0.79,13.1,18.8,32,32,30.2,12.4,10.8,12.8,15.3,0.338,0.355,0.367,0.309,1,3600.0,381.7,309.3,72.4,812.8,381.7,538.0,427.0,346.0,81.0,812.8,427.0,601.8,Tracheophyta; Magnoliopsida
2017,2017-04-09,Lisboa,Lourinhã,Reguengo Grande,Cesaredas (Vale de Tornada),39.3005019999875,-9.22234999974569,Desconhecida,152.0,2017-04-09T14:00,25.5,24,3.7,22.6,0.0,0.0,0.0,0.0,0,1016.8,999.3,19,0,0,63,0.66,2.47,21.2,28.5,145,145,45.0,22.4,16.1,14.3,12.5,0.104,0.179,0.222,0.219,1,3600.0,846.9,723.0,123.9,899.4,846.9,1096.7,875.0,747.0,128.0,899.4,875.0,1133.1,Vitis vinifera L.; Tracheophyta; Magnoliopsida; Eucalyptus L'Hér.; Quercus L.; 
2017,2017-04-09,Lisboa,Alenquer,Carnota,Casal das Eiras (Santana da Carnota),39.0393639998966,-9.07326099978553,Desconhecida,194.0,2017-04-09T12:00,22.7,31,4.8,19.6,0.0,0.0,0.0,0.0,0,1017.6,995.1,8,0,0,28,0.59,1.89,22.7,29.0,133,133,42.1,20.2,15.5,14.5,12.7,0.159,0.264,0.295,0.268,1,3600.0,885.2,735.8,149.4,871.6,885.2,1151.6,859.0,714.0,145.0,871.6,859.0,1117.5,Magnoliopsida; Vitis vinifera L.; Tracheophyta; Eucalyptus L'Hér.; Olea europaea L.
2017,2017-04-10,Lisboa,Lisboa,Marvila,Rua João césar monteiro (Marvila),38.7391040001975,-9.11070999993218,NC,39.0,2017-04-10T01:00,15.6,73,10.9,14.4,0.0,0.0,0.0,0.0,0,1018.8,1014.1,0,0,0,0,0.02,0.47,10.4,22.6,104,119,19.1,15.7,17.6,16.0,14.1,0.231,0.284,0.328,0.317,0,0.0,0.0,0.0,0.0,0.0,0.0,0.0,0.0,0.0,0.0,0.0,0.0,0.0,Tracheophyta; Magnoliopsida
2017,2017-04-10,Lisboa,Alenquer,Alenquer (Triana),Ic2 jt Km 35 (Cheganças),39.082345000373,-8.98946899996863,Desconhecida,40.0,2017-04-10T00:00,13.9,78,10.2,12.4,0.0,0.0,0.0,0.0,0,1019.2,1014.4,1,0,0,4,0.02,0.34,11.0,16.6,113,146,13.0,16.1,18.2,15.7,13.7,0.141,0.257,0.292,0.268,0,0.0,0.0,0.0,0.0,0.0,0.0,0.0,0.0,0.0,0.0,0.0,0.0,0.0,Tracheophyta; Olea europaea L.; Eucalyptus L'Hér.; Vitis vinifera L.; Magnoliopsida; Pinus pinea L.
2017,2017-04-10,Lisboa,Sobral de Monte Agraço,Santo Quintino,Pontes de Monfalim (Quinta do Paço),39.00111700005,-9.1235449997584,Desconhecida,242.0,2017-04-10T17:00,24.9,31,6.8,23.1,0.0,0.0,0.0,0.0,0,1020.2,992.4,6,0,0,21,0.33,2.17,6.9,8.8,174,168,27.0,24.2,18.2,14.8,12.7,0.133,0.254,0.286,0.236,1,3600.0,386.1,312.8,73.3,767.1,386.1,556.0,469.0,380.0,89.0,767.1,469.0,675.4,Magnoliopsida; Vitis vinifera L.; Pinus pinaster Aiton
2017,2017-04-11,Lisboa,Alenquer,Alenquer (Santo Estêvão),Cabeços (Casal do Burço),39.04,-9.01139000044929,Desconhecida,151.0,2017-04-11T17:00,25.4,39,10.3,23.1,0.0,0.0,0.0,0.0,0,1019.2,1001.8,0,0,0,0,0.39,1.98,16.3,20.2,288,289,26.3,26.2,19.3,15.4,13.1,0.123,0.25,0.294,0.267,1,3600.0,391.3,319.6,71.7,781.1,391.3,557.5,475.0,388.0,87.0,781.1,475.0,676.8,Olea europaea L.; Tracheophyta; Magnoliopsida; Vitis vinifera L.
2017,2017-04-11,Lisboa,Lourinhã,Lourinhã,Zambujeira (Rio do Toxofal),39.2676960000065,-9.319632999897,Desconhecida,9.0,2017-04-11T16:00,22.3,52,12.0,21.7,0.0,0.0,0.0,0.0,0,1019.6,1018.5,0,0,0,0,0.42,1.28,12.1,15.9,307,321,27.7,26.7,19.5,15.9,13.8,0.087,0.182,0.247,0.247,1,3600.0,586.1,497.0,89.1,854.8,586.1,792.3,658.0,558.0,100.0,854.8,658.0,889.4,Tracheophyta; Acacia Mill.
2017,2017-04-12,Lisboa,Torres Vedras,Freiria,Poços (Ribeira dos Poços),39.0308750004239,-9.31334799978468,Desconhecida,48.0,2017-04-12T21:00,14.6,97,14.2,14.9,0.0,0.0,0.0,0.0,0,1019.3,1013.5,7,5,0,9,0.0,0.04,6.9,15.1,9,3,14.0,18.5,19.9,16.2,13.8,0.155,0.267,0.333,0.3,0,0.0,0.0,0.0,0.0,0.0,0.0,0.0,0.0,0.0,0.0,0.0,0.0,0.0,Vitis vinifera L.; Magnoliopsida; Tracheophyta; Eucalyptus L'Hér.; 
2017,2017-04-12,Lisboa,Sobral de Monte Agraço,Santo Quintino,Vermões (Vermães),38.9944209999508,-9.16846600002713,Desconhecida,224.0,2017-04-12T21:00,14.1,89,12.3,12.5,0.0,0.0,0.0,0.0,0,1018.9,992.2,4,2,0,6,0.01,0.18,15.8,26.3,317,324,34.2,19.1,20.3,15.7,13.0,0.11,0.24,0.283,0.236,0,0.0,0.0,0.0,0.0,0.0,0.0,0.0,0.0,0.0,0.0,0.0,0.0,0.0,Magnoliopsida; Tracheophyta; Vitis vinifera L.
2017,2017-04-12,Lisboa,Mafra,São Miguel de Alcainça,Casal Moinho (Alto das Comeras),38.9266700002882,-9.27777999983893,Desconhecida,230.0,2017-04-12T12:00,26.1,32,8.3,27.0,0.0,0.0,0.0,0.0,0,1019.2,992.8,0,0,0,0,0.6,2.28,4.5,5.2,151,155,13.7,23.8,17.3,15.3,12.9,0.156,0.267,0.333,0.306,1,3600.0,894.1,778.8,115.4,910.6,894.1,1164.8,868.0,756.0,112.0,910.6,868.0,1130.7,Tracheophyta; Eucalyptus L'Hér.; Pinus pinaster Aiton
2017,2017-04-13,Lisboa,Sintra,Colares,Atalaia (Moinho da Atalaia),38.7782879998949,-9.47756900045607,Desconhecida,224.0,2017-04-13T07:00,12.4,96,11.8,11.2,0.0,0.0,0.0,0.0,2,1019.4,992.5,73,75,0,17,0.01,0.05,11.6,17.6,324,325,22.7,14.5,16.3,15.3,13.0,0.241,0.291,0.353,0.339,1,440.63,80.9,24.0,56.8,138.2,52.2,236.8,37.0,11.0,26.0,89.2,37.0,108.4,Tracheophyta; Magnoliopsida; Pinus pinaster Aiton; Pinales; Pinus pinea L.; Eucalyptus L'Hér.; Vitis vinifera L.; Acacia Mill.; 
2017,2017-04-13,Lisboa,Cadaval,Vilar,Rua Valeverde (COSTA),39.1889469999737,-9.10363099998898,Desconhecida,103.0,2017-04-13T16:00,17.3,67,11.1,15.7,0.0,0.0,0.0,0.0,1,1020.2,1007.9,40,19,0,77,0.33,0.65,17.0,21.6,302,303,34.2,23.3,18.9,16.0,13.3,0.129,0.253,0.318,0.312,1,3600.0,572.1,465.2,106.9,793.8,572.1,797.6,642.0,522.0,120.0,793.8,642.0,895.0,Magnoliopsida; Eucalyptus L'Hér.; Vitis vinifera L.; Tracheophyta; Olea europaea L.; 
2017,2017-04-13,Lisboa,Torres Vedras,A Dos Cunhados,Casal do Alem (Casal de Além),39.1641700002882,-9.32917000028822,Desconhecida,49.0,2017-04-13T16:00,16.7,73,11.8,15.4,0.0,0.0,0.0,0.0,3,1020.4,1014.5,82,64,0,80,0.31,0.52,15.8,19.6,305,306,32.4,21.6,18.0,15.9,13.7,0.179,0.275,0.346,0.321,1,3600.0,559.0,427.1,132.0,727.2,559.0,799.3,627.0,479.0,148.0,727.2,627.0,896.5,Eucalyptus L'Hér.; Tracheophyta; Vitis vinifera L.; Magnoliopsida; Pinus pinea L.; 
2017,2017-04-14,Lisboa,Sintra,Sintra (São Pedro de Penaferrim),Cruz Alta,38.7822189998627,-9.39122499995761,Desconhecida,507.0,2017-04-14T10:00,15.5,64,8.7,13.3,0.0,0.0,0.0,0.0,0,1022.2,963.0,10,11,0,0,0.29,0.64,13.2,16.8,325,329,32.0,14.7,13.4,13.5,11.2,0.242,0.29,0.351,0.339,1,3600.0,623.8,453.7,170.1,649.7,623.8,949.9,561.0,408.0,153.0,649.7,561.0,854.3,Pinales; Magnoliopsida; Pinus pinaster Aiton
2017,2017-04-15,Lisboa,Torres Vedras,Freiria,Estrada da Freiria para Picanceira (FREIRIA),39.0231890000237,-9.31725799997648,Desconhecida,84.0,2017-04-15T23:00,12.7,91,11.3,11.7,0.0,0.0,0.0,0.0,1,1020.9,1010.7,31,1,0,100,0.0,0.13,10.1,20.9,354,1,20.2,15.7,18.2,16.4,13.8,0.157,0.259,0.33,0.3,0,0.0,0.0,0.0,0.0,0.0,0.0,0.0,0.0,0.0,0.0,0.0,0.0,0.0,Vitis vinifera L.; Magnoliopsida; Tracheophyta; Eucalyptus L'Hér.; 
2017,2017-04-16,Lisboa,Alenquer,Alenquer (Triana),Cheganças (Ribeira do Camarnal),39.0677799999714,-8.99138999991947,Desconhecida,28.0,2017-04-16T20:00,15.1,82,12.1,13.3,0.0,0.0,0.0,0.0,0,1019.0,1015.6,0,0,0,0,0.04,0.3,16.3,26.4,319,322,29.9,20.6,20.7,17.3,14.3,0.109,0.229,0.288,0.267,0,0.0,0.0,0.0,0.0,0.0,0.0,0.0,1.0,0.0,1.0,0.0,1.0,12.5,Magnoliopsida; Eucalyptus L'Hér.; Vitis vinifera L.; Tracheophyta
2017,2017-04-17,Lisboa,Torres Vedras,Torres Vedras (Santa Maria do Castelo e São Miguel),Ribeira de Pedrulhos,39.0816459994846,-9.30617600017124,Desconhecida,17.0,2017-04-17T23:00,17.5,50,6.9,13.6,0.0,0.0,0.0,0.0,1,1015.8,1013.8,30,0,20,60,0.12,1.01,21.1,38.3,67,63,39.6,17.2,18.8,16.7,14.4,0.178,0.273,0.352,0.353,0,0.0,0.0,0.0,0.0,0.0,0.0,0.0,0.0,0.0,0.0,0.0,0.0,0.0,Magnoliopsida; Vitis vinifera L.; Tracheophyta
2017,2017-04-17,Lisboa,Sintra,São João das Lampas,Arneiro dos Marinheiros,38.8581299999025,-9.41243199984233,Desconhecida,159.0,2017-04-17T18:00,18.0,66,11.6,16.0,0.0,0.0,0.0,0.0,1,1017.2,998.4,42,0,21,99,0.16,0.69,16.9,25.9,2,2,35.3,20.9,18.5,15.8,13.5,0.197,0.272,0.349,0.354,1,3600.0,172.2,91.1,81.1,380.8,172.2,324.8,242.0,128.0,114.0,380.8,242.0,456.4,Tracheophyta; Magnoliopsida; Pinus pinaster Aiton; Pinus pinea L.; Vitis vinifera L.; Pinales; Olea europaea L.; 
2017,2017-04-17,Lisboa,Azambuja,Maçussa,Maçussa (Ribeira da Maçussa),39.2002800000045,-8.8672199999955,Desconhecida,51.0,2017-04-17T15:00,27.0,41,12.6,27.3,0.0,0.0,0.0,0.0,0,1016.5,1010.6,1,0,0,3,0.58,2.1,12.7,14.8,317,317,26.3,29.7,20.3,17.4,14.0,0.103,0.213,0.27,0.271,1,3600.0,742.6,644.6,98.1,881.0,742.6,993.5,795.0,690.0,105.0,881.0,795.0,1063.5,Magnoliopsida; Vitis vinifera L.; Tracheophyta; Pinus pinea L.; Eucalyptus L'Hér.
2017,2017-04-18,Lisboa,Mafra,Carvoeira,Senhora do Ó (ER247 (ER247) Km 56),38.9399650001526,-9.39124200026194,Desconhecida,25.0,2017-04-18T19:00,23.4,45,10.8,20.6,0.0,0.0,0.0,0.0,0,1009.6,1006.7,5,0,8,0,0.19,1.58,20.4,38.5,64,66,36.4,22.8,20.5,17.3,14.6,0.136,0.26,0.347,0.348,1,3066.33,29.3,18.4,10.9,211.3,26.5,58.5,97.0,61.0,36.0,386.9,97.0,193.9,Vitis vinifera L.; Magnoliopsida; Eucalyptus L'Hér.; Tracheophyta; Pinus pinea L.; ; Pinus pinaster Aiton
2017,2017-04-19,Lisboa,Alenquer,Carregado,Carambancha,39.0328009997474,-8.99002500004238,Desconhecida,36.0,2017-04-19T17:00,23.1,58,14.5,21.7,0.0,0.0,0.0,0.0,0,1008.4,1004.2,11,0,0,37,0.33,1.18,19.5,25.5,196,196,40.3,27.1,21.6,17.8,14.4,0.112,0.222,0.286,0.267,1,3600.0,385.2,308.6,76.5,715.4,385.2,585.1,463.0,371.0,92.0,715.4,463.0,703.4,Tracheophyta; Magnoliopsida; Vitis vinifera L.
2017,2017-04-19,Lisboa,Alenquer,Alenquer (Santo Estêvão),Cabeços (Pipalete),39.045033999549,-9.03983999994066,Desconhecida,222.0,2017-04-19T13:00,24.4,39,9.7,23.7,0.0,0.0,0.0,0.0,0,1008.8,983.5,0,0,0,0,0.63,1.85,17.6,21.3,152,152,34.2,25.4,18.8,16.6,13.3,0.127,0.232,0.303,0.282,1,3600.0,924.0,808.2,115.7,917.4,924.0,1195.1,926.0,810.0,116.0,917.4,926.0,1197.7,Magnoliopsida; Vitis vinifera L.; Tracheophyta; Olea europaea L.
2017,2017-04-20,Lisboa,Alenquer,Alenquer (Santo Estêvão),casal do bruxo (Casais do Bruxo),39.0468199994829,-9.01964000013139,Desconhecida,192.0,2017-04-20T07:00,14.5,82,11.4,12.8,0.0,0.0,0.0,0.0,0,1012.2,989.4,17,0,0,56,0.04,0.3,14.8,25.6,93,93,25.2,15.6,18.4,17.0,13.4,0.112,0.221,0.286,0.267,1,2479.71,131.2,72.2,58.9,344.6,102.5,284.2,69.0,38.0,31.0,269.2,69.0,149.5,Tracheophyta; Olea europaea L.; Vitis vinifera L.; Magnoliopsida
2017,2017-04-20,Lisboa,Alenquer,Alenquer (Santo Estêvão),quinta de santa teresa,39.0430099995931,-8.99602700021532,Desconhecida,33.0,2017-04-20T03:00,15.1,97,14.6,14.7,0.0,0.0,0.0,0.0,1,1010.8,1006.9,24,3,0,72,0.0,0.06,13.2,25.1,107,119,22.7,17.8,20.5,18.0,14.5,0.112,0.221,0.286,0.267,0,0.0,0.0,0.0,0.0,0.0,0.0,0.0,0.0,0.0,0.0,0.0,0.0,0.0,Magnoliopsida; Tracheophyta; Vitis vinifera L.; Olea europaea L.
2017,2017-04-20,Lisboa,Arruda Dos Vinhos,Arranhó,A do Baço (Casal do Penedo do Mocho),38.9789280001322,-9.16802999999788,Desconhecida,305.0,2017-04-20T13:00,23.3,40,8.8,21.2,0.0,0.0,0.0,0.0,1,1011.5,976.7,25,1,0,81,0.58,1.73,22.5,29.0,122,122,47.9,22.3,17.6,15.8,12.8,0.156,0.245,0.318,0.295,1,3600.0,863.2,628.7,234.5,710.9,863.2,1199.0,865.0,630.0,235.0,710.9,865.0,1201.5,Eucalyptus L'Hér.; Tracheophyta; Magnoliopsida
2017,2017-04-21,Lisboa,Cascais,São Domingos de Rana,Rua Ondina Pereira (Bairro Alentejano),38.6971409999,-9.34989599969652,Desconhecida,70.0,2017-04-21T11:00,20.8,38,5.8,18.0,0.0,0.0,0.0,0.0,1,1017.4,1009.2,27,0,0,90,0.49,1.53,18.9,25.5,111,109,46.1,20.6,18.5,17.6,14.9,0.207,0.261,0.325,0.28,1,3600.0,800.8,631.9,168.9,763.8,800.8,1121.1,754.0,595.0,159.0,763.8,754.0,1055.6,Tracheophyta; Pinus pinaster Aiton
2017,2017-04-21,Lisboa,Azambuja,Vila Nova de São Pedro,Torre Penalva (Torre de Penalva),39.2138070000543,-8.83779000017378,Desconhecida,92.0,2017-04-21T12:00,20.6,38,5.8,18.3,0.0,0.0,0.0,0.0,1,1018.8,1008.0,31,0,7,90,0.54,1.51,19.9,26.1,110,110,42.5,22.7,19.1,17.4,13.7,0.137,0.219,0.27,0.256,1,3600.0,898.5,753.7,144.8,855.2,898.5,1194.2,875.0,734.0,141.0,855.2,875.0,1162.9,Tracheophyta; Magnoliopsida
2017,2017-04-22,Lisboa,Mafra,Sobral da Abelheira,Sobral da Abelheira,38.9954590002696,-9.3333610000006,Desconhecida,103.0,2017-04-22T23:00,14.6,91,13.1,14.1,0.0,0.0,0.0,0.0,1,1018.8,1006.4,38,0,58,9,0.0,0.15,10.1,19.2,6,5,20.2,17.6,20.0,17.4,14.3,0.127,0.251,0.339,0.34,0,0.0,0.0,0.0,0.0,0.0,0.0,0.0,0.0,0.0,0.0,0.0,0.0,0.0,Eucalyptus L'Hér.; Magnoliopsida; Pinus pinaster Aiton; Vitis vinifera L.; Tracheophyta
2017,2017-04-22,Lisboa,Loures,Lousa,Casais Monte Gordo (Freixeira),38.9065569999483,-9.22252099990845,Desconhecida,189.0,2017-04-22T22:00,14.3,80,10.9,12.3,0.0,0.0,0.0,0.0,1,1019.3,996.7,25,0,39,4,0.02,0.33,16.0,28.3,337,342,29.2,17.8,19.7,17.1,13.9,0.13,0.237,0.32,0.305,0,0.0,0.0,0.0,0.0,0.0,0.0,0.0,0.0,0.0,0.0,0.0,0.0,0.0,Tracheophyta; Magnoliopsida; Pinus pinaster Aiton; Eucalyptus L'Hér.; Pinales; 
2017,2017-01-16,Lisboa,Sintra,Almargem do Bispo,OLELAS,38.8408300002416,-9.28443999999099,Desconhecida,235.0,2017-01-16T22:00,6.9,77,3.1,3.7,0.0,0.0,0.0,0.0,0,1026.3,997.4,0,0,0,0,0.01,0.23,11.2,25.1,33,29,21.2,7.9,9.7,11.4,14.4,0.317,0.339,0.357,0.332,0,0.0,0.0,0.0,0.0,0.0,0.0,0.0,0.0,0.0,0.0,0.0,0.0,0.0,Tracheophyta; Magnoliopsida; Pinus pinaster Aiton; Eucalyptus L'Hér.; Vitis vinifera L.; 
2017,2017-04-23,Lisboa,Alenquer,Alenquer (Triana),Alenquer (Triana),39.05424200005,-9.00791800022125,Desconhecida,27.0,2017-04-23T04:00,15.7,65,9.1,14.1,0.0,0.0,0.0,0.0,2,1016.5,1013.3,55,4,85,0,0.03,0.62,9.0,18.8,344,357,18.4,17.6,20.3,18.6,14.8,0.107,0.216,0.284,0.267,0,0.0,0.0,0.0,0.0,0.0,0.0,0.0,0.0,0.0,0.0,0.0,0.0,0.0,Magnoliopsida; Tracheophyta
2017,2017-04-23,Lisboa,Cascais,São Domingos de Rana,Rua Garcia Resende (Bairro do Cabeço de Mouro),38.7200689999262,-9.33090000046624,Desconhecida,102.0,2017-04-23T18:00,18.4,63,11.2,16.7,0.0,0.0,0.0,0.0,0,1015.0,1003.0,8,0,7,13,0.19,0.79,14.4,19.7,302,308,31.3,22.5,20.5,17.6,14.8,0.198,0.254,0.32,0.28,1,3600.0,213.4,161.1,52.3,630.4,213.4,345.9,294.0,222.0,72.0,630.4,294.0,476.6,Tracheophyta; Magnoliopsida
2017,2017-04-23,Lisboa,Mafra,Cheleiros,Carvalhal (Saião),38.9,-9.34360999955071,Desconhecida,128.0,2017-04-23T13:00,19.9,67,13.5,20.5,0.0,0.0,0.0,0.0,0,1016.1,1001.1,9,3,10,1,0.5,0.77,17.1,20.3,305,307,34.2,25.8,19.4,17.4,14.2,0.113,0.248,0.339,0.347,1,3600.0,920.1,802.3,117.8,898.6,920.1,1208.5,922.0,804.0,118.0,898.6,922.0,1211.0,Magnoliopsida; Tracheophyta
2017,2017-04-24,Lisboa,Amadora,Falagueira,Estrada dos salgados (Praça de São Silvestre),38.7588900004493,-9.21358999994066,Desconhecida,87.0,2017-04-24T18:00,19.2,59,11.0,17.2,0.0,0.0,0.0,0.0,0,1012.8,1002.6,1,0,1,0,0.2,0.91,15.7,23.0,323,328,33.1,23.2,20.6,17.8,14.7,0.173,0.238,0.308,0.315,1,3600.0,218.2,165.1,53.1,642.3,218.2,347.7,300.0,227.0,73.0,642.3,300.0,478.1,Tracheophyta; 
2017,2017-04-25,Lisboa,Torres Vedras,Ponte do Rol,Ribeira de Pedrulhos (Benfica),39.0858439999157,-9.31079799969991,Desconhecida,15.0,2017-04-25T19:00,15.2,77,11.2,12.5,0.1,0.1,0.0,0.0,51,1012.8,1011.0,79,37,28,96,0.07,0.4,20.8,27.4,334,335,34.9,18.5,18.9,17.7,14.9,0.154,0.254,0.338,0.352,1,0.0,22.7,1.2,21.5,13.7,22.3,88.5,57.0,3.0,54.0,17.9,57.0,221.9,Eucalyptus L'Hér.; Magnoliopsida; Vitis vinifera L.; Tracheophyta; 
2017,2017-04-25,Lisboa,Alenquer,Alenquer (Triana),Cheganças (Ribeira do Camarnal),39.0687270000246,-8.98789699978299,Desconhecida,25.0,2017-04-25T17:00,17.5,61,9.9,14.5,0.0,0.0,0.0,0.0,2,1012.5,1009.5,77,52,0,100,0.23,0.79,20.6,26.2,314,314,43.9,24.1,21.2,18.9,15.0,0.094,0.21,0.281,0.266,1,3600.0,302.3,104.7,197.7,234.1,302.3,604.5,361.0,125.0,236.0,234.1,361.0,721.8,Magnoliopsida; Eucalyptus L'Hér.; Vitis vinifera L.; Tracheophyta
2017,2017-04-26,Lisboa,Alenquer,Alenquer (Triana),Bemposta,39.0581950002246,-8.96607099956936,Desconhecida,24.0,2017-04-26T04:00,12.5,91,11.1,10.9,0.0,0.0,0.0,0.0,1,1011.4,1008.5,48,22,0,95,0.0,0.13,13.5,24.6,314,321,23.4,15.2,19.4,18.9,15.1,0.096,0.21,0.281,0.266,0,0.0,0.0,0.0,0.0,0.0,0.0,0.0,0.0,0.0,0.0,0.0,0.0,0.0,Vitis vinifera L.; Magnoliopsida; Eucalyptus L'Hér.; Tracheophyta
2017,2017-04-26,Lisboa,Alenquer,Cadafais,Preçes (Quinta das Pressas),39.0201840000682,-9.01077100012037,Desconhecida,130.0,2017-04-26T01:00,12.1,87,10.0,10.2,0.0,0.0,0.0,0.0,0,1012.5,996.9,4,3,0,6,0.01,0.18,13.5,25.2,312,317,23.4,15.4,19.5,18.3,14.3,0.096,0.21,0.281,0.266,0,0.0,0.0,0.0,0.0,0.0,0.0,0.0,0.0,0.0,0.0,0.0,0.0,0.0,Magnoliopsida; Olea europaea L.; Vitis vinifera L.; Tracheophyta; Pinus pinaster Aiton
2017,2017-04-26,Lisboa,Mafra,Malveira,Estrada da Abrunheira (Abrunheira),38.9384599998262,-9.27721400048998,Desconhecida,247.0,2017-04-26T16:00,13.5,52,3.9,9.2,0.0,0.0,0.0,0.0,3,1011.6,982.3,90,0,100,100,0.23,0.74,19.4,25.5,329,329,40.7,19.5,17.3,16.9,13.8,0.127,0.231,0.315,0.305,1,1924.55,316.6,77.1,239.5,124.2,316.6,839.5,353.0,86.0,267.0,124.2,353.0,936.0,Eucalyptus L'Hér.; Tracheophyta; Magnoliopsida; Pinus pinaster Aiton
2017,2017-04-27,Lisboa,Sintra,Colares,Rua dos Banagazes (Canejo),38.8355739998817,-9.45419899993473,Desconhecida,60.0,2017-04-27T10:00,16.1,43,3.3,13.6,0.0,0.0,0.0,0.0,0,1012.4,1005.3,9,0,0,31,0.38,1.05,11.9,15.9,35,39,29.2,16.6,15.4,17.1,14.8,0.18,0.252,0.332,0.353,1,3600.0,763.4,647.7,115.7,874.5,763.4,1000.4,693.0,588.0,105.0,874.5,693.0,908.2,Tracheophyta; Magnoliopsida; Pinus pinaster Aiton; Pinales; Pinus pinea L.; Eucalyptus L'Hér.; Vitis vinifera L.; Acacia Mill.; 
2017,2017-04-27,Lisboa,Torres Vedras,Ventosa,Montengrão,39.0644400003221,-9.29972000016106,Desconhecida,48.0,2017-04-27T22:00,13.6,61,6.1,10.3,0.0,0.0,0.0,0.0,1,1010.6,1004.8,30,0,0,99,0.06,0.61,15.6,30.2,29,33,32.0,16.2,18.4,17.5,14.9,0.12,0.229,0.313,0.299,0,0.0,0.0,0.0,0.0,0.0,0.0,0.0,0.0,0.0,0.0,0.0,0.0,0.0,Vitis vinifera L.; Eucalyptus L'Hér.; Tracheophyta; Magnoliopsida; 
2017,2017-04-27,Lisboa,Arruda Dos Vinhos,Arranhó,A do Baço (Casal do Penedo do Mocho),38.9738899999195,-9.17,Desconhecida,309.0,2017-04-27T19:00,12.6,56,4.1,7.7,0.0,0.0,0.0,0.0,1,1009.8,973.3,29,0,0,98,0.12,0.64,24.1,39.8,3,6,48.6,17.5,16.8,15.8,13.3,0.133,0.228,0.308,0.295,1,2754.69,40.1,10.8,29.4,123.4,39.7,93.8,97.0,26.0,71.0,153.3,97.0,226.8,Tracheophyta; Magnoliopsida; Eucalyptus L'Hér.
2017,2017-04-27,Lisboa,Alenquer,Pereiro de Palhacana,Pereiro de Palhacana (PEREIRO DA PALHACANA),39.0438140000237,-9.11004199981689,Desconhecida,217.0,2017-04-27T18:00,16.7,45,4.8,12.3,0.0,0.0,0.0,0.0,1,1009.6,984.2,30,0,0,100,0.23,1.04,21.7,28.4,355,359,36.7,22.1,18.5,17.2,14.0,0.1,0.214,0.293,0.281,1,3600.0,224.8,152.1,72.7,574.2,224.8,357.6,306.0,207.0,99.0,574.2,306.0,486.9,Magnoliopsida; Vitis vinifera L.; Tracheophyta
2017,2017-04-27,Lisboa,Oeiras,Barcarena,Avenida Infante D Henrique (Tercena),38.7470649994744,-9.28406599998474,Desconhecida,100.0,2017-04-27T18:00,16.7,44,4.3,12.3,0.0,0.0,0.0,0.0,1,1009.4,997.6,30,0,0,100,0.22,1.07,21.1,32.1,351,356,44.3,19.4,17.4,16.8,14.7,0.197,0.255,0.327,0.337,1,3600.0,175.8,53.0,122.8,198.4,175.8,360.4,239.0,72.0,167.0,198.4,239.0,490.1,Tracheophyta; Magnoliopsida; Pinus pinea L.; Vitis vinifera L.; Eucalyptus L'Hér.; Olea europaea L.; Pinus pinaster Aiton
2017,2017-04-27,Lisboa,Alenquer,Pereiro de Palhacana,Bonvizinho,39.0373969999949,-9.10154800004429,Desconhecida,219.0,2017-04-27T16:00,19.2,28,0.2,15.2,0.0,0.0,0.0,0.0,1,1009.5,984.1,24,0,0,80,0.45,1.6,17.9,22.2,22,25,34.6,24.2,17.8,17.2,14.0,0.101,0.214,0.293,0.281,1,3600.0,617.2,488.0,129.2,784.4,617.2,840.2,688.0,544.0,144.0,784.4,688.0,936.6,Magnoliopsida; Tracheophyta; Vitis vinifera L.
2017,2017-04-27,Lisboa,Torres Vedras,Matacães,MATACÃES (Moinho Inácio),39.0944019995795,-9.20674800025092,Desconhecida,191.0,2017-04-27T14:00,19.3,28,0.3,17.1,0.0,0.0,0.0,0.0,1,1010.9,988.6,30,0,0,99,0.57,1.61,14.8,18.4,49,50,35.3,23.9,17.1,17.2,14.1,0.106,0.214,0.295,0.297,1,3600.0,897.7,751.5,146.2,880.7,897.7,1152.5,927.0,776.0,151.0,880.7,927.0,1190.1,Tracheophyta; Vitis vinifera L.; Eucalyptus L'Hér.; Magnoliopsida; Pinus pinaster Aiton; Olea europaea L.; 
2017,2017-04-27,Lisboa,Alenquer,Alenquer (Santo Estêvão),Pedra do Ouro (Ribeira Nova),39.0325,-9.03472000002861,Desconhecida,152.0,2017-04-27T14:00,19.5,28,0.3,17.0,0.0,0.0,0.0,0.0,0,1010.8,993.1,18,0,1,58,0.58,1.65,17.1,20.9,48,48,37.1,24.1,17.6,17.7,14.3,0.099,0.208,0.28,0.266,1,3600.0,908.1,783.2,124.9,918.0,908.1,1152.2,938.0,809.0,129.0,918.0,938.0,1190.2,Magnoliopsida; Olea europaea L.; Tracheophyta; Vitis vinifera L.
2017,2017-04-28,Lisboa,Alenquer,Carnota,Pedra do Ouro (Quinta da Borjana),39.0350910000006,-9.04433199988471,Desconhecida,163.0,2017-04-28T11:00,17.8,37,2.9,13.5,0.0,0.0,0.0,0.0,1,1010.8,991.7,33,24,18,3,0.43,1.28,22.4,28.6,84,84,45.4,19.5,16.8,17.5,14.3,0.1,0.207,0.279,0.266,1,3600.0,720.8,496.4,224.4,586.7,720.8,1142.3,681.0,469.0,212.0,586.7,681.0,1079.2,Magnoliopsida; Tracheophyta; Vitis vinifera L.
2017,2017-04-28,Lisboa,Alenquer,Olhalvo,OLHALVO (RELVA),39.0996979999542,-9.07521900018056,NC,124.0,2017-04-28T11:00,18.0,36,2.6,13.6,0.0,0.0,0.0,0.0,1,1010.9,996.3,35,24,22,0,0.45,1.32,24.3,30.4,84,85,48.6,19.9,17.1,17.9,14.7,0.102,0.203,0.275,0.272,1,3600.0,772.7,581.1,191.6,687.2,772.7,1141.6,730.0,549.0,181.0,687.2,730.0,1078.5,Tracheophyta; Vitis vinifera L.
2017,2017-04-28,Lisboa,Alenquer,Olhalvo,EN9 KM 87.1 (Quinta da Margem da Arada),39.0903619999356,-9.07677499983046,Desconhecida,78.0,2017-04-28T10:00,17.3,34,1.3,11.9,0.0,0.0,0.0,0.0,1,1011.1,1001.9,30,17,12,25,0.41,1.3,26.9,34.1,82,83,49.3,18.5,17.2,18.2,15.0,0.103,0.203,0.275,0.272,1,3600.0,721.4,586.1,135.3,787.0,721.4,1005.4,656.0,533.0,123.0,787.0,656.0,914.3,Tracheophyta; Vitis vinifera L.; Magnoliopsida; Pinales
2017,2017-04-28,Lisboa,Alenquer,Carnota,Santana da Carnota (Quinta da Pratra),39.0366160000695,-9.07900000042386,Desconhecida,210.0,2017-04-28T22:00,13.4,72,8.5,11.0,0.0,0.0,0.0,0.0,0,1011.9,986.9,16,6,17,0,0.03,0.42,14.1,23.6,93,98,28.4,17.1,18.6,17.1,14.2,0.092,0.209,0.289,0.281,0,0.0,0.0,0.0,0.0,0.0,0.0,0.0,0.0,0.0,0.0,0.0,0.0,0.0,Tracheophyta; Magnoliopsida; Vitis vinifera L.; Eucalyptus L'Hér.; Olea europaea L.
2017,2017-04-28,Lisboa,Alenquer,Alenquer (Triana),fiandal (Vale de Figueira),39.0681290000015,-9.03034799999661,Desconhecida,61.0,2017-04-28T22:00,14.4,71,9.3,12.7,0.0,0.0,0.0,0.0,0,1011.9,1004.6,8,4,7,0,0.02,0.47,10.1,18.4,88,94,21.6,18.0,19.7,18.2,15.0,0.092,0.205,0.277,0.266,0,0.0,0.0,0.0,0.0,0.0,0.0,0.0,0.0,0.0,0.0,0.0,0.0,0.0,Magnoliopsida; Tracheophyta; Vitis vinifera L.
2017,2017-04-28,Lisboa,Torres Vedras,Carvoeira,EN9 (Casal de São José),39.0725879997677,-9.19040799988641,Desconhecida,77.0,2017-04-28T21:00,14.8,68,9.0,12.7,0.0,0.0,0.0,0.0,0,1011.6,1002.4,11,2,16,0,0.04,0.53,12.6,22.1,93,96,34.2,19.0,19.7,18.1,14.9,0.092,0.205,0.277,0.266,0,0.0,0.0,0.0,0.0,0.0,0.0,0.0,0.0,0.0,0.0,0.0,0.0,0.0,Vitis vinifera L.; Magnoliopsida; Eucalyptus L'Hér.; Tracheophyta; Pinus pinea L.; 
2017,2017-04-28,Lisboa,Sintra,Colares,Rua dos Banagases (Vila Leitão),38.8354739999771,-9.45532700008816,Desconhecida,57.0,2017-04-28T20:00,16.2,61,8.7,14.9,0.0,0.0,0.0,0.0,1,1010.4,1003.6,49,29,38,0,0.05,0.72,6.5,12.0,360,46,14.0,18.3,18.2,16.9,14.9,0.162,0.246,0.327,0.352,0,0.0,0.0,0.0,0.0,0.0,0.0,0.0,5.0,1.0,4.0,13.7,5.0,39.4,Tracheophyta; Magnoliopsida; Pinus pinaster Aiton; Pinales; Pinus pinea L.; Eucalyptus L'Hér.; Vitis vinifera L.; Acacia Mill.; 
2017,2017-04-28,Lisboa,Alenquer,Abrigada,Bairro (BAIRRO SEGUNDO),39.1136690002018,-9.01644099977281,Desconhecida,165.0,2017-04-28T19:00,18.5,48,7.3,16.2,0.0,0.0,0.0,0.0,1,1009.5,990.2,28,1,45,0,0.11,1.1,11.4,17.0,79,86,20.9,21.1,19.2,17.6,14.4,0.092,0.2,0.273,0.272,1,3554.77,37.5,16.7,20.9,191.4,37.3,94.8,90.0,40.0,50.0,235.9,90.0,227.2,Magnoliopsida; Vitis vinifera L.; Olea europaea L.; Tracheophyta; Pinus pinaster Aiton; Eucalyptus L'Hér.
2017,2017-04-28,Lisboa,Alenquer,Meca,Bugarreos (Casal da Preza),39.0965219995711,-9.02085000011656,Desconhecida,194.0,2017-04-28T18:00,19.6,40,5.8,16.9,0.0,0.0,0.0,0.0,1,1009.3,986.8,25,2,39,0,0.19,1.36,11.5,14.4,86,90,27.4,22.1,19.0,17.4,14.3,0.092,0.2,0.273,0.272,1,3600.0,142.0,86.1,55.9,323.4,142.0,359.4,193.0,117.0,76.0,323.4,193.0,488.3,Tracheophyta; Magnoliopsida; Pinus pinaster Aiton; Pinus pinea L.
2017,2017-04-28,Lisboa,Alenquer,Alenquer (Triana),EN-1 (Quinta das Sete Pedras),39.0463110001882,-8.99018799993727,Desconhecida,15.0,2017-04-28T17:00,21.3,40,7.0,17.9,0.0,0.0,0.0,0.0,0,1009.4,1007.6,18,0,30,0,0.27,1.53,18.1,23.5,96,96,33.5,24.0,19.8,18.5,15.3,0.092,0.205,0.277,0.266,1,3600.0,210.1,97.5,112.6,214.3,210.1,613.8,250.0,116.0,134.0,214.3,250.0,730.5,Vitis vinifera L.; Tracheophyta; Magnoliopsida
2017,2017-04-29,Lisboa,Amadora,Brandoa,encosta da brandoa (Rua Machado de Castro),38.7723740000195,-9.21932399988174,Desconhecida,121.0,2017-04-29T20:00,13.0,59,5.2,9.8,0.0,0.0,0.0,0.0,3,1014.1,999.6,84,93,0,0,0.07,0.61,14.1,22.9,276,278,32.4,17.0,17.8,16.9,14.8,0.165,0.229,0.301,0.314,0,0.0,0.0,0.0,0.0,0.0,0.0,0.0,6.0,2.0,4.0,27.3,6.0,40.0,Tracheophyta; Magnoliopsida
2017,2017-04-29,Lisboa,Amadora,São Brás,Mina de Água (Rua São Clemente),38.7774379995134,-9.23690800004535,Desconhecida,228.0,2017-04-29T20:00,12.3,59,4.4,8.8,0.0,0.0,0.0,0.0,3,1014.2,987.0,88,98,0,0,0.07,0.59,14.8,24.3,276,278,34.9,15.7,16.5,15.7,13.9,0.186,0.249,0.322,0.337,0,0.0,0.0,0.0,0.0,0.0,0.0,0.0,6.0,2.0,4.0,27.0,6.0,41.0,Tracheophyta; Magnoliopsida
2017,2017-04-29,Lisboa,Alenquer,Olhalvo,Quinta da Mazarada (RELVA),39.0996979999542,-9.07521900018056,Desconhecida,124.0,2017-04-29T17:00,15.6,50,5.1,11.1,0.0,0.0,0.0,0.0,0,1012.6,997.9,6,0,0,20,0.3,0.89,22.7,28.2,281,281,43.9,23.5,18.9,17.7,14.8,0.092,0.198,0.272,0.272,1,3600.0,440.0,354.2,85.8,774.4,440.0,617.0,523.0,421.0,102.0,774.4,523.0,733.4,Tracheophyta; Vitis vinifera L.
2017,2017-04-29,Lisboa,Alenquer,Ribafria,Palaios,39.0544669999017,-9.09887600051032,Desconhecida,168.0,2017-04-29T16:00,15.5,52,5.6,11.7,0.0,0.0,0.0,0.0,0,1012.6,992.7,15,8,0,26,0.35,0.85,22.7,28.3,288,288,43.9,23.8,18.2,17.2,14.5,0.092,0.208,0.288,0.281,1,3600.0,609.7,484.0,125.7,772.2,609.7,845.6,679.0,539.0,140.0,772.2,679.0,941.7,Vitis vinifera L.; Tracheophyta; Magnoliopsida
2017,2017-04-29,Lisboa,Sobral de Monte Agraço,Sapataria,A8. km25 (Casal das Telheiras),38.9658299997118,-9.22306000020769,Desconhecida,187.0,2017-04-29T16:00,14.9,57,6.5,11.5,0.0,0.0,0.0,0.0,1,1012.9,990.7,23,18,0,22,0.33,0.73,21.0,26.7,292,291,44.6,21.2,17.1,16.3,14.2,0.122,0.223,0.304,0.294,1,3600.0,593.7,450.0,143.7,716.4,593.7,847.4,661.0,501.0,160.0,716.4,661.0,943.5,Tracheophyta; Vitis vinifera L.; Magnoliopsida
2017,2017-04-29,Lisboa,Torres Vedras,A Dos Cunhados,Casais do Vale da Borra,39.1645619996389,-9.27508799976773,Desconhecida,54.0,2017-04-29T15:00,16.0,56,7.2,13.9,0.0,0.0,0.0,0.0,0,1012.8,1006.4,10,8,0,9,0.42,0.8,19.7,24.3,291,291,39.6,22.4,17.3,16.7,14.7,0.128,0.236,0.32,0.32,1,3600.0,784.6,662.7,121.9,868.0,784.6,1030.0,837.0,707.0,130.0,868.0,837.0,1098.8,Eucalyptus L'Hér.; Tracheophyta; Vitis vinifera L.; Magnoliopsida; Pinus pinea L.; 
2017,2017-04-30,Lisboa,Alenquer,Meca,Vale Figueira (Csal Monteiro),39.0783299997118,-9.02944000032213,Desconhecida,170.0,2017-04-30T18:00,14.3,59,6.3,9.9,0.0,0.0,0.0,0.0,1,1017.8,997.5,25,28,0,0,0.18,0.67,24.0,31.7,324,324,49.3,19.3,17.9,17.1,14.5,0.107,0.203,0.277,0.266,1,3600.0,199.0,123.6,75.5,455.4,199.0,365.9,269.0,167.0,102.0,455.4,269.0,494.5,Tracheophyta; Magnoliopsida; Vitis vinifera L.
2017,2017-01-18,Lisboa,Torres Vedras,Runa,Runa,39.0732980002297,-9.21121699968974,Desconhecida,51.0,2017-01-18T15:00,8.3,41,-4.1,3.5,0.0,0.0,0.0,0.0,0,1020.0,1013.7,0,0,0,0,0.2,0.65,14.2,17.5,69,71,32.0,10.4,9.3,11.8,15.3,0.282,0.316,0.322,0.292,1,3600.0,400.0,324.7,75.3,832.8,400.0,550.9,446.0,362.0,84.0,832.8,446.0,614.2,Vitis vinifera L.; Eucalyptus L'Hér.; Magnoliopsida; Tracheophyta; 
2017,2017-05-02,Lisboa,Alenquer,Alenquer (Triana),Alenquer (Triana),39.05424200005,-9.00791800022125,Desconhecida,27.0,2017-05-02T21:00,16.6,45,4.5,12.9,0.0,0.0,0.0,0.0,1,1016.2,1013.0,21,0,0,71,0.1,1.05,16.1,28.5,331,339,29.5,20.9,21.1,17.9,15.5,0.09,0.198,0.273,0.266,0,0.0,0.0,0.0,0.0,0.0,0.0,0.0,0.0,0.0,0.0,0.0,0.0,0.0,Magnoliopsida; Tracheophyta
2017,2017-05-02,Lisboa,Amadora,São Brás,Casal Fonte Santa (Rua Monte Carlo),38.7954969999525,-9.23844500011868,Desconhecida,216.0,2017-05-02T14:00,22.7,31,4.7,23.2,0.0,0.0,0.0,0.0,0,1017.1,992.1,0,0,0,1,0.61,1.9,5.2,6.0,295,303,18.4,22.2,15.7,15.3,14.1,0.198,0.245,0.317,0.336,1,3600.0,919.6,802.3,117.2,925.3,919.6,1168.0,949.0,828.0,121.0,925.3,949.0,1205.4,Magnoliopsida; Tracheophyta; Eucalyptus L'Hér.
2017,2017-01-01,Lisboa,Torres Vedras,Monte Redondo,MONTE REDONDO,39.1157530000475,-9.19798999998305,Desconhecida,115.0,2017-01-01T14:00,11.0,80,7.7,7.9,0.0,0.0,0.0,0.0,3,1022.4,1008.4,82,62,5,78,0.11,0.26,16.8,22.7,132,133,32.0,10.0,9.0,11.9,16.3,0.295,0.315,0.305,0.291,1,3334.51,208.2,72.9,135.4,171.2,208.2,602.4,220.0,77.0,143.0,171.2,220.0,636.4,Eucalyptus L'Hér.; Tracheophyta; Magnoliopsida; Vitis vinifera L.; Pinales; Pinus pinaster Aiton; 
2017,2017-05-03,Lisboa,Alenquer,Abrigada,Bairro (Casais da Assunção),39.1291289997101,-9.01850200004048,Desconhecida,99.0,2017-05-03T09:00,20.9,42,7.5,18.4,0.0,0.0,0.0,0.0,0,1013.2,1001.6,20,0,0,66,0.34,1.43,12.8,15.3,100,99,26.3,19.4,18.2,17.6,15.2,0.07,0.19,0.265,0.271,1,3600.0,586.7,477.0,109.7,771.3,586.7,832.7,508.0,413.0,95.0,771.3,508.0,721.0,Magnoliopsida; Tracheophyta; Vitis vinifera L.; Pinus pinaster Aiton; Olea europaea L.
2017,2017-05-03,Lisboa,Alenquer,Carnota,Vale Reis (Quinta da Pratra),39.0375,-9.08443999999099,Desconhecida,229.0,2017-05-03T00:00,13.6,40,0.1,10.2,0.0,0.0,0.0,0.0,0,1015.1,987.8,0,0,0,0,0.06,0.94,9.0,23.7,358,9,14.8,16.2,18.9,16.5,14.3,0.075,0.201,0.283,0.281,0,0.0,0.0,0.0,0.0,0.0,0.0,0.0,0.0,0.0,0.0,0.0,0.0,0.0,Tracheophyta; Magnoliopsida; Vitis vinifera L.
2017,2017-05-03,Lisboa,Alenquer,Alenquer (Triana),Camarnal (Quinta da Pontinha),39.0591700002882,-8.99027999983893,Desconhecida,19.0,2017-05-03T00:00,15.6,38,1.1,12.2,0.0,0.0,0.0,0.0,0,1015.0,1012.7,0,0,0,0,0.07,1.11,10.0,22.3,339,359,18.0,18.2,20.6,18.0,15.6,0.07,0.195,0.271,0.266,0,0.0,0.0,0.0,0.0,0.0,0.0,0.0,0.0,0.0,0.0,0.0,0.0,0.0,Vitis vinifera L.; Tracheophyta
2017,2017-05-03,Lisboa,Alenquer,Cadafais,CADAFAIS,39.0065790001551,-9.00356100002925,Desconhecida,35.0,2017-05-03T00:00,15.4,39,1.5,12.1,0.0,0.0,0.0,0.0,0,1015.1,1010.9,0,0,0,0,0.07,1.07,10.0,21.6,339,358,19.1,18.0,19.9,17.7,15.5,0.184,0.316,0.372,0.328,0,0.0,0.0,0.0,0.0,0.0,0.0,0.0,0.0,0.0,0.0,0.0,0.0,0.0,Tracheophyta; Magnoliopsida; Vitis vinifera L.; Pinus pinaster Aiton
2017,2017-05-03,Lisboa,Torres Vedras,Dois Portos,Furadouro,39.0309799999661,-9.20941800011529,Desconhecida,193.0,2017-05-03T22:00,15.8,78,11.9,15.9,0.0,0.0,0.0,0.0,1,1009.5,986.8,27,0,0,91,0.0,0.4,3.6,5.6,84,40,5.8,19.0,20.2,16.2,14.2,0.1,0.215,0.3,0.299,0,0.0,0.0,0.0,0.0,0.0,0.0,0.0,0.0,0.0,0.0,0.0,0.0,0.0,Vitis vinifera L.; Eucalyptus L'Hér.; Magnoliopsida; Tracheophyta; 
2017,2017-05-03,Lisboa,Amadora,São Brás,Fonte Santa (Fonte das Avencas),38.7900270001094,-9.23461199998856,Desconhecida,262.0,2017-05-03T21:00,15.7,66,9.4,14.4,0.0,0.0,0.0,0.0,1,1010.0,979.3,26,0,0,87,0.02,0.6,7.9,12.4,357,334,16.2,18.8,19.0,15.3,13.9,0.173,0.239,0.313,0.336,0,0.0,0.0,0.0,0.0,0.0,0.0,0.0,0.0,0.0,0.0,0.0,0.0,0.0,Tracheophyta; Magnoliopsida; Eucalyptus L'Hér.
2017,2017-05-03,Lisboa,Alenquer,Abrigada,IC-2 (IC2 (IC2) Km 52),39.1827799998389,-9.00472000016106,Desconhecida,162.0,2017-05-03T12:00,26.5,30,7.5,26.6,0.0,0.0,0.0,0.0,1,1011.6,993.1,25,0,0,84,0.65,2.43,9.7,11.8,141,140,30.6,27.2,18.2,17.0,14.7,0.084,0.189,0.26,0.276,1,3600.0,936.0,788.3,147.6,866.1,936.0,1225.6,913.0,769.0,144.0,866.1,913.0,1195.5,Magnoliopsida; Eucalyptus L'Hér.
2017,2017-05-04,Lisboa,Alenquer,Alenquer (Triana),Bemposta,39.0581950002246,-8.96607099956936,Desconhecida,24.0,2017-05-04T22:00,16.8,86,14.5,16.5,0.0,0.0,0.0,0.0,2,1005.8,1003.0,78,24,48,93,0.01,0.27,12.2,19.1,178,183,20.9,20.8,22.6,18.6,15.7,0.07,0.191,0.267,0.265,0,0.0,0.0,0.0,0.0,0.0,0.0,0.0,0.0,0.0,0.0,0.0,0.0,0.0,Vitis vinifera L.; Magnoliopsida; Eucalyptus L'Hér.; Tracheophyta
2017,2017-01-19,Lisboa,Alenquer,Meca,MECA,39.083814999991,-9.03340300000376,Desconhecida,137.0,2017-01-19T19:00,4.0,69,-1.2,0.1,0.0,0.0,0.0,0.0,0,1019.5,1002.5,0,0,0,0,0.02,0.25,11.3,24.1,333,350,20.9,5.6,6.9,10.4,14.6,0.266,0.301,0.278,0.266,0,0.0,0.0,0.0,0.0,0.0,0.0,0.0,0.0,0.0,0.0,0.0,0.0,0.0,Magnoliopsida; Tracheophyta; Vitis vinifera L.
2017,2017-05-07,Lisboa,Alenquer,Alenquer (Triana),Alto da boavista (Boa Vista),39.0644400003221,-9.00556000020769,Desconhecida,93.0,2017-05-07T21:00,18.4,65,11.6,16.6,0.0,0.0,0.0,0.0,0,1016.5,1005.5,0,0,0,0,0.06,0.75,15.8,30.4,333,343,29.2,20.9,21.2,18.1,15.4,0.159,0.19,0.265,0.265,0,0.0,0.0,0.0,0.0,0.0,0.0,0.0,0.0,0.0,0.0,0.0,0.0,0.0,Tracheophyta; Magnoliopsida
2017,2017-01-19,Lisboa,Mafra,Milharado,Jerumelo (Jeromelo),38.9550489997864,-9.23826000001695,Desconhecida,242.0,2017-01-19T15:00,7.8,48,-2.6,3.3,0.0,0.0,0.0,0.0,0,1019.8,990.3,0,0,0,0,0.19,0.56,14.0,17.9,348,351,32.0,8.5,6.3,10.3,14.1,0.271,0.307,0.309,0.292,1,3600.0,404.9,331.3,73.6,840.3,404.9,557.1,451.0,369.0,82.0,840.3,451.0,620.4,Tracheophyta; Eucalyptus L'Hér.; Magnoliopsida
2017,2017-05-08,Lisboa,Torres Vedras,Maxial,FOLGOROSA,39.1358989999029,-9.16128499984741,Desconhecida,229.0,2017-05-08T16:00,21.8,59,13.6,21.7,0.0,0.0,0.0,0.0,1,1014.4,987.9,22,0,0,72,0.42,1.06,13.8,16.6,298,300,31.3,26.3,20.3,17.1,14.5,0.164,0.198,0.276,0.296,1,3600.0,620.3,493.2,127.1,763.4,620.3,867.6,688.0,547.0,141.0,763.4,688.0,962.3,Eucalyptus L'Hér.; Tracheophyta; Magnoliopsida; Vitis vinifera L.; Pinales; Pinus pinaster Aiton; 
2017,2017-05-08,Lisboa,Oeiras,Oeiras e São Julião da Barra,A-5 CSC - LX Km11 (A5-A5 Km 12),38.7130599996779,-9.3025,Desconhecida,68.0,2017-05-08T16:00,22.9,56,13.7,23.6,0.0,0.0,0.0,0.0,1,1014.2,1006.3,21,0,0,71,0.44,1.22,9.0,10.8,299,307,24.5,25.0,20.3,17.5,15.7,0.254,0.246,0.299,0.279,1,3600.0,625.8,503.2,122.6,775.5,625.8,871.4,694.0,558.0,136.0,775.5,694.0,966.3,Pinus pinea L.; Magnoliopsida; Tracheophyta; Vitis vinifera L.; Eucalyptus L'Hér.; Olea europaea L.; Pinus pinaster Aiton
2017,2017-05-15,Lisboa,Sobral de Monte Agraço,Santo Quintino,Pontes de Monfalim (Quinta do Paço),39.0016700000233,-9.12306000020769,Desconhecida,240.0,2017-05-15T20:00,18.3,79,14.6,17.4,0.0,0.0,0.0,0.0,1,1024.4,996.1,33,0,5,100,0.05,0.45,16.7,29.2,327,336,30.6,21.3,20.5,17.0,15.1,0.228,0.231,0.258,0.235,0,0.0,0.0,0.0,0.0,0.0,0.0,0.0,17.0,3.0,14.0,31.4,17.0,69.0,Magnoliopsida; Vitis vinifera L.; Pinus pinaster Aiton
2017,2017-05-17,Lisboa,Oeiras,Queijas,Rua Marquês Sá da Bandeira (Linda a Pastora),38.720378999975,-9.26430699984233,Desconhecida,92.0,2017-05-17T02:00,17.6,72,12.5,15.4,0.0,0.0,0.0,0.0,1,1019.5,1008.5,37,0,26,71,0.06,0.56,20.2,37.1,356,357,39.2,20.0,21.0,17.8,15.9,0.337,0.359,0.329,0.279,0,0.0,0.0,0.0,0.0,0.0,0.0,0.0,0.0,0.0,0.0,0.0,0.0,0.0,Tracheophyta; Magnoliopsida; Pinus pinea L.; Vitis vinifera L.; Eucalyptus L'Hér.; Olea europaea L.; Pinus pinaster Aiton
2017,2017-05-17,Lisboa,Sintra,Sintra (Santa Maria e São Miguel),SINTRA (Monte Santos),38.8058129999373,-9.38789899984996,Desconhecida,151.0,2017-05-17T15:00,19.1,79,15.3,17.7,0.0,0.0,0.0,0.0,1,1019.8,1002.0,33,37,0,0,0.38,0.47,30.8,42.4,349,350,61.2,22.9,19.8,17.1,15.1,0.315,0.348,0.321,0.349,1,3600.0,797.9,682.1,115.7,853.9,797.9,1068.6,848.0,725.0,123.0,853.9,848.0,1135.8,Tracheophyta; Magnoliopsida
2017,2017-05-17,Lisboa,Arruda Dos Vinhos,Arranhó,A dos Arcos,38.98,-9.13082999971178,NC,272.0,2017-05-17T18:00,15.9,81,12.6,12.4,0.0,0.0,0.0,0.0,0,1019.6,987.4,10,11,0,0,0.15,0.35,29.8,41.5,337,338,58.3,22.5,21.1,17.4,15.0,0.167,0.225,0.254,0.235,1,3600.0,229.9,152.0,77.9,482.9,229.9,421.0,298.0,197.0,101.0,482.9,298.0,545.6,Vitis vinifera L.; Magnoliopsida; Tracheophyta
2017,2017-05-18,Lisboa,Cascais,São Domingos de Rana,Avenida Luis Marcelino (Casal do Cacanito),38.7311999999152,-9.34264000044929,Desconhecida,112.0,2017-05-18T07:00,14.2,68,8.4,10.2,0.0,0.0,0.0,0.0,1,1021.6,1008.1,35,39,0,0,0.11,0.51,24.1,36.2,350,350,49.7,16.1,18.3,18.1,15.8,0.326,0.348,0.329,0.279,1,3600.0,176.8,86.2,90.6,293.3,176.8,392.9,119.0,58.0,61.0,293.3,119.0,264.5,Tracheophyta
2017,2017-05-18,Lisboa,Lourinhã,Moita Dos Ferreiros,casal novo (Vale Grande),39.2334119999988,-9.19795699967278,Desconhecida,144.0,2017-05-18T14:00,16.7,57,8.2,13.5,0.0,0.0,0.0,0.0,2,1022.9,1005.7,68,75,0,0,0.43,0.81,28.1,38.5,351,352,59.8,19.8,17.4,17.1,15.0,0.165,0.207,0.182,0.217,1,3600.0,847.9,611.2,236.7,686.5,847.9,1190.5,874.0,630.0,244.0,686.5,874.0,1227.1,Vitis vinifera L.; Pinus pinea L.; Eucalyptus L'Hér.; Tracheophyta; Magnoliopsida; 
2017,2017-05-19,Lisboa,Sintra,Algueirão-mem Martins,Tapada das Mercês (Pinhal do Escôlo),38.8008299999767,-9.32722000016106,Desconhecida,205.0,2017-05-19T11:00,17.7,52,7.6,15.3,0.0,0.0,0.0,0.0,0,1023.0,998.7,0,0,0,0,0.46,0.98,22.4,31.6,6,8,51.5,17.6,15.6,16.8,14.8,0.307,0.337,0.326,0.334,1,3600.0,913.1,788.7,124.4,890.8,913.1,1183.4,866.0,748.0,118.0,890.8,866.0,1122.3,Tracheophyta; Magnoliopsida; Pinales; 
2017,2017-05-19,Lisboa,Sintra,Terrugem,Campo Raso (Estação de Tratamento de Esgotos),38.8272200001611,-9.35194000005722,Desconhecida,135.0,2017-05-19T11:00,17.7,54,8.4,14.9,0.0,0.0,0.0,0.0,0,1023.2,1007.1,0,0,0,0,0.45,0.92,26.0,35.2,6,7,53.3,17.9,15.9,17.2,15.3,0.294,0.333,0.32,0.348,1,3600.0,908.9,779.2,129.7,880.5,908.9,1182.8,862.0,739.0,123.0,880.5,862.0,1121.8,Tracheophyta; Magnoliopsida; Pinus pinaster Aiton; Pinus pinea L.; Vitis vinifera L.; Pinales; Olea europaea L.; 
2017,2017-05-19,Lisboa,Torres Vedras,A Dos Cunhados,Casal das Palhagueiras,39.1317730002933,-9.3115630001492,Desconhecida,96.0,2017-05-19T04:00,12.2,65,5.8,8.7,0.0,0.0,0.0,0.0,0,1022.7,1011.0,0,0,0,0,0.05,0.5,17.2,31.8,16,13,34.2,13.7,16.7,17.6,15.5,0.253,0.315,0.291,0.297,0,0.0,0.0,0.0,0.0,0.0,0.0,0.0,0.0,0.0,0.0,0.0,0.0,0.0,Eucalyptus L'Hér.; Tracheophyta; Vitis vinifera L.; Magnoliopsida; Pinus pinea L.; 
2017,2017-05-19,Lisboa,Sobral de Monte Agraço,Sobral de Monte Agraço,SOBRAL (MONTIJO),39.0223719999525,-9.13890300008986,Desconhecida,311.0,2017-05-19T13:00,18.0,52,8.0,16.1,0.0,0.0,0.0,0.0,0,1022.9,986.4,9,10,0,0,0.51,0.99,23.1,28.8,358,359,43.9,21.9,16.6,17.0,14.7,0.14,0.218,0.265,0.279,1,3600.0,976.0,844.4,131.6,898.8,976.0,1255.6,979.0,847.0,132.0,898.8,979.0,1259.5,Tracheophyta; Vitis vinifera L.; Magnoliopsida
2017,2017-05-20,Lisboa,Torres Vedras,Dois Portos,Caixaria,39.0499879995982,-9.19931099997626,Desconhecida,126.0,2017-05-20T21:00,19.2,75,14.6,18.9,0.0,0.0,0.0,0.0,1,1013.6,998.8,30,0,0,100,0.03,0.56,12.5,27.7,44,46,22.7,20.2,20.1,17.5,15.5,0.173,0.272,0.286,0.297,0,0.0,0.0,0.0,0.0,0.0,0.0,0.0,0.0,0.0,0.0,0.0,0.0,0.0,Vitis vinifera L.; Eucalyptus L'Hér.; Magnoliopsida; Tracheophyta; 
2017,2017-05-20,Lisboa,Sintra,Rio de Mouro,Casais de Mem Martins,38.7874450000127,-9.33578899992837,Desconhecida,180.0,2017-05-20T15:00,27.0,30,8.0,27.8,0.0,0.0,0.0,0.0,1,1016.4,995.8,30,0,0,100,0.6,2.5,4.5,6.6,29,41,19.1,24.2,17.9,16.8,15.1,0.285,0.325,0.324,0.334,1,3600.0,805.8,601.6,204.3,748.6,805.8,1073.6,856.0,639.0,217.0,748.6,856.0,1140.4,Tracheophyta; Magnoliopsida; Pinales; 
2017,2017-05-22,Lisboa,Azambuja,Vila Nova da Rainha,VILA NOVA DA RAINHA,39.0370539999008,-8.92940599971347,Desconhecida,12.0,2017-05-22T11:00,25.5,52,15.0,27.5,0.0,0.0,0.0,0.0,0,1016.9,1015.5,12,13,0,0,0.55,1.56,8.6,10.4,358,358,22.7,26.1,21.8,19.0,16.3,0.236,0.348,0.372,0.366,1,3600.0,856.0,720.2,135.8,809.5,856.0,1187.7,813.0,684.0,129.0,809.5,813.0,1128.0,Oryza sativa L.; Tracheophyta; Magnoliopsida
2017,2017-05-22,Lisboa,Mafra,Cheleiros,Carvalhal,38.9067289998796,-9.36778900000784,Desconhecida,36.0,2017-05-22T14:00,20.4,71,15.0,20.6,0.0,0.0,0.0,0.0,0,1018.2,1013.9,0,0,0,0,0.49,0.7,23.2,28.4,348,351,42.1,26.5,21.3,18.6,16.4,0.166,0.284,0.308,0.343,1,3600.0,924.2,813.6,110.7,905.7,924.2,1199.1,952.0,838.0,114.0,905.7,952.0,1235.1,Pinus pinaster Aiton; Tracheophyta; Eucalyptus L'Hér.; Magnoliopsida
2017,2017-05-23,Lisboa,Torres Vedras,Monte Redondo,Ameal (OURAÇAS),39.1257019996643,-9.22188600010342,Desconhecida,105.0,2017-05-23T13:00,28.1,62,20.3,33.2,0.0,0.0,0.0,0.0,0,1014.1,1002.1,0,0,0,0,0.67,1.43,9.2,10.2,318,328,21.6,28.3,20.4,18.1,15.7,0.166,0.27,0.285,0.296,1,3600.0,961.4,839.8,121.7,889.6,961.4,1259.6,964.0,842.0,122.0,889.6,964.0,1263.0,Eucalyptus L'Hér.; Tracheophyta; Magnoliopsida; Vitis vinifera L.; Pinales; Pinus pinaster Aiton; 
2017,2017-05-23,Lisboa,Torres Vedras,Turcifal,Melroeira,39.0314449999068,-9.25561800003052,Desconhecida,79.0,2017-05-23T13:00,29.9,45,16.5,33.9,0.0,0.0,0.0,0.0,0,1014.2,1005.2,0,0,0,0,0.71,2.33,5.9,6.6,308,319,16.9,29.8,21.1,18.6,16.0,0.133,0.25,0.28,0.297,1,3600.0,962.4,838.7,123.7,888.2,962.4,1260.1,965.0,841.0,124.0,888.2,965.0,1263.5,Tracheophyta; Castanea sativa Mill.; Vitis vinifera L.; Magnoliopsida; Pinales; Eucalyptus L'Hér.; 
2017,2017-05-23,Lisboa,Azambuja,Alcoentre,Casais das Boiças (Casais Vale Vigário),39.1901679997974,-8.96867699993981,Desconhecida,91.0,2017-05-23T15:00,33.9,22,9.5,34.2,0.0,0.0,0.0,0.0,0,1012.8,1002.6,1,0,1,0,0.7,4.1,9.0,11.2,106,105,23.4,34.5,23.6,19.4,16.3,0.096,0.21,0.237,0.267,1,3600.0,807.7,697.5,110.1,868.4,807.7,1071.8,858.0,741.0,117.0,868.4,858.0,1138.6,Tracheophyta; Eucalyptus L'Hér.
2017,2017-05-23,Lisboa,Vila Franca de Xira,Castanheira do Ribatejo,Castanheira do Ribatejo (Areias de Baixo),38.9804579999712,-8.973761999872,Desconhecida,3.0,2017-05-23T15:00,34.3,26,11.8,35.7,0.0,0.0,0.0,0.0,0,1012.7,1012.4,8,0,14,0,0.67,4.02,6.3,7.4,13,23,19.4,32.3,23.2,19.5,16.7,0.216,0.34,0.364,0.327,1,3600.0,794.6,682.5,112.0,848.3,794.6,1073.7,844.0,725.0,119.0,848.3,844.0,1140.5,Pinus pinea L.; Magnoliopsida; Tracheophyta; Vitis vinifera L.; Eucalyptus L'Hér.; Olea europaea L.; Pinus pinaster Aiton; 
2017,2017-05-23,Lisboa,Azambuja,Alcoentre,Casais das Boiças (Casais Vale Vigário),39.1901269997491,-8.96838800006443,Desconhecida,91.0,2017-05-23T17:00,30.4,51,19.0,30.6,0.0,0.0,0.0,0.0,0,1012.3,1002.0,2,0,3,0,0.46,2.13,21.4,27.3,316,320,37.1,34.0,24.7,19.4,16.3,0.095,0.209,0.236,0.267,1,3600.0,452.6,365.9,86.7,720.0,452.6,678.0,527.0,426.0,101.0,720.0,527.0,789.5,Tracheophyta; Eucalyptus L'Hér.
2017,2017-05-23,Lisboa,Lisboa,Marvila,Azinhaga das Salgadas (Marvila),38.7391040001975,-9.11070999993218,Desconhecida,39.0,2017-05-23T19:00,25.9,57,16.6,26.2,0.0,0.0,0.0,0.0,0,1012.7,1008.2,0,0,0,1,0.18,1.46,14.3,28.2,321,333,37.1,26.5,23.4,19.0,16.4,0.229,0.283,0.284,0.311,1,3600.0,100.6,67.4,33.1,488.8,100.6,184.1,170.0,114.0,56.0,488.8,170.0,311.2,Tracheophyta; Magnoliopsida
2017,2017-05-23,Lisboa,Alenquer,Alenquer (Triana),Casal de Santo Antonio (Triana),39.05424200005,-9.00791800022125,Desconhecida,27.0,2017-05-23T22:00,22.3,65,15.3,21.2,0.0,0.0,0.0,0.0,0,1013.8,1010.6,0,0,0,0,0.09,0.95,19.6,32.9,296,305,36.4,25.3,25.4,20.0,16.8,0.093,0.215,0.255,0.263,0,0.0,0.0,0.0,0.0,0.0,0.0,0.0,0.0,0.0,0.0,0.0,0.0,0.0,Magnoliopsida; Tracheophyta
2017,2017-01-20,Lisboa,Cadaval,Cercal,Malhada de Touros (Cabeço do Marco),39.2190949998962,-9.02561699973212,Desconhecida,278.0,2017-01-20T15:00,9.3,55,0.8,6.0,0.0,0.0,0.0,0.0,0,1017.2,983.7,17,17,3,0,0.19,0.52,8.4,10.1,65,63,22.0,8.4,4.5,8.9,13.5,0.274,0.306,0.305,0.276,1,3600.0,385.9,313.2,72.7,795.6,385.9,556.1,430.0,349.0,81.0,795.6,430.0,619.6,Eucalyptus L'Hér.; Magnoliopsida; Tracheophyta; Pinales; Vitis vinifera L.; Olea europaea L.; Pinus pinaster Aiton; Castanea sativa Mill.; 
2017,2017-05-24,Lisboa,Amadora,Mina,Av. Fernando Vale (Casal de Vila Chã),38.7674470000135,-9.23849100006951,Desconhecida,171.0,2017-05-24T12:00,26.4,53,16.0,29.5,0.0,0.0,0.0,0.0,1,1015.1,995.5,42,0,38,63,0.63,1.62,7.9,10.4,196,200,24.1,25.9,21.3,18.5,15.6,0.224,0.279,0.283,0.311,1,3600.0,937.0,796.7,140.3,844.2,937.0,1258.8,915.0,778.0,137.0,844.2,915.0,1229.3,Tracheophyta; Magnoliopsida; Eucalyptus L'Hér.; 
2017,2017-01-21,Lisboa,Torres Vedras,Maxial,MAXIAL (Vala da Aberta),39.1393049997754,-9.18331000010173,Desconhecida,61.0,2017-01-21T20:00,6.6,87,4.6,4.1,0.0,0.0,0.0,0.0,0,1021.4,1013.8,0,0,0,0,0.0,0.13,8.4,19.7,353,352,15.8,7.4,8.6,10.2,14.9,0.272,0.306,0.319,0.292,0,0.0,0.0,0.0,0.0,0.0,0.0,0.0,0.0,0.0,0.0,0.0,0.0,0.0,Eucalyptus L'Hér.; Tracheophyta; Magnoliopsida; Vitis vinifera L.; Pinales; Pinus pinaster Aiton; 
2017,2017-05-25,Lisboa,Sintra,Rio de Mouro,Rua Particular (IC19 (IC19) Km 13),38.7793260002136,-9.32619800037808,Desconhecida,125.0,2017-05-25T17:00,21.8,71,16.4,21.2,0.0,0.0,0.0,0.0,0,1012.3,997.8,0,0,0,0,0.32,0.75,19.4,27.1,338,341,42.8,25.5,22.5,18.8,15.7,0.235,0.288,0.319,0.333,1,3600.0,473.4,389.1,84.4,753.7,473.4,688.3,550.0,452.0,98.0,753.7,550.0,799.6,Tracheophyta; Magnoliopsida; Pinales; 
2017,2017-05-25,Lisboa,Sintra,Terrugem,rua do paço (Vila Verde),38.8321890004476,-9.37669100019667,Desconhecida,154.0,2017-05-25T18:00,19.7,79,16.0,18.9,0.0,0.0,0.0,0.0,0,1012.4,994.4,0,0,0,0,0.2,0.48,19.4,27.4,342,343,40.3,24.2,22.2,18.4,15.5,0.209,0.282,0.312,0.347,1,3600.0,282.1,218.6,63.5,654.2,282.1,445.6,360.0,279.0,81.0,654.2,360.0,568.7,Tracheophyta; Magnoliopsida; Pinus pinaster Aiton; Pinus pinea L.; Vitis vinifera L.; Pinales; Olea europaea L.; 
2017,2017-05-25,Lisboa,Mafra,Milharado,Vale de São Gião (Forte dos Outeirinhos),38.9169400000076,-9.2002800000045,Desconhecida,199.0,2017-05-25T19:00,19.1,80,15.6,18.0,0.0,0.0,0.0,0.0,0,1012.3,989.1,1,0,1,0,0.11,0.43,20.3,29.0,330,333,40.0,25.9,24.3,19.3,15.7,0.112,0.236,0.279,0.302,1,3600.0,103.0,68.7,34.3,478.1,103.0,191.5,171.0,114.0,57.0,478.1,171.0,318.0,Magnoliopsida; Tracheophyta; Pinus pinea L.; Pinus pinaster Aiton
2017,2017-05-27,Lisboa,Torres Vedras,Torres Vedras (Santa Maria do Castelo e São Miguel),Ribeira de Pedrulhos,39.0826850001017,-9.30740500026279,Desconhecida,16.0,2017-05-27T03:00,16.9,91,15.4,16.9,0.0,0.0,0.0,0.0,3,1013.5,1011.6,86,60,4,100,0.0,0.18,12.6,19.2,347,352,20.9,19.0,21.1,19.5,16.5,0.168,0.264,0.307,0.347,0,0.0,0.0,0.0,0.0,0.0,0.0,0.0,0.0,0.0,0.0,0.0,0.0,0.0,Magnoliopsida; Vitis vinifera L.; Tracheophyta
2017,2017-05-28,Lisboa,Sintra,Monte Abraão,Rua Antonio Nobre (Queluz),38.7664750003815,-9.26026499960158,Desconhecida,174.0,2017-05-28T11:00,19.5,69,13.6,17.5,0.0,0.0,0.0,0.0,1,1015.8,995.4,50,55,0,0,0.31,0.71,21.7,29.7,199,199,47.2,19.9,19.0,19.2,15.9,0.226,0.265,0.284,0.31,1,3600.0,539.3,307.6,231.7,343.7,539.3,1191.9,512.0,292.0,220.0,343.7,512.0,1131.6,Tracheophyta; Magnoliopsida; 
2017,2017-05-31,Lisboa,Alenquer,Alenquer (Triana),Passinha,39.0441700002882,-8.97306000020769,Desconhecida,23.0,2017-05-31T02:00,15.8,93,14.7,14.8,0.0,0.0,0.0,0.0,0,1017.7,1014.9,4,4,0,0,0.0,0.12,17.9,31.7,326,332,31.0,18.4,21.6,21.0,17.4,0.138,0.202,0.251,0.263,0,0.0,0.0,0.0,0.0,0.0,0.0,0.0,0.0,0.0,0.0,0.0,0.0,0.0,Tracheophyta; Vitis vinifera L.; Magnoliopsida
2017,2017-06-01,Lisboa,Alenquer,Abrigada,Cabeço do Melo (IC2 - Km 52),39.1822200001611,-9.00527999983894,Desconhecida,155.0,2017-06-01T19:00,16.7,80,13.2,14.1,0.0,0.0,0.0,0.0,1,1018.6,1000.2,24,24,0,8,0.11,0.38,24.5,33.8,338,339,57.2,23.4,22.7,19.9,16.7,0.128,0.204,0.241,0.273,1,3600.0,114.6,75.1,39.4,478.5,114.6,208.9,183.0,120.0,63.0,478.5,183.0,333.6,Magnoliopsida; Eucalyptus L'Hér.
2017,2017-06-02,Lisboa,Vila Franca de Xira,Castanheira do Ribatejo,Serra dos Quatro Caminhos (Areias de Baixo),38.9866129999691,-8.97558499972026,Desconhecida,39.0,2017-06-02T10:00,22.8,53,12.6,21.3,0.0,0.0,0.0,0.0,0,1018.0,1013.4,9,0,0,31,0.47,1.31,21.5,28.2,342,343,43.9,22.5,20.8,20.5,17.1,0.22,0.322,0.361,0.327,1,3600.0,790.9,665.8,125.1,831.0,790.9,1065.4,727.0,612.0,115.0,831.0,727.0,979.4,Pinus pinea L.; Magnoliopsida; Tracheophyta; Vitis vinifera L.; Eucalyptus L'Hér.; Olea europaea L.; Pinus pinaster Aiton; 
2017,2017-06-02,Lisboa,Cascais,São Domingos de Rana,Rua da Liberdade (Alfire),38.709132999844,-9.3418089999093,Desconhecida,86.0,2017-06-02T16:00,21.3,67,14.8,19.6,0.0,0.0,0.0,0.0,0,1017.9,1007.8,9,0,0,31,0.41,0.84,28.1,39.1,337,340,60.8,24.5,20.9,19.3,16.9,0.234,0.269,0.309,0.279,1,3600.0,668.0,567.9,100.1,823.5,668.0,917.1,734.0,624.0,110.0,823.5,734.0,1007.6,Tracheophyta; Magnoliopsida
2017,2017-06-03,Lisboa,Vila Franca de Xira,Calhandriz,SINAIS (Casal Vila Quente),38.9359910000695,-9.0465210003323,Desconhecida,279.0,2017-06-03T15:00,19.4,50,8.7,15.9,0.0,0.0,0.0,0.0,1,1019.7,987.1,29,0,0,95,0.49,1.13,31.1,41.9,342,342,62.6,25.2,20.7,19.9,15.8,0.096,0.192,0.231,0.025,1,3600.0,826.6,678.5,148.2,828.8,826.6,1088.4,876.0,719.0,157.0,828.8,876.0,1153.4,Magnoliopsida; Tracheophyta; Pinus pinaster Aiton; Vitis vinifera L.; Olea europaea L.; Eucalyptus L'Hér.; Pinales; 
2017,2017-01-22,Lisboa,Loures,Bucelas,Serra da Alrota (Casal do Mato),38.9328439998627,-9.1281059996287,Desconhecida,278.0,2017-01-22T15:00,11.5,60,4.0,6.9,0.0,0.0,0.0,0.0,1,1020.1,986.7,23,23,4,0,0.19,0.54,21.4,29.6,340,342,40.3,10.9,7.9,9.2,13.7,0.272,0.305,0.324,0.297,1,3600.0,354.0,254.9,99.1,627.5,354.0,573.6,393.0,283.0,110.0,627.5,393.0,636.9,Magnoliopsida; Tracheophyta; Olea europaea L.; Pinus pinea L.; Pinus pinaster Aiton; Eucalyptus L'Hér.; Vitis vinifera L.; 
2017,2017-06-04,Lisboa,Alenquer,Carregado,Qta Brandão (Rio Alenquer),39.0295850001441,-8.93570999993218,Desconhecida,2.0,2017-06-04T00:00,15.7,77,11.6,12.8,0.0,0.0,0.0,0.0,0,1020.0,1019.8,14,1,0,44,0.05,0.41,23.2,38.1,334,337,40.7,18.7,21.9,20.7,17.2,0.208,0.32,0.364,0.365,0,0.0,0.0,0.0,0.0,0.0,0.0,0.0,0.0,0.0,0.0,0.0,0.0,0.0,Tracheophyta; Oryza sativa L.
2017,2017-06-04,Lisboa,Alenquer,Alenquer (Triana),Casal das Trajanas (Triana),39.05424200005,-9.00791800022125,Desconhecida,27.0,2017-06-04T01:00,15.2,81,12.1,12.1,0.0,0.0,0.0,0.0,0,1020.0,1016.7,19,0,0,63,0.04,0.32,25.6,41.3,334,336,44.6,17.8,21.7,21.0,17.8,0.095,0.195,0.248,0.262,0,0.0,0.0,0.0,0.0,0.0,0.0,0.0,0.0,0.0,0.0,0.0,0.0,0.0,Magnoliopsida; Tracheophyta
2017,2017-06-04,Lisboa,Alenquer,Alenquer (Triana),Cheganças (Quinta do bom Regresso),39.0727799998389,-8.9908300002416,Desconhecida,33.0,2017-06-04T03:00,15.0,82,12.0,11.8,0.0,0.0,0.0,0.0,1,1019.3,1015.3,28,27,1,11,0.04,0.3,26.1,41.9,332,335,45.0,17.3,21.1,20.9,17.7,0.096,0.195,0.248,0.262,0,0.0,0.0,0.0,0.0,0.0,0.0,0.0,0.0,0.0,0.0,0.0,0.0,0.0,Tracheophyta; Magnoliopsida; Eucalyptus L'Hér.; Vitis vinifera L.
2017,2017-06-04,Lisboa,Alenquer,Alenquer (Triana),Ribeira do Camarnal,39.07,-8.98806000020769,Desconhecida,29.0,2017-06-04T03:00,15.0,82,12.0,11.8,0.0,0.0,0.0,0.0,1,1019.3,1015.8,28,27,1,11,0.04,0.3,26.1,41.9,332,335,45.0,17.3,21.1,20.9,17.7,0.096,0.195,0.248,0.262,0,0.0,0.0,0.0,0.0,0.0,0.0,0.0,0.0,0.0,0.0,0.0,0.0,0.0,Tracheophyta; Magnoliopsida; Eucalyptus L'Hér.; Vitis vinifera L.
2017,2017-06-04,Lisboa,Alenquer,Cadafais,Casais da Marmeleira (Quinta dos Carvalhos),39.0201910000377,-8.98987199995253,Desconhecida,22.0,2017-06-04T06:00,15.7,78,11.9,12.4,0.0,0.0,0.0,0.0,0,1019.6,1017.0,20,22,0,0,0.06,0.4,27.1,42.1,338,340,47.5,17.1,20.5,20.9,17.8,0.096,0.194,0.248,0.262,1,367.03,56.8,22.7,34.1,170.3,32.4,177.3,25.0,10.0,15.0,97.2,25.0,78.0,Magnoliopsida; Olea europaea L.; Tracheophyta; Vitis vinifera L.
2017,2017-06-04,Lisboa,Torres Vedras,Torres Vedras (São Pedro e São Tiago),R. das linhas de Torres,39.0992499997881,-9.2620500002967,Desconhecida,78.0,2017-06-04T15:00,19.3,55,10.1,15.3,0.0,0.0,0.0,0.0,0,1021.3,1012.0,11,10,0,8,0.44,1.0,35.4,46.5,341,342,63.7,24.0,20.0,19.3,16.7,0.121,0.221,0.275,0.295,1,3600.0,772.4,552.4,220.0,673.4,772.4,1090.1,818.0,585.0,233.0,673.4,818.0,1154.5,Tracheophyta; Magnoliopsida; Eucalyptus L'Hér.
2017,2017-06-05,Lisboa,Vila Franca de Xira,Vialonga,Casal dos Estanques (Casal do Rigago),38.8811099995507,-9.07582999971178,Desconhecida,126.0,2017-06-05T14:00,22.4,43,9.2,21.0,0.0,0.0,0.0,0.0,0,1020.3,1005.6,13,0,0,44,0.6,1.55,21.3,27.5,323,323,46.4,27.6,20.9,20.6,16.9,0.092,0.189,0.23,0.025,1,3600.0,915.6,790.2,125.4,867.6,915.6,1210.2,942.0,813.0,129.0,867.6,942.0,1245.1,Tracheophyta; Magnoliopsida; Pinus pinea L.; Olea europaea L.; Pinus pinaster Aiton; Pinales; 
2017,2017-06-05,Lisboa,Lourinhã,Lourinhã,Abelheira (R. do Pessegueiro),39.28,-9.29889000044929,Desconhecida,115.0,2017-06-05T17:00,19.4,65,12.5,17.4,0.0,0.0,0.0,0.0,2,1020.3,1006.7,68,76,0,0,0.32,0.8,19.2,24.1,308,309,36.7,26.5,21.2,19.0,16.9,0.062,0.15,0.2,0.238,1,3600.0,487.3,394.5,92.8,739.8,487.3,708.5,562.0,455.0,107.0,739.8,562.0,817.1,Tracheophyta; Eucalyptus L'Hér.
2017,2017-06-06,Lisboa,Cascais,Parede,Jardins da Parede,38.695489999983,-9.36628099971347,Desconhecida,23.0,2017-06-06T14:00,23.3,53,13.3,22.8,0.0,0.0,0.0,0.0,0,1018.8,1016.1,1,1,0,0,0.58,1.33,23.1,31.0,346,351,52.2,25.1,20.8,19.5,17.5,0.21,0.256,0.304,0.279,1,3600.0,908.2,759.4,148.8,831.4,908.2,1213.3,934.0,781.0,153.0,831.4,934.0,1247.8,Magnoliopsida; Tracheophyta; Pinus pinea L.; Pinus pinaster Aiton; 
2017,2017-06-06,Lisboa,Sintra,Monte Abraão,Monte Abraão (Queluz),38.7663900004493,-9.26055999967787,Desconhecida,174.0,2017-06-06T16:00,21.7,47,10.0,19.4,0.0,0.0,0.0,0.0,0,1018.5,998.2,0,0,0,0,0.48,1.37,22.3,31.1,350,350,48.6,24.7,20.7,18.8,16.5,0.178,0.236,0.276,0.309,1,3600.0,691.5,585.8,105.7,844.9,691.5,920.9,759.0,643.0,116.0,844.9,759.0,1010.9,Tracheophyta; Magnoliopsida; 
2017,2017-06-06,Lisboa,Lisboa,Marvila,Estrada de Marvila (Patio Quintinha),38.735,-9.1075,NC,21.0,2017-06-06T16:00,22.7,48,11.0,20.7,0.0,0.0,0.0,0.0,0,1018.5,1016.0,0,0,0,0,0.5,1.44,22.3,31.1,350,350,48.6,25.7,21.7,19.8,17.5,0.178,0.236,0.276,0.309,1,3600.0,691.5,585.8,105.7,844.9,691.5,920.9,759.0,643.0,116.0,844.9,759.0,1010.9,Tracheophyta
2017,2017-06-06,Lisboa,Lisboa,Beato,Beato,38.7325069999695,-9.11368099954393,NC,56.0,2017-06-06T20:00,16.6,66,10.2,13.8,0.0,0.0,0.0,0.0,0,1018.6,1011.9,0,0,0,0,0.08,0.64,19.5,34.0,355,354,38.9,21.6,22.1,19.7,17.2,0.188,0.236,0.285,0.305,0,1788.99,0.0,0.0,0.0,0.0,0.0,0.0,43.0,23.0,20.0,193.9,43.0,98.6,Tracheophyta; Magnoliopsida
2017,2017-06-07,Lisboa,Alenquer,Abrigada,Quinta do Vale da Várzea,39.1661099995507,-9.01971999989616,Desconhecida,89.0,2017-06-07T09:00,22.6,49,11.4,21.1,0.0,0.0,0.0,0.0,0,1018.6,1008.2,0,0,0,0,0.37,1.39,13.2,16.6,11,13,37.1,21.6,20.1,20.2,17.5,0.101,0.193,0.238,0.272,1,3600.0,625.9,513.4,112.5,769.7,625.9,885.9,551.0,452.0,99.0,769.7,551.0,779.9,Eucalyptus L'Hér.; Magnoliopsida; Tracheophyta
2017,2017-06-07,Lisboa,Sintra,Almargem do Bispo,Rua Principal nº115 (TAPADA),38.8188350000646,-9.2591770002577,Desconhecida,275.0,2017-06-07T09:00,22.6,42,9.0,20.2,0.0,0.0,0.0,0.0,0,1018.3,986.6,0,0,0,0,0.39,1.59,14.5,19.6,27,26,35.3,19.3,18.0,18.1,15.8,0.155,0.224,0.276,0.298,1,3600.0,625.6,511.8,113.7,769.1,625.6,883.8,550.0,450.0,100.0,769.1,550.0,777.0,Tracheophyta; Magnoliopsida; Pinus pinaster Aiton; Eucalyptus L'Hér.; Vitis vinifera L.; 
2017,2017-01-23,Lisboa,Sintra,Almargem do Bispo,(OLELAS),38.8402139997482,-9.28370000001457,Desconhecida,267.0,2017-01-23T21:00,7.1,84,4.6,4.0,0.0,0.0,0.0,0.0,1,1025.4,992.7,28,0,0,93,0.01,0.16,12.4,26.3,10,4,22.3,7.7,9.0,9.6,13.5,0.284,0.311,0.348,0.333,0,0.0,0.0,0.0,0.0,0.0,0.0,0.0,0.0,0.0,0.0,0.0,0.0,0.0,Tracheophyta; Magnoliopsida; Pinus pinaster Aiton; Eucalyptus L'Hér.; Vitis vinifera L.; 
2017,2017-06-07,Lisboa,Lourinhã,Reguengo Grande,REGUENGO GRANDE (Fontelas),39.2836099999978,-9.22277999983893,Desconhecida,141.0,2017-06-07T16:00,24.9,39,10.1,23.1,0.0,0.0,0.0,0.0,0,1016.2,999.9,0,0,0,0,0.54,1.92,19.6,26.3,354,356,42.5,27.9,20.9,18.5,16.4,0.069,0.127,0.165,0.213,1,3600.0,684.7,578.9,105.8,834.7,684.7,921.0,751.0,635.0,116.0,834.7,751.0,1010.2,Vitis vinifera L.; Tracheophyta; Magnoliopsida; Eucalyptus L'Hér.; Quercus L.; 
2017,2017-06-07,Lisboa,Sintra,Queluz,Av. Antonio Correia de Sá (QUELUZ),38.7531340000365,-9.25354099988937,Desconhecida,103.0,2017-06-07T17:00,29.9,33,12.0,28.2,0.0,0.0,0.0,0.0,0,1014.3,1002.6,0,0,0,0,0.51,2.82,17.2,24.8,344,347,37.4,29.1,22.6,19.3,17.0,0.167,0.232,0.274,0.308,1,3600.0,501.8,412.6,89.3,772.0,501.8,709.7,579.0,476.0,103.0,772.0,579.0,818.8,Pinus pinaster Aiton; Tracheophyta; Pinales; Eucalyptus L'Hér.; Magnoliopsida; 
2017,2017-06-07,Lisboa,Cascais,São Domingos de Rana,Bairro Pomar das Velhas (Casal do Montijo),38.7458299997118,-9.32860999955071,Desconhecida,144.0,2017-06-07T18:00,24.5,43,11.1,22.0,0.0,0.0,0.0,0.0,0,1014.3,997.7,0,0,0,0,0.34,1.75,19.0,30.0,350,355,41.4,25.9,21.8,18.4,16.4,0.188,0.249,0.304,0.331,1,3600.0,312.9,243.7,69.3,684.4,312.9,472.8,393.0,306.0,87.0,684.4,393.0,593.8,Tracheophyta; Magnoliopsida; Olea europaea L.
2017,2017-06-07,Lisboa,Sintra,Agualva,Quinta da barroca (Cacém),38.7653149996863,-9.29745100021362,Desconhecida,122.0,2017-06-07T19:00,22.4,46,10.2,19.4,0.0,0.0,0.0,0.0,0,1014.3,1000.1,0,0,0,0,0.23,1.46,20.8,36.1,351,357,41.8,24.8,22.1,18.6,16.5,0.188,0.249,0.304,0.331,1,3600.0,128.5,88.6,39.8,525.8,128.5,223.8,200.0,138.0,62.0,525.8,200.0,348.5,Tracheophyta; Magnoliopsida; 
2017,2017-06-07,Lisboa,Cascais,Carcavelos,Quinta São Gonçalo (Lombos),38.6884139998754,-9.3306800005171,NC,20.0,2017-06-07T19:00,23.9,42,10.3,20.7,0.0,0.0,0.0,0.0,0,1013.7,1011.4,0,0,0,0,0.26,1.71,22.9,38.4,347,354,44.3,26.5,23.5,19.7,17.6,0.195,0.251,0.302,0.279,1,3600.0,126.3,87.8,38.5,523.0,126.3,223.0,197.0,137.0,60.0,523.0,197.0,347.8,Magnoliopsida; Tracheophyta; Pinus pinea L.; Pinus pinaster Aiton; 
2017,2017-06-07,Lisboa,Sintra,Belas,Rua Aquilino Ribeiro (Idanha),38.7753800000085,-9.26977499988344,Desconhecida,164.0,2017-06-07T22:00,19.5,44,7.0,15.0,0.0,0.0,0.0,0.0,0,1014.7,995.5,0,0,0,0,0.16,1.26,25.7,45.9,338,345,51.1,22.5,22.8,19.0,16.6,0.165,0.231,0.274,0.308,0,0.0,0.0,0.0,0.0,0.0,0.0,0.0,0.0,0.0,0.0,0.0,0.0,0.0,Pinus pinaster Aiton; Tracheophyta; Pinales; Eucalyptus L'Hér.; Magnoliopsida; 
2017,2017-06-08,Lisboa,Alenquer,Carregado,Guizanderia,39.0238279999627,-8.98529700001081,Desconhecida,21.0,2017-06-08T00:00,19.4,50,8.7,15.9,0.0,0.0,0.0,0.0,0,1014.6,1012.1,0,0,0,0,0.13,1.12,21.7,37.8,328,339,37.8,23.4,24.8,21.0,18.0,0.074,0.185,0.243,0.262,0,0.0,0.0,0.0,0.0,0.0,0.0,0.0,0.0,0.0,0.0,0.0,0.0,0.0,Tracheophyta; Magnoliopsida; Olea europaea L.; Vitis vinifera L.
2017,2017-06-08,Lisboa,Alenquer,Alenquer (Santo Estêvão),Rua do olival (Casal da Jacinta),39.0479660002391,-9.00984500037299,Desconhecida,108.0,2017-06-08T01:00,18.1,54,8.7,14.4,0.0,0.0,0.0,0.0,0,1014.3,1001.5,0,0,0,0,0.11,0.95,23.1,38.5,323,333,39.2,21.9,24.0,20.5,17.5,0.074,0.185,0.243,0.262,0,0.0,0.0,0.0,0.0,0.0,0.0,0.0,0.0,0.0,0.0,0.0,0.0,0.0,Tracheophyta; Magnoliopsida; Olea europaea L.
