year,date,district,municipality,parish,local,latitude,longitude,cause,elevation,hourly.time,hourly.temperature_2m,hourly.relative_humidity_2m,hourly.dew_point_2m,hourly.apparent_temperature,hourly.precipitation,hourly.rain,hourly.snowfall,hourly.snow_depth,hourly.weather_code,hourly.pressure_msl,hourly.surface_pressure,hourly.cloud_cover,hourly.cloud_cover_low,hourly.cloud_cover_mid,hourly.cloud_cover_high,hourly.et0_fao_evapotranspiration,hourly.vapour_pressure_deficit,hourly.wind_speed_10m,hourly.wind_speed_100m,hourly.wind_direction_10m,hourly.wind_direction_100m,hourly.wind_gusts_10m,hourly.soil_temperature_0_to_7cm,hourly.soil_temperature_7_to_28cm,hourly.soil_temperature_28_to_100cm,hourly.soil_temperature_100_to_255cm,hourly.soil_moisture_0_to_7cm,hourly.soil_moisture_7_to_28cm,hourly.soil_moisture_28_to_100cm,hourly.soil_moisture_100_to_255cm,hourly.is_day,hourly.sunshine_duration,hourly.shortwave_radiation_instant,hourly.direct_radiation_instant,hourly.diffuse_radiation_instant,hourly.direct_normal_irradiance_instant,hourly.global_tilted_irradiance_instant,hourly.terrestrial_radiation_instant,hourly.shortwave_radiation,hourly.direct_radiation,hourly.diffuse_radiation,hourly.direct_normal_irradiance,hourly.global_tilted_irradiance,hourly.terrestrial_radiation,scientificNames
2017,2017-10-26,Leiria,Marinha Grande,Marinha Grande,Pedras Negras (Aceiro M ou de Pedrianes),39.7852649999989,-9.00348300006655,Reacendimento,41.0,2017-10-26T13:00,25.9,49,14.4,27.0,0.0,0.0,0.0,,0,1024.3,1019.5,0,0,0,0,0.4,1.7,4.6,7.7,141,131,18.7,24.1,18.6,19.3,21.0,0.116,0.149,0.144,0.21,1,3600.0,588.6,496.9,91.7,829.3,588.6,829.7,597.0,504.0,93.0,829.3,597.0,841.5,Pinus pinaster Aiton
2017,2017-10-27,Leiria,Marinha Grande,Marinha Grande,MARINHA GRANDE (Arrife Número Sete),39.7571840000153,-8.95810499986013,Reacendimento,83.0,2017-10-27T11:00,24.6,50,13.4,24.0,0.0,0.0,0.0,,0,1027.1,1017.4,0,0,0,0,0.36,1.55,11.1,14.5,29,55,22.0,21.3,18.3,19.2,20.8,0.108,0.148,0.145,0.21,1,3600.0,545.2,453.4,91.8,808.1,545.2,777.3,505.0,420.0,85.0,808.1,505.0,720.0,Pinus pinaster Aiton; Magnoliopsida
2017,2017-10-27,Leiria,Leiria,Santa Eufémia,SANTA EUFEMIA,39.7638799995846,-8.75046000000503,Desconhecida,73.0,2017-10-27T16:00,27.7,51,16.8,28.4,0.0,0.0,0.0,0.0,0,1025.1,1016.6,0,0,0,0,0.27,1.8,11.8,19.7,12,18,22.0,25.8,20.8,19.3,20.9,0.098,0.138,0.13,0.161,1,3600.0,254.3,197.5,56.9,698.0,254.3,391.9,322.0,250.0,72.0,698.0,322.0,496.2,Tracheophyta; Pinus pinaster Aiton; Eucalyptus L'Hér.; Magnoliopsida; Acacia Mill.; Olea europaea L.
2017,2017-10-27,Leiria,Marinha Grande,Marinha Grande,Pedras Negras (Aceiro L),39.7890299998389,-9.00367699993981,Reacendimento,37.0,2017-10-27T16:00,27.0,50,15.7,26.7,0.0,0.0,0.0,,0,1024.8,1020.5,0,0,0,0,0.29,1.77,15.5,24.3,25,32,27.0,25.6,20.7,19.5,21.0,0.099,0.147,0.144,0.21,1,3600.0,254.2,198.0,56.2,693.3,254.2,395.7,321.0,250.0,71.0,693.3,321.0,499.6,Pinus pinaster Aiton
2017,2017-10-28,Leiria,Pombal,Carriço,Mata do Urso - Barraca das Correntes,39.9897629997465,-8.8921100001865,Reacendimento,44.0,2017-10-28T09:00,19.4,49,8.4,16.7,0.0,0.0,0.0,0.0,0,1024.5,1019.3,0,0,0,0,0.18,1.16,16.0,24.4,67,68,32.8,19.0,19.8,19.2,20.2,0.064,0.134,0.128,0.199,1,3600.0,273.3,198.4,74.9,594.5,273.3,462.5,208.0,151.0,57.0,594.5,208.0,352.0,Pinus pinaster Aiton; Magnoliopsida
2017,2017-10-28,Leiria,Leiria,Santa Eufémia,Rua Beato Nuno,39.761142999861,-8.74597499953376,Desconhecida,99.0,2017-10-28T13:00,27.8,30,8.6,25.8,0.0,0.0,0.0,0.0,0,1022.1,1010.7,0,0,0,0,0.49,2.62,13.4,17.7,82,84,31.3,24.9,19.3,19.4,20.7,0.079,0.129,0.125,0.161,1,3600.0,594.9,503.3,91.6,854.4,594.9,816.6,604.0,511.0,93.0,854.4,604.0,829.1,Tracheophyta; Pinus pinaster Aiton; Eucalyptus L'Hér.; Magnoliopsida; Acacia Mill.; Olea europaea L.
2017,2017-10-31,Leiria,Peniche,Atouguia da Baleia,alto do verissimo (Casal da Varmelha),39.2937199995253,-9.33929499997033,Desconhecida,39.0,2017-10-31T10:00,19.6,46,7.6,15.7,0.0,0.0,0.0,0.0,0,1017.2,1012.6,0,0,0,0,0.28,1.23,22.4,30.1,105,105,40.0,18.3,18.6,20.4,21.4,0.049,0.107,0.124,0.208,1,3600.0,430.6,340.0,90.5,743.2,430.6,635.1,371.0,293.0,78.0,743.2,371.0,547.3,Eucalyptus L'Hér.; Magnoliopsida; Tracheophyta; Pinus pinaster Aiton; Pinus pinea L.; 
2017,2017-10-31,Leiria,Marinha Grande,Marinha Grande,Pedras Negras,39.7810420004527,-9.02025600009494,Reacendimento,8.0,2017-10-31T11:00,22.7,42,9.1,20.5,0.0,0.0,0.0,,0,1017.1,1016.2,0,0,0,0,0.35,1.61,13.4,18.5,126,127,29.2,20.2,17.5,19.7,21.1,0.068,0.136,0.142,0.209,1,3600.0,532.2,441.3,90.9,812.6,532.2,753.9,492.0,408.0,84.0,812.6,492.0,697.0,Pinus pinaster Aiton
2017,2017-10-31,Leiria,Pombal,Carriço,Mata do Urso,39.9816700002882,-8.91389000044929,Reacendimento,26.0,2017-10-31T12:00,23.9,35,7.5,20.9,0.0,0.0,0.0,0.0,0,1017.2,1014.2,0,0,0,0,0.43,1.93,17.1,22.9,138,138,32.4,21.9,18.2,19.6,20.3,0.059,0.126,0.128,0.199,1,3600.0,581.6,491.0,90.6,843.8,581.6,807.7,565.0,477.0,88.0,843.8,565.0,784.8,Pinus pinaster Aiton
2017,2017-10-31,Leiria,Caldas da Rainha,Caldas da Rainha (Nossa Senhora do Pópulo),Casal de São Cristóvão,39.3874950000975,-9.12667000028822,Desconhecida,86.0,2017-10-31T15:00,23.5,46,11.2,22.8,0.0,0.0,0.0,0.0,0,1016.7,1006.7,0,0,0,0,0.31,1.56,7.5,9.7,215,211,24.8,22.2,18.6,19.4,20.5,0.181,0.252,0.217,0.281,1,3600.0,400.1,325.2,74.9,780.8,400.1,578.2,454.0,369.0,85.0,780.8,454.0,656.2,Vitis vinifera L.; Magnoliopsida; Tracheophyta; Eucalyptus L'Hér.
2017,2017-10-31,Leiria,Caldas da Rainha,Santa Catarina,Mata de Porto Mouro (SANTA CATARINA),39.4451769998338,-9.01948800007502,Desconhecida,75.0,2017-10-31T23:00,15.5,93,14.4,15.8,0.0,0.0,0.0,0.0,0,1017.8,1008.8,10,0,0,32,0.0,0.11,7.9,15.9,156,193,13.0,15.8,19.0,19.5,21.0,0.065,0.154,0.121,0.193,0,0.0,0.0,0.0,0.0,0.0,0.0,0.0,0.0,0.0,0.0,0.0,0.0,0.0,Magnoliopsida; Tracheophyta; Eucalyptus L'Hér.; Vitis vinifera L.; Pinus pinaster Aiton
2017,2017-11-01,Leiria,Leiria,Monte Redondo,Lage (Valito),39.8947499995761,-8.83974199983809,Desconhecida,32.0,2017-11-01T03:00,13.1,89,11.4,12.4,0.0,0.0,0.0,0.0,1,1017.8,1013.9,32,3,0,98,0.0,0.16,7.6,12.9,121,162,13.0,14.3,18.7,19.7,21.0,0.045,0.114,0.123,0.166,0,0.0,0.0,0.0,0.0,0.0,0.0,0.0,0.0,0.0,0.0,0.0,0.0,0.0,Tracheophyta; Pinus pinaster Aiton; Eucalyptus L'Hér.; Magnoliopsida; Acacia Mill.
2017,2017-01-25,Leiria,Marinha Grande,Marinha Grande,Embra,39.7425,-8.90944000032213,Desconhecida,102.0,2017-01-25T16:00,12.6,68,6.8,10.2,0.0,0.0,0.0,0.0,3,1019.3,1007.0,82,39,30,95,0.12,0.47,11.2,15.6,186,187,27.0,10.9,7.0,8.1,12.5,0.143,0.178,0.209,0.198,1,3057.77,167.4,45.5,121.9,161.9,167.4,396.5,206.0,56.0,150.0,161.9,206.0,488.1,Tracheophyta; Pinus pinaster Aiton
2017,2017-11-06,Leiria,Leiria,Pousos,S. Romão (Rua da Esperança),39.7347229999966,-8.79314800050524,NC,47.0,2017-11-06T23:00,9.3,89,7.5,7.7,0.0,0.0,0.0,0.0,0,1022.5,1016.7,0,0,0,0,0.0,0.13,6.5,11.6,90,16,8.6,11.4,15.1,18.2,20.3,0.166,0.133,0.128,0.168,0,0.0,0.0,0.0,0.0,0.0,0.0,0.0,0.0,0.0,0.0,0.0,0.0,0.0,Tracheophyta; Pinus pinaster Aiton; Eucalyptus L'Hér.; Magnoliopsida; Acacia Mill.; Vitis vinifera L.
2017,2017-11-09,Leiria,Alcobaça,Aljubarrota (São Vicente),Ataija de Baixo (IC2 (EN1) Km 97),39.5380199999279,-8.89957999971178,Desconhecida,168.0,2017-11-09T13:00,15.3,40,1.8,10.5,0.0,0.0,0.0,0.0,0,1028.2,1008.0,18,0,0,60,0.32,1.04,20.3,27.4,23,27,41.4,14.9,13.1,16.9,19.9,0.247,0.255,0.209,0.283,1,3600.0,544.4,449.9,94.5,832.9,544.4,753.4,553.0,457.0,96.0,832.9,553.0,765.2,Eucalyptus L'Hér.; Magnoliopsida; Tracheophyta; Vitis vinifera L.
2017,2017-11-11,Leiria,Pombal,Vermoil,Rua dos Pedrosos,39.8418030002382,-8.65535600026449,Desconhecida,175.0,2017-11-11T10:00,13.8,71,8.5,12.3,0.0,0.0,0.0,0.0,0,1029.6,1008.4,0,0,0,0,0.15,0.46,7.5,10.8,343,356,18.7,12.0,12.6,16.4,20.2,0.214,0.225,0.21,0.254,1,3600.0,373.7,284.4,89.3,694.2,373.7,571.8,318.0,242.0,76.0,694.2,318.0,486.6,Pinus pinaster Aiton; Tracheophyta; Olea europaea L.; Eucalyptus L'Hér.; Vitis vinifera L.; Magnoliopsida
2017,2017-11-13,Leiria,Caldas da Rainha,Tornada,Campo (Cavadas),39.435013999939,-9.15173599998156,Desconhecida,27.0,2017-11-13T11:00,15.6,80,12.3,13.9,0.0,0.0,0.0,0.0,3,1022.9,1019.6,89,99,0,0,0.15,0.35,17.0,21.5,13,14,31.7,16.2,15.2,16.8,20.3,0.141,0.178,0.13,0.207,1,3600.0,330.5,210.5,120.0,427.7,330.5,687.7,303.0,193.0,110.0,427.7,303.0,630.4,Tracheophyta; Eucalyptus L'Hér.
2017,2017-11-14,Leiria,Nazaré,Nazaré,Sitio da Nazaré (Hortas),39.608738000128,-9.0779880004459,Desconhecida,68.0,2017-11-14T15:00,17.4,41,4.0,14.9,0.0,0.0,0.0,0.0,0,1018.4,1010.3,0,0,0,0,0.23,1.17,7.0,8.2,325,331,16.6,18.4,14.7,16.4,20.0,0.103,0.138,0.115,0.175,1,3600.0,344.7,278.7,66.0,773.9,344.7,503.4,397.0,321.0,76.0,773.9,397.0,579.8,Pinus pinaster Aiton; Tracheophyta; Magnoliopsida
2017,2017-11-15,Leiria,Alcobaça,Alcobaça,Rua Pinhal Fanheiro (Cova da Onça),39.5499440002441,-8.97076599995295,Desconhecida,46.0,2017-11-15T17:00,14.5,81,11.3,14.2,0.0,0.0,0.0,0.0,0,1018.6,1013.1,0,0,0,0,0.04,0.31,4.6,6.3,315,301,9.0,15.8,14.4,16.1,20.1,0.155,0.189,0.143,0.213,1,3136.73,35.1,21.9,13.2,251.6,32.4,69.5,96.0,60.0,36.0,407.9,96.0,190.2,Tracheophyta; Magnoliopsida; Vitis vinifera L.; Eucalyptus L'Hér.
2017,2017-11-17,Leiria,Batalha,Batalha,Ponte da Boltaca,39.6580569998423,-8.83566800011529,Desconhecida,98.0,2017-11-17T13:00,19.5,51,9.2,18.6,0.0,0.0,0.0,0.0,0,1020.1,1008.5,0,0,0,0,0.31,1.11,5.2,5.4,304,307,16.2,17.2,12.4,15.4,19.4,0.083,0.122,0.123,0.166,1,3600.0,510.9,427.2,83.7,841.9,510.9,710.2,519.0,434.0,85.0,841.9,519.0,721.5,Pinus pinaster Aiton; Eucalyptus L'Hér.; Tracheophyta; Magnoliopsida
2017,2017-12-02,Leiria,Marinha Grande,Vieira de Leiria,Casal de Anja,39.8733470000161,-8.92850799984402,Desconhecida,43.0,2017-12-02T14:00,11.6,52,2.2,8.3,0.0,0.0,0.0,0.0,0,1026.2,1020.9,0,0,0,0,0.21,0.65,10.3,13.1,12,16,25.2,11.5,9.6,13.7,17.7,0.215,0.225,0.154,0.196,1,3600.0,410.2,337.5,72.7,821.5,410.2,578.3,440.0,362.0,78.0,821.5,440.0,620.2,Tracheophyta; Pinus pinaster Aiton; Eucalyptus L'Hér.; Magnoliopsida; Acacia Mill.; 
2017,2017-12-02,Leiria,Porto de Mós,Juncal,JUNCAL,39.6035930000411,-8.89689800050524,NC,140.0,2017-12-02T16:00,10.5,56,2.2,7.2,0.0,0.0,0.0,0.0,0,1026.1,1009.0,0,0,0,0,0.11,0.55,10.5,15.0,6,10,21.2,11.5,10.3,13.8,17.9,0.177,0.179,0.124,0.174,1,3600.0,161.7,118.9,42.8,644.4,161.7,259.6,223.0,164.0,59.0,644.4,223.0,358.2,Tracheophyta; Eucalyptus L'Hér.; Olea europaea L.; Magnoliopsida; Pinus pinaster Aiton
2017,2017-12-07,Leiria,Leiria,Barreira,Mourã,39.7105800003476,-8.80587499989404,Desconhecida,119.0,2017-12-07T19:00,7.9,83,5.2,5.8,0.0,0.0,0.0,0.0,1,1031.1,1016.3,29,0,39,18,0.0,0.18,6.9,9.2,186,244,9.4,9.6,10.8,12.2,17.4,0.133,0.16,0.124,0.165,0,0.0,0.0,0.0,0.0,0.0,0.0,0.0,0.0,0.0,0.0,0.0,0.0,0.0,Tracheophyta; Pinus pinaster Aiton; Eucalyptus L'Hér.; Magnoliopsida; Acacia Mill.
2017,2017-12-09,Leiria,Pombal,Pombal,Roussa - Rua das Laranjeiras,39.9116280004713,-8.67483700010512,Desconhecida,129.0,2017-12-09T09:00,14.1,99,14.0,13.6,0.0,0.0,0.0,0.0,3,1028.5,1012.9,97,100,0,24,0.02,0.02,12.3,18.4,328,334,22.3,13.3,12.8,12.1,17.1,0.159,0.18,0.132,0.163,1,0.0,28.8,0.0,28.8,0.0,24.3,265.8,17.0,0.0,17.0,0.0,17.0,156.8,Eucalyptus L'Hér.; Tracheophyta; Pinus pinea L.; Pinus pinaster Aiton
2017,2017-01-02,Leiria,Leiria,Maceira,A do Barbas (Tofeira),39.6772299999661,-8.92917899979485,Desconhecida,142.0,2017-01-02T12:00,10.2,81,7.0,4.3,0.6,0.6,0.0,0.0,53,1013.7,996.5,87,0,96,99,0.09,0.24,35.1,57.1,119,122,64.1,10.6,10.1,11.5,14.6,0.191,0.204,0.228,0.203,1,0.0,165.8,12.7,153.1,28.1,165.8,637.4,157.0,12.0,145.0,28.1,157.0,603.7,Tracheophyta; Pinus pinaster Aiton; Eucalyptus L'Hér.; Magnoliopsida; Acacia Mill.
2017,2017-12-15,Leiria,Caldas da Rainha,Vidais,Casal do Rei (EN114 (EN114) Km 39),39.3577909999424,-9.01255000008477,Desconhecida,144.0,2017-12-15T17:00,10.9,81,7.8,7.4,0.0,0.0,0.0,0.0,0,1017.1,999.7,1,1,0,0,0.05,0.25,20.4,34.3,352,355,44.6,13.0,13.4,13.1,16.6,0.375,0.346,0.238,0.28,1,2596.52,16.7,9.5,7.2,109.4,13.8,36.3,70.0,40.0,30.0,307.0,70.0,152.1,Eucalyptus L'Hér.; Pinales; Magnoliopsida
2017,2017-12-23,Leiria,Leiria,Azoia,Vale do Horto,39.6930970001221,-8.84181799994575,NC,91.0,2017-12-23T18:00,9.6,78,5.9,7.4,0.0,0.0,0.0,0.0,0,1031.0,1019.7,0,0,0,0,0.03,0.27,7.6,16.9,115,102,14.4,10.6,10.6,11.7,15.9,0.191,0.208,0.161,0.165,0,0.0,0.0,0.0,0.0,0.0,0.0,0.0,1.0,0.0,1.0,0.0,1.0,11.2,Tracheophyta; Pinus pinaster Aiton; Eucalyptus L'Hér.; Magnoliopsida; Acacia Mill.
2017,2017-02-15,Leiria,Alcobaça,São Martinho do Porto,Praia do Salgado (Casal do Sol Posto),39.5199729998906,-9.1190930000941,Desconhecida,23.0,2017-02-15T14:00,17.3,59,9.3,14.3,0.0,0.0,0.0,0.0,1,1025.8,1023.0,46,0,31,90,0.28,0.8,18.9,25.1,114,114,32.4,15.5,12.4,11.8,12.7,0.273,0.289,0.284,0.262,1,3600.0,469.0,253.8,215.2,436.8,469.0,814.8,486.0,263.0,223.0,436.8,486.0,844.4,Tracheophyta; Vitis vinifera L.; Magnoliopsida; Eucalyptus L'Hér.; Pinus pinaster Aiton
2017,2017-02-21,Leiria,Porto de Mós,Mira de Aire,Vale do Rossio,39.5436770004696,-8.69559999995762,Desconhecida,386.0,2017-02-21T15:00,16.9,44,4.6,13.2,0.0,0.0,0.0,0.0,0,1018.5,973.4,0,0,0,0,0.34,1.07,17.4,24.4,68,68,41.0,14.8,11.2,10.4,11.5,0.347,0.367,0.387,0.33,1,3600.0,538.3,457.4,80.8,875.3,538.3,731.0,586.0,498.0,88.0,875.3,586.0,795.8,Magnoliopsida; Eucalyptus L'Hér.; Olea europaea L.; Tracheophyta; Pinus pinaster Aiton
2017,2017-03-14,Leiria,Castanheira de Pêra,Castanheira de Pêra,Cova das Malhadas - Coentral,40.0530579998758,-8.19288299984402,Reacendimento,712.0,2017-03-14T16:00,15.9,49,5.3,11.4,0.0,0.0,0.0,0.0,0,1022.5,940.6,18,0,0,61,0.29,0.92,23.1,35.1,101,100,58.0,13.4,9.9,9.9,9.2,0.315,0.337,0.366,0.348,1,3600.0,399.2,240.9,158.3,513.2,399.2,649.9,459.0,277.0,182.0,513.2,459.0,747.1,Pinus pinaster Aiton; Magnoliopsida; Eucalyptus L'Hér.
2017,2017-03-15,Leiria,Caldas da Rainha,Caldas da Rainha (Santo Onofre),Casal da Melfa,39.4152950000763,-9.15489699999491,Desconhecida,27.0,2017-03-15T11:00,18.1,53,8.3,14.2,0.0,0.0,0.0,0.0,1,1021.0,1017.8,21,0,0,71,0.34,0.99,24.4,33.1,98,98,43.9,16.0,13.4,13.9,13.0,0.184,0.217,0.26,0.242,1,3600.0,621.8,447.1,174.7,667.7,621.8,926.6,573.0,412.0,161.0,667.7,573.0,853.8,Tracheophyta; Eucalyptus L'Hér.; Magnoliopsida; Pinus pinaster Aiton
2017,2017-03-15,Leiria,Castanheira de Pêra,Coentral,COVA DAS MALHADAS  - Coentral,40.057982000245,-8.16996300008562,Reacendimento,930.0,2017-03-15T19:00,9.1,58,1.2,5.8,0.0,0.0,0.0,0.0,0,1019.2,911.8,0,0,0,0,0.04,0.49,9.0,18.6,95,108,19.8,11.6,10.8,8.6,7.8,0.305,0.33,0.362,0.348,0,369.3,0.0,0.0,0.0,0.0,0.0,0.0,20.0,11.0,9.0,116.9,20.0,70.1,Pinus pinaster Aiton; Magnoliopsida; Eucalyptus L'Hér.; Olea europaea L.
2017,2017-03-15,Leiria,Óbidos,Olho Marinho,Barros (Costa),39.3288269996643,-9.24374000019497,Desconhecida,95.0,2017-03-15T18:00,17.6,66,11.1,16.7,0.0,0.0,0.0,0.0,1,1018.2,1006.9,22,0,0,72,0.11,0.69,8.3,13.0,270,273,14.8,18.5,15.9,13.5,12.4,0.141,0.192,0.225,0.22,1,3600.0,100.4,61.1,39.2,463.0,100.4,182.7,174.0,106.0,68.0,463.0,174.0,316.8,Magnoliopsida; Eucalyptus L'Hér.; Tracheophyta
2017,2017-03-16,Leiria,Caldas da Rainha,Serra do Bouro,Casais da Boa Vista (Quebrada das Marinhas),39.485,-9.18332999971178,Desconhecida,25.0,2017-03-16T10:00,15.4,52,5.5,10.9,0.0,0.0,0.0,0.0,0,1018.9,1015.9,9,0,2,27,0.27,0.84,23.1,31.3,108,107,41.4,14.4,13.4,13.9,12.8,0.136,0.198,0.242,0.235,1,3600.0,547.9,451.4,96.5,802.6,547.9,777.9,477.0,393.0,84.0,802.6,477.0,677.2,Eucalyptus L'Hér.; Magnoliopsida; Tracheophyta
2017,2017-03-18,Leiria,Porto de Mós,Alvados,ALVADOS (Ferreirinhos),39.5331080002255,-8.754363000128,Desconhecida,472.0,2017-03-18T11:00,17.2,39,3.2,14.7,0.0,0.0,0.0,0.0,0,1021.9,967.0,0,0,0,0,0.38,1.2,11.2,14.9,96,97,25.9,13.9,11.3,11.7,11.0,0.267,0.304,0.347,0.336,1,3600.0,713.6,608.7,104.9,887.5,713.6,947.5,660.0,563.0,97.0,887.5,660.0,876.4,Magnoliopsida; Tracheophyta; Olea europaea L.
2017,2017-01-11,Leiria,Caldas da Rainha,Alvorninha,Quinta do Pego,39.3961800003052,-8.99696800020006,Desconhecida,109.0,2017-01-11T14:00,17.7,66,11.2,16.4,0.0,0.0,0.0,0.0,0,1024.8,1011.8,4,0,0,14,0.25,0.69,11.5,15.2,2,7,27.4,15.5,11.7,12.0,15.4,0.331,0.35,0.339,0.315,1,3600.0,434.7,358.6,76.1,808.3,434.7,627.4,457.0,377.0,80.0,808.3,457.0,659.6,Eucalyptus L'Hér.; Magnoliopsida; Pinales; Tracheophyta
2017,2017-03-18,Leiria,Castanheira de Pêra,Castanheira de Pêra,Cova das malhadas (Volta),40.0515600000487,-8.19215200000339,Reacendimento,682.0,2017-03-18T13:00,18.7,40,4.6,19.0,0.0,0.0,0.0,0.0,0,1020.9,943.1,0,0,0,0,0.48,1.3,0.8,0.4,207,270,16.2,16.5,10.6,10.4,9.5,0.277,0.308,0.35,0.348,1,3600.0,809.1,706.1,103.0,936.1,809.1,1041.9,809.0,706.0,103.0,936.1,809.0,1041.8,Pinus pinaster Aiton; Magnoliopsida; Eucalyptus L'Hér.; Olea europaea L.
2017,2017-03-21,Leiria,Alcobaça,Alfeizerão,Casal do Aguiar,39.4808299997118,-9.09555999967787,Desconhecida,105.0,2017-03-21T18:00,12.8,67,6.8,8.6,0.0,0.0,0.0,0.0,2,1023.1,1010.4,76,53,0,96,0.11,0.49,23.0,32.4,331,331,41.4,15.9,14.9,13.8,12.5,0.094,0.176,0.236,0.235,1,3600.0,81.6,32.3,49.3,213.7,81.6,208.2,134.0,53.0,81.0,213.7,134.0,342.0,Pinus pinaster Aiton; Tracheophyta; Eucalyptus L'Hér.
2017,2017-03-21,Leiria,Leiria,Colmeias,Casal da Raposeira (Lagoa do Leão),39.7776500002543,-8.72314799997542,Desconhecida,160.0,2017-03-21T17:00,13.1,60,5.6,8.9,0.0,0.0,0.0,0.0,2,1022.3,1003.0,69,56,0,62,0.2,0.6,21.4,29.5,324,325,44.3,16.2,14.0,13.3,11.9,0.09,0.153,0.209,0.208,1,3600.0,305.5,229.9,75.6,682.6,305.5,464.5,384.0,289.0,95.0,682.6,384.0,583.8,Tracheophyta; Pinus pinaster Aiton; Eucalyptus L'Hér.; Magnoliopsida; Acacia Mill.; Olea europaea L.
2017,2017-03-31,Leiria,Leiria,Pousos,Casal Andrino,39.7496920002831,-8.78997700002458,Desconhecida,113.0,2017-03-31T19:00,12.8,82,9.8,10.9,0.0,0.0,0.0,0.0,2,1023.9,1010.2,74,48,29,46,0.03,0.27,12.6,22.3,265,267,29.9,15.2,15.4,12.7,12.2,0.208,0.235,0.225,0.208,0,1327.86,0.0,0.0,0.0,0.0,0.0,0.0,34.0,18.0,16.0,142.6,34.0,113.4,Tracheophyta; Pinus pinaster Aiton; Eucalyptus L'Hér.; Magnoliopsida; Acacia Mill.; Pinales
2017,2017-03-31,Leiria,Óbidos,Óbidos (Santa Maria),Águas Santas (Casal de São Tiago),39.3938900004493,-9.15947800000509,Desconhecida,35.0,2017-03-31T18:00,14.6,77,10.5,12.3,0.0,0.0,0.0,0.0,1,1024.3,1020.1,42,18,11,65,0.12,0.39,16.6,23.1,266,268,34.6,17.4,16.2,13.5,13.2,0.225,0.251,0.273,0.246,1,3600.0,153.6,112.2,41.4,605.0,153.6,254.4,234.0,171.0,63.0,605.0,234.0,387.6,Tracheophyta; Magnoliopsida; Pinus pinaster Aiton; Eucalyptus L'Hér.
2017,2017-04-01,Leiria,Alcobaça,Coz,MAIORGA (Casal Varatojo),39.5917650000254,-8.97299499988556,Desconhecida,44.0,2017-04-01T20:00,12.3,72,7.3,9.1,0.0,0.0,0.0,0.0,1,1026.1,1020.7,46,21,0,92,0.04,0.41,17.0,28.2,6,5,33.8,14.2,15.1,13.6,13.0,0.214,0.238,0.259,0.229,0,0.0,0.0,0.0,0.0,0.0,0.0,0.0,0.0,0.0,0.0,0.0,0.0,0.0,Tracheophyta; Vitis vinifera L.; Magnoliopsida; Pinus pinaster Aiton; Olea europaea L.; Eucalyptus L'Hér.
2017,2017-04-01,Leiria,Bombarral,Bombarral,Rua Dom Afonso Henriques - Bombarral (BOMBARRAL),39.2691599999534,-9.15478299988641,Desconhecida,36.0,2017-04-01T15:00,15.7,57,7.3,13.2,0.0,0.0,0.0,0.0,1,1026.1,1021.7,29,2,0,90,0.38,0.76,18.8,25.3,348,349,41.4,18.0,14.8,13.4,12.9,0.204,0.231,0.226,0.225,1,3600.0,703.5,563.7,139.8,822.3,703.5,939.4,755.0,605.0,150.0,822.3,755.0,1008.2,Magnoliopsida; Tracheophyta
2017,2017-04-02,Leiria,Marinha Grande,Marinha Grande,Casal Galego (Cabeços do Garcia),39.7759250005086,-8.92301299995846,Desconhecida,85.0,2017-04-02T14:00,17.6,62,10.2,17.6,0.0,0.0,0.0,0.0,0,1021.6,1011.5,0,0,0,0,0.46,0.77,12.2,15.3,346,352,28.8,18.3,13.3,12.9,12.4,0.196,0.222,0.221,0.21,1,3600.0,825.0,719.6,105.4,927.8,825.0,1062.3,853.0,744.0,109.0,927.8,853.0,1098.3,Pinus pinaster Aiton; Tracheophyta
2017,2017-04-06,Leiria,Bombarral,Roliça,Vale do Grou,39.2944650003645,-9.15343500004874,Desconhecida,37.0,2017-04-06T14:00,22.7,36,6.8,21.4,0.0,0.0,0.0,0.0,0,1017.9,1013.6,0,0,0,0,0.58,1.77,15.3,20.1,81,80,37.4,21.5,16.4,14.4,13.0,0.145,0.199,0.222,0.224,1,3600.0,845.9,736.5,109.4,926.6,845.9,1086.2,874.0,761.0,113.0,926.6,874.0,1122.3,Magnoliopsida; Tracheophyta; Eucalyptus L'Hér.; Vitis vinifera L.; Pinales; Pinus pinaster Aiton; 
2017,2017-04-09,Leiria,Óbidos,Olho Marinho,Olho Marinho,39.3184529999892,-9.24050800005595,Desconhecida,120.0,2017-04-09T15:00,26.1,24,4.1,23.2,0.0,0.0,0.0,0.0,1,1016.4,1002.6,26,0,0,87,0.61,2.56,18.4,24.9,149,149,43.6,23.2,16.8,14.5,12.7,0.102,0.178,0.221,0.219,1,3600.0,733.6,616.9,116.7,868.5,733.6,969.0,786.0,661.0,125.0,868.5,786.0,1038.2,Tracheophyta; Magnoliopsida; Eucalyptus L'Hér.
2017,2017-04-13,Leiria,Ansião,Pousaflores,Rua do Pereiro - Pereiro de Cima,39.8713130002552,-8.38273999955919,Desconhecida,354.0,2017-04-13T03:00,12.2,81,9.0,11.0,0.0,0.0,0.0,0.0,1,1018.3,976.2,28,2,0,89,0.0,0.28,6.5,14.2,3,344,13.3,15.4,18.0,14.9,11.8,0.132,0.23,0.311,0.34,0,0.0,0.0,0.0,0.0,0.0,0.0,0.0,0.0,0.0,0.0,0.0,0.0,0.0,Eucalyptus L'Hér.; Olea europaea L.; Magnoliopsida; Vitis vinifera L.; Pinus pinaster Aiton
2017,2017-04-13,Leiria,Ansião,Pousaflores,Moita Redonda de Baixo,39.8704269999928,-8.38053300009833,Reacendimento,322.0,2017-04-13T14:00,20.0,61,12.4,19.9,0.0,0.0,0.0,0.0,0,1019.2,981.8,2,2,0,0,0.48,0.9,16.0,20.3,293,293,36.0,23.6,17.9,15.2,12.1,0.133,0.229,0.311,0.34,1,3600.0,810.8,679.4,131.4,841.0,810.8,1099.4,839.0,703.0,136.0,841.0,839.0,1137.6,Eucalyptus L'Hér.; Olea europaea L.; Magnoliopsida; Vitis vinifera L.; Pinus pinaster Aiton
2017,2017-04-16,Leiria,Marinha Grande,Marinha Grande,Quinta da Wernagem (Quinta dos Tomeiros),39.7323830000559,-8.95970200008816,Desconhecida,99.0,2017-04-16T22:00,12.1,98,11.8,11.7,0.0,0.0,0.0,0.0,1,1020.1,1008.1,22,25,0,0,0.0,0.03,6.6,9.1,351,351,10.8,15.4,18.0,15.9,13.4,0.091,0.176,0.245,0.261,0,0.0,0.0,0.0,0.0,0.0,0.0,0.0,0.0,0.0,0.0,0.0,0.0,0.0,Pinus pinaster Aiton; Eucalyptus L'Hér.; Tracheophyta; Magnoliopsida
2017,2017-01-05,Porto,Baião,Ancede,Rama (Ponte Nova),41.1072829998864,-8.06890799999237,Desconhecida,318.0,2017-01-05T18:00,8.4,86,6.2,6.4,0.0,0.0,0.0,0.0,0,1026.8,988.1,3,3,0,0,0.02,0.15,7.4,19.5,76,93,22.7,10.4,10.3,9.2,13.0,0.374,0.379,0.374,0.343,0,0.0,0.0,0.0,0.0,0.0,0.0,0.0,2.0,0.0,2.0,0.0,2.0,17.3,Magnoliopsida; Pinus pinaster Aiton; Tracheophyta; Vitis vinifera L.; Quercus suber L.; Acacia Mill.; Eucalyptus L'Hér.; Quercus L.; 
2017,2017-04-28,Porto,Paredes,Rebordosa,Azevido,41.2179099999534,-8.40524200015598,NC,277.0,2017-04-28T20:00,12.2,52,2.8,9.3,0.0,0.0,0.0,0.0,0,1011.1,978.2,0,0,0,0,0.06,0.68,9.0,20.2,331,338,20.5,15.9,15.5,14.7,12.6,0.166,0.21,0.292,0.378,0,0.0,0.0,0.0,0.0,0.0,0.0,0.0,7.0,3.0,4.0,41.5,7.0,38.4,Magnoliopsida; Pinus pinaster Aiton; Eucalyptus L'Hér.; Tracheophyta; Vitis vinifera L.
2017,2017-04-28,Porto,Felgueiras,Aião,Paço (Cegonheiras),41.3050029998355,-8.2056069999271,Desconhecida,219.0,2017-04-28T20:00,11.9,51,2.0,9.1,0.0,0.0,0.0,0.0,0,1011.0,984.9,0,0,0,0,0.05,0.69,7.4,14.8,321,331,13.3,16.2,15.9,15.1,12.8,0.132,0.22,0.305,0.372,0,0.0,0.0,0.0,0.0,0.0,0.0,0.0,7.0,2.0,5.0,27.9,7.0,37.7,Magnoliopsida; Tracheophyta; Vitis vinifera L.; Pinus pinaster Aiton
2017,2017-04-28,Porto,Penafiel,Marecos,Rande (Vilar),41.1997520001729,-8.28294500033061,NC,238.0,2017-04-28T19:00,14.8,43,2.3,12.3,0.0,0.0,0.0,0.0,0,1010.5,982.4,0,0,0,0,0.08,0.97,5.9,11.4,349,11,17.3,17.5,15.5,14.7,12.5,0.144,0.221,0.304,0.373,1,3551.12,51.8,33.5,18.2,384.6,51.4,94.6,122.0,79.0,43.0,474.5,122.0,223.0,Tracheophyta; Vitis vinifera L.; Magnoliopsida; Eucalyptus L'Hér.
2017,2017-04-28,Porto,Vila Nova de Gaia,Canelas,Borneiros (Rua do Balastro),41.0831430000729,-8.61085000038147,NC,106.0,2017-04-28T18:00,14.9,54,5.7,11.2,0.0,0.0,0.0,0.0,0,1011.3,998.7,0,0,0,0,0.19,0.78,18.3,27.2,328,331,40.3,18.6,16.3,15.3,13.4,0.183,0.242,0.315,0.38,1,3600.0,235.3,181.3,54.0,685.5,235.3,357.0,318.0,245.0,73.0,685.5,318.0,482.4,Tracheophyta; Magnoliopsida; Eucalyptus L'Hér.
2017,2017-04-28,Porto,Felgueiras,Lagares,Monte das Ruas (Tadim),41.3616969998678,-8.22461799992455,Desconhecida,279.0,2017-04-28T18:00,17.4,34,1.3,14.7,0.0,0.0,0.0,0.0,0,1010.9,978.4,0,0,0,0,0.19,1.32,5.2,9.2,146,141,22.0,18.4,15.0,14.6,12.5,0.158,0.228,0.31,0.373,1,3600.0,236.8,183.0,53.9,701.8,236.8,351.9,321.0,248.0,73.0,701.8,321.0,477.0,Magnoliopsida; Tracheophyta
2017,2017-01-20,Porto,Felgueiras,Margaride (Santa Eulália),Lg. Santa Quiteria (Azenhas),41.3658460002475,-8.20952699979146,Reacendimento,277.0,2017-01-20T10:00,6.6,56,-1.7,1.7,0.0,0.0,0.0,0.0,1,1020.3,986.5,30,0,0,100,0.1,0.43,16.8,28.6,75,75,38.9,2.7,3.6,8.2,12.5,0.323,0.335,0.356,0.329,1,3600.0,237.1,122.4,114.7,399.1,237.1,433.3,186.0,96.0,90.0,399.1,186.0,339.8,Magnoliopsida; Tracheophyta
2017,2017-04-28,Porto,Paços de Ferreira,Ferreira,São Domingos (Mouta),41.279384999805,-8.3566699997584,Desconhecida,359.0,2017-04-28T18:00,17.0,25,-2.9,14.4,0.0,0.0,0.0,0.0,0,1010.9,969.2,0,0,0,0,0.15,1.45,0.7,0.4,270,180,17.6,18.9,15.1,14.4,12.1,0.126,0.217,0.303,0.37,1,3600.0,235.6,182.4,53.2,696.2,235.6,353.7,319.0,247.0,72.0,696.2,319.0,478.9,Eucalyptus L'Hér.; Tracheophyta; Magnoliopsida; Quercus L.; Pinus pinaster Aiton; 
2017,2017-04-28,Porto,Gondomar,Foz do Sousa,Compostela (Zibreiros),41.0845749999417,-8.50499200026194,NC,97.0,2017-04-28T17:00,19.0,29,0.7,15.1,0.0,0.0,0.0,0.0,0,1011.0,999.6,0,0,0,0,0.34,1.56,12.7,16.4,335,341,25.6,21.0,16.5,15.8,13.7,0.161,0.218,0.298,0.37,1,3600.0,434.0,360.0,74.0,806.2,434.0,602.7,516.0,428.0,88.0,806.2,516.0,716.6,Eucalyptus L'Hér.; Tracheophyta; Magnoliopsida; Pinus pinaster Aiton
2017,2017-04-28,Porto,Paredes,Sobrosa,Prado,41.2445379998949,-8.35703299999237,NC,306.0,2017-04-28T17:00,18.0,25,-2.2,14.5,0.0,0.0,0.0,0.0,0,1011.2,975.7,0,0,0,0,0.31,1.54,6.7,8.8,74,81,24.1,19.1,14.9,14.6,12.4,0.166,0.21,0.293,0.379,1,3600.0,438.1,363.3,74.8,816.0,438.1,600.9,521.0,432.0,89.0,816.0,521.0,714.6,Magnoliopsida; Pinus pinaster Aiton; Eucalyptus L'Hér.; Tracheophyta; Vitis vinifera L.
2017,2017-04-28,Porto,Santo Tirso,Sequeiró,Montes Altos (Monte dos Saltos),41.3589379999373,-8.45307800001568,NC,79.0,2017-04-28T17:00,19.3,28,0.4,16.3,0.0,0.0,0.0,0.0,0,1011.2,1001.9,0,0,0,0,0.32,1.61,6.9,8.6,276,285,16.9,21.3,16.5,15.9,13.7,0.153,0.197,0.279,0.36,1,3600.0,441.1,365.4,75.8,817.7,441.1,603.1,524.0,434.0,90.0,817.7,524.0,716.4,Magnoliopsida; Pinus pinaster Aiton; Tracheophyta; Eucalyptus L'Hér.; Vitis vinifera L.
2017,2017-04-28,Porto,Penafiel,Galegos,Carvalheiro,41.1604959996541,-8.29713900036282,NC,244.0,2017-04-28T16:00,18.3,26,-1.3,15.5,0.0,0.0,0.0,0.0,0,1011.2,982.8,0,0,0,0,0.43,1.55,9.8,12.4,62,64,24.1,19.7,14.5,14.5,12.1,0.156,0.232,0.312,0.369,1,3600.0,629.4,539.8,89.7,887.5,629.4,820.9,702.0,602.0,100.0,887.5,702.0,915.6,Eucalyptus L'Hér.; Magnoliopsida; Tracheophyta
2017,2017-04-28,Porto,Paredes,Aguiar de Sousa,Brandião,41.0913320000966,-8.42932300037808,NC,180.0,2017-04-28T16:00,19.4,27,-0.2,16.5,0.0,0.0,0.0,0.0,0,1010.9,989.9,0,0,0,0,0.44,1.65,10.3,12.7,12,15,25.9,20.8,15.6,15.3,13.1,0.162,0.218,0.298,0.371,1,3600.0,623.6,533.9,89.7,873.9,623.6,824.6,695.0,595.0,100.0,873.9,695.0,919.0,Magnoliopsida; Pinus pinaster Aiton; Eucalyptus L'Hér.; Tracheophyta; Vitis vinifera L.
2017,2017-04-28,Porto,Felgueiras,Lagares,monte de ruas (Monte das Ruas),41.3626470004188,-8.22361700005001,Desconhecida,292.0,2017-04-28T15:00,17.9,25,-2.3,15.9,0.0,0.0,0.0,0.0,0,1011.6,977.6,0,0,0,0,0.5,1.54,9.0,11.6,106,106,27.7,19.2,13.9,14.5,12.4,0.16,0.229,0.31,0.373,1,3600.0,793.6,690.6,102.9,931.3,793.6,1001.0,848.0,738.0,110.0,931.3,848.0,1069.6,Magnoliopsida; Tracheophyta
2017,2017-04-28,Porto,Penafiel,Santiago de Subarrifana,S.Roque (São Roque),41.2106680001153,-8.29690199957954,NC,195.0,2017-04-28T15:00,18.6,26,-1.5,16.6,0.0,0.0,0.0,0.0,0,1011.6,988.8,0,0,0,0,0.51,1.59,9.1,11.6,99,97,28.8,19.9,14.6,15.1,12.8,0.146,0.222,0.304,0.373,1,3600.0,790.7,687.8,102.9,926.7,790.7,1001.8,845.0,735.0,110.0,926.7,845.0,1070.6,Vitis vinifera L.; Tracheophyta
2017,2017-04-28,Porto,Vila Nova de Gaia,Vilar de Andorinho,Monte da Virgem (Viela do Monte da Virgem),41.1030679999457,-8.58570999993218,NC,196.0,2017-04-28T14:00,19.5,28,0.7,17.5,0.0,0.0,0.0,0.0,0,1011.7,988.9,0,0,0,0,0.57,1.63,13.7,17.0,67,69,32.4,19.9,14.7,15.2,13.0,0.163,0.219,0.299,0.371,1,3600.0,895.0,783.7,111.3,934.2,895.0,1132.5,925.0,810.0,115.0,934.2,925.0,1170.5,Tracheophyta; Magnoliopsida; Pinus pinaster Aiton; Pinus pinea L.
2017,2017-04-28,Porto,Paços de Ferreira,Freamunde,Rua Nova de Cachopadre,41.2997119998932,-8.3468199994829,Desconhecida,336.0,2017-04-28T14:00,17.4,27,-2.1,15.5,0.0,0.0,0.0,0.0,0,1012.2,973.1,0,0,0,0,0.54,1.46,11.0,13.9,101,100,33.1,19.2,13.8,14.5,12.2,0.129,0.219,0.303,0.37,1,3600.0,903.6,792.3,111.3,946.6,903.6,1129.9,934.0,819.0,115.0,946.6,934.0,1167.9,Tracheophyta; Eucalyptus L'Hér.; Magnoliopsida; Pinus pinaster Aiton; 
2017,2017-04-28,Porto,Santo Tirso,Rebordões,São João Carvalhinho (CARVALHIDO),41.3506350000037,-8.44067700015174,NC,247.0,2017-04-28T14:00,18.2,25,-2.0,16.3,0.0,0.0,0.0,0.0,0,1012.2,983.4,0,0,0,0,0.56,1.56,11.5,14.8,94,96,32.0,19.2,14.1,14.9,12.8,0.14,0.218,0.299,0.367,1,3600.0,905.5,793.3,112.2,948.3,905.5,1129.3,936.0,820.0,116.0,948.3,936.0,1167.3,Tracheophyta; Pinus pinaster Aiton; Eucalyptus L'Hér.; Magnoliopsida; Vitis vinifera L.
2017,2017-04-28,Porto,Vila do Conde,Árvore,Lente (R. da Lente 101. 4485 Macieira da Maia. Portugal),41.3358333333333,-8.69555555555556,Reacendimento,54.0,2017-04-28T13:00,19.0,26,-1.0,18.6,0.0,0.0,0.0,0.0,0,1012.5,1006.1,0,0,0,0,0.58,1.64,5.3,7.4,62,67,29.9,20.1,15.1,15.7,13.5,0.129,0.217,0.299,0.362,1,3600.0,959.5,840.9,118.6,950.0,959.5,1194.8,963.0,844.0,119.0,950.0,963.0,1199.2,Eucalyptus L'Hér.
2017,2017-04-28,Porto,Penafiel,Milhundos,Rande (Escola Secundária de Penafiel),41.2090000004239,-8.2738279999627,NC,354.0,2017-04-28T13:00,16.4,28,-2.2,14.0,0.0,0.0,0.0,0.0,0,1012.6,971.3,0,0,0,0,0.54,1.35,15.0,19.3,100,99,42.1,17.0,12.9,14.0,11.7,0.147,0.223,0.305,0.373,1,3600.0,962.7,847.2,115.5,956.7,962.7,1195.4,967.0,851.0,116.0,956.7,967.0,1200.8,Magnoliopsida; Tracheophyta; Eucalyptus L'Hér.; Vitis vinifera L.
2017,2017-04-29,Porto,Paredes,Lordelo,Igreja (Padrão),41.2302119996813,-8.41005100038316,NC,216.0,2017-04-29T03:00,9.9,70,4.7,7.5,0.0,0.0,0.0,0.0,0,1010.9,985.0,8,0,13,0,0.01,0.37,7.8,21.5,202,198,18.0,11.4,14.7,15.1,13.0,0.165,0.209,0.291,0.378,0,0.0,0.0,0.0,0.0,0.0,0.0,0.0,0.0,0.0,0.0,0.0,0.0,0.0,Magnoliopsida; Pinus pinaster Aiton; Eucalyptus L'Hér.; Tracheophyta; Vitis vinifera L.
2017,2017-04-29,Porto,Paredes,Rebordosa,Monte Azevido (Rebordosa),41.2176900000042,-8.43602499988344,NC,212.0,2017-04-29T03:00,10.0,70,4.8,7.6,0.0,0.0,0.0,0.0,0,1010.9,985.4,8,0,13,0,0.01,0.37,7.8,21.5,202,198,18.0,11.5,14.8,15.1,13.0,0.165,0.209,0.291,0.378,0,0.0,0.0,0.0,0.0,0.0,0.0,0.0,0.0,0.0,0.0,0.0,0.0,0.0,Magnoliopsida; Pinus pinaster Aiton; Eucalyptus L'Hér.; Tracheophyta; Vitis vinifera L.
2017,2017-04-29,Porto,Penafiel,Abragão,Lugar de Vilar (Crasto),41.1527330001195,-8.22719699965583,NC,151.0,2017-04-29T23:00,11.7,70,6.5,8.5,0.0,0.0,0.0,0.0,3,1011.0,992.9,100,48,100,0,0.04,0.41,15.5,24.5,202,204,33.1,13.7,15.1,14.8,12.8,0.153,0.229,0.309,0.369,0,0.0,0.0,0.0,0.0,0.0,0.0,0.0,0.0,0.0,0.0,0.0,0.0,0.0,Magnoliopsida; Eucalyptus L'Hér.; Tracheophyta
2017,2017-04-29,Porto,Amarante,Fregim,Amarantinho (Florenta),41.2532920000288,-8.10458199977875,Desconhecida,179.0,2017-04-29T22:00,11.6,68,5.9,8.4,0.0,0.0,0.0,0.0,3,1011.3,989.9,100,77,98,0,0.04,0.43,14.8,25.0,206,210,33.8,14.1,15.4,15.0,12.9,0.143,0.219,0.301,0.372,0,0.0,0.0,0.0,0.0,0.0,0.0,0.0,0.0,0.0,0.0,0.0,0.0,0.0,Tracheophyta; Magnoliopsida; Pinus pinaster Aiton; Vitis vinifera L.; Quercus L.; Eucalyptus L'Hér.; 
2017,2017-04-29,Porto,Penafiel,Santiago de Subarrifana,São Roque,41.2102030001746,-8.29596000035604,NC,208.0,2017-04-29T21:00,11.3,66,5.1,8.3,0.0,0.0,0.0,0.0,3,1011.7,986.8,100,100,95,0,0.03,0.46,12.4,20.7,216,219,32.0,14.3,15.3,14.8,12.7,0.142,0.219,0.302,0.372,0,0.0,0.0,0.0,0.0,0.0,0.0,0.0,0.0,0.0,0.0,0.0,0.0,0.0,Vitis vinifera L.; Tracheophyta
2017,2017-04-29,Porto,Paredes,Beire,Torre Madureira (Rebordãos),41.2421619998084,-8.32587500042385,NC,204.0,2017-04-29T21:00,11.5,66,5.4,8.4,0.0,0.0,0.0,0.0,3,1011.5,987.1,100,100,96,0,0.04,0.46,13.8,21.9,221,222,33.5,14.7,15.6,15.0,13.1,0.165,0.207,0.29,0.378,0,0.0,0.0,0.0,0.0,0.0,0.0,0.0,0.0,0.0,0.0,0.0,0.0,0.0,Magnoliopsida; Pinus pinaster Aiton; Eucalyptus L'Hér.; Tracheophyta; Vitis vinifera L.
2017,2017-04-29,Porto,Amarante,Freixo de Baixo,Lugar de Cestais (Cestais),41.2842550000217,-8.10125,Desconhecida,161.0,2017-04-29T20:00,11.4,66,5.3,8.2,0.0,0.0,0.0,0.0,3,1011.5,992.2,100,100,62,0,0.06,0.46,14.1,23.4,220,223,32.4,15.5,16.0,15.3,13.2,0.131,0.217,0.302,0.372,0,0.0,0.0,0.0,0.0,0.0,0.0,0.0,5.0,1.0,4.0,13.6,5.0,39.8,Tracheophyta; Eucalyptus L'Hér.; Magnoliopsida; Vitis vinifera L.
2017,2017-04-29,Porto,Santo Tirso,Monte Córdova,Quinchães,41.3146500004662,-8.43244700007969,NC,383.0,2017-04-29T20:00,9.9,66,3.8,6.4,0.0,0.0,0.0,0.0,3,1011.5,966.0,100,100,62,0,0.06,0.42,14.1,23.4,220,223,32.4,14.1,14.6,13.9,11.8,0.131,0.217,0.302,0.372,0,0.0,0.0,0.0,0.0,0.0,0.0,0.0,5.0,1.0,4.0,13.6,5.0,39.8,Tracheophyta; Vitis vinifera L.; Eucalyptus L'Hér.; Pinus pinaster Aiton; Magnoliopsida
2017,2017-04-29,Porto,Paredes,Aguiar de Sousa,Brandião,41.0906680001153,-8.42943700048659,NC,179.0,2017-04-29T20:00,12.2,61,4.9,8.4,0.0,0.0,0.0,0.0,3,1011.6,990.2,100,93,75,0,0.08,0.55,17.4,26.0,232,233,34.6,15.6,15.9,15.2,13.2,0.159,0.215,0.296,0.37,0,0.0,0.0,0.0,0.0,0.0,0.0,0.0,4.0,1.0,3.0,13.5,4.0,41.0,Magnoliopsida; Pinus pinaster Aiton; Eucalyptus L'Hér.; Tracheophyta; Vitis vinifera L.
2017,2017-04-29,Porto,Penafiel,Fonte Arcada,Lugar de Vilar (São Domingos),41.1398320002026,-8.36456700007121,NC,274.0,2017-04-29T20:00,11.3,61,4.0,7.5,0.0,0.0,0.0,0.0,3,1011.6,978.9,100,88,62,0,0.07,0.52,16.3,25.5,227,228,33.5,14.8,15.1,14.5,12.4,0.163,0.207,0.29,0.373,0,0.0,0.0,0.0,0.0,0.0,0.0,0.0,4.0,1.0,3.0,13.6,4.0,40.2,Magnoliopsida; Eucalyptus L'Hér.; Tracheophyta
2017,2017-01-20,Porto,Santo Tirso,Vilarinho,Paradela (BESTEIROS),41.3471869998508,-8.31907800012165,NC,470.0,2017-01-20T18:00,3.9,71,-0.8,0.6,0.0,0.0,0.0,0.0,1,1018.5,961.5,31,0,1,100,0.02,0.23,7.7,9.4,28,40,13.3,4.6,4.2,6.8,11.2,0.318,0.333,0.355,0.329,0,7.89,0.0,0.0,0.0,0.0,0.0,0.0,11.0,5.0,6.0,64.3,11.0,49.0,Eucalyptus L'Hér.; Tracheophyta; Magnoliopsida
2017,2017-04-29,Porto,Amarante,Várzea,Lugar dom Paço (ED15 (ED15) Km 74),41.2520519999663,-7.9917550002204,Desconhecida,300.0,2017-04-29T19:00,10.5,70,5.4,7.3,0.0,0.0,0.0,0.0,2,1011.6,975.8,53,45,21,0,0.07,0.38,14.5,23.2,240,240,41.8,14.8,14.2,14.0,12.1,0.182,0.248,0.323,0.379,1,3580.56,48.6,31.0,17.6,355.3,48.4,96.6,113.0,72.0,41.0,430.9,113.0,224.7,Magnoliopsida; Eucalyptus L'Hér.; Tracheophyta; Pinus pinaster Aiton; Vitis vinifera L.; Castanea sativa Mill.; Quercus L.; Olea europaea L.; Acacia Mill.; Pinales; 
2017,2017-04-29,Porto,Lousada,Cristelos,Rua do Crasto,41.2791530005137,-8.30019500000609,Desconhecida,203.0,2017-04-29T18:00,12.6,63,5.8,8.8,0.0,0.0,0.0,0.0,1,1011.2,987.0,48,44,14,0,0.15,0.54,19.2,26.6,242,243,44.3,17.8,16.1,15.2,13.2,0.124,0.216,0.301,0.369,1,3600.0,181.5,96.3,85.2,363.6,181.5,357.4,245.0,130.0,115.0,363.6,245.0,482.4,Pinus pinaster Aiton; Tracheophyta; Eucalyptus L'Hér.; Magnoliopsida
2017,2017-04-29,Porto,Maia,Gemunde,Lugar Anta (FARO),41.2697129999267,-8.62857199986776,Reacendimento,129.0,2017-04-29T17:00,13.5,63,6.7,9.8,0.0,0.0,0.0,0.0,2,1011.5,996.1,56,34,13,59,0.22,0.57,19.7,25.8,242,242,40.7,18.8,16.0,15.1,13.2,0.121,0.219,0.303,0.365,1,3600.0,365.1,247.1,118.0,547.9,365.1,608.3,433.0,293.0,140.0,547.9,433.0,721.4,Eucalyptus L'Hér.; Tracheophyta; Pinus pinaster Aiton; Magnoliopsida
2017,2017-04-29,Porto,Vila Nova de Gaia,Valadares,Lugar do Rio (Rua do Rio),41.0900229999754,-8.64003800021278,NC,28.0,2017-04-29T17:00,14.2,65,7.8,10.7,0.0,0.0,0.0,0.0,1,1011.7,1008.3,38,18,10,54,0.23,0.56,20.0,26.3,244,245,40.3,18.7,16.4,15.7,13.9,0.18,0.239,0.313,0.38,1,3600.0,385.1,273.0,112.1,605.8,385.1,608.0,457.0,324.0,133.0,605.8,457.0,721.5,Magnoliopsida; Pinus pinaster Aiton; Tracheophyta; Eucalyptus L'Hér.; Vitis vinifera L.; Pinales; Quercus L.; 
2017,2017-04-29,Porto,Vila Nova de Gaia,Pedroso,Alto dos Carvalhais (Rua da Fonte de Sanfalhos),41.051747999986,-8.55009700000286,Desconhecida,171.0,2017-04-29T17:00,13.2,65,6.8,9.5,0.0,0.0,0.0,0.0,1,1011.8,991.4,38,19,9,53,0.22,0.53,19.9,25.7,248,248,38.2,18.8,15.9,15.1,13.1,0.149,0.229,0.31,0.378,1,3600.0,394.3,282.2,112.0,626.3,394.3,607.9,468.0,335.0,133.0,626.3,468.0,721.6,Eucalyptus L'Hér.; Magnoliopsida; Tracheophyta
2017,2017-04-29,Porto,Penafiel,Vila Cova,Alto de Boriz (ED312 (ED312) Km 125),41.1777110004425,-8.24304599973891,NC,359.0,2017-04-29T16:00,14.0,58,5.8,10.6,0.0,0.0,0.0,0.0,1,1010.6,968.5,32,21,2,38,0.3,0.68,18.0,24.6,254,252,43.2,17.8,14.1,14.0,11.8,0.131,0.221,0.307,0.378,1,3600.0,542.5,416.1,126.4,682.7,542.5,822.1,605.0,464.0,141.0,682.7,605.0,916.9,Eucalyptus L'Hér.; Pinus pinaster Aiton; Tracheophyta; Magnoliopsida; Vitis vinifera L.
2017,2017-04-29,Porto,Amarante,Real,Lug de Balanceiros (Vila Meã),41.2498230001662,-8.17762399991353,Desconhecida,195.0,2017-04-29T16:00,14.8,55,5.8,11.4,0.0,0.0,0.0,0.0,1,1010.7,987.6,32,12,3,64,0.32,0.76,18.2,24.3,245,245,43.6,18.5,15.0,14.9,12.8,0.142,0.219,0.302,0.373,1,3600.0,550.9,425.2,125.6,696.5,550.9,823.7,614.0,474.0,140.0,696.5,614.0,918.1,Tracheophyta; Magnoliopsida; Quercus L.; Pinales; Vitis vinifera L.
2017,2017-04-29,Porto,Paredes,Louredo,Casal (Cruz),41.2375219999419,-8.3421100001865,NC,224.0,2017-04-29T16:00,13.8,60,6.2,10.3,0.0,0.0,0.0,0.0,1,1010.9,984.4,44,15,9,83,0.28,0.63,18.1,24.0,247,246,40.7,18.4,15.2,14.9,13.0,0.165,0.208,0.29,0.378,1,3600.0,513.4,379.7,133.7,620.5,513.4,825.5,572.0,423.0,149.0,620.5,572.0,919.7,Tracheophyta; Magnoliopsida; Eucalyptus L'Hér.; Pinus pinaster Aiton; Vitis vinifera L.; 
2017,2017-01-20,Porto,Paços de Ferreira,Meixomil,Boucinhas,41.2951199997796,-8.40393799993727,Desconhecida,366.0,2017-01-20T14:00,9.5,49,-0.6,5.1,0.0,0.0,0.0,0.0,1,1018.1,974.2,26,0,1,86,0.21,0.6,14.5,20.3,83,83,35.3,6.5,4.2,8.0,12.1,0.306,0.323,0.351,0.331,1,3600.0,422.9,317.2,105.7,716.6,422.9,625.3,444.0,333.0,111.0,716.6,444.0,656.4,Eucalyptus L'Hér.; Quercus L.; Tracheophyta; Magnoliopsida; Pinus pinaster Aiton; ; Vitis vinifera L.
2017,2017-04-29,Porto,Paredes,Duas Igrejas,Chao de Frades (Seixoso),41.2295449998644,-8.38767199993134,NC,354.0,2017-04-29T16:00,13.7,55,4.8,10.1,0.0,0.0,0.0,0.0,1,1010.7,969.1,32,12,3,64,0.31,0.71,18.2,24.3,245,245,43.6,17.5,14.0,13.8,11.8,0.142,0.219,0.302,0.373,1,3600.0,550.9,425.2,125.6,696.5,550.9,823.7,614.0,474.0,140.0,696.5,614.0,918.1,Magnoliopsida; Pinus pinaster Aiton; Eucalyptus L'Hér.; Tracheophyta; Vitis vinifera L.
2017,2017-04-29,Porto,Penafiel,Vila Cova,lugar das cruzes (Nossa Senhora do Rosário),41.1724269999398,-8.23853700002035,NC,290.0,2017-04-29T16:00,14.1,57,5.6,10.6,0.0,0.0,0.0,0.0,1,1010.7,976.5,31,13,3,58,0.3,0.7,18.1,24.4,249,248,41.8,17.5,14.1,14.0,11.9,0.152,0.229,0.31,0.369,1,3600.0,529.3,390.2,139.0,639.0,529.3,823.9,590.0,435.0,155.0,639.0,590.0,918.4,Eucalyptus L'Hér.; Pinus pinaster Aiton; Magnoliopsida; Tracheophyta; Quercus L.; Vitis vinifera L.
2017,2017-04-29,Porto,Paredes,Sobreira,Vilar (Quinta da Torre),41.1400430001153,-8.38209499994914,NC,125.0,2017-04-29T15:00,15.6,57,7.0,12.7,0.0,0.0,0.0,0.0,0,1010.9,996.1,16,12,0,18,0.35,0.77,18.9,24.9,249,248,41.8,19.1,15.4,15.4,13.4,0.164,0.207,0.291,0.374,1,3600.0,630.0,459.7,170.4,616.3,630.0,1006.3,673.0,491.0,182.0,616.3,673.0,1074.9,Magnoliopsida; Pinus pinaster Aiton; Eucalyptus L'Hér.; Tracheophyta; Vitis vinifera L.
2017,2017-04-29,Porto,Paços de Ferreira,Penamaior,Rua do Ribeiro,41.2775680001577,-8.41861499998305,Desconhecida,376.0,2017-04-29T15:00,14.3,53,4.9,10.6,0.0,0.0,0.0,0.0,0,1010.6,966.6,14,9,2,17,0.32,0.76,18.7,24.8,242,242,41.4,17.9,13.9,13.9,11.8,0.131,0.217,0.302,0.372,1,3600.0,571.0,363.2,207.8,488.0,571.0,1004.1,610.0,388.0,222.0,488.0,610.0,1072.8,Magnoliopsida; Eucalyptus L'Hér.; Tracheophyta; Vitis vinifera L.; 
2017,2017-04-29,Porto,Paredes,Rebordosa,Monte Azevido (Azevido),41.2184329999818,-8.40916700045268,NC,216.0,2017-04-29T14:00,15.3,55,6.3,12.6,0.0,0.0,0.0,0.0,1,1010.8,985.3,22,9,15,16,0.37,0.79,18.2,23.7,243,242,40.0,18.4,14.7,15.0,13.0,0.166,0.208,0.291,0.378,1,3600.0,682.1,488.6,193.5,581.7,682.1,1133.1,705.0,505.0,200.0,581.7,705.0,1171.2,Magnoliopsida; Pinus pinaster Aiton; Eucalyptus L'Hér.; Tracheophyta; Vitis vinifera L.
2017,2017-04-29,Porto,Penafiel,Irivo,Lugar de Guedixe (Senhora do Vale),41.1792900000678,-8.34232799953885,NC,121.0,2017-04-29T14:00,16.2,54,6.9,13.5,0.0,0.0,0.0,0.0,1,1010.8,996.5,24,10,15,19,0.38,0.84,18.0,23.8,244,243,40.0,18.9,15.1,15.5,13.4,0.164,0.207,0.291,0.374,1,3600.0,687.8,517.6,170.3,616.0,687.8,1133.6,711.0,535.0,176.0,616.0,711.0,1171.8,Tracheophyta; Magnoliopsida; Eucalyptus L'Hér.
2017,2017-04-29,Porto,Vila do Conde,Outeiro Maior,Campos da Serra (E805. Portugal),41.3847222222222,-8.62888888888889,Reacendimento,76.0,2017-04-29T14:00,14.9,64,8.2,13.0,0.0,0.0,0.0,0.0,1,1011.1,1002.0,24,19,4,16,0.38,0.61,19.0,24.0,243,242,40.3,19.8,15.5,15.4,13.4,0.123,0.213,0.297,0.362,1,3600.0,788.0,607.9,180.1,723.6,788.0,1133.6,814.0,628.0,186.0,723.6,814.0,1171.0,Magnoliopsida; Eucalyptus L'Hér.; Tracheophyta
2017,2017-04-29,Porto,Gondomar,Foz do Sousa,Gens (Alto de Nabais),41.1115130000644,-8.48817700015174,Desconhecida,85.0,2017-04-29T13:00,15.3,61,7.8,12.4,0.0,0.0,0.0,0.0,1,1011.0,1000.9,33,14,25,19,0.29,0.68,16.5,20.9,247,246,34.9,18.6,15.3,15.8,13.7,0.161,0.216,0.297,0.37,1,3600.0,504.9,280.9,224.1,315.8,504.9,1200.1,507.0,282.0,225.0,315.8,507.0,1204.9,Vitis vinifera L.; Pinus pinaster Aiton; Tracheophyta; Eucalyptus L'Hér.; Magnoliopsida
2017,2017-04-29,Porto,Valongo,Sobrado,Balsa (Quinta dos Muros),41.2286569997999,-8.45211499995655,NC,130.0,2017-04-29T13:00,15.7,58,7.5,13.5,0.0,0.0,0.0,0.0,1,1010.8,995.4,38,13,32,25,0.38,0.75,17.2,21.7,244,243,37.8,19.3,15.3,15.6,13.6,0.135,0.221,0.305,0.372,1,3600.0,740.0,573.7,166.3,645.7,740.0,1198.6,743.0,576.0,167.0,645.7,743.0,1203.5,Eucalyptus L'Hér.; Tracheophyta; Magnoliopsida; Vitis vinifera L.
2017,2017-04-29,Porto,Paredes,Baltar,Padrão,41.1944430001577,-8.39471499972873,Desconhecida,405.0,2017-04-29T12:00,14.0,60,6.3,11.7,0.0,0.0,0.0,0.0,1,1010.9,963.6,35,20,29,0,0.34,0.64,13.7,18.1,240,239,36.7,15.9,12.2,13.2,11.1,0.154,0.23,0.31,0.369,1,3600.0,681.9,420.8,261.1,473.8,681.9,1198.3,666.0,411.0,255.0,473.8,666.0,1170.4,Magnoliopsida; Pinus pinaster Aiton; Eucalyptus L'Hér.; Tracheophyta; Vitis vinifera L.
2017,2017-01-20,Porto,Paços de Ferreira,Figueiró,Monte Parada (Parada de Baixo),41.3075849999322,-8.33536199993557,Desconhecida,359.0,2017-01-20T15:00,9.8,50,-0.0,6.3,0.0,0.0,0.0,0.0,1,1018.1,975.1,26,0,0,86,0.17,0.6,9.7,13.7,90,88,33.1,7.2,4.5,8.0,12.2,0.305,0.323,0.351,0.331,1,3600.0,324.1,213.7,110.4,591.9,324.1,509.9,364.0,240.0,124.0,591.9,364.0,572.8,Tracheophyta; Magnoliopsida; Eucalyptus L'Hér.; Vitis vinifera L.; Pinus pinaster Aiton; 
2017,2017-04-30,Porto,Santo Tirso,Negrelos (São Mamede),Paradela (Sardoal),41.3512929999828,-8.33394800000721,NC,338.0,2017-04-30T01:00,10.2,75,6.0,5.8,0.1,0.1,0.0,0.0,51,1008.6,968.5,100,100,89,79,0.04,0.31,22.8,36.3,185,187,47.5,12.1,14.2,14.0,12.2,0.159,0.225,0.307,0.373,0,0.0,0.0,0.0,0.0,0.0,0.0,0.0,0.0,0.0,0.0,0.0,0.0,0.0,Vitis vinifera L.; Magnoliopsida; Eucalyptus L'Hér.; Tracheophyta; Pinus pinaster Aiton
2017,2017-04-29,Porto,Penafiel,Castelões,Lg. Bento Peixoto (Devesa),41.2284229999118,-8.1808180003696,NC,196.0,2017-04-29T23:00,11.3,73,6.6,8.0,0.1,0.1,0.0,0.0,51,1010.8,987.3,100,56,100,0,0.03,0.36,16.3,25.9,202,205,37.4,13.7,15.2,14.8,12.8,0.143,0.219,0.301,0.372,0,0.0,0.0,0.0,0.0,0.0,0.0,0.0,0.0,0.0,0.0,0.0,0.0,0.0,Tracheophyta; Eucalyptus L'Hér.; Magnoliopsida; Vitis vinifera L.; Quercus L.
2017,2017-04-30,Porto,Felgueiras,Sendim,Lg. Casal (Belos Ares),41.3813129997253,-8.19566100014581,Desconhecida,364.0,2017-04-30T00:00,9.8,76,5.8,6.1,0.4,0.4,0.0,0.0,51,1009.9,966.7,100,100,100,8,0.03,0.29,17.9,29.4,195,197,38.2,12.1,14.2,13.9,12.0,0.151,0.224,0.309,0.371,0,0.0,0.0,0.0,0.0,0.0,0.0,0.0,0.0,0.0,0.0,0.0,0.0,0.0,Magnoliopsida; Eucalyptus L'Hér.; Pinus pinaster Aiton; Tracheophyta
2017,2017-05-01,Porto,Paredes,Louredo,Lg de Alto de Facho (Alto do Facho),41.2429170004527,-8.33639300001992,NC,310.0,2017-05-01T06:00,6.4,78,2.9,4.2,0.0,0.0,0.0,0.0,1,1022.5,984.6,22,19,0,15,0.02,0.21,3.8,4.5,73,104,6.5,8.7,11.8,14.1,12.5,0.308,0.225,0.29,0.377,1,0.0,15.0,5.0,10.0,57.2,6.1,101.7,6.0,2.0,4.0,27.0,6.0,40.8,Tracheophyta; Magnoliopsida; Eucalyptus L'Hér.; Pinus pinaster Aiton; Vitis vinifera L.; 
2017,2017-05-01,Porto,Gondomar,Covelo,serra das flores,41.0871550001038,-8.43777499993642,NC,304.0,2017-05-01T17:00,14.4,56,5.8,11.4,0.0,0.0,0.0,0.0,0,1022.4,986.3,1,1,0,0,0.24,0.71,13.3,17.1,311,311,30.6,17.0,13.7,13.9,12.2,0.251,0.219,0.295,0.36,1,3600.0,375.3,265.6,109.6,586.5,375.3,610.4,445.0,315.0,130.0,586.5,445.0,723.8,Eucalyptus L'Hér.; Pinus pinaster Aiton; Magnoliopsida
2017,2017-05-01,Porto,Vila do Conde,Guilhabreu,lugar das pedreiras (Senhora do Amparo),41.2935609997643,-8.63554300003582,NC,137.0,2017-05-01T16:00,14.2,57,5.8,11.4,0.0,0.0,0.0,0.0,0,1022.9,1006.4,0,0,0,0,0.27,0.69,11.6,14.2,275,277,28.4,17.3,14.1,14.7,13.2,0.268,0.228,0.301,0.364,1,3600.0,457.7,259.9,197.8,419.7,457.7,834.5,509.0,289.0,220.0,419.7,509.0,928.0,Eucalyptus L'Hér.; Tracheophyta; Magnoliopsida
2017,2017-01-20,Porto,Vila Nova de Gaia,Valadares,Lug das Ruchadas (Rua de Medeiros),41.0918319998847,-8.6353970000479,NC,42.0,2017-01-20T10:00,7.1,60,-0.1,3.4,0.0,0.0,0.0,0.0,0,1019.9,1014.7,2,0,0,6,0.09,0.41,10.7,18.4,70,79,24.5,4.9,5.9,10.2,14.0,0.323,0.334,0.356,0.349,1,3600.0,263.6,188.1,75.5,613.8,263.6,432.9,206.0,147.0,59.0,613.8,206.0,338.3,Magnoliopsida; Pinus pinaster Aiton; Tracheophyta; Eucalyptus L'Hér.; Vitis vinifera L.; Pinales; Quercus L.; 
2017,2017-05-01,Porto,Trofa,Bougado (Santiago),Lg do Progresso (Agros),41.3405479998059,-8.58713000006146,NC,24.0,2017-05-01T14:00,15.2,55,6.1,12.9,0.0,0.0,0.0,0.0,0,1023.6,1020.7,6,4,0,9,0.35,0.79,13.3,16.3,251,252,29.9,17.3,14.0,15.4,13.8,0.28,0.227,0.296,0.361,1,3600.0,634.2,391.1,243.0,463.0,634.2,1138.6,655.0,404.0,251.0,463.0,655.0,1176.0,Tracheophyta; Pinales; Magnoliopsida
2017,2017-05-01,Porto,Gondomar,Covelo,Serra das Flores,41.0879649999407,-8.43858000013563,NC,294.0,2017-05-01T14:00,15.9,51,5.7,14.0,0.0,0.0,0.0,0.0,3,1022.7,987.9,91,100,0,4,0.38,0.89,10.7,13.0,284,284,26.3,17.2,12.8,13.9,12.2,0.257,0.219,0.295,0.36,1,3600.0,645.3,323.2,322.2,382.3,645.3,1139.2,667.0,334.0,333.0,382.3,667.0,1177.5,Eucalyptus L'Hér.; Pinus pinaster Aiton; Magnoliopsida
2017,2017-05-02,Porto,Paredes,Rebordosa,Monte Azevido (Rebordosa),41.2176900000042,-8.43602499988344,NC,212.0,2017-05-02T12:00,20.5,47,8.8,21.9,0.0,0.0,0.0,0.0,0,1018.4,993.6,0,0,0,0,0.56,1.28,3.7,5.0,169,159,15.8,19.1,13.6,14.4,13.2,0.27,0.226,0.288,0.377,1,3600.0,926.4,810.7,115.7,906.2,926.4,1205.2,905.0,792.0,113.0,906.2,905.0,1177.3,Magnoliopsida; Pinus pinaster Aiton; Eucalyptus L'Hér.; Tracheophyta; Vitis vinifera L.
2017,2017-05-02,Porto,Gondomar,Gondomar (São Cosme),Lugar Adelino Amaro da Costa (Alminhas),41.1484749995338,-8.52184200021956,NC,131.0,2017-05-02T18:00,18.3,57,9.8,17.1,0.0,0.0,0.0,0.0,0,1017.1,1001.6,0,0,0,0,0.19,0.9,8.5,11.5,306,311,23.4,20.2,16.6,14.9,13.6,0.255,0.231,0.29,0.371,1,3600.0,237.2,183.3,53.9,667.7,237.2,369.8,317.0,245.0,72.0,667.7,317.0,494.3,Tracheophyta; Magnoliopsida; Eucalyptus L'Hér.
2017,2017-05-02,Porto,Vila do Conde,Fajozes,Alminhas (IC1 (IC1) Km 332),41.3219719998042,-8.7076979997423,NC,45.0,2017-05-02T18:00,17.1,66,10.6,15.6,0.0,0.0,0.0,0.0,0,1017.2,1011.8,0,0,0,0,0.18,0.67,11.0,15.1,322,327,23.8,19.7,16.5,15.1,13.9,0.235,0.228,0.3,0.364,1,3600.0,241.6,186.0,55.5,672.3,241.6,372.8,322.0,248.0,74.0,672.3,322.0,496.9,Tracheophyta; Magnoliopsida
2017,2017-01-21,Porto,Baião,São Tomé de Covelas,Lugar de Vinhosinhos (Alvites),41.1231669998169,-7.97168700006273,Desconhecida,241.0,2017-01-21T11:00,9.1,67,3.2,6.4,0.0,0.0,0.0,0.0,0,1022.2,992.9,0,0,0,0,0.15,0.38,7.6,10.6,95,100,22.3,5.7,4.9,8.4,12.9,0.336,0.342,0.36,0.347,1,3600.0,399.8,317.4,82.5,764.2,399.8,586.6,354.0,281.0,73.0,764.2,354.0,519.3,Magnoliopsida; Pinus pinaster Aiton; Vitis vinifera L.; Quercus L.; Tracheophyta; Eucalyptus L'Hér.; Olea europaea L.; 
2017,2017-05-02,Porto,Paredes,Vilela,Lg Pinta (Bitoiro),41.2503770000074,-8.38082800017463,NC,325.0,2017-05-02T16:00,20.2,58,11.5,19.6,0.0,0.0,0.0,0.0,0,1017.3,979.6,0,0,0,0,0.41,1.0,12.6,15.6,297,299,28.1,20.8,14.8,13.6,12.4,0.26,0.224,0.287,0.377,1,3600.0,614.8,524.0,90.8,846.4,614.8,834.0,684.0,583.0,101.0,846.4,684.0,927.8,Magnoliopsida; Pinus pinaster Aiton; Eucalyptus L'Hér.; Tracheophyta; Vitis vinifera L.
2017,2017-05-02,Porto,Paredes,Lordelo,Campa (LORDELO),41.2326790004306,-8.4091639995575,NC,196.0,2017-05-02T15:00,21.9,52,11.7,22.6,0.0,0.0,0.0,0.0,0,1017.7,994.9,0,0,0,0,0.51,1.26,9.7,11.6,285,286,24.1,21.8,15.2,14.5,13.3,0.262,0.225,0.287,0.377,1,3600.0,766.4,664.3,102.1,882.7,766.4,1013.7,818.0,709.0,109.0,882.7,818.0,1082.0,Magnoliopsida; Pinus pinaster Aiton; Eucalyptus L'Hér.; Tracheophyta; Vitis vinifera L.
2017,2017-05-02,Porto,Valongo,Campo,Costa (TERRONHAS),41.1644180001153,-8.455,NC,137.0,2017-05-02T15:00,21.0,58,12.5,21.5,0.0,0.0,0.0,0.0,0,1017.9,1001.9,0,0,0,0,0.49,1.04,12.4,15.3,287,289,28.4,21.8,15.5,14.8,13.5,0.26,0.232,0.29,0.371,1,3600.0,765.6,664.4,101.2,881.4,765.6,1015.4,817.0,709.0,108.0,881.4,817.0,1083.5,Magnoliopsida; Pinus pinaster Aiton; Tracheophyta; Eucalyptus L'Hér.
2017,2017-05-02,Porto,Gondomar,Foz do Sousa,Lg. Gens (Jancido),41.0936029995812,-8.48742900000678,Desconhecida,85.0,2017-05-02T15:00,21.4,57,12.5,21.8,0.0,0.0,0.0,0.0,0,1017.9,1007.9,0,0,0,0,0.49,1.1,12.8,15.7,286,290,29.5,22.3,16.0,15.2,13.9,0.261,0.231,0.293,0.369,1,3600.0,764.6,663.4,101.2,879.8,764.6,1015.7,816.0,708.0,108.0,879.8,816.0,1084.0,Tracheophyta; Eucalyptus L'Hér.; Magnoliopsida; Vitis vinifera L.
2017,2017-05-02,Porto,Paredes,Vila Cova de Carros,Herdeiro (Cimo da Vila),41.2112620004018,-8.37331200016869,NC,332.0,2017-05-02T13:00,20.8,45,8.5,22.6,0.0,0.0,0.0,0.0,0,1017.9,979.5,0,0,0,0,0.58,1.35,2.7,3.3,203,186,16.6,19.6,13.3,13.6,12.4,0.267,0.226,0.288,0.377,1,3600.0,930.9,816.4,114.5,912.1,930.9,1205.8,935.0,820.0,115.0,912.1,935.0,1211.1,Magnoliopsida; Pinus pinaster Aiton; Eucalyptus L'Hér.; Tracheophyta; Vitis vinifera L.; Quercus L.; Acacia Mill.
2017,2017-05-02,Porto,Trofa,Bougado (São Martinho),Paradela (Fonte Má),41.3198959999614,-8.5424410004086,NC,130.0,2017-05-02T12:00,21.4,47,9.5,22.9,0.0,0.0,0.0,0.0,0,1018.4,1003.2,0,0,0,0,0.56,1.35,4.4,5.2,215,214,16.9,19.8,14.1,15.0,13.8,0.253,0.208,0.281,0.367,1,3600.0,922.6,806.9,115.7,902.7,922.6,1204.2,901.0,788.0,113.0,902.7,901.0,1176.0,Eucalyptus L'Hér.; Pinales; Magnoliopsida; Tracheophyta; Pinus pinaster Aiton
2017,2017-01-21,Porto,Paredes,Sobreira,Lugar de Castromil (Castromil),41.1574729998906,-8.39047600004408,NC,155.0,2017-01-21T11:00,8.7,66,2.6,5.4,0.0,0.0,0.0,0.0,0,1022.2,1003.2,0,0,0,0,0.14,0.39,11.2,15.0,69,73,24.8,5.8,5.2,8.8,13.1,0.32,0.326,0.348,0.337,1,3600.0,392.6,310.0,82.6,750.8,392.6,583.1,347.0,274.0,73.0,750.8,347.0,515.4,Magnoliopsida; Pinus pinaster Aiton; Eucalyptus L'Hér.; Tracheophyta; Vitis vinifera L.
2017,2017-05-03,Porto,Gondomar,São Pedro da Cova,Mimosas (Estrada de Dom Miguel),41.1731930001577,-8.51855800006125,NC,183.0,2017-05-03T10:00,24.5,45,11.8,24.3,0.0,0.0,0.0,0.0,0,1013.0,992.0,17,0,0,58,0.47,1.7,10.1,12.4,107,112,25.6,18.6,15.1,14.6,13.3,0.245,0.228,0.287,0.371,1,3600.0,750.0,638.5,111.5,848.8,750.0,1012.9,686.0,584.0,102.0,848.8,686.0,926.4,Magnoliopsida; Tracheophyta; Eucalyptus L'Hér.; Castanea sativa Mill.
2017,2017-05-03,Porto,Trofa,Covelas,Lemende (Lemendo),41.3150779999627,-8.54339500003391,NC,114.0,2017-05-03T07:00,17.7,66,11.3,16.0,0.0,0.0,0.0,0.0,0,1013.9,1000.4,1,0,0,2,0.1,0.68,14.2,24.7,97,106,24.1,14.5,15.5,15.1,13.9,0.237,0.205,0.277,0.367,1,3600.0,192.0,124.4,67.6,459.7,192.0,364.4,125.0,81.0,44.0,459.7,125.0,237.3,Magnoliopsida; Pinus pinaster Aiton; Vitis vinifera L.; Quercus L.; Tracheophyta; Eucalyptus L'Hér.; Olea europaea L.; ; Pinales
2017,2017-05-03,Porto,Póvoa de Varzim,Rates,Fonte Cabra (Pelames),41.4247919999229,-8.67743700027466,NC,54.0,2017-05-03T01:00,10.3,91,8.9,9.2,0.0,0.0,0.0,0.0,0,1015.6,1009.0,0,0,0,0,0.0,0.11,5.5,5.4,79,110,8.6,13.4,15.7,14.9,13.6,0.224,0.219,0.295,0.364,0,0.0,0.0,0.0,0.0,0.0,0.0,0.0,0.0,0.0,0.0,0.0,0.0,0.0,Tracheophyta; Eucalyptus L'Hér.; Pinus pinaster Aiton
2017,2017-05-03,Porto,Trofa,Covelas,Meco da Guerra (COVELAS),41.3010450000233,-8.55700500011444,NC,79.0,2017-05-03T00:00,13.2,76,9.0,12.3,0.0,0.0,0.0,0.0,0,1016.0,1006.5,0,0,0,0,0.0,0.37,4.7,6.5,99,84,10.4,15.7,16.7,15.3,14.1,0.239,0.204,0.277,0.367,0,0.0,0.0,0.0,0.0,0.0,0.0,0.0,0.0,0.0,0.0,0.0,0.0,0.0,Magnoliopsida; Pinus pinaster Aiton; Vitis vinifera L.; Quercus L.; Tracheophyta; Eucalyptus L'Hér.; Olea europaea L.; ; Pinales
2017,2017-05-03,Porto,Santo Tirso,Roriz,Lg. Samoça (ED209-2 (ED209-2) Km 5),41.3388800001144,-8.3693269999822,NC,270.0,2017-05-03T23:00,18.6,58,10.2,16.8,0.0,0.0,0.0,0.0,1,1008.4,977.1,30,0,1,97,0.06,0.89,12.6,26.4,90,84,26.3,17.6,17.9,14.2,12.8,0.199,0.212,0.29,0.365,0,0.0,0.0,0.0,0.0,0.0,0.0,0.0,0.0,0.0,0.0,0.0,0.0,0.0,Pinus pinaster Aiton; Magnoliopsida; Eucalyptus L'Hér.; Vitis vinifera L.; Tracheophyta
2017,2017-05-03,Porto,Vila do Conde,Retorta,Lug da Igreja (Azenha da Retorta),41.3577819999059,-8.72499300003052,Desconhecida,6.0,2017-05-03T22:00,19.9,64,12.9,19.0,0.0,0.0,0.0,0.0,1,1008.6,1007.9,30,0,0,100,0.05,0.84,12.8,26.4,58,55,21.2,18.8,18.7,15.4,14.0,0.21,0.223,0.291,0.36,0,0.0,0.0,0.0,0.0,0.0,0.0,0.0,0.0,0.0,0.0,0.0,0.0,0.0,Tracheophyta; Magnoliopsida; Eucalyptus L'Hér.
2017,2017-05-03,Porto,Penafiel,Duas Igrejas,Perafita (Lagoa),41.1728329997593,-8.26305999967787,Desconhecida,508.0,2017-05-03T21:00,16.8,68,10.9,16.2,0.0,0.0,0.0,0.0,1,1010.0,951.6,29,0,0,97,0.01,0.61,6.2,8.7,97,45,11.2,17.1,16.9,12.6,11.0,0.211,0.232,0.301,0.376,0,0.0,0.0,0.0,0.0,0.0,0.0,0.0,0.0,0.0,0.0,0.0,0.0,0.0,Magnoliopsida; Eucalyptus L'Hér.
2017,2017-05-03,Porto,Penafiel,Galegos,Lg. do Monte (Bairro),41.1654969999525,-8.32546700000763,NC,225.0,2017-05-03T21:00,17.7,61,10.2,16.7,0.0,0.0,0.0,0.0,1,1009.6,983.3,29,0,0,98,0.03,0.78,7.6,19.9,45,42,16.6,19.0,18.5,14.4,12.9,0.231,0.214,0.283,0.371,0,0.0,0.0,0.0,0.0,0.0,0.0,0.0,0.0,0.0,0.0,0.0,0.0,0.0,Tracheophyta; Eucalyptus L'Hér.; Magnoliopsida
2017,2017-05-03,Porto,Gondomar,Rio Tinto,Cavadas (Rio Tinto),41.1834620000008,-8.55562000009749,NC,77.0,2017-05-03T19:00,21.5,59,13.2,21.6,0.0,0.0,0.0,0.0,1,1009.4,1000.4,30,0,0,99,0.09,1.05,6.9,17.8,6,7,14.4,22.2,19.3,15.4,14.0,0.225,0.224,0.285,0.371,1,3600.0,57.0,28.0,29.0,317.0,57.0,119.0,118.0,58.0,60.0,317.0,118.0,246.3,Tracheophyta; Magnoliopsida
2017,2017-01-21,Porto,Vila do Conde,Rio Mau,Lugar da Lomba (RIO MAU),41.4013650000095,-8.68082800017463,NC,63.0,2017-01-21T10:00,7.6,68,2.0,4.0,0.0,0.0,0.0,0.0,0,1022.1,1014.3,0,0,0,0,0.09,0.34,12.5,21.3,78,86,23.0,5.2,5.9,9.4,13.6,0.301,0.318,0.347,0.326,1,3600.0,260.0,185.7,74.3,608.7,260.0,430.9,203.0,145.0,58.0,608.7,203.0,336.4,Pinus pinaster Aiton; Tracheophyta; Eucalyptus L'Hér.
2017,2017-05-03,Porto,Trofa,Covelas,Lemende (Lemendo),41.315232000351,-8.54295799997118,NC,126.0,2017-05-03T17:00,25.4,37,9.5,23.7,0.0,0.0,0.0,0.0,1,1010.2,995.8,29,0,0,96,0.37,2.05,10.5,14.7,322,324,25.2,24.2,18.6,15.1,13.9,0.22,0.201,0.275,0.367,1,3600.0,409.6,293.6,115.9,638.6,409.6,619.1,484.0,347.0,137.0,638.6,484.0,731.6,Magnoliopsida; Pinus pinaster Aiton; Vitis vinifera L.; Quercus L.; Tracheophyta; Eucalyptus L'Hér.; Olea europaea L.; ; Pinales
2017,2017-05-03,Porto,Gondomar,Fânzeres,Lug das Mimosas (Seixo),41.1820969994863,-8.51808200001717,Desconhecida,175.0,2017-05-03T17:00,25.1,41,10.8,23.6,0.0,0.0,0.0,0.0,1,1010.1,990.1,29,0,0,95,0.37,1.89,11.9,17.0,325,328,23.4,23.7,18.2,14.7,13.4,0.227,0.224,0.286,0.371,1,3600.0,406.0,285.9,120.1,622.0,406.0,618.8,480.0,338.0,142.0,622.0,480.0,731.6,Tracheophyta; Eucalyptus L'Hér.; Pinus pinaster Aiton; Magnoliopsida; Castanea sativa Mill.
2017,2017-05-03,Porto,Amarante,Carvalho de Rei,Lug. S. João (Alto do Vermelhinho),41.2287319999271,-8.03167300012377,Desconhecida,583.0,2017-05-03T17:00,23.5,44,10.4,22.8,0.0,0.0,0.0,0.0,1,1010.6,945.4,28,0,0,94,0.33,1.63,5.5,6.9,302,309,17.3,21.7,15.7,11.9,10.3,0.256,0.244,0.284,0.369,1,3600.0,421.6,340.6,80.9,753.2,421.6,608.8,500.0,404.0,96.0,753.2,500.0,722.1,Magnoliopsida; Tracheophyta; Eucalyptus L'Hér.; Pinus pinaster Aiton; Vitis vinifera L.; Pinales; 
2017,2017-05-03,Porto,Gondomar,Gondomar (São Cosme),Lug. Amaro da Costa (Fontelos),41.1501150000013,-8.52335399998559,NC,117.0,2017-05-03T17:00,25.5,41,11.2,24.1,0.0,0.0,0.0,0.0,1,1010.1,996.7,29,0,0,95,0.37,1.93,11.9,17.0,325,328,23.4,24.1,18.5,15.1,13.7,0.227,0.224,0.286,0.371,1,3600.0,406.0,285.9,120.1,622.0,406.0,618.8,480.0,338.0,142.0,622.0,480.0,731.6,Tracheophyta; Magnoliopsida; Eucalyptus L'Hér.
2017,2017-05-03,Porto,Valongo,Valongo,Serra Santa Justa (Alto da Ilha),41.1846979999542,-8.49606900003221,NC,192.0,2017-05-03T17:00,25.0,41,10.7,23.5,0.0,0.0,0.0,0.0,1,1010.1,988.2,29,0,0,95,0.37,1.88,11.9,17.0,325,328,23.4,23.6,18.0,14.6,13.2,0.227,0.224,0.286,0.371,1,3600.0,406.0,285.9,120.1,622.0,406.0,618.8,480.0,338.0,142.0,622.0,480.0,731.6,Magnoliopsida; Tracheophyta; Eucalyptus L'Hér.
2017,2017-05-03,Porto,Felgueiras,Idães,Monte de Santana (Gondares),41.3172470000055,-8.25456299993727,Reacendimento,396.0,2017-05-03T16:00,25.2,38,9.8,25.5,0.0,0.0,0.0,0.0,1,1010.5,965.9,28,0,0,94,0.46,2.0,3.8,4.6,319,321,13.0,23.5,16.5,13.2,11.8,0.204,0.22,0.296,0.37,1,3600.0,613.1,517.8,95.3,835.1,613.1,834.9,682.0,576.0,106.0,835.1,682.0,928.6,Vitis vinifera L.; Tracheophyta; Pinus pinaster Aiton; Magnoliopsida; Eucalyptus L'Hér.
2017,2017-05-03,Porto,Trofa,Bougado (São Martinho),Monte de Paradela (Fonte Má),41.3194180001153,-8.5418450000551,NC,130.0,2017-05-03T16:00,26.2,36,9.8,25.2,0.0,0.0,0.0,0.0,1,1010.4,995.5,29,0,0,96,0.5,2.2,11.5,14.8,302,304,25.2,24.7,18.2,15.1,13.9,0.221,0.201,0.275,0.367,1,3600.0,612.8,519.2,93.6,833.8,612.8,838.4,681.0,577.0,104.0,833.8,681.0,931.7,Eucalyptus L'Hér.; Pinales; Magnoliopsida; Tracheophyta; Pinus pinaster Aiton
2017,2017-05-03,Porto,Santo Tirso,Monte Córdova,Santa Luzia (ER319 (ER319) Km 9),41.3156970002916,-8.41895499997669,NC,424.0,2017-05-03T14:00,25.1,37,9.5,26.9,0.0,0.0,0.0,0.0,0,1011.6,963.9,15,0,0,49,0.59,2.0,2.2,2.9,171,180,15.8,22.6,15.3,13.0,11.7,0.21,0.221,0.296,0.37,1,3600.0,856.3,697.6,158.7,822.9,856.3,1141.5,885.0,721.0,164.0,822.9,885.0,1179.7,Eucalyptus L'Hér.; Magnoliopsida; Tracheophyta; Pinus pinaster Aiton
2017,2017-05-03,Porto,Marco de Canaveses,Vila Boa do Bispo,Fafiães,41.1454719999101,-8.21597299999661,Desconhecida,83.0,2017-05-03T14:00,27.1,37,11.1,29.0,0.0,0.0,0.0,0.0,1,1011.3,1001.8,21,0,0,69,0.63,2.27,4.7,5.2,266,258,17.3,24.7,17.5,15.2,13.8,0.238,0.216,0.283,0.372,1,3600.0,870.0,748.0,121.9,880.9,870.0,1143.4,899.0,773.0,126.0,880.9,899.0,1181.5,Tracheophyta; Pinus pinaster Aiton; Vitis vinifera L.; Quercus L.; Eucalyptus L'Hér.; Magnoliopsida; Acacia Mill.; 
2017,2017-05-04,Porto,Paredes,Vila Cova de Carros,Lg. Ardeiro (Cavada),41.2107669999864,-8.37423300001356,NC,364.0,2017-05-04T11:00,24.1,43,10.7,23.6,0.0,0.0,0.0,0.0,1,1005.5,964.5,30,0,0,99,0.48,1.72,10.8,14.5,116,117,28.8,19.5,15.9,13.6,11.9,0.207,0.222,0.291,0.37,1,3600.0,729.3,408.9,320.4,480.7,729.3,1144.8,692.0,388.0,304.0,480.7,692.0,1086.2,Magnoliopsida; Pinus pinaster Aiton; Eucalyptus L'Hér.; Tracheophyta; Vitis vinifera L.; Quercus L.; Acacia Mill.
2017,2017-05-04,Porto,Trofa,Bougado (Santiago),Lantemil (EN14 (EN14) Km 16),41.3147450002035,-8.58577700005637,NC,101.0,2017-05-04T08:00,19.4,61,11.6,18.6,0.0,0.0,0.0,0.0,1,1006.3,994.5,35,0,9,100,0.12,0.88,8.3,14.1,108,122,15.8,17.6,18.1,15.6,14.1,0.213,0.197,0.272,0.367,1,0.0,160.7,13.7,147.0,30.0,160.7,614.2,129.0,11.0,118.0,30.0,129.0,493.0,Magnoliopsida; Pinales; Tracheophyta
2017,2017-05-04,Porto,Paredes,Parada de Todeia,Lages (Areeiro),41.1689299999343,-8.37360199981266,NC,176.0,2017-05-04T04:00,13.8,82,10.8,13.0,0.0,0.0,0.0,0.0,1,1007.3,986.5,35,0,10,97,0.0,0.28,6.5,13.4,264,243,13.0,15.8,17.9,14.9,13.2,0.226,0.21,0.279,0.371,0,0.0,0.0,0.0,0.0,0.0,0.0,0.0,0.0,0.0,0.0,0.0,0.0,0.0,Magnoliopsida; Pinus pinaster Aiton; Eucalyptus L'Hér.; Tracheophyta; Vitis vinifera L.
2017,2017-05-04,Porto,Penafiel,Bustelo,Lameirinha (Quintãs),41.2286809995439,-8.25702300018734,NC,323.0,2017-05-04T00:00,16.2,73,11.4,15.5,0.0,0.0,0.0,0.0,1,1008.0,970.4,37,0,14,96,0.01,0.49,7.9,19.5,66,93,22.0,17.5,17.5,13.7,12.1,0.211,0.222,0.292,0.37,0,0.0,0.0,0.0,0.0,0.0,0.0,0.0,0.0,0.0,0.0,0.0,0.0,0.0,Magnoliopsida; Tracheophyta; Eucalyptus L'Hér.; Pinus pinaster Aiton; Vitis vinifera L.; Pinales; 
2017,2017-05-04,Porto,Vila do Conde,Retorta,Azenhas (Azenha da Retorta),41.3549120002323,-8.72745800018311,Desconhecida,23.0,2017-05-04T00:00,18.8,60,10.9,17.3,0.0,0.0,0.0,0.0,1,1007.2,1004.5,30,0,4,93,0.06,0.87,12.6,28.5,85,94,25.2,18.4,18.4,15.3,13.9,0.206,0.221,0.289,0.36,0,0.0,0.0,0.0,0.0,0.0,0.0,0.0,0.0,0.0,0.0,0.0,0.0,0.0,Tracheophyta; Magnoliopsida; Eucalyptus L'Hér.
2017,2017-05-04,Porto,Vila Nova de Gaia,Pedroso,Lug. Igreja (Travessa do Senhor dos Aflitos),41.0642149999407,-8.56471700032552,NC,154.0,2017-05-04T22:00,14.7,86,12.4,14.1,0.3,0.3,0.0,0.0,51,1005.1,986.9,69,26,47,58,0.0,0.23,8.7,15.5,197,202,18.0,17.4,18.3,15.0,13.3,0.228,0.243,0.304,0.378,0,0.0,0.0,0.0,0.0,0.0,0.0,0.0,0.0,0.0,0.0,0.0,0.0,0.0,Magnoliopsida; Eucalyptus L'Hér.; Tracheophyta
2017,2017-05-04,Porto,Trofa,Bougado (Santiago),Lg de Lantemil (EN14 (EN14) Km 16),41.3147270001305,-8.58623000012504,NC,105.0,2017-05-04T19:00,18.2,75,13.7,18.8,0.0,0.0,0.0,0.0,1,1004.5,992.2,31,1,0,100,0.05,0.52,4.4,6.0,215,205,12.2,21.3,20.0,15.8,14.0,0.201,0.194,0.27,0.366,1,0.0,35.7,3.0,32.7,32.1,35.7,124.4,72.0,6.0,66.0,32.1,72.0,251.2,Magnoliopsida; Pinales; Tracheophyta
2017,2017-05-04,Porto,Lousada,Cristelos,Rua  Sª. Domingos,41.2774080000983,-8.29774499999152,Desconhecida,277.0,2017-05-04T18:00,18.6,76,14.2,18.8,0.0,0.0,0.0,0.0,1,1005.0,973.0,46,16,3,100,0.12,0.52,8.0,10.1,275,272,21.6,21.5,18.8,14.5,12.7,0.177,0.215,0.292,0.369,1,798.03,132.2,24.0,108.1,86.6,132.2,373.4,176.0,32.0,144.0,86.6,176.0,497.2,Pinus pinaster Aiton; Tracheophyta; Eucalyptus L'Hér.; Magnoliopsida
2017,2017-05-04,Porto,Gondomar,Gondomar (São Cosme),Lugar Cal (Bouça das Almas),41.1507300000058,-8.5200180000729,NC,139.0,2017-05-04T14:00,20.5,63,13.2,20.5,0.0,0.0,0.0,0.0,1,1005.3,989.2,30,0,0,100,0.46,0.9,15.7,19.9,254,253,36.7,23.5,18.4,15.3,13.6,0.209,0.217,0.281,0.37,1,3600.0,766.7,482.1,284.6,565.9,766.7,1146.5,792.0,498.0,294.0,565.9,792.0,1184.4,Tracheophyta; Magnoliopsida; Eucalyptus L'Hér.
2017,2017-05-04,Porto,Gondomar,Gondomar (São Cosme),Lug Amaro da Costa (Alminhas),41.1473599995507,-8.5236420000924,NC,152.0,2017-05-04T14:00,20.5,63,13.1,20.4,0.0,0.0,0.0,0.0,1,1005.3,987.7,30,0,0,100,0.46,0.9,15.7,19.9,254,253,36.7,23.4,18.4,15.2,13.5,0.209,0.217,0.281,0.37,1,3600.0,766.7,482.1,284.6,565.9,766.7,1146.5,792.0,498.0,294.0,565.9,792.0,1184.4,Magnoliopsida; Tracheophyta; Eucalyptus L'Hér.
2017,2017-05-04,Porto,Vila do Conde,Retorta,Lug das Azenhas (Azenha da Retorta),41.3544899998771,-8.72659999953376,Reacendimento,27.0,2017-05-04T14:00,19.8,71,14.4,19.9,0.0,0.0,0.0,0.0,1,1005.4,1002.2,31,1,0,99,0.44,0.67,18.1,24.2,239,237,41.8,23.5,18.6,15.5,13.9,0.192,0.219,0.288,0.36,1,3600.0,795.1,537.5,257.6,631.3,795.1,1145.7,821.0,555.0,266.0,631.3,821.0,1183.1,Tracheophyta; Magnoliopsida; Eucalyptus L'Hér.
2017,2017-05-04,Porto,Amarante,Fregim,Pidre (FREGIM),41.2640100002289,-8.10688199996948,Desconhecida,258.0,2017-05-04T13:00,26.8,37,10.7,27.5,0.0,0.0,0.0,0.0,1,1004.4,975.4,29,0,0,97,0.62,2.23,9.0,12.0,127,129,27.7,22.7,17.4,14.2,12.6,0.236,0.266,0.314,0.377,1,3600.0,861.8,592.1,269.7,658.6,861.8,1209.9,866.0,595.0,271.0,658.6,866.0,1215.8,Tracheophyta; Magnoliopsida; Pinus pinaster Aiton; Vitis vinifera L.; Quercus L.; Eucalyptus L'Hér.; 
2017,2017-05-04,Porto,Gondomar,Rio Tinto,Lg. Cavadas (Monte Pedrosa),41.1942800002628,-8.55346499999364,NC,122.0,2017-05-04T13:00,22.4,56,13.2,22.7,0.0,0.0,0.0,0.0,1,1005.1,991.0,30,0,0,99,0.54,1.19,17.2,21.5,254,252,36.7,23.4,18.2,15.4,13.7,0.211,0.218,0.282,0.37,1,3600.0,883.3,669.2,214.1,743.4,883.3,1211.4,887.0,672.0,215.0,743.4,887.0,1216.5,Tracheophyta; Magnoliopsida
2017,2017-01-21,Porto,Amarante,Mancelos,Manhufe (Posto),41.2620290003883,-8.16403100013733,Desconhecida,272.0,2017-01-21T18:00,9.2,60,1.9,6.7,0.0,0.0,0.0,0.0,0,1020.7,987.8,2,2,0,0,0.03,0.46,5.1,6.7,266,286,9.0,6.9,6.1,7.6,12.1,0.316,0.33,0.353,0.34,0,39.81,0.0,0.0,0.0,0.0,0.0,0.0,13.0,6.0,7.0,74.8,13.0,52.3,Tracheophyta; Magnoliopsida; Eucalyptus L'Hér.; Pinus pinaster Aiton; Vitis vinifera L.; 
2017,2017-05-06,Porto,Santo Tirso,Santo Tirso,Argemil (Monte),41.3521749999788,-8.50857199986776,NC,39.0,2017-05-06T19:00,16.8,74,12.1,16.8,0.0,0.0,0.0,0.0,2,1018.9,1014.2,52,2,83,0,0.07,0.5,4.1,10.0,195,195,22.3,18.8,17.4,16.2,14.3,0.319,0.273,0.265,0.357,1,3600.0,66.2,41.6,24.6,420.2,66.2,133.0,129.0,81.0,48.0,420.2,129.0,259.1,Magnoliopsida; Tracheophyta; Pinus pinaster Aiton; Vitis vinifera L.; Eucalyptus L'Hér.
2017,2017-05-06,Porto,Trofa,Alvarelhos,Monte Sª. Gens (Serra do Bougado),41.317362000015,-8.59659799999661,NC,125.0,2017-05-06T16:00,17.5,69,11.7,16.0,0.0,0.0,0.0,0.0,1,1018.2,1003.4,20,10,19,0,0.3,0.62,14.4,19.0,217,217,37.1,19.5,16.2,15.2,13.4,0.317,0.274,0.293,0.362,1,3600.0,505.7,341.6,164.1,541.6,505.7,848.1,561.0,379.0,182.0,541.6,561.0,940.8,Magnoliopsida; Pinales
2017,2017-05-06,Porto,Vila Nova de Gaia,Pedroso,Lug. Pisão (Travessa do Rio do Lobo),41.0639949999915,-8.53487999995549,Desconhecida,150.0,2017-05-06T16:00,18.7,57,10.1,16.7,0.0,0.0,0.0,0.0,1,1018.2,1000.5,30,9,36,0,0.35,0.92,15.4,20.2,233,230,37.8,19.7,16.2,15.5,13.6,0.325,0.281,0.284,0.367,1,3600.0,526.9,402.6,124.3,639.3,526.9,846.7,585.0,447.0,138.0,639.3,585.0,940.0,Tracheophyta; Eucalyptus L'Hér.; Magnoliopsida
2017,2017-05-06,Porto,Vila Nova de Gaia,Pedroso,Paradela (Rua Caiminho da Quinta),41.0676579999924,-8.54976799964905,Desconhecida,115.0,2017-05-06T15:00,19.2,60,11.2,17.8,0.0,0.0,0.0,0.0,1,1018.5,1004.9,48,20,50,0,0.41,0.9,18.5,24.1,237,235,38.2,19.8,16.1,15.7,13.8,0.328,0.281,0.284,0.367,1,3600.0,678.1,551.5,126.6,723.1,678.1,1025.3,723.0,588.0,135.0,723.1,723.0,1093.2,Magnoliopsida; Eucalyptus L'Hér.; Tracheophyta
2017,2017-05-07,Porto,Trofa,Covelas,Lug. Imigrante (Bouça Nova),41.3117599995931,-8.51404699961344,NC,195.0,2017-05-07T10:00,21.4,50,10.6,21.0,0.0,0.0,0.0,0.0,0,1020.4,997.6,3,0,0,11,0.43,1.27,9.6,11.8,110,110,23.8,18.3,15.4,15.3,13.6,0.303,0.262,0.27,0.365,1,3600.0,743.1,631.8,111.3,830.1,743.1,1022.9,681.0,579.0,102.0,830.1,681.0,937.4,Magnoliopsida; Pinus pinaster Aiton; Vitis vinifera L.; Quercus L.; Tracheophyta; Eucalyptus L'Hér.; Olea europaea L.; ; Pinales
2017,2017-05-07,Porto,Gondomar,Foz do Sousa,Lg. Quintas (Ribeira de Fontão),41.0963000000848,-8.48262100007799,NC,57.0,2017-05-07T20:00,19.2,63,12.0,18.9,0.0,0.0,0.0,0.0,0,1017.7,1010.9,0,0,0,0,0.04,0.83,6.5,10.7,326,346,11.2,19.7,19.1,16.2,14.3,0.285,0.276,0.282,0.367,0,41.83,0.0,0.0,0.0,0.0,0.0,0.0,13.0,6.0,7.0,69.5,13.0,56.9,Eucalyptus L'Hér.; Tracheophyta; Magnoliopsida
2017,2017-05-07,Porto,Santo Tirso,Monte Córdova,Monte Assunção (ER319 (ER319) Km 5),41.3229329999288,-8.44998499976264,NC,396.0,2017-05-07T18:00,20.1,63,12.9,19.0,0.0,0.0,0.0,0.0,0,1017.2,971.5,0,0,0,0,0.19,0.86,13.7,22.3,284,293,27.0,20.6,16.7,13.9,12.0,0.271,0.254,0.29,0.368,1,3600.0,212.0,131.0,81.0,458.6,212.0,383.7,280.0,173.0,107.0,458.6,280.0,506.9,Pinus pinaster Aiton; Tracheophyta; Eucalyptus L'Hér.
2017,2017-05-07,Porto,Marco de Canaveses,Fornos,Celas (Pontinha),41.196283999549,-8.13779099994236,Desconhecida,67.0,2017-05-07T15:00,26.5,41,12.3,28.0,0.0,0.0,0.0,0.0,2,1017.8,1010.1,52,0,85,3,0.55,2.03,5.0,6.1,90,93,20.2,23.7,17.6,15.9,14.0,0.291,0.273,0.289,0.369,1,3600.0,742.6,608.6,134.1,798.4,742.6,1024.2,792.0,649.0,143.0,798.4,792.0,1092.3,Pinus pinaster Aiton; Magnoliopsida; Pinales; Tracheophyta; Vitis vinifera L.; Quercus L.
2017,2017-05-07,Porto,Trofa,Muro,Monte São Pantaleão (Matos),41.2901300001144,-8.58967700004578,NC,161.0,2017-05-07T13:00,24.7,41,10.7,25.2,0.0,0.0,0.0,0.0,0,1019.0,1000.4,13,9,8,0,0.6,1.82,11.0,13.6,101,102,26.3,22.3,16.7,15.6,13.8,0.294,0.26,0.269,0.365,1,3600.0,876.3,630.3,246.0,696.3,876.3,1216.4,880.0,633.0,247.0,696.3,880.0,1221.6,Tracheophyta; Eucalyptus L'Hér.; Magnoliopsida; Pinales; Pinus pinaster Aiton
2017,2017-05-08,Porto,Vila Nova de Gaia,Pedroso,Mosteiro do Pedroso (Rua de Gradões),41.0639949999915,-8.56233000013563,Desconhecida,152.0,2017-05-08T03:00,13.5,93,12.3,13.1,0.0,0.0,0.0,0.0,1,1015.7,997.5,24,0,0,81,0.0,0.11,7.2,9.1,87,99,13.0,15.3,17.0,15.3,13.4,0.306,0.309,0.301,0.376,0,0.0,0.0,0.0,0.0,0.0,0.0,0.0,0.0,0.0,0.0,0.0,0.0,0.0,Magnoliopsida; Eucalyptus L'Hér.; Tracheophyta
2017,2017-05-08,Porto,Valongo,Valongo,Serra de Santa Justa (Alto da Passagem),41.1795330005222,-8.50126499997245,NC,253.0,2017-05-08T19:00,21.3,57,12.5,21.8,0.0,0.0,0.0,0.0,1,1013.0,983.8,32,0,11,85,0.07,1.08,1.8,1.9,323,22,7.6,21.2,18.8,15.0,13.0,0.266,0.279,0.276,0.368,1,3600.0,71.8,45.0,26.7,436.5,71.8,138.6,137.0,86.0,51.0,436.5,137.0,264.6,Magnoliopsida; Tracheophyta; Pinus pinaster Aiton; Eucalyptus L'Hér.
2017,2017-05-08,Porto,Maia,Silva Escura,Lg. Taim (Rua do Barroqueiro),41.2426670000288,-8.5792179997762,NC,97.0,2017-05-08T18:00,21.6,63,14.1,22.9,0.0,0.0,0.0,0.0,0,1013.4,1002.1,8,0,2,22,0.17,0.96,0.0,1.1,180,90,11.2,22.6,19.3,15.8,13.8,0.264,0.268,0.283,0.366,1,3600.0,233.9,169.9,64.0,580.4,233.9,393.1,307.0,223.0,84.0,580.4,307.0,516.0,Magnoliopsida; Eucalyptus L'Hér.; Tracheophyta; Pinus pinaster Aiton; 
2017,2017-01-21,Porto,Amarante,Travanca,Pousada (Casa das Quintâs),41.2792700004578,-8.17907199965583,Desconhecida,216.0,2017-01-21T15:00,11.4,56,3.0,9.4,0.0,0.0,0.0,0.0,0,1020.1,994.0,0,0,0,0,0.18,0.59,2.3,3.1,18,21,14.8,9.7,5.9,8.2,12.7,0.309,0.326,0.351,0.336,1,3600.0,358.1,292.2,65.9,802.9,358.1,513.9,402.0,328.0,74.0,802.9,402.0,577.0,Tracheophyta; Magnoliopsida; Eucalyptus L'Hér.; Vitis vinifera L.; Pinus pinaster Aiton; 
2017,2017-05-08,Porto,Paredes,Castelões de Cepeda,Pias (A4-A4 Km 33),41.2002049999932,-8.33523199995359,NC,142.0,2017-05-08T18:00,22.4,58,13.7,23.4,0.0,0.0,0.0,0.0,0,1013.6,997.1,8,0,3,21,0.18,1.15,1.8,1.8,270,270,15.8,22.8,19.5,15.9,13.9,0.253,0.276,0.286,0.367,1,3600.0,232.8,174.2,58.6,598.5,232.8,390.9,306.0,229.0,77.0,598.5,306.0,513.9,Magnoliopsida; Pinus pinaster Aiton; Eucalyptus L'Hér.; Tracheophyta; Vitis vinifera L.
2017,2017-05-08,Porto,Gondomar,Gondomar (São Cosme),Lug. Gen. Humberto Delgado (Sete Caminhos),41.1433920001984,-8.5251199997796,NC,150.0,2017-05-08T17:00,22.8,56,13.7,23.1,0.0,0.0,0.0,0.0,0,1014.1,996.7,9,2,2,21,0.31,1.21,6.1,7.6,273,273,22.0,23.2,19.1,15.7,13.7,0.267,0.28,0.276,0.368,1,3600.0,400.4,307.7,92.7,652.2,400.4,633.7,471.0,362.0,109.0,652.2,471.0,745.5,Magnoliopsida; Eucalyptus L'Hér.; Tracheophyta
2017,2017-05-08,Porto,Gondomar,Jovim,EN-108 - Club Caçadores (Marecos),41.102372999986,-8.52700000021193,NC,1.0,2017-05-08T16:00,22.2,63,14.8,23.4,0.0,0.0,0.0,0.0,0,1014.3,1014.2,15,0,6,39,0.38,0.98,5.2,5.9,282,281,20.2,23.8,19.4,16.3,14.4,0.291,0.304,0.3,0.376,1,3600.0,548.4,419.4,129.0,660.0,548.4,853.4,608.0,465.0,143.0,660.0,608.0,946.2,Eucalyptus L'Hér.; Tracheophyta; Magnoliopsida
2017,2017-05-08,Porto,Gondomar,Covelo,Serra das Flores,41.0900779999627,-8.44081000010173,NC,302.0,2017-05-08T16:00,22.3,55,12.8,21.4,0.0,0.0,0.0,0.0,1,1014.2,979.5,21,0,6,57,0.37,1.21,12.0,15.6,261,262,34.6,23.1,17.9,14.6,12.5,0.238,0.24,0.279,0.357,1,3600.0,493.0,370.4,122.6,585.3,493.0,850.0,547.0,411.0,136.0,585.3,547.0,943.2,Eucalyptus L'Hér.; Pinus pinaster Aiton; Magnoliopsida
2017,2017-05-08,Porto,Marco de Canaveses,Soalhães,Telhe (Mazende),41.171623000039,-8.08304299990336,Desconhecida,442.0,2017-05-08T14:00,25.7,39,10.7,26.8,0.0,0.0,0.0,0.0,1,1014.1,964.4,30,0,8,83,0.55,2.01,4.8,5.7,257,252,14.8,23.0,16.5,13.8,11.6,0.252,0.271,0.297,0.373,1,3600.0,769.3,603.8,165.5,703.7,769.3,1152.5,795.0,624.0,171.0,703.7,795.0,1191.0,Magnoliopsida; Tracheophyta; Quercus L.; Eucalyptus L'Hér.; Pinus pinaster Aiton; Vitis vinifera L.; Castanea sativa Mill.; Pinales; 
2017,2017-05-08,Porto,Vila Nova de Gaia,Pedroso,Lg. Paredela (Rua do Rio da Costa),41.0650900003645,-8.54828500005934,Desconhecida,114.0,2017-05-08T14:00,24.4,55,14.7,25.7,0.0,0.0,0.0,0.0,1,1014.7,1001.5,40,0,26,82,0.56,1.39,13.3,16.2,273,274,29.5,24.2,18.4,15.9,13.9,0.267,0.269,0.279,0.366,1,3600.0,816.3,622.6,193.7,723.8,816.3,1155.5,843.0,643.0,200.0,723.8,843.0,1193.2,Magnoliopsida; Eucalyptus L'Hér.; Tracheophyta
2017,2017-05-09,Porto,Gondomar,Gondomar (São Cosme),Alegre (GONDOMAR),41.1406649997499,-8.52755700005425,NC,181.0,2017-05-09T17:00,17.3,69,11.6,16.0,0.0,0.0,0.0,0.0,1,1006.8,985.6,43,0,24,96,0.24,0.61,12.1,15.5,247,245,33.1,20.4,18.3,15.8,13.6,0.258,0.275,0.276,0.368,1,3600.0,367.6,242.5,125.1,511.4,367.6,636.5,432.0,285.0,147.0,511.4,432.0,748.1,Magnoliopsida; Eucalyptus L'Hér.; Tracheophyta
2017,2017-05-13,Porto,Gondomar,São Pedro da Cova,Lugar do Toco (Lodeiro),41.1382070000966,-8.50259299993515,NC,43.0,2017-05-13T12:00,17.9,67,11.6,15.4,0.1,0.1,0.0,0.0,51,1017.3,1012.2,78,5,97,50,0.37,0.68,26.3,36.6,205,205,52.2,18.3,15.8,16.0,14.4,0.406,0.398,0.34,0.374,1,3600.0,748.8,453.2,295.6,494.6,748.8,1227.8,732.0,443.0,289.0,494.6,732.0,1200.3,Tracheophyta; Vitis vinifera L.; Pinus pinaster Aiton; Magnoliopsida; Eucalyptus L'Hér.
2017,2017-05-15,Porto,Gondomar,Melres,LG Sobrido (Costa),41.071009999911,-8.39959900008308,NC,23.0,2017-05-15T16:00,23.4,69,17.5,25.1,0.0,0.0,0.0,0.0,2,1025.1,1022.4,77,0,99,59,0.3,0.88,7.2,8.7,276,277,20.9,23.4,19.4,16.5,14.8,0.359,0.367,0.313,0.364,1,3600.0,402.5,172.7,229.7,266.3,402.5,868.3,445.0,191.0,254.0,266.3,445.0,960.1,Eucalyptus L'Hér.; Magnoliopsida; Tracheophyta
2017,2017-01-21,Porto,Amarante,Gatão,Lugar de Belos Ares (Igreja),41.298702000512,-8.06330499966939,NC,243.0,2017-01-21T14:00,11.1,57,2.9,8.6,0.0,0.0,0.0,0.0,0,1020.1,990.8,0,0,0,0,0.22,0.57,5.6,7.1,117,114,23.8,8.9,5.3,7.9,12.5,0.298,0.316,0.342,0.328,1,3600.0,449.4,372.3,77.1,836.1,449.4,628.9,472.0,391.0,81.0,836.1,472.0,660.5,Magnoliopsida; Eucalyptus L'Hér.; Vitis vinifera L.; Tracheophyta; Pinus pinaster Aiton
2017,2017-05-16,Porto,Trofa,Covelas,Lugar da Sardoeira (Sardoeira),41.3068499999576,-8.55763000011444,NC,85.0,2017-05-16T16:00,23.6,66,17.0,24.1,0.0,0.0,0.0,0.0,2,1022.4,1012.5,54,0,41,99,0.38,0.98,14.6,19.9,308,311,30.6,24.8,20.2,16.5,14.7,0.339,0.35,0.301,0.362,1,3600.0,527.7,315.9,211.8,485.6,527.7,870.4,583.0,349.0,234.0,485.6,583.0,961.7,Magnoliopsida; Pinus pinaster Aiton; Vitis vinifera L.; Quercus L.; Tracheophyta; Eucalyptus L'Hér.; Olea europaea L.; ; Pinales
2017,2017-05-16,Porto,Penafiel,Valpedre,Lg. Barreiros (VALPEDRE),41.1378150002162,-8.31059700012207,NC,307.0,2017-05-16T15:00,27.0,49,15.2,28.5,0.0,0.0,0.0,0.0,2,1021.7,986.7,56,3,38,100,0.54,1.83,9.6,12.0,283,286,21.6,24.5,18.4,14.7,12.6,0.338,0.357,0.323,0.363,1,3600.0,705.6,499.9,205.8,641.3,705.6,1043.1,751.0,532.0,219.0,641.3,751.0,1110.2,Eucalyptus L'Hér.; Vitis vinifera L.; Magnoliopsida; Tracheophyta
2017,2017-05-17,Porto,Gondomar,Melres,Lugar do Sobrido (Sobrido),41.072355000178,-8.41954200002882,Desconhecida,139.0,2017-05-17T15:00,19.4,77,15.2,19.1,0.0,0.0,0.0,0.0,2,1020.1,1003.7,60,64,4,0,0.36,0.53,19.1,25.5,302,303,43.2,23.3,19.7,16.5,14.0,0.294,0.319,0.283,0.354,1,3600.0,646.7,430.5,216.2,550.2,646.7,1046.6,688.0,458.0,230.0,550.2,688.0,1113.4,Tracheophyta; Eucalyptus L'Hér.; Magnoliopsida
2017,2017-05-17,Porto,Paredes,Lordelo,LG Campo Velho (Folhedo),41.2453000005086,-8.41816500001483,NC,263.0,2017-05-17T15:00,18.3,79,14.6,17.6,0.0,0.0,0.0,0.0,2,1020.1,989.2,73,74,11,0,0.35,0.44,21.0,28.2,308,309,45.0,22.2,18.9,15.8,13.5,0.339,0.351,0.332,0.37,1,3600.0,672.2,464.4,207.8,593.9,672.2,1046.0,715.0,494.0,221.0,593.9,715.0,1112.6,Magnoliopsida; Pinus pinaster Aiton; Eucalyptus L'Hér.; Tracheophyta; Vitis vinifera L.
2017,2017-05-17,Porto,Paredes,Lordelo,LG. Cruzes (Moinhos),41.2420679998398,-8.41613899972704,NC,247.0,2017-05-17T14:00,19.1,81,15.7,19.1,0.0,0.0,0.0,0.0,1,1020.0,991.1,41,39,10,0,0.37,0.43,19.3,25.7,303,304,41.4,22.4,18.8,15.8,13.6,0.341,0.352,0.332,0.37,1,3600.0,695.8,442.9,252.9,506.4,695.8,1169.8,718.0,457.0,261.0,506.4,718.0,1207.1,Magnoliopsida; Pinus pinaster Aiton; Eucalyptus L'Hér.; Tracheophyta; Vitis vinifera L.
2017,2017-05-17,Porto,Amarante,Telões,Lugar Todeia (Bouça das Olinhas),41.3372769999504,-8.10232299990124,Desconhecida,300.0,2017-05-17T15:00,19.4,74,14.7,18.5,0.2,0.2,0.0,0.0,51,1019.4,984.4,28,29,3,0,0.34,0.57,19.3,25.8,291,293,41.8,22.0,18.9,15.5,13.2,0.361,0.357,0.339,0.365,1,3600.0,583.6,390.9,192.6,501.4,583.6,1042.9,621.0,416.0,205.0,501.4,621.0,1109.8,Magnoliopsida; Pinus pinaster Aiton; Tracheophyta; Vitis vinifera L.; Eucalyptus L'Hér.; 
2017,2017-05-17,Porto,Vila Nova de Gaia,Grijó,Lg. Calvário (Praceta Encosta do Sol),41.0345829999447,-8.56321999973721,Desconhecida,221.0,2017-05-17T23:00,12.2,87,10.1,9.9,0.0,0.0,0.0,0.0,1,1020.9,994.3,34,35,4,0,0.01,0.18,16.0,25.8,329,332,28.8,16.5,18.9,16.4,13.9,0.312,0.324,0.275,0.353,0,0.0,0.0,0.0,0.0,0.0,0.0,0.0,0.0,0.0,0.0,0.0,0.0,0.0,Magnoliopsida; Eucalyptus L'Hér.; Tracheophyta; Vitis vinifera L.
2017,2017-01-21,Porto,Baião,Tresouras,L. Senhora da Graça (Pensais),41.1623919995626,-7.91962499989404,Desconhecida,611.0,2017-01-21T12:00,6.0,67,0.4,2.4,0.0,0.0,0.0,0.0,0,1022.5,949.3,0,0,0,0,0.17,0.31,10.5,14.3,96,100,30.2,4.9,2.6,5.6,10.2,0.329,0.339,0.355,0.338,1,3600.0,475.3,390.8,84.5,825.9,475.3,668.3,450.0,370.0,80.0,825.9,450.0,632.7,Tracheophyta; Vitis vinifera L.; Eucalyptus L'Hér.; Magnoliopsida; Pinus pinaster Aiton; 
2017,2017-05-17,Porto,Gondomar,Medas,Lg. Povoas (Portelinha),41.0595470004612,-8.42443200005425,NC,136.0,2017-05-17T20:00,13.6,79,10.1,12.0,0.0,0.0,0.0,0.0,0,1020.5,1004.1,8,1,11,0,0.03,0.33,11.5,22.1,316,326,28.4,18.8,19.7,16.6,14.2,0.325,0.339,0.312,0.364,0,359.51,0.0,0.0,0.0,0.0,0.0,0.0,21.0,10.0,11.0,99.8,21.0,75.0,Eucalyptus L'Hér.; Magnoliopsida; Pinus pinaster Aiton; Tracheophyta
2017,2017-05-17,Porto,Penafiel,Valpedre,Barreiros,41.1315000004239,-8.31467700004578,NC,318.0,2017-05-17T16:00,18.0,77,14.0,16.9,0.1,0.1,0.0,0.0,51,1019.6,982.4,30,33,1,0,0.29,0.46,15.9,21.8,298,301,39.6,21.3,18.5,15.1,12.6,0.352,0.349,0.323,0.362,1,3600.0,491.2,348.3,142.9,535.9,491.2,869.4,543.0,385.0,158.0,535.9,543.0,961.0,Eucalyptus L'Hér.; Magnoliopsida; Tracheophyta
2017,2017-05-18,Porto,Baião,Ovil,Queimada (Casal),41.1935300000509,-7.99992000050015,Desconhecida,633.0,2017-05-18T11:00,14.3,49,3.8,12.1,0.0,0.0,0.0,0.0,2,1021.0,947.5,60,67,0,0,0.42,0.83,15.3,21.4,317,318,48.2,16.6,14.8,13.8,10.6,0.29,0.289,0.281,0.359,1,3600.0,865.4,686.8,178.5,781.6,865.4,1175.0,824.0,654.0,170.0,781.6,824.0,1118.9,Tracheophyta; Pinus pinaster Aiton; Magnoliopsida; Eucalyptus L'Hér.; Pinales; Quercus L.; Vitis vinifera L.; 
2017,2017-05-18,Porto,Paredes,Cete,Lugar do Cardal (ED106-3 (ED106-3) Km 5),41.1768620003594,-8.34974800003899,NC,172.0,2017-05-18T20:00,11.5,64,5.0,8.3,0.0,0.0,0.0,0.0,0,1023.7,1002.8,0,0,0,0,0.05,0.48,13.4,25.4,329,333,34.6,16.3,17.5,16.4,13.9,0.317,0.331,0.315,0.366,0,640.68,0.0,0.0,0.0,0.0,0.0,0.0,26.0,13.0,13.0,128.7,26.0,76.0,Magnoliopsida; Pinus pinaster Aiton; Eucalyptus L'Hér.; Tracheophyta; Vitis vinifera L.
2017,2017-05-18,Porto,Amarante,Aboim,Lg. Alminhas (Coelhos),41.3329950004154,-8.07227199978299,Desconhecida,232.0,2017-05-18T18:00,13.5,57,5.2,9.2,0.0,0.0,0.0,0.0,0,1022.8,995.0,0,0,0,0,0.2,0.66,20.9,29.9,318,319,46.1,18.1,17.3,16.1,13.6,0.309,0.34,0.33,0.365,1,3600.0,283.4,222.8,60.6,711.0,283.4,419.0,365.0,287.0,78.0,711.0,365.0,539.7,Tracheophyta; Eucalyptus L'Hér.; Pinus pinaster Aiton; Magnoliopsida; Vitis vinifera L.; 
2017,2017-05-18,Porto,Santo Tirso,Refojos de Riba de Ave,LG.Sande (Leça),41.2965159999,-8.45327399995592,NC,155.0,2017-05-18T17:00,14.6,53,5.1,9.8,0.0,0.0,0.0,0.0,0,1023.3,1004.7,0,0,0,0,0.29,0.78,24.9,34.8,326,328,52.2,18.8,17.4,16.6,14.4,0.315,0.329,0.3,0.361,1,3600.0,477.1,392.1,84.9,792.6,477.1,661.4,556.0,457.0,99.0,792.6,556.0,770.9,Tracheophyta; Eucalyptus L'Hér.; Magnoliopsida; Pinus pinaster Aiton; Vitis vinifera L.
2017,2017-05-18,Porto,Penafiel,Perozelo,Lugar Novo (Souto Novo),41.1420050001144,-8.27582999971178,NC,326.0,2017-05-18T16:00,15.4,59,7.3,12.0,0.0,0.0,0.0,0.0,0,1021.8,983.3,5,5,1,0,0.31,0.73,19.5,27.6,308,310,45.4,19.3,17.0,15.6,12.9,0.305,0.331,0.307,0.369,1,3600.0,517.5,261.4,256.0,401.9,517.5,869.9,572.0,289.0,283.0,401.9,572.0,961.5,Eucalyptus L'Hér.; Tracheophyta; Magnoliopsida
2017,2017-01-22,Porto,Trofa,Covelas,Serra dos Cantoneiros (Alto dos Cantoneiros),41.2928980000814,-8.51092299991184,NC,236.0,2017-01-22T04:00,0.3,95,-0.4,-2.4,0.0,0.0,0.0,0.0,0,1021.1,991.5,0,0,0,0,0.0,0.03,3.6,6.9,90,28,11.5,3.7,6.5,8.9,13.0,0.311,0.32,0.345,0.332,0,0.0,0.0,0.0,0.0,0.0,0.0,0.0,0.0,0.0,0.0,0.0,0.0,0.0,Magnoliopsida; Pinus pinaster Aiton; Vitis vinifera L.; Quercus L.; Tracheophyta; Eucalyptus L'Hér.; Olea europaea L.; 
2017,2017-05-18,Porto,Paços de Ferreira,Carvalhosa,Rua N.ª Sra. do Rosário,41.3026780001322,-8.35505799982283,Desconhecida,347.0,2017-05-18T16:00,14.6,60,6.8,10.8,0.0,0.0,0.0,0.0,1,1022.5,981.4,22,25,0,0,0.32,0.68,24.4,33.5,323,324,54.0,18.1,16.2,15.4,13.0,0.305,0.336,0.32,0.362,1,3600.0,598.6,446.4,152.1,683.6,598.6,873.1,661.0,493.0,168.0,683.6,661.0,964.2,Tracheophyta; Eucalyptus L'Hér.; Pinus pinaster Aiton; Magnoliopsida; Vitis vinifera L.; Quercus L.; 
2017,2017-05-18,Porto,Felgueiras,Borba de Godim,Travessa de Lagareiros,41.3325010002984,-8.14785799980164,Desconhecida,376.0,2017-05-18T13:00,16.1,49,5.4,14.2,0.0,0.0,0.0,0.0,3,1021.2,977.0,82,91,0,0,0.47,0.94,17.9,23.5,326,328,39.2,18.6,16.0,15.2,12.7,0.317,0.341,0.324,0.365,1,3600.0,889.7,638.9,250.8,692.2,889.7,1234.2,894.0,642.0,252.0,692.2,894.0,1240.1,Pinus pinaster Aiton; Magnoliopsida; Tracheophyta; Vitis vinifera L.
2017,2017-05-19,Porto,Paredes,Vandoma,Lugar da igreja (VANDOMA),41.1926799996694,-8.40638700008392,NC,313.0,2017-05-19T21:00,11.4,76,7.3,9.6,0.0,0.0,0.0,0.0,0,1024.0,986.4,0,0,0,0,0.01,0.33,7.9,20.9,357,357,21.2,14.6,15.5,15.0,12.7,0.298,0.327,0.321,0.362,0,0.0,0.0,0.0,0.0,0.0,0.0,0.0,0.0,0.0,0.0,0.0,0.0,0.0,Magnoliopsida; Pinus pinaster Aiton; Eucalyptus L'Hér.; Tracheophyta; Vitis vinifera L.
2017,2017-05-19,Porto,Penafiel,Marecos,Lages (Aveleira de Além),41.2008870000309,-8.28096400048998,NC,240.0,2017-05-19T15:00,17.5,51,7.2,16.4,0.0,0.0,0.0,0.0,0,1023.2,994.8,15,7,0,28,0.47,0.98,13.8,17.7,340,340,33.1,18.9,15.2,15.7,13.4,0.307,0.335,0.332,0.365,1,3600.0,807.7,695.8,111.9,887.1,807.7,1048.4,859.0,740.0,119.0,887.1,859.0,1115.0,Tracheophyta; Magnoliopsida; Eucalyptus L'Hér.
2017,2017-05-19,Porto,Amarante,Aboim,Lg. Alminhas (Coelhos),41.3333980000019,-8.07189199977451,Reacendimento,242.0,2017-05-19T15:00,17.1,52,7.1,15.8,0.0,0.0,0.0,0.0,0,1023.3,994.6,9,0,0,31,0.46,0.94,15.0,19.5,336,337,34.2,19.1,15.3,15.8,13.6,0.299,0.332,0.329,0.365,1,3600.0,801.2,680.8,120.4,868.2,801.2,1048.1,852.0,724.0,128.0,868.2,852.0,1114.6,Tracheophyta; Eucalyptus L'Hér.; Pinus pinaster Aiton; Magnoliopsida; Vitis vinifera L.; 
2017,2017-05-20,Porto,Valongo,Sobrado,Lugar do Paço (ER209 (ER209) Km 17),41.1980099995931,-8.475251999961,NC,167.0,2017-05-20T11:00,21.3,45,8.9,21.2,0.0,0.0,0.0,0.0,1,1020.9,1001.3,29,0,0,95,0.54,1.39,11.2,13.8,84,83,28.8,18.6,15.2,16.0,14.2,0.293,0.325,0.335,0.364,1,3600.0,912.5,792.7,119.8,902.8,912.5,1173.1,868.0,754.0,114.0,902.8,868.0,1115.9,Pinus pinaster Aiton; Tracheophyta; Eucalyptus L'Hér.; Magnoliopsida
2017,2017-01-06,Porto,Maia,Águas Santas,Quinta da Picoa (A3-N-S Km 4),41.2082009998957,-8.58382699999544,NC,68.0,2017-01-06T22:00,7.5,64,1.1,3.6,0.0,0.0,0.0,0.0,0,1028.4,1019.9,0,0,0,0,0.04,0.38,13.6,20.9,101,117,24.8,9.1,11.1,12.0,14.8,0.356,0.363,0.361,0.333,0,0.0,0.0,0.0,0.0,0.0,0.0,0.0,0.0,0.0,0.0,0.0,0.0,0.0,Tracheophyta; Pinus pinaster Aiton; Magnoliopsida; Eucalyptus L'Hér.; 
2017,2017-01-22,Porto,Amarante,Aboadela,Lg. Covelo (Encosta da Bezerra),41.3012900000148,-7.92516200012631,Desconhecida,983.0,2017-01-22T20:00,0.6,73,-3.7,-3.2,0.0,0.0,0.0,0.0,0,1021.3,904.7,3,3,1,0,0.01,0.17,8.0,21.1,355,9,24.5,1.3,1.9,3.2,7.5,0.34,0.343,0.361,0.343,0,0.0,0.0,0.0,0.0,0.0,0.0,0.0,0.0,0.0,0.0,0.0,0.0,0.0,Magnoliopsida; Eucalyptus L'Hér.; Pinus pinaster Aiton; Tracheophyta; Acacia Mill.; 
