year,date,district,municipality,parish,local,latitude,longitude,cause,elevation,hourly.time,hourly.temperature_2m,hourly.relative_humidity_2m,hourly.dew_point_2m,hourly.apparent_temperature,hourly.precipitation,hourly.rain,hourly.snowfall,hourly.snow_depth,hourly.weather_code,hourly.pressure_msl,hourly.surface_pressure,hourly.cloud_cover,hourly.cloud_cover_low,hourly.cloud_cover_mid,hourly.cloud_cover_high,hourly.et0_fao_evapotranspiration,hourly.vapour_pressure_deficit,hourly.wind_speed_10m,hourly.wind_speed_100m,hourly.wind_direction_10m,hourly.wind_direction_100m,hourly.wind_gusts_10m,hourly.soil_temperature_0_to_7cm,hourly.soil_temperature_7_to_28cm,hourly.soil_temperature_28_to_100cm,hourly.soil_temperature_100_to_255cm,hourly.soil_moisture_0_to_7cm,hourly.soil_moisture_7_to_28cm,hourly.soil_moisture_28_to_100cm,hourly.soil_moisture_100_to_255cm,hourly.is_day,hourly.sunshine_duration,hourly.shortwave_radiation_instant,hourly.direct_radiation_instant,hourly.diffuse_radiation_instant,hourly.direct_normal_irradiance_instant,hourly.global_tilted_irradiance_instant,hourly.terrestrial_radiation_instant,hourly.shortwave_radiation,hourly.direct_radiation,hourly.diffuse_radiation,hourly.direct_normal_irradiance,hourly.global_tilted_irradiance,hourly.terrestrial_radiation,scientificNames
2020,2020-09-06,Porto,Vila Nova de Gaia,Gulpilhares,Gulpilharinhos (Rua do Espinhoso),41.0709869999356,-8.63946199999915,NC,52.0,2020-09-06T17:00,26.2,57,17.0,26.2,0.0,0.0,0.0,0.0,0,1014.6,1008.6,0,0,0,0,0.31,1.46,16.8,27.9,329,336,33.5,29.3,23.6,21.1,20.0,0.136,0.181,0.224,0.342,1,3600.0,320.1,257.0,63.0,706.2,320.1,490.2,396.0,318.0,78.0,706.2,396.0,606.5,Magnoliopsida; Tracheophyta; Eucalyptus L'Hér.; Pinus pinaster Aiton
2020,2020-09-06,Porto,Trofa,Bougado (Santiago),Lugar da Agricultura (Finzes),41.3411630000008,-8.56999300003052,NC,33.0,2020-09-06T17:00,31.9,39,16.2,32.2,0.0,0.0,0.0,0.0,0,1014.5,1010.8,0,0,0,0,0.37,2.88,12.5,18.8,316,324,30.6,33.0,25.8,22.3,20.9,0.132,0.154,0.186,0.333,1,3600.0,319.2,256.1,63.0,707.4,319.2,487.7,395.0,317.0,78.0,707.4,395.0,603.6,Tracheophyta; Pinales
2020,2020-09-06,Porto,Trofa,Muro,Vilares (Gueidãos),41.2965749994914,-8.59163099977705,Desconhecida,129.0,2020-09-06T17:00,26.6,54,16.6,26.3,0.0,0.0,0.0,0.0,0,1014.6,999.8,0,0,0,0,0.33,1.59,18.0,28.7,327,332,36.7,30.9,23.9,20.8,19.7,0.096,0.164,0.204,0.326,1,3600.0,321.1,257.2,63.9,707.0,321.1,489.9,397.0,318.0,79.0,707.0,397.0,605.8,Tracheophyta; Magnoliopsida; Pinales; Eucalyptus L'Hér.
2020,2020-09-06,Porto,Felgueiras,Sousa,Lugar de arieiro (Vista Alegre),41.3510399999883,-8.25270299990972,Desconhecida,416.0,2020-09-06T16:00,31.4,31,12.0,30.8,0.0,0.0,0.0,0.0,0,1014.8,968.7,0,0,0,0,0.47,3.19,8.9,11.3,328,329,21.6,32.9,24.3,21.1,19.6,0.103,0.159,0.194,0.321,1,3600.0,499.0,422.4,76.6,803.0,499.0,708.6,567.0,480.0,87.0,803.0,567.0,805.1,Tracheophyta; Eucalyptus L'Hér.; Vitis vinifera L.; Magnoliopsida
2020,2020-09-06,Porto,Gondomar,Rio Tinto,SAO JOSE (Vila Cova),41.1686400000254,-8.56935799996058,NC,79.0,2020-09-06T16:00,27.2,53,16.9,27.3,0.0,0.0,0.0,0.0,0,1014.7,1005.6,0,0,0,0,0.43,1.69,16.6,26.1,319,327,36.7,29.8,23.3,20.8,19.7,0.138,0.169,0.208,0.338,1,3600.0,500.0,420.6,79.4,790.3,500.0,716.8,567.0,477.0,90.0,790.3,567.0,813.0,Magnoliopsida; Tracheophyta; Eucalyptus L'Hér.
2020,2020-09-06,Porto,Trofa,Covelas,Outeiral (A3-N-S Km 14),41.2926850001017,-8.54750299983554,Desconhecida,74.0,2020-09-06T15:00,33.4,33,15.0,34.3,0.0,0.0,0.0,0.0,0,1014.8,1006.5,0,0,0,0,0.59,3.44,11.0,14.1,322,328,25.2,32.9,25.0,22.1,20.7,0.138,0.163,0.191,0.332,1,3600.0,648.8,560.6,88.2,840.3,648.8,898.5,699.0,604.0,95.0,840.3,699.0,968.1,Magnoliopsida; Pinus pinaster Aiton; Vitis vinifera L.; Quercus L.; Tracheophyta; Eucalyptus L'Hér.; Olea europaea L.; 
2020,2020-09-06,Porto,Vila Nova de Gaia,Canelas,Lg. Areias (Rua das Areias),41.0846949999862,-8.60486000008053,NC,120.0,2020-09-06T15:00,26.9,54,16.8,27.4,0.0,0.0,0.0,0.0,0,1015.1,1001.3,0,0,0,0,0.5,1.63,18.3,26.0,315,319,37.4,29.5,22.6,20.6,19.6,0.136,0.182,0.225,0.342,1,3600.0,651.7,562.6,89.1,840.3,651.7,901.7,702.0,606.0,96.0,840.3,702.0,971.3,Tracheophyta; Magnoliopsida
2020,2020-09-06,Porto,Baião,Santa Marinha do Zêzere,Lg. Valadares (Vale Figueira),41.1370050001144,-7.96157199965583,Desconhecida,405.0,2020-09-06T14:00,31.7,29,11.4,32.7,0.0,0.0,0.0,0.0,0,1015.5,970.6,0,0,0,0,0.61,3.32,6.4,7.9,43,47,23.8,32.5,24.0,21.5,19.8,0.086,0.144,0.208,0.33,1,3600.0,763.8,669.4,94.4,877.9,763.8,1026.9,793.0,695.0,98.0,877.9,793.0,1066.2,Tracheophyta; Magnoliopsida; Vitis vinifera L.
2020,2020-09-06,Porto,Baião,Santa Cruz do Douro,Lg Beiredos (Turquezes),41.1207610000504,-7.99262600051032,Desconhecida,269.0,2020-09-06T13:00,32.3,31,12.9,34.5,0.0,0.0,0.0,0.0,0,1016.0,986.0,10,0,0,35,0.62,3.34,3.6,4.3,37,42,21.2,32.2,24.9,22.6,20.7,0.128,0.136,0.176,0.335,1,3600.0,821.9,722.4,99.5,888.1,821.9,1095.5,826.0,726.0,100.0,888.1,826.0,1101.0,Magnoliopsida; Pinus pinaster Aiton; Vitis vinifera L.; Quercus L.; Tracheophyta; Eucalyptus L'Hér.; Olea europaea L.; 
2020,2020-09-06,Porto,Vila Nova de Gaia,Sandim,Lg. Bom Samaritano (Rua do Bom Samaritano),41.030489999983,-8.5205170000924,NC,125.0,2020-09-06T13:00,32.4,33,14.1,33.8,0.0,0.0,0.0,0.0,0,1015.5,1001.4,7,0,0,24,0.66,3.27,10.1,12.5,297,303,25.9,32.0,24.4,22.2,20.6,0.127,0.141,0.181,0.329,1,3600.0,812.6,712.0,100.6,874.0,812.6,1097.3,816.0,715.0,101.0,874.0,816.0,1101.9,Tracheophyta; Magnoliopsida
2020,2020-04-25,Porto,Vila Nova de Gaia,Canelas,ESTRADA ROMANA (Vereda Um da Estrada Romana),41.0853269999557,-8.58978700002035,NC,200.0,2020-04-25T17:00,14.3,74,9.6,12.3,0.0,0.0,0.0,0.0,1,1012.5,988.8,32,29,7,7,0.19,0.43,13.4,17.6,294,296,30.6,17.0,14.9,13.5,12.5,0.384,0.384,0.401,0.401,1,3600.0,322.0,224.7,97.3,511.7,322.0,593.7,384.0,268.0,116.0,511.7,384.0,708.0,Tracheophyta; Magnoliopsida; Eucalyptus L'Hér.
2020,2020-09-06,Porto,Maia,Barca,Lg. Chascada (Rua da Chascada),41.2500159999997,-8.62331599977281,NC,88.0,2020-09-06T10:00,27.5,40,12.6,25.9,0.0,0.0,0.0,0.0,0,1016.2,1006.1,0,0,0,0,0.45,2.21,16.2,22.0,73,80,38.5,24.8,22.3,21.0,19.8,0.129,0.157,0.189,0.332,1,3600.0,619.9,519.7,100.2,789.1,619.9,887.1,557.0,467.0,90.0,789.1,557.0,797.1,Pinus pinaster Aiton; Tracheophyta; Magnoliopsida; Eucalyptus L'Hér.
2020,2020-09-06,Porto,Felgueiras,Pinheiro,Lg da Devesa (Poeira),41.3641200002034,-8.15492299980587,Reacendimento,479.0,2020-09-06T09:00,22.9,48,11.3,21.1,0.0,0.0,0.0,0.0,0,1017.5,963.1,0,0,0,0,0.3,1.46,15.1,21.6,87,90,38.2,21.6,22.3,20.8,19.4,0.108,0.169,0.211,0.333,1,3600.0,467.2,378.3,88.9,720.8,467.2,706.8,394.0,319.0,75.0,720.8,394.0,596.0,Pinus pinaster Aiton; Tracheophyta; Magnoliopsida; Eucalyptus L'Hér.; Vitis vinifera L.
2020,2020-09-06,Porto,Penafiel,Boelhe,Samardã (Perafita),41.1300919999017,-8.24835499975416,Desconhecida,328.0,2020-09-06T06:00,19.1,60,11.2,16.0,0.0,0.0,0.0,0.0,0,1016.2,978.1,0,0,0,0,0.1,0.88,23.5,42.6,96,98,55.8,21.0,24.3,22.0,20.3,0.086,0.144,0.209,0.33,0,0.0,0.0,0.0,0.0,0.0,0.0,0.0,0.0,0.0,0.0,0.0,0.0,0.0,Magnoliopsida; Tracheophyta; Eucalyptus L'Hér.
2020,2020-09-06,Porto,Felgueiras,Sousa,Sousa (Boavista),41.3459520000882,-8.25796299987369,Desconhecida,439.0,2020-09-06T05:00,18.8,61,11.1,17.1,0.0,0.0,0.0,0.0,0,1016.6,965.9,0,0,0,0,0.06,0.86,14.4,28.6,77,84,31.3,20.3,23.3,20.9,19.4,0.1,0.16,0.193,0.322,0,0.0,0.0,0.0,0.0,0.0,0.0,0.0,0.0,0.0,0.0,0.0,0.0,0.0,Tracheophyta; Eucalyptus L'Hér.; Pinus pinaster Aiton; Vitis vinifera L.; Magnoliopsida
2020,2020-09-06,Porto,Lousada,Lousada (São Miguel),Lugar da Igreja,41.302751999961,-8.24311999956767,Desconhecida,284.0,2020-09-06T01:00,22.7,47,10.9,20.9,0.0,0.0,0.0,0.0,0,1016.6,983.9,0,0,0,0,0.1,1.45,13.9,29.9,73,81,32.8,22.7,24.8,21.8,20.4,0.094,0.163,0.193,0.32,0,0.0,0.0,0.0,0.0,0.0,0.0,0.0,0.0,0.0,0.0,0.0,0.0,0.0,Vitis vinifera L.; Pinus pinaster Aiton; Eucalyptus L'Hér.
2020,2020-09-06,Porto,Baião,Ancede,R CIMA DE VILA 1344 CIMO_DE_VILA 4640-011_ANCEDE 130221: ESTE (Ranha),41.1031319999695,-8.0463650004069,Desconhecida,364.0,2020-09-06T02:00,21.8,50,10.9,20.3,0.0,0.0,0.0,0.0,0,1015.8,974.0,0,0,0,0,0.09,1.31,12.6,28.8,85,90,34.2,20.9,23.9,21.1,19.5,0.1,0.14,0.199,0.325,0,0.0,0.0,0.0,0.0,0.0,0.0,0.0,0.0,0.0,0.0,0.0,0.0,0.0,Magnoliopsida; Pinus pinaster Aiton; Tracheophyta; Vitis vinifera L.; Quercus suber L.; Acacia Mill.; Eucalyptus L'Hér.; Quercus L.; 
2020,2020-09-05,Porto,Felgueiras,Pedreira,Crasto (Ansebelo),41.3216980001662,-8.21170500013563,Desconhecida,252.0,2020-09-05T23:00,22.6,58,14.0,22.7,0.0,0.0,0.0,0.0,0,1016.8,987.7,0,0,0,0,0.04,1.14,7.8,20.5,56,68,16.2,24.5,25.2,22.0,20.6,0.094,0.163,0.193,0.32,0,0.0,0.0,0.0,0.0,0.0,0.0,0.0,0.0,0.0,0.0,0.0,0.0,0.0,Tracheophyta; Magnoliopsida; Eucalyptus L'Hér.; Vitis vinifera L.
2020,2020-09-05,Porto,Santo Tirso,Monte Córdova,Monte Padrão (Agrela),41.3139729997847,-8.45276500013139,NC,291.0,2020-09-05T23:00,21.8,61,14.0,21.9,0.0,0.0,0.0,0.0,0,1016.6,983.0,0,0,0,0,0.04,1.01,8.3,19.5,56,67,18.4,24.0,24.4,21.4,20.1,0.095,0.174,0.207,0.326,0,0.0,0.0,0.0,0.0,0.0,0.0,0.0,0.0,0.0,0.0,0.0,0.0,0.0,Eucalyptus L'Hér.; Magnoliopsida; Pinus pinaster Aiton; Tracheophyta
2020,2020-09-05,Porto,Lousada,Meinedo,Lugar da Quinta,41.244267999861,-8.24496500015259,Desconhecida,285.0,2020-09-05T21:00,22.7,62,15.1,23.3,0.0,0.0,0.0,0.0,0,1016.2,983.4,0,0,0,0,0.04,1.04,8.0,11.5,8,20,16.2,26.0,24.6,21.4,20.1,0.105,0.157,0.195,0.321,0,0.0,0.0,0.0,0.0,0.0,0.0,0.0,0.0,0.0,0.0,0.0,0.0,0.0,Eucalyptus L'Hér.; Magnoliopsida; Tracheophyta; Pinus pinaster Aiton
2020,2020-09-05,Porto,Baião,Gestaçô,Lg. Quintela (Casa Nova),41.1702070000437,-7.93889899995592,Desconhecida,663.0,2020-09-05T21:00,21.0,56,11.8,20.6,0.0,0.0,0.0,0.0,0,1016.9,942.1,0,0,0,0,0.03,1.11,6.7,7.0,234,282,23.4,24.2,22.8,19.6,18.1,0.126,0.139,0.198,0.335,0,0.0,0.0,0.0,0.0,0.0,0.0,0.0,0.0,0.0,0.0,0.0,0.0,0.0,Pinus pinaster Aiton; Magnoliopsida; Eucalyptus L'Hér.; Tracheophyta; Vitis vinifera L.; Quercus L.; 
2020,2020-09-05,Porto,Maia,Avioso (São Pedro),Lg. Terra Branca (Pinhal),41.2746580002043,-8.62605799992879,NC,138.0,2020-09-05T21:00,23.9,57,14.8,23.9,0.0,0.0,0.0,0.0,0,1015.8,999.8,0,0,0,0,0.07,1.29,11.2,25.3,21,28,20.2,24.5,22.8,20.6,19.6,0.096,0.166,0.203,0.327,0,0.0,0.0,0.0,0.0,0.0,0.0,0.0,0.0,0.0,0.0,0.0,0.0,0.0,Eucalyptus L'Hér.; Tracheophyta; Pinus pinaster Aiton; Magnoliopsida
2020,2020-09-05,Porto,Gondomar,São Pedro da Cova,Passal (Pedrogo),41.1389350001017,-8.49490999963549,NC,44.0,2020-09-05T16:00,26.2,58,17.3,27.3,0.0,0.0,0.0,0.0,0,1016.5,1011.4,0,0,0,0,0.4,1.43,11.2,16.8,303,318,27.0,27.9,22.0,20.9,19.9,0.141,0.172,0.209,0.338,1,3600.0,500.6,413.2,87.4,769.5,500.6,722.9,567.0,468.0,99.0,769.5,567.0,818.8,Tracheophyta; Pinus pinaster Aiton; Eucalyptus L'Hér.; Magnoliopsida
2020,2020-09-05,Porto,Maia,Folgosa,Ardegães (Rua de Vilar),41.2321630001068,-8.5443379995558,NC,113.0,2020-09-05T15:00,31.0,42,16.7,32.5,0.0,0.0,0.0,0.0,0,1016.8,1004.0,0,0,0,0,0.56,2.6,12.0,15.5,314,318,28.4,31.1,23.3,21.7,20.6,0.107,0.188,0.212,0.326,1,3600.0,655.7,567.5,88.2,844.4,655.7,904.7,706.0,611.0,95.0,844.4,706.0,974.1,Magnoliopsida; Eucalyptus L'Hér.; Tracheophyta; Pinus pinaster Aiton; 
2020,2020-09-05,Porto,Santo Tirso,Burgães,Lg Calvelo (Aldeia Nova),41.3436349995931,-8.43926000012292,NC,254.0,2020-09-05T14:00,30.5,42,16.1,32.0,0.0,0.0,0.0,0.0,0,1017.6,989.0,0,0,0,0,0.62,2.53,12.7,16.1,313,318,31.3,30.6,22.6,21.1,20.0,0.11,0.179,0.207,0.328,1,3600.0,757.9,661.4,96.4,863.3,757.9,1031.3,786.0,686.0,100.0,863.3,786.0,1069.7,Tracheophyta; Magnoliopsida; Pinus pinaster Aiton; Eucalyptus L'Hér.; Vitis vinifera L.
2020,2020-09-05,Porto,Baião,Santa Marinha do Zêzere,Travanca (Feijoeiros),41.1411830001407,-7.93882700019413,Desconhecida,364.0,2020-09-05T12:00,31.6,28,10.9,32.5,0.0,0.0,0.0,0.0,0,1018.3,977.7,0,0,0,0,0.61,3.34,6.2,7.5,69,73,24.8,29.2,22.8,21.6,20.1,0.087,0.145,0.21,0.331,1,3600.0,820.7,722.1,98.6,884.9,820.7,1098.4,799.0,703.0,96.0,884.9,799.0,1069.4,Magnoliopsida; Tracheophyta; Vitis vinifera L.; Eucalyptus L'Hér.; Pinus pinaster Aiton
2020,2020-09-05,Porto,Paços de Ferreira,Lamoso,Lg. Cavaleiros (Corgo),41.3268769995371,-8.36021000014411,Desconhecida,449.0,2020-09-05T11:00,29.8,31,10.8,30.0,0.0,0.0,0.0,0.0,0,1018.7,968.6,0,0,0,0,0.54,2.89,7.1,9.2,114,116,21.6,26.1,21.5,20.6,19.3,0.095,0.165,0.194,0.321,1,3600.0,757.3,664.7,92.5,871.5,757.3,1026.7,712.0,625.0,87.0,871.5,712.0,965.3,Magnoliopsida; Eucalyptus L'Hér.; Pinus pinaster Aiton; Tracheophyta; Quercus suber L.; 
2020,2020-09-05,Porto,Vila Nova de Gaia,Grijó,Figueirinha (A1-N-S Km 285),41.0203949999809,-8.58096199989319,NC,125.0,2020-09-05T09:00,19.5,83,16.5,21.0,0.0,0.0,0.0,0.0,0,1019.2,1004.5,2,2,0,0,0.2,0.38,5.4,5.2,312,335,15.8,20.4,20.9,20.8,20.0,0.122,0.179,0.237,0.345,1,3600.0,416.2,297.3,118.9,567.6,416.2,705.0,350.0,250.0,100.0,567.6,350.0,592.9,Tracheophyta; Eucalyptus L'Hér.; Magnoliopsida; Pinales
2020,2020-09-05,Porto,Baião,Santa Marinha do Zêzere,Travanca,41.1397820001178,-7.93588000006146,Desconhecida,334.0,2020-09-05T08:00,23.2,43,9.9,22.1,0.0,0.0,0.0,0.0,0,1019.0,980.6,0,0,0,0,0.16,1.62,7.2,13.1,87,99,18.0,19.3,22.9,21.8,20.3,0.087,0.145,0.21,0.331,1,3600.0,282.5,205.4,77.0,572.7,282.5,482.8,209.0,152.0,57.0,572.7,209.0,357.2,Magnoliopsida; Tracheophyta; Vitis vinifera L.; Eucalyptus L'Hér.; Pinus pinaster Aiton
2020,2020-09-05,Porto,Felgueiras,Sendim,Lg. Valaias (Lamelas),41.3913599999746,-8.17963299963209,Desconhecida,450.0,2020-09-05T00:00,16.7,75,12.2,16.4,0.0,0.0,0.0,0.0,0,1020.4,968.0,0,0,0,0,0.01,0.48,7.2,7.2,96,108,9.0,19.6,23.4,20.6,19.4,0.101,0.163,0.194,0.322,0,0.0,0.0,0.0,0.0,0.0,0.0,0.0,0.0,0.0,0.0,0.0,0.0,0.0,Magnoliopsida; Eucalyptus L'Hér.; Pinus pinaster Aiton
2020,2020-09-04,Porto,Lousada,Lustosa,Lugar da Cachadinha,41.333162999683,-8.30194499995973,Desconhecida,367.0,2020-09-04T23:00,16.5,83,13.6,16.9,0.0,0.0,0.0,0.0,0,1020.7,977.6,0,0,0,0,0.0,0.33,5.3,5.5,62,101,6.5,21.2,23.9,21.1,19.9,0.095,0.166,0.194,0.321,0,0.0,0.0,0.0,0.0,0.0,0.0,0.0,0.0,0.0,0.0,0.0,0.0,0.0,Eucalyptus L'Hér.; Magnoliopsida; Tracheophyta; Pinus pinaster Aiton; Castanea sativa Mill.
2020,2020-09-04,Porto,Felgueiras,Rande,Monte da Costa (Cimo de Vila),41.3332299995422,-8.24126899984148,Desconhecida,362.0,2020-09-04T23:00,16.6,83,13.6,16.9,0.0,0.0,0.0,0.0,0,1020.7,978.2,0,0,0,0,0.0,0.33,5.3,5.5,62,101,6.5,21.3,23.9,21.1,19.9,0.095,0.166,0.194,0.321,0,0.0,0.0,0.0,0.0,0.0,0.0,0.0,0.0,0.0,0.0,0.0,0.0,0.0,Magnoliopsida; Tracheophyta; Pinus pinaster Aiton; Eucalyptus L'Hér.; Vitis vinifera L.
2020,2020-09-04,Porto,Matosinhos,Lavra,Lg. Cima (Padrão),41.2633519999186,-8.70499900023142,NC,55.0,2020-09-04T17:00,20.1,82,16.8,20.6,0.0,0.0,0.0,0.0,0,1021.2,1014.7,4,5,0,0,0.21,0.43,13.2,17.4,315,322,28.4,26.8,22.5,21.0,20.0,0.127,0.158,0.19,0.332,1,3600.0,312.3,235.8,76.4,630.8,312.3,503.1,384.0,290.0,94.0,630.8,384.0,618.7,Tracheophyta; Eucalyptus L'Hér.
2020,2020-09-04,Porto,Felgueiras,Pinheiro,POEIRA,41.3643220000797,-8.15488500012292,Reacendimento,484.0,2020-09-04T14:00,30.1,31,11.3,30.2,0.0,0.0,0.0,0.0,0,1020.5,966.6,0,0,0,0,0.63,2.92,11.5,14.8,270,270,30.6,30.6,22.1,20.4,19.4,0.111,0.174,0.213,0.334,1,3600.0,771.9,679.4,92.5,884.2,771.9,1033.9,801.0,705.0,96.0,884.2,801.0,1072.8,Pinus pinaster Aiton; Tracheophyta; Magnoliopsida; Eucalyptus L'Hér.; Vitis vinifera L.
2020,2020-09-04,Porto,Felgueiras,Pinheiro,Devesas (Poeira),41.3643779998355,-8.1546869998508,Desconhecida,484.0,2020-09-04T08:00,23.5,48,11.9,23.2,0.0,0.0,0.0,0.0,0,1020.9,965.8,0,0,0,0,0.15,1.5,5.9,10.6,101,118,15.8,18.6,21.1,20.4,19.4,0.104,0.174,0.213,0.334,1,3600.0,286.5,208.5,78.0,575.5,286.5,487.4,213.0,155.0,58.0,575.5,213.0,362.4,Pinus pinaster Aiton; Tracheophyta; Magnoliopsida; Eucalyptus L'Hér.; Vitis vinifera L.
2020,2020-09-04,Porto,Felgueiras,Sendim,Monte Santa Quitéria (Seixo),41.3821399996016,-8.20265699995889,Reacendimento,397.0,2020-09-04T02:00,17.3,63,10.2,16.3,0.0,0.0,0.0,0.0,0,1019.7,973.4,0,0,0,0,0.02,0.73,6.8,10.6,72,80,13.0,19.3,23.1,20.8,19.7,0.103,0.166,0.195,0.323,0,0.0,0.0,0.0,0.0,0.0,0.0,0.0,0.0,0.0,0.0,0.0,0.0,0.0,Magnoliopsida; Eucalyptus L'Hér.; Tracheophyta; Pinus pinaster Aiton
2020,2020-01-14,Porto,Paços de Ferreira,Raimonda,Parada (Reguengo),41.3110469998254,-8.3316600004832,Desconhecida,359.0,2020-01-14T18:00,10.7,78,7.1,6.6,0.0,0.0,0.0,0.0,2,1016.6,973.8,64,37,52,0,0.05,0.28,23.0,38.2,179,182,52.6,10.0,8.8,8.6,12.4,0.35,0.363,0.374,0.412,0,0.0,0.0,0.0,0.0,0.0,0.0,0.0,3.0,1.0,2.0,14.8,3.0,34.6,Eucalyptus L'Hér.; Tracheophyta; Pinus pinaster Aiton; Magnoliopsida; 
2020,2020-09-07,Porto,Paredes,Lordelo,Lg. Parteira (Alto da Parteira),41.2272020000882,-8.43209499994914,Desconhecida,210.0,2020-09-07T11:00,25.2,35,8.7,22.0,0.0,0.0,0.0,0.0,0,1019.0,994.8,15,0,0,51,0.55,2.08,24.9,34.2,87,88,55.8,25.1,23.9,22.1,20.4,0.13,0.156,0.181,0.329,1,3600.0,748.2,644.9,103.2,853.0,748.2,1018.8,703.0,606.0,97.0,853.0,703.0,957.3,Magnoliopsida; Pinus pinaster Aiton; Eucalyptus L'Hér.; Tracheophyta; Vitis vinifera L.
2020,2020-09-07,Porto,Paredes,Gandra,Lg. Vilarinho (A4-E-O Km 22),41.1775669998593,-8.4292970000373,Desconhecida,165.0,2020-09-07T11:00,26.0,33,8.5,23.2,0.0,0.0,0.0,0.0,0,1018.7,999.7,15,0,0,49,0.55,2.24,21.7,29.2,79,81,50.4,25.8,24.3,22.4,20.6,0.129,0.144,0.173,0.325,1,3600.0,749.2,648.1,101.1,856.4,749.2,1019.8,704.0,609.0,95.0,856.4,704.0,958.2,Magnoliopsida; Pinus pinaster Aiton; Eucalyptus L'Hér.; Tracheophyta; Vitis vinifera L.
2020,2020-09-04,Porto,Penafiel,Croca,Lg. Igreja (Montes Novos),41.2218479998906,-8.24490800009833,Desconhecida,392.0,2020-09-04T21:00,20.5,60,12.5,20.9,0.0,0.0,0.0,0.0,0,1021.2,975.9,0,0,0,0,0.0,0.95,2.6,2.3,254,198,10.4,23.8,23.9,20.8,19.6,0.111,0.158,0.207,0.329,0,0.0,0.0,0.0,0.0,0.0,0.0,0.0,0.0,0.0,0.0,0.0,0.0,0.0,Tracheophyta; Magnoliopsida; Eucalyptus L'Hér.; Vitis vinifera L.
2020,2020-09-04,Porto,Amarante,Fregim,Mó (Paredes),41.2770949999491,-8.12870299975077,Desconhecida,318.0,2020-09-04T21:00,20.5,62,12.9,21.2,0.0,0.0,0.0,0.0,0,1021.2,984.2,0,0,0,0,0.0,0.92,1.3,1.8,236,143,8.6,24.9,24.9,21.7,20.5,0.091,0.165,0.203,0.327,0,0.0,0.0,0.0,0.0,0.0,0.0,0.0,0.0,0.0,0.0,0.0,0.0,0.0,Tracheophyta; Magnoliopsida; Pinus pinaster Aiton; Vitis vinifera L.; Quercus L.; Eucalyptus L'Hér.; 
2020,2020-09-04,Porto,Baião,Gove,Pinheiro (Moinhos Novos),41.1334799999992,-8.04037500010596,Desconhecida,415.0,2020-09-04T20:00,20.4,64,13.4,20.7,0.0,0.0,0.0,0.0,0,1021.0,973.1,0,0,0,0,0.01,0.85,5.0,5.1,249,262,11.9,26.4,24.5,21.2,19.7,0.087,0.145,0.21,0.331,0,0.0,0.0,0.0,0.0,0.0,0.0,0.0,0.0,0.0,0.0,0.0,0.0,0.0,Tracheophyta; Magnoliopsida; Pinales; Eucalyptus L'Hér.; Vitis vinifera L.; Quercus L.; Pinus pinaster Aiton; 
2020,2020-09-04,Porto,Vila do Conde,Modivas,Lg. Modivas (Vila Chã),41.2925209999084,-8.70645699977875,NC,42.0,2020-09-04T17:00,20.1,82,16.9,20.6,0.0,0.0,0.0,0.0,0,1021.1,1016.1,4,5,0,0,0.21,0.43,13.2,17.6,313,317,28.4,27.4,22.7,21.2,20.2,0.098,0.168,0.204,0.327,1,3600.0,311.5,235.1,76.5,628.8,311.5,503.0,383.0,289.0,94.0,628.8,383.0,618.4,Tracheophyta; Eucalyptus L'Hér.; Magnoliopsida
2020,2020-09-04,Porto,Maia,Águas Santas,Guadalupe (Rua das Cruzes),41.2019769999716,-8.58645299990972,NC,91.0,2020-09-04T16:00,21.3,72,15.9,21.7,0.0,0.0,0.0,0.0,0,1021.0,1010.3,7,8,0,0,0.33,0.72,11.4,14.0,305,312,26.6,27.2,22.1,20.8,19.7,0.127,0.159,0.19,0.332,1,3600.0,490.7,390.8,99.9,721.7,490.7,728.6,555.0,442.0,113.0,721.7,555.0,824.1,Tracheophyta; Pinus pinaster Aiton; Magnoliopsida; Eucalyptus L'Hér.; 
2020,2020-09-04,Porto,Valongo,Ermesinde,Secundária de Ermesinde (Quinta do Sá),41.216501999961,-8.54883799976773,NC,105.0,2020-09-04T15:00,25.8,47,13.6,26.3,0.0,0.0,0.0,0.0,0,1020.9,1008.7,0,0,0,0,0.51,1.77,11.5,14.1,290,289,29.2,30.4,23.5,21.7,20.7,0.107,0.18,0.212,0.327,1,3600.0,675.7,586.4,89.2,866.9,675.7,910.2,727.0,631.0,96.0,866.9,727.0,979.4,Tracheophyta; Eucalyptus L'Hér.
2020,2020-09-04,Porto,Maia,Barca,Lg. Castanheira (Rua da Chascada),41.2492279995812,-8.62460699982113,NC,91.0,2020-09-04T14:00,21.8,68,15.5,23.0,0.0,0.0,0.0,0.0,0,1021.5,1010.8,8,9,0,0,0.44,0.85,11.6,13.8,292,298,28.4,27.0,21.6,20.8,19.7,0.128,0.159,0.19,0.333,1,3600.0,710.3,570.3,139.9,738.1,710.3,1039.6,736.0,591.0,145.0,738.1,736.0,1077.3,Pinus pinaster Aiton; Tracheophyta; Magnoliopsida; Eucalyptus L'Hér.
2020,2020-09-04,Porto,Gondomar,Foz do Sousa,Lugar de Zebreiros (Zibreiros),41.0844279999865,-8.50627700010936,NC,93.0,2020-09-04T13:00,27.3,46,14.7,28.8,0.0,0.0,0.0,0.0,0,1021.2,1010.5,0,0,0,0,0.59,1.97,11.6,13.8,275,276,28.8,29.6,23.5,22.1,20.8,0.128,0.148,0.184,0.33,1,3600.0,828.9,733.2,95.6,892.4,828.9,1105.5,832.0,736.0,96.0,892.4,832.0,1109.7,Eucalyptus L'Hér.; Tracheophyta; Magnoliopsida; Pinus pinaster Aiton
2020,2020-09-04,Porto,Valongo,Alfena,Serra Amarela (Codeceira),41.2478170002831,-8.52550300015344,NC,154.0,2020-09-04T14:00,26.1,46,13.5,27.0,0.0,0.0,0.0,0.0,0,1021.2,1003.4,0,0,0,0,0.57,1.84,11.5,14.1,284,285,28.8,29.7,22.9,21.4,20.4,0.107,0.18,0.212,0.327,1,3600.0,780.5,688.8,91.7,892.2,780.5,1038.8,809.0,714.0,95.0,892.2,809.0,1076.7,Eucalyptus L'Hér.; Pinus pinaster Aiton; Tracheophyta; Magnoliopsida
2020,2020-09-04,Porto,Marco de Canaveses,Alpendurada e Matos,CASAL ALEGRE (Lamaçal),41.087757999897,-8.25889700041877,Desconhecida,159.0,2020-09-04T13:00,30.4,34,12.7,31.1,0.0,0.0,0.0,0.0,0,1020.8,1002.7,0,0,0,0,0.66,2.87,11.9,14.8,275,274,31.0,31.1,23.7,22.2,20.8,0.102,0.14,0.2,0.326,1,3600.0,836.4,747.8,88.6,910.5,836.4,1105.0,840.0,751.0,89.0,910.5,840.0,1109.8,Eucalyptus L'Hér.; Tracheophyta; Magnoliopsida; Pinus pinaster Aiton; Castanea sativa Mill.; Vitis vinifera L.
2020,2020-09-07,Porto,Gondomar,Fânzeres,Ervedosa (Belavista),41.1569919999441,-8.5187200000551,Desconhecida,182.0,2020-09-07T12:00,27.7,30,8.7,25.5,0.0,0.0,0.0,0.0,1,1018.3,997.5,24,0,0,79,0.63,2.59,20.5,26.6,79,81,47.5,26.9,23.7,21.8,20.2,0.114,0.152,0.187,0.332,1,3600.0,812.0,708.2,103.8,876.4,812.0,1088.9,790.0,689.0,101.0,876.4,790.0,1059.3,Tracheophyta; Magnoliopsida; Eucalyptus L'Hér.
2020,2020-09-03,Porto,Paredes,Vilela,Valcisão (Vale),41.2520350000593,-8.37543000009325,Desconhecida,346.0,2020-09-03T20:00,21.6,53,11.6,21.2,0.0,0.0,0.0,0.0,0,1019.1,979.2,0,0,0,0,0.04,1.22,6.5,12.2,354,341,12.2,25.7,23.5,20.5,19.4,0.135,0.162,0.182,0.331,0,0.0,0.0,0.0,0.0,0.0,0.0,0.0,0.0,0.0,0.0,0.0,0.0,0.0,Magnoliopsida; Pinus pinaster Aiton; Eucalyptus L'Hér.; Tracheophyta; Vitis vinifera L.
2020,2020-09-03,Porto,Lousada,Figueiras,Lugar de Alem de Baixo,41.2758269998762,-8.32808300018311,Desconhecida,291.0,2020-09-03T20:00,22.9,55,13.4,22.9,0.0,0.0,0.0,0.0,0,1019.3,985.7,0,0,0,0,0.04,1.26,7.6,11.5,329,328,13.0,27.0,24.3,21.4,20.4,0.096,0.168,0.194,0.322,0,0.0,0.0,0.0,0.0,0.0,0.0,0.0,0.0,0.0,0.0,0.0,0.0,0.0,Tracheophyta; Eucalyptus L'Hér.; Magnoliopsida; Pinus pinaster Aiton
2020,2020-09-03,Porto,Maia,Águas Santas,Lg. Casal de Baixo (Rua Doutor António dos Santos),41.20486700005,-8.58256999969482,NC,88.0,2020-09-03T19:00,21.0,66,14.5,21.7,0.0,0.0,0.0,0.0,0,1018.5,1008.2,0,0,0,0,0.04,0.84,5.5,15.2,349,353,16.6,26.3,23.0,20.7,19.7,0.129,0.16,0.19,0.333,1,2190.22,0.0,0.0,0.0,0.0,0.0,0.0,57.0,33.0,24.0,250.0,57.0,126.2,Tracheophyta; Pinus pinaster Aiton; Magnoliopsida; Eucalyptus L'Hér.; 
2020,2020-09-03,Porto,Trofa,Bougado (Santiago),Lg. mosteirô (Vale de Roque),41.3274109999339,-8.55904099994236,NC,44.0,2020-09-03T16:00,26.7,45,13.7,26.4,0.0,0.0,0.0,0.0,0,1018.5,1013.4,0,0,0,0,0.42,1.93,10.5,12.5,311,314,23.8,30.8,22.7,21.0,20.2,0.102,0.171,0.205,0.328,1,3600.0,504.6,409.0,95.6,749.2,504.6,734.2,570.0,462.0,108.0,749.2,570.0,829.4,Tracheophyta; Magnoliopsida; Pinus pinaster Aiton
2020,2020-09-07,Porto,Santo Tirso,Rebordões,Lugar do Pindelo (Ribeiro),41.351615000036,-8.4304090001848,NC,122.0,2020-09-07T13:00,30.0,27,9.1,28.6,0.0,0.0,0.0,0.0,1,1018.1,1004.2,21,0,0,71,0.68,3.09,17.6,22.3,89,87,40.0,28.8,24.1,21.9,20.3,0.131,0.153,0.186,0.333,1,3600.0,814.5,712.0,102.6,881.8,814.5,1088.0,818.0,715.0,103.0,881.8,818.0,1092.6,Tracheophyta; Pinus pinaster Aiton; Eucalyptus L'Hér.; Magnoliopsida; Vitis vinifera L.
2020,2020-09-07,Porto,Paredes,Lordelo,Lugar Parteira (Alto da Parteira),41.2292849996355,-8.43011199951172,Desconhecida,215.0,2020-09-07T16:00,29.2,27,8.5,26.5,0.0,0.0,0.0,0.0,0,1017.1,992.7,2,0,0,6,0.48,2.95,15.9,21.6,85,86,34.6,30.4,24.6,22.1,20.4,0.129,0.155,0.18,0.329,1,3600.0,460.1,314.9,145.2,600.5,460.1,706.8,523.0,358.0,165.0,600.5,523.0,803.4,Magnoliopsida; Pinus pinaster Aiton; Eucalyptus L'Hér.; Tracheophyta; Vitis vinifera L.
2020,2020-09-07,Porto,Felgueiras,Várzea,Lg. 25 Abril (Pinhal da Rebela),41.3559579997592,-8.19219500011868,Desconhecida,290.0,2020-09-07T16:00,29.3,27,8.1,26.9,0.0,0.0,0.0,0.0,0,1017.6,984.9,0,0,0,0,0.47,2.99,13.0,17.3,92,90,31.7,31.1,24.7,22.2,20.5,0.1,0.157,0.193,0.32,1,3600.0,480.7,370.0,110.7,709.9,480.7,702.4,547.0,421.0,126.0,709.9,547.0,799.2,Magnoliopsida; Eucalyptus L'Hér.; Tracheophyta; Pinus pinaster Aiton; Vitis vinifera L.; Castanea sativa Mill.; Quercus L.; Olea europaea L.; Acacia Mill.; Pinales; 
2020,2020-09-07,Porto,Gondomar,São Pedro da Cova,Lugar do carvalhal (Carvalhal),41.1325330003103,-8.49969200028313,NC,47.0,2020-09-07T17:00,28.1,41,13.6,27.8,0.0,0.0,0.0,0.0,0,1016.4,1011.0,0,0,0,0,0.32,2.25,9.7,14.4,358,22,19.4,29.9,23.9,21.2,20.0,0.135,0.166,0.207,0.337,1,3600.0,307.9,225.7,82.2,629.0,307.9,483.5,382.0,280.0,102.0,629.0,382.0,599.9,Pinus pinaster Aiton; Tracheophyta; Magnoliopsida; Eucalyptus L'Hér.
2020,2020-09-07,Porto,Baião,Gove,Lugar Pinheiro (Moinhos Novos),41.134510000017,-8.04404500007629,Desconhecida,397.0,2020-09-07T17:00,28.1,25,6.4,25.2,0.0,0.0,0.0,0.0,0,1017.3,972.7,4,0,0,15,0.38,2.85,14.0,20.2,90,89,34.2,30.5,24.4,21.8,19.9,0.088,0.143,0.208,0.329,1,3600.0,319.4,260.0,59.4,737.4,319.4,475.1,398.0,324.0,74.0,737.4,398.0,592.1,Tracheophyta; Magnoliopsida; Pinales; Eucalyptus L'Hér.; Vitis vinifera L.; Quercus L.; Pinus pinaster Aiton; 
2020,2020-09-07,Porto,Marco de Canaveses,Fornos,LG Freita (Boa Vista),41.1831080002255,-8.1328719997406,Desconhecida,152.0,2020-09-07T17:00,29.7,26,7.9,27.2,0.0,0.0,0.0,0.0,0,1016.9,999.6,0,0,0,0,0.38,3.1,13.3,19.0,77,80,30.2,31.4,25.3,22.6,20.8,0.102,0.145,0.196,0.321,1,3600.0,317.3,253.9,63.5,716.9,317.3,477.2,395.0,316.0,79.0,716.9,395.0,594.0,Quercus L.; Tracheophyta; Magnoliopsida; Pinus pinaster Aiton
2020,2020-09-07,Porto,Vila do Conde,Fornelo,LUGAR DO OLIVAL (Padrão),41.3367680001259,-8.64398999955919,NC,85.0,2020-09-07T18:00,26.1,56,16.7,27.1,0.0,0.0,0.0,0.0,0,1016.6,1006.8,0,0,0,0,0.17,1.49,9.4,14.5,356,19,20.5,28.8,24.1,21.2,19.8,0.118,0.173,0.203,0.323,1,3600.0,134.2,96.3,37.9,564.7,134.2,229.9,209.0,150.0,59.0,564.7,209.0,357.9,Eucalyptus L'Hér.; Tracheophyta
2020,2020-09-07,Porto,Gondomar,Rio Tinto,R ARROTEIAS 269 TRIANA 4435_RIO_TINTO 130408 (Rua Heróis da Pátria),41.1839980000258,-8.5800599998898,NC,156.0,2020-09-07T19:00,23.8,52,13.3,23.5,0.0,0.0,0.0,0.0,0,1016.5,998.4,0,0,0,1,0.08,1.42,8.9,20.3,40,65,17.3,26.7,23.5,20.5,19.2,0.135,0.166,0.207,0.337,0,1791.95,0.0,0.0,0.0,0.0,0.0,0.0,43.0,24.0,19.0,197.7,43.0,104.8,Tracheophyta; Magnoliopsida; Pinus pinaster Aiton; Eucalyptus L'Hér.
2020,2020-09-07,Porto,Amarante,Aboim,Lugar Ponte Nova (Aboim),41.317491999997,-8.065722000334,Desconhecida,148.0,2020-09-07T20:00,24.6,28,4.7,21.9,0.0,0.0,0.0,0.0,0,1018.1,1001.0,13,0,0,42,0.11,2.24,9.5,23.5,79,86,21.6,27.5,26.2,23.4,21.6,0.09,0.158,0.201,0.325,0,0.0,0.0,0.0,0.0,0.0,0.0,0.0,0.0,0.0,0.0,0.0,0.0,0.0,Tracheophyta; Eucalyptus L'Hér.; Pinus pinaster Aiton; Magnoliopsida; Vitis vinifera L.; 
2020,2020-09-07,Porto,Penafiel,Rio de Moinhos,Lugar de Agrela (Louredo),41.1003920000129,-8.27197800000509,Desconhecida,141.0,2020-09-07T21:00,23.7,29,4.4,21.0,0.0,0.0,0.0,0.0,0,1017.8,1001.4,8,0,0,25,0.1,2.09,9.4,22.2,58,70,24.5,26.3,25.8,22.6,20.8,0.102,0.146,0.2,0.318,0,0.0,0.0,0.0,0.0,0.0,0.0,0.0,0.0,0.0,0.0,0.0,0.0,0.0,Eucalyptus L'Hér.; Tracheophyta; Magnoliopsida
2020,2020-09-07,Porto,Santo Tirso,Monte Córdova,Cortinhas (Rio Leça),41.3108780002594,-8.43871700021956,Desconhecida,335.0,2020-09-07T22:00,23.0,27,3.0,18.9,0.0,0.0,0.0,0.0,0,1019.0,980.5,0,0,0,1,0.17,2.04,16.6,33.1,88,90,39.2,23.9,24.5,21.6,19.9,0.094,0.168,0.205,0.325,0,0.0,0.0,0.0,0.0,0.0,0.0,0.0,0.0,0.0,0.0,0.0,0.0,0.0,Tracheophyta; Vitis vinifera L.; Eucalyptus L'Hér.; Pinus pinaster Aiton; Magnoliopsida
2020,2020-09-09,Porto,Felgueiras,Pinheiro,Pinheiro (Poeira),41.3650150002374,-8.1552650001314,Reacendimento,473.0,2020-09-09T08:00,19.8,41,6.2,17.7,0.0,0.0,0.0,0.0,0,1021.3,966.8,5,0,0,16,0.15,1.36,7.6,13.3,98,109,19.8,17.1,20.9,21.2,19.5,0.111,0.163,0.211,0.331,1,3600.0,273.3,198.1,75.2,571.1,273.3,467.9,200.0,145.0,55.0,571.1,200.0,342.4,Pinus pinaster Aiton; Tracheophyta; Magnoliopsida; Eucalyptus L'Hér.; Vitis vinifera L.
2020,2020-09-09,Porto,Santo Tirso,Monte Córdova,Padrão (Agrela),41.3156269995372,-8.4511480000284,Desconhecida,271.0,2020-09-09T08:00,21.7,33,4.9,18.5,0.0,0.0,0.0,0.0,0,1020.4,988.9,14,0,0,47,0.2,1.73,13.0,23.5,95,101,26.6,19.7,22.6,22.1,20.3,0.093,0.165,0.205,0.324,1,3600.0,262.5,181.4,81.1,529.5,262.5,462.1,191.0,132.0,59.0,529.5,191.0,336.2,Pinus pinaster Aiton; Tracheophyta; Eucalyptus L'Hér.; Vitis vinifera L.; Magnoliopsida
2020,2020-09-09,Porto,Paços de Ferreira,Lamoso,Cavaleiro (Corgo),41.3216500001484,-8.35926300048828,Desconhecida,381.0,2020-09-09T08:00,20.5,34,4.3,17.4,0.0,0.0,0.0,0.0,0,1020.8,976.7,12,0,0,40,0.18,1.58,11.9,22.1,88,97,23.4,18.4,21.9,21.7,19.9,0.093,0.156,0.191,0.318,1,3600.0,266.1,187.9,78.2,546.0,266.1,464.2,194.0,137.0,57.0,546.0,194.0,338.4,Magnoliopsida; Eucalyptus L'Hér.; Pinus pinaster Aiton; Tracheophyta; Quercus suber L.; 
2020,2020-09-09,Porto,Maia,Moreira,Moreira (Maninho do Corgo),41.2291719998254,-8.66794299999873,NC,65.0,2020-09-09T09:00,25.8,30,6.9,23.7,0.0,0.0,0.0,0.0,1,1020.1,1012.6,21,0,0,70,0.3,2.32,9.0,14.0,113,113,21.6,21.9,22.6,21.7,20.0,0.12,0.15,0.187,0.33,1,3600.0,449.1,353.5,95.5,693.4,449.1,687.7,376.0,296.0,80.0,693.4,376.0,575.8,Magnoliopsida; Eucalyptus L'Hér.; Tracheophyta; Pinus pinaster Aiton; 
2020,2020-09-09,Porto,Marco de Canaveses,Penha Longa,Piares (Granja),41.0913530000051,-8.1486720000373,Desconhecida,258.0,2020-09-09T09:00,25.3,27,5.2,23.2,0.0,0.0,0.0,0.0,0,1020.7,991.1,13,0,0,44,0.28,2.34,6.3,8.7,77,85,16.6,21.0,22.6,22.3,20.3,0.099,0.138,0.196,0.322,1,3600.0,463.5,374.1,89.4,726.5,463.5,694.5,389.0,314.0,75.0,726.5,389.0,582.9,Pinus pinaster Aiton; Magnoliopsida; Tracheophyta
2020,2020-09-09,Porto,Trofa,Covelas,Rindo (A3-N-S Km 14),41.2923969999949,-8.54727300008138,NC,85.0,2020-09-09T11:00,30.2,22,6.1,29.4,0.0,0.0,0.0,0.0,0,1020.4,1010.7,0,0,0,0,0.51,3.35,5.1,6.6,188,193,23.4,27.4,23.7,22.6,20.7,0.127,0.154,0.187,0.33,1,3600.0,735.9,635.8,100.1,850.1,735.9,1008.7,691.0,597.0,94.0,850.1,691.0,947.2,Magnoliopsida; Pinus pinaster Aiton; Vitis vinifera L.; Quercus L.; Tracheophyta; Eucalyptus L'Hér.; Olea europaea L.; 
2020,2020-09-09,Porto,Felgueiras,Pinheiro,PINHEIRO 4610-573_FELGUEIRAS 130314: @JUNTA DE FREGUESIA DE PINHEIRO (JUNTA_2013#700241) (Poeira),41.3646380000644,-8.15411799987157,Reacendimento,486.0,2020-09-09T13:00,27.8,24,5.4,27.8,0.0,0.0,0.0,0.0,1,1020.2,965.7,21,0,0,70,0.58,2.85,4.3,5.5,246,238,18.0,28.5,21.3,21.1,19.4,0.109,0.162,0.21,0.331,1,3600.0,810.3,710.9,99.4,890.2,810.3,1077.2,815.0,715.0,100.0,890.2,815.0,1083.4,Pinus pinaster Aiton; Tracheophyta; Magnoliopsida; Eucalyptus L'Hér.; Vitis vinifera L.
2020,2020-09-09,Porto,Santo Tirso,Monte Córdova,São Jorge (Quinchães),41.314267999861,-8.43740499999788,NC,358.0,2020-09-09T14:00,28.8,23,5.9,27.5,0.0,0.0,0.0,0.0,0,1019.5,979.2,6,0,0,20,0.61,3.03,11.0,13.3,259,257,27.7,31.2,22.9,21.6,19.8,0.093,0.164,0.204,0.324,1,3600.0,751.8,655.5,96.3,874.3,751.8,1011.4,781.0,681.0,100.0,874.3,781.0,1050.7,Tracheophyta; Vitis vinifera L.; Eucalyptus L'Hér.; Pinus pinaster Aiton; Magnoliopsida
2020,2020-09-09,Porto,Matosinhos,Custóias,Custoias (Rua Cândido dos Reis),41.2015130000644,-8.64990699979994,NC,84.0,2020-09-09T15:00,26.0,34,8.9,25.3,0.0,0.0,0.0,0.0,0,1019.4,1009.7,10,0,0,35,0.5,2.23,9.4,11.9,277,273,27.0,30.8,23.6,21.6,19.9,0.119,0.149,0.187,0.33,1,3600.0,646.7,556.8,89.9,850.2,646.7,883.4,698.0,601.0,97.0,850.2,698.0,953.6,Magnoliopsida; Tracheophyta
2020,2020-09-09,Porto,Santo Tirso,Monte Córdova,Monte (Quinta de Linhares),41.3178250000212,-8.44539299964905,NC,408.0,2020-09-09T16:00,28.5,24,5.8,25.6,0.0,0.0,0.0,0.0,0,1019.0,973.2,0,0,0,0,0.47,2.96,12.7,16.0,285,284,28.8,31.7,23.2,21.5,19.8,0.092,0.155,0.191,0.318,1,3600.0,488.4,408.6,79.8,796.3,488.4,692.2,557.0,466.0,91.0,796.3,557.0,789.4,Pinus pinaster Aiton; Tracheophyta; Eucalyptus L'Hér.; Vitis vinifera L.; Magnoliopsida
2020,2020-09-09,Porto,Santo Tirso,Couto (Santa Cristina),ERMIDA (Quinta de Santa Cristina),41.3237299998601,-8.48642199993134,NC,131.0,2020-09-09T16:00,28.9,25,6.9,26.6,0.0,0.0,0.0,0.0,0,1019.1,1004.1,10,0,0,33,0.46,2.99,10.8,13.8,274,277,27.7,31.7,24.8,22.3,20.4,0.126,0.152,0.186,0.33,1,3600.0,491.6,415.2,76.4,805.0,491.6,695.8,560.0,473.0,87.0,805.0,560.0,792.6,Eucalyptus L'Hér.; Vitis vinifera L.; Tracheophyta; Magnoliopsida; Pinus pinaster Aiton
2020,2020-09-09,Porto,Santo Tirso,Guimarei,Monte (GUIMAREI),41.3013089999888,-8.4782029999627,NC,173.0,2020-09-09T16:00,28.6,25,6.6,26.3,0.0,0.0,0.0,0.0,0,1019.1,999.4,10,0,0,33,0.46,2.94,10.8,13.8,274,277,27.7,31.4,24.5,22.0,20.1,0.126,0.152,0.186,0.33,1,3600.0,491.6,415.2,76.4,805.0,491.6,695.8,560.0,473.0,87.0,805.0,560.0,792.6,Pinus pinaster Aiton; Magnoliopsida; Vitis vinifera L.; Tracheophyta; Eucalyptus L'Hér.
2020,2020-09-09,Porto,Vila Nova de Gaia,Madalena,GUIOES (Rua dos Guiões),41.1033369999462,-8.6542670000924,NC,21.0,2020-09-09T16:00,25.9,39,11.0,24.7,0.0,0.0,0.0,0.0,0,1019.0,1016.6,10,0,0,35,0.41,2.03,10.4,14.0,304,305,25.2,30.0,23.7,21.8,20.3,0.126,0.172,0.221,0.34,1,3600.0,492.6,414.5,78.2,800.2,492.6,698.8,561.0,472.0,89.0,800.2,561.0,795.7,Tracheophyta; Magnoliopsida; Eucalyptus L'Hér.; Pinus pinaster Aiton
2020,2020-09-09,Porto,Amarante,Travanca,Barreiros (Barreiro),41.2618230003781,-8.20450700018141,Desconhecida,260.0,2020-09-09T16:00,29.7,23,6.2,27.1,0.0,0.0,0.0,0.0,0,1018.8,989.4,0,0,0,0,0.48,3.22,11.9,14.9,284,285,28.4,32.0,23.9,22.2,20.4,0.102,0.151,0.192,0.319,1,3600.0,489.2,410.3,78.9,799.2,489.2,692.6,558.0,468.0,90.0,799.2,558.0,789.9,Tracheophyta; Magnoliopsida; Eucalyptus L'Hér.; Vitis vinifera L.; Pinus pinaster Aiton; 
2020,2020-09-08,Porto,Vila do Conde,Vila do Conde,R BAIRRO ALTO VILA_DO_CONDE 4480-889_VILA_DO_CONDE 131628 (Pedreiras),41.3538499999046,-8.73162800047133,NC,13.0,2020-09-08T00:00,22.2,34,5.7,19.2,0.0,0.0,0.0,0.0,0,1019.1,1017.6,18,0,0,60,0.13,1.76,13.4,28.8,70,81,24.8,22.5,24.5,21.8,20.3,0.116,0.173,0.204,0.323,0,0.0,0.0,0.0,0.0,0.0,0.0,0.0,0.0,0.0,0.0,0.0,0.0,0.0,Tracheophyta; Magnoliopsida; Eucalyptus L'Hér.
2020,2020-09-08,Porto,Gondomar,Foz do Sousa,L. Zebreiros (Zibreiros),41.0827049997118,-8.50709700001611,NC,94.0,2020-09-08T01:00,22.0,37,6.4,18.1,0.0,0.0,0.0,0.0,0,1018.9,1007.9,0,0,0,0,0.17,1.68,20.1,36.1,66,71,36.7,23.4,25.7,22.7,20.9,0.12,0.143,0.181,0.329,0,0.0,0.0,0.0,0.0,0.0,0.0,0.0,0.0,0.0,0.0,0.0,0.0,0.0,Eucalyptus L'Hér.; Pinus pinaster Aiton; Magnoliopsida; Tracheophyta
2020,2020-09-08,Porto,Paredes,Rebordosa,SANTIAGO 131018: @SANTIAGO (LUGAR#122439) (Santiago),41.2075980001026,-8.41899199989107,Desconhecida,237.0,2020-09-08T02:00,19.8,41,6.3,15.7,0.0,0.0,0.0,0.0,0,1019.7,992.0,1,0,0,3,0.15,1.36,21.9,38.0,81,83,43.9,22.2,24.5,22.1,20.3,0.129,0.154,0.18,0.329,0,0.0,0.0,0.0,0.0,0.0,0.0,0.0,0.0,0.0,0.0,0.0,0.0,0.0,Magnoliopsida; Pinus pinaster Aiton; Eucalyptus L'Hér.; Tracheophyta; Vitis vinifera L.
2020,2020-09-08,Porto,Marco de Canaveses,Fornos,L. Boavista (Boa Vista),41.1829100004832,-8.13332800017463,Reacendimento,152.0,2020-09-08T02:00,20.1,42,6.8,16.8,0.0,0.0,0.0,0.0,0,1019.6,1001.7,2,0,0,6,0.13,1.37,17.3,32.4,73,82,37.4,22.1,25.1,22.7,20.8,0.102,0.145,0.196,0.321,0,0.0,0.0,0.0,0.0,0.0,0.0,0.0,0.0,0.0,0.0,0.0,0.0,0.0,Quercus L.; Tracheophyta; Magnoliopsida; Pinus pinaster Aiton
2020,2020-09-08,Porto,Lousada,Nevogilde,Lugar Senhora da Ajuda,41.2560149998135,-8.31309999995761,Desconhecida,176.0,2020-09-08T02:00,19.8,43,6.8,16.3,0.0,0.0,0.0,0.0,0,1019.9,999.2,5,0,0,18,0.13,1.32,18.7,34.2,74,82,43.2,22.3,25.0,22.6,20.8,0.103,0.154,0.193,0.32,0,0.0,0.0,0.0,0.0,0.0,0.0,0.0,0.0,0.0,0.0,0.0,0.0,0.0,Tracheophyta; Quercus L.
2020,2020-09-08,Porto,Amarante,Várzea,L. Paço (Souto),41.2614899995592,-7.99494999991523,Desconhecida,314.0,2020-09-08T03:00,17.8,48,6.6,13.6,0.0,0.0,0.0,0.0,1,1020.2,983.4,23,0,0,78,0.13,1.06,22.7,39.6,86,91,56.5,20.9,24.0,22.0,20.2,0.106,0.154,0.205,0.327,0,0.0,0.0,0.0,0.0,0.0,0.0,0.0,0.0,0.0,0.0,0.0,0.0,0.0,Magnoliopsida; Eucalyptus L'Hér.; Tracheophyta; Pinus pinaster Aiton; Vitis vinifera L.; Castanea sativa Mill.; Quercus L.; Olea europaea L.; Acacia Mill.; Pinales; 
2020,2020-09-08,Porto,Trofa,Muro,L. São Pataleão (Matos),41.2898429997762,-8.58788299984402,Desconhecida,162.0,2020-09-08T06:00,17.8,45,5.6,12.3,0.0,0.0,0.0,0.0,0,1019.6,1000.4,17,0,0,57,0.16,1.12,29.6,49.9,95,95,54.4,20.9,24.1,21.9,20.2,0.128,0.157,0.188,0.331,0,0.0,0.0,0.0,0.0,0.0,0.0,0.0,0.0,0.0,0.0,0.0,0.0,0.0,Tracheophyta; Eucalyptus L'Hér.; Magnoliopsida; Pinales; Pinus pinaster Aiton
2020,2020-09-08,Porto,Trofa,Muro,L. Matos (Matos),41.293666999605,-8.58980799992879,NC,154.0,2020-09-08T07:00,17.8,47,6.5,12.5,0.0,0.0,0.0,0.0,0,1020.0,1001.8,8,0,0,25,0.17,1.07,30.1,49.2,96,95,55.1,20.6,23.9,22.0,20.2,0.128,0.157,0.188,0.331,1,1243.15,77.2,39.7,37.5,255.5,47.7,209.5,35.0,18.0,17.0,157.8,35.0,95.0,Tracheophyta; Eucalyptus L'Hér.; Magnoliopsida; Pinales; Pinus pinaster Aiton
2020,2020-09-08,Porto,Marco de Canaveses,Freixo,L. Monte (Marco de Canaveses),41.1647700002458,-8.15133699999915,Desconhecida,264.0,2020-09-08T07:00,15.7,59,7.6,11.5,0.0,0.0,0.0,0.0,0,1021.0,989.7,1,0,0,3,0.11,0.74,24.5,44.9,93,96,61.2,18.9,24.0,22.8,20.8,0.086,0.143,0.207,0.329,1,1619.22,85.7,46.1,39.6,287.1,53.7,216.7,39.0,21.0,18.0,179.9,39.0,98.6,Eucalyptus L'Hér.; Tracheophyta; Pinus pinaster Aiton; Magnoliopsida; Vitis vinifera L.; ; Castanea sativa Mill.; Acacia Mill.
2020,2020-09-08,Porto,Felgueiras,Pinheiro,Lugar Entrocamento (Igreja),41.3666560003493,-8.15704100026025,Desconhecida,462.0,2020-09-08T07:00,15.0,53,5.4,11.2,0.0,0.0,0.0,0.0,0,1021.8,967.6,9,0,0,29,0.1,0.81,18.4,31.5,79,83,39.2,17.8,22.4,21.2,19.4,0.1,0.156,0.193,0.32,1,1504.73,83.5,44.0,39.6,274.4,52.3,216.0,38.0,20.0,18.0,171.7,38.0,98.3,Pinus pinaster Aiton; Tracheophyta; Magnoliopsida; Eucalyptus L'Hér.; Vitis vinifera L.
2020,2020-09-08,Porto,Trofa,Bougado (São Martinho),Lugar dos Carriços (Mosteirô),41.3249380000432,-8.5547649998135,NC,60.0,2020-09-08T11:00,26.1,30,7.4,22.6,0.0,0.0,0.0,0.0,1,1020.0,1013.0,23,0,0,77,0.57,2.35,23.8,32.1,93,93,51.1,25.1,23.3,21.7,20.2,0.098,0.165,0.206,0.326,1,3600.0,746.7,640.1,106.5,852.8,746.7,1012.0,701.0,601.0,100.0,852.8,701.0,950.1,Pinales; Tracheophyta; Magnoliopsida; Eucalyptus L'Hér.; Pinus pinaster Aiton
2020,2020-09-08,Porto,Baião,Santa Cruz do Douro,Lugar de Beiredos (ED108-2 (ED108-2) Km 3),41.1173589999808,-8.00739900006188,Desconhecida,292.0,2020-09-08T13:00,27.8,24,5.3,26.5,0.0,0.0,0.0,0.0,1,1019.9,986.7,23,0,0,76,0.62,2.84,11.2,14.9,94,97,39.6,28.9,23.9,22.8,20.6,0.126,0.136,0.175,0.334,1,3600.0,815.6,687.3,128.3,853.2,815.6,1086.1,820.0,691.0,129.0,853.2,820.0,1091.9,Magnoliopsida; Pinus pinaster Aiton; Vitis vinifera L.; Quercus L.; Tracheophyta; Eucalyptus L'Hér.; Olea europaea L.; 
2020,2020-09-08,Porto,Vila Nova de Gaia,Serzedo,ESTR RAINHA (Travessa da Rua da Agrela),41.0518229999807,-8.6183499999841,NC,93.0,2020-09-08T13:00,28.7,24,6.3,28.8,0.0,0.0,0.0,0.0,1,1018.6,1007.9,25,0,0,83,0.58,2.98,4.0,3.6,265,276,16.6,29.7,23.3,21.6,20.3,0.109,0.17,0.232,0.344,1,3600.0,810.5,686.0,124.5,850.0,810.5,1088.2,814.0,689.0,125.0,850.0,814.0,1092.9,Eucalyptus L'Hér.; Tracheophyta; Pinus pinaster Aiton; Acacia Mill.; Magnoliopsida
2020,2020-09-08,Porto,Vila do Conde,Vila do Conde,COSTA (Senhora dos Bem Guiados),41.3594680002001,-8.74571400006612,NC,28.0,2020-09-08T15:00,29.5,22,5.8,28.8,0.0,0.0,0.0,0.0,1,1018.0,1014.8,28,0,0,92,0.49,3.2,3.8,4.2,343,20,20.2,30.5,23.7,21.8,20.3,0.115,0.172,0.206,0.323,1,3600.0,639.8,520.2,119.6,789.8,639.8,887.9,690.0,561.0,129.0,789.8,690.0,957.6,Tracheophyta; Magnoliopsida
2020,2020-09-08,Porto,Maia,Silva Escura,Monte de Santo António (Rua Souto Barreiros),41.2531100000275,-8.57128200001187,NC,131.0,2020-09-08T15:00,30.9,17,2.8,28.3,0.0,0.0,0.0,0.0,1,1018.1,1003.2,27,0,0,89,0.58,3.73,11.5,14.4,88,90,28.8,30.5,24.1,22.3,20.6,0.102,0.175,0.21,0.325,1,3600.0,633.9,502.3,131.6,762.8,633.9,887.8,684.0,542.0,142.0,762.8,684.0,958.0,Magnoliopsida; Eucalyptus L'Hér.; Tracheophyta; Pinus pinaster Aiton; 
2020,2020-09-08,Porto,Vila Nova de Gaia,Madalena,R SAMEIRO 238 MADALENA 4405-782_VILA_NOVA_DE_GAIA 131709: ESTE (Travessa do Arco do Sameiro),41.104636999766,-8.63332699987623,NC,54.0,2020-09-08T15:00,29.3,25,7.0,28.2,0.0,0.0,0.0,0.0,1,1017.8,1011.6,28,0,0,92,0.52,3.08,7.9,8.9,286,297,18.4,30.6,23.6,21.4,20.1,0.129,0.175,0.222,0.341,1,3600.0,631.3,496.9,134.4,752.4,631.3,890.4,681.0,536.0,145.0,752.4,681.0,960.5,Tracheophyta; Magnoliopsida
2020,2020-09-08,Porto,Vila do Conde,Fornelo,ESCOLAS NOVAS (Calvário),41.3306989998288,-8.64271499951681,Desconhecida,139.0,2020-09-08T15:00,28.8,20,3.6,27.4,0.0,0.0,0.0,0.0,1,1018.0,1002.1,26,0,0,88,0.5,3.17,5.0,6.0,360,33,21.6,30.8,23.4,21.2,19.6,0.096,0.164,0.206,0.325,1,3600.0,637.0,509.9,127.0,773.8,637.0,888.5,687.0,550.0,137.0,773.8,687.0,958.4,Eucalyptus L'Hér.; Tracheophyta
2020,2020-09-08,Porto,Santo Tirso,Refojos de Riba de Ave,OUTEIRO (Gandorinha),41.2941399998135,-8.46307799975077,NC,142.0,2020-09-08T15:00,30.9,16,2.2,28.3,0.0,0.0,0.0,0.0,1,1018.1,1002.0,27,0,0,89,0.57,3.75,11.0,13.6,101,101,28.4,30.3,24.2,22.1,20.3,0.128,0.155,0.187,0.331,1,3600.0,635.8,509.7,126.0,774.7,635.8,887.2,686.0,550.0,136.0,774.7,686.0,957.2,Tracheophyta; Eucalyptus L'Hér.; Pinus pinaster Aiton; Vitis vinifera L.; Magnoliopsida
2020,2020-09-08,Porto,Santo Tirso,Negrelos (São Tomé),Lg. Devesa (São Tomé),41.3486279996236,-8.39946999973721,NC,181.0,2020-09-08T16:00,29.4,19,3.3,26.3,0.0,0.0,0.0,0.0,1,1018.1,997.5,29,0,0,96,0.47,3.32,10.8,14.4,111,112,25.9,30.5,24.2,22.2,20.6,0.105,0.17,0.205,0.326,1,3600.0,489.4,392.8,96.7,756.7,489.4,699.8,557.0,447.0,110.0,756.7,557.0,796.5,Magnoliopsida; Tracheophyta; Vitis vinifera L.; Quercus suber L.
2020,2020-09-08,Porto,Santo Tirso,Agrela,Monte (ER207 (ER207) Km 4),41.2581770001517,-8.45669300026364,NC,252.0,2020-09-08T16:00,30.1,16,1.9,27.1,0.0,0.0,0.0,0.0,1,1017.7,989.3,28,0,0,93,0.44,3.56,7.7,9.4,79,72,25.6,30.1,23.6,21.5,19.8,0.102,0.175,0.21,0.324,1,3600.0,483.5,373.6,109.9,717.1,483.5,702.4,550.0,425.0,125.0,717.1,550.0,799.1,Eucalyptus L'Hér.; Quercus L.; Tracheophyta
2020,2020-09-08,Porto,Amarante,Freixo de Baixo,Zona Industrial (Cestais),41.2837030000157,-8.10183700005213,Desconhecida,176.0,2020-09-08T16:00,29.3,18,2.7,26.2,0.0,0.0,0.0,0.0,1,1018.4,998.4,29,0,0,95,0.46,3.33,9.7,12.9,112,108,27.0,31.4,24.7,23.0,21.2,0.092,0.157,0.191,0.319,1,3600.0,486.5,385.5,101.0,744.2,486.5,698.4,554.0,439.0,115.0,744.2,554.0,795.4,Tracheophyta; Eucalyptus L'Hér.; Magnoliopsida; Vitis vinifera L.
2020,2020-09-07,Porto,Baião,Santa Cruz do Douro,Lugar de Pavide (Senra),41.1231669998169,-7.9984560002221,Desconhecida,301.0,2020-09-07T14:00,28.7,29,8.8,27.8,0.0,0.0,0.0,0.0,1,1018.2,984.2,27,0,0,90,0.62,2.81,13.5,18.1,81,85,42.5,30.9,24.8,22.6,20.5,0.13,0.136,0.176,0.334,1,3600.0,767.3,663.3,104.0,874.1,767.3,1022.5,797.0,689.0,108.0,874.1,797.0,1062.1,Magnoliopsida; Pinus pinaster Aiton; Vitis vinifera L.; Quercus L.; Tracheophyta; Eucalyptus L'Hér.; Olea europaea L.; 
2020,2020-09-07,Porto,Paredes,Louredo,Lugar da Forca (Estrada),41.241238000128,-8.33806799994575,Desconhecida,288.0,2020-09-07T14:00,28.1,28,8.1,26.4,0.0,0.0,0.0,0.0,1,1017.8,985.2,27,0,0,90,0.63,2.73,16.6,22.0,85,86,42.5,28.9,23.7,21.6,19.9,0.129,0.156,0.18,0.329,1,3600.0,760.1,654.1,106.0,861.9,760.1,1022.7,789.0,679.0,110.0,861.9,789.0,1061.6,Tracheophyta; Magnoliopsida; Eucalyptus L'Hér.; Pinus pinaster Aiton; Vitis vinifera L.; 
2020,2020-09-07,Porto,Gondomar,Foz do Sousa,L. PINHEIRO MANSO (Zibreiros),41.0839569999774,-8.50688299973806,NC,92.0,2020-09-07T14:00,31.6,25,9.0,29.9,0.0,0.0,0.0,0.0,1,1017.0,1006.6,26,0,0,86,0.69,3.5,18.0,22.2,70,70,37.4,31.4,24.9,22.6,20.9,0.121,0.143,0.181,0.329,1,3600.0,761.2,662.0,99.2,870.2,761.2,1025.1,790.0,687.0,103.0,870.2,790.0,1063.9,Eucalyptus L'Hér.; Tracheophyta; Magnoliopsida; Pinus pinaster Aiton
2020,2020-09-07,Porto,Santo Tirso,Santo Tirso,Vale Pisão (Carvoeira de Cima),41.3498079999288,-8.4970320002238,NC,66.0,2020-09-07T15:00,31.8,26,9.7,30.4,0.0,0.0,0.0,0.0,1,1017.2,1009.7,27,0,0,89,0.6,3.5,14.2,17.9,81,80,34.9,31.3,24.9,22.3,20.7,0.13,0.152,0.185,0.333,1,3600.0,640.0,523.1,116.9,790.1,640.0,892.2,690.0,564.0,126.0,790.1,690.0,962.0,Tracheophyta; Magnoliopsida; Vitis vinifera L.; Pinus pinaster Aiton; Eucalyptus L'Hér.
2020,2020-09-07,Porto,Vila do Conde,Vila Chã,Lugar do Facho (Pedrouços),41.2882000001272,-8.73096499972873,NC,7.0,2020-09-07T15:00,30.1,29,10.2,29.6,0.0,0.0,0.0,0.0,1,1017.0,1016.2,28,0,0,92,0.55,3.04,9.7,13.0,31,48,25.9,31.8,24.2,21.8,20.5,0.101,0.166,0.206,0.326,1,3600.0,640.2,520.5,119.7,784.4,640.2,894.2,690.0,561.0,129.0,784.4,690.0,963.8,Eucalyptus L'Hér.; Magnoliopsida; Vitis vinifera L.; Pinus pinaster Aiton; Tracheophyta; 
2020,2020-09-07,Porto,Felgueiras,Sousa,Monte (Arcebispado),41.3469599999322,-8.25734200000763,Desconhecida,431.0,2020-09-07T15:00,28.2,28,8.2,26.4,0.0,0.0,0.0,0.0,1,1017.9,969.6,22,0,0,72,0.54,2.74,13.7,17.6,90,89,33.5,29.9,23.5,21.3,19.6,0.1,0.157,0.193,0.32,1,3600.0,623.5,475.3,148.2,721.2,623.5,888.1,673.0,513.0,160.0,721.2,673.0,958.6,Tracheophyta; Eucalyptus L'Hér.; Pinus pinaster Aiton; Vitis vinifera L.; Magnoliopsida
2020,2020-09-07,Porto,Paredes,Recarei,ED15-3 (ED15-3) Km 2,41.1561111111111,-8.43055555555556,Desconhecida,163.0,2020-09-07T15:00,29.7,26,8.0,27.6,0.0,0.0,0.0,0.0,1,1017.2,998.7,27,0,0,89,0.59,3.09,15.8,20.9,73,75,37.1,31.1,24.9,22.4,20.6,0.129,0.143,0.172,0.325,1,3600.0,637.8,514.5,123.3,776.6,637.8,892.7,688.0,555.0,133.0,776.6,688.0,963.0,Magnoliopsida; Pinus pinaster Aiton; Eucalyptus L'Hér.; Tracheophyta; Vitis vinifera L.
2020,2020-09-07,Porto,Trofa,Covelas,Lg.Rindo (Quereledo),41.3008670000235,-8.53672800011105,NC,112.0,2020-09-07T16:00,31.4,25,9.3,29.3,0.0,0.0,0.0,0.0,0,1016.8,1004.1,5,0,0,18,0.48,3.42,12.6,16.3,87,85,31.7,31.1,24.9,22.1,20.5,0.129,0.157,0.188,0.331,1,3600.0,462.1,324.8,137.3,618.1,462.1,708.2,525.0,369.0,156.0,618.1,525.0,804.5,Magnoliopsida; Pinus pinaster Aiton; Vitis vinifera L.; Quercus L.; Tracheophyta; Eucalyptus L'Hér.; Olea europaea L.; ; Pinales
2020,2020-09-07,Porto,Vila Nova de Gaia,Canelas,Lugar Rua Afonso Carvalho (Rua Afonso Carvalho da Silva),41.0848900000254,-8.60532500002119,NC,121.0,2020-09-07T16:00,29.5,28,9.2,27.6,0.0,0.0,0.0,0.0,1,1016.4,1002.6,22,0,0,75,0.46,2.95,11.6,16.5,22,36,28.8,29.8,23.1,20.8,19.6,0.132,0.178,0.223,0.341,1,3600.0,471.1,340.8,130.3,645.8,471.1,711.1,535.0,387.0,148.0,645.8,535.0,807.6,Tracheophyta; Magnoliopsida
2020,2020-09-08,Porto,Paços de Ferreira,Carvalhosa,Bande,41.3090530003442,-8.35862199995253,Desconhecida,327.0,2020-09-08T17:00,28.3,19,2.4,25.0,0.0,0.0,0.0,0.0,1,1017.9,981.0,27,0,0,90,0.35,3.11,10.5,15.5,84,93,27.7,29.8,23.8,21.7,20.0,0.093,0.166,0.205,0.324,1,3600.0,310.4,239.8,70.6,684.3,310.4,472.5,387.0,299.0,88.0,684.3,387.0,589.1,Tracheophyta; Eucalyptus L'Hér.; Pinus pinaster Aiton; Magnoliopsida; Vitis vinifera L.; Quercus L.; 
2020,2020-09-08,Porto,Trofa,Alvarelhos,Escolinhas (Fonte da Tijela),41.316636999978,-8.60423699988259,NC,93.0,2020-09-08T19:00,20.6,51,10.1,18.2,0.0,0.0,0.0,0.0,0,1017.8,1006.9,20,0,0,65,0.12,1.19,16.5,29.5,337,340,32.0,26.9,24.5,21.5,19.9,0.096,0.163,0.205,0.325,0,1058.34,0.0,0.0,0.0,0.0,0.0,0.0,39.0,16.0,23.0,134.6,39.0,101.5,Magnoliopsida; Eucalyptus L'Hér.; Tracheophyta; Pinales
2020,2020-09-08,Porto,Gondomar,Jovim,LOMBA (Netos),41.1147070005205,-8.52118500020769,NC,75.0,2020-09-08T19:00,24.2,44,11.3,23.6,0.0,0.0,0.0,0.0,1,1017.8,1009.1,21,0,0,71,0.07,1.68,6.6,12.5,279,319,14.8,29.4,26.1,23.0,21.1,0.119,0.142,0.18,0.328,0,812.95,0.0,0.0,0.0,0.0,0.0,0.0,36.0,14.0,22.0,118.8,36.0,100.1,Vitis vinifera L.; Tracheophyta; Magnoliopsida; Eucalyptus L'Hér.
2020,2020-09-08,Porto,Baião,Frende,Lg. Vale Escuro (Cerca),41.1274150000678,-7.92192799992032,Desconhecida,277.0,2020-09-08T20:00,21.9,34,5.5,19.3,0.0,0.0,0.0,0.0,0,1018.5,986.4,5,0,0,16,0.09,1.73,10.1,15.2,94,83,19.8,26.3,24.9,22.7,20.8,0.086,0.142,0.207,0.329,0,0.0,0.0,0.0,0.0,0.0,0.0,0.0,0.0,0.0,0.0,0.0,0.0,0.0,Pinus pinaster Aiton; Magnoliopsida; Quercus L.; Tracheophyta; Quercus suber L.; Vitis vinifera L.; 
2020,2020-09-08,Porto,Gondomar,Jovim,Lg. Bulha (Casal da Vigaria),41.1232899999619,-8.52072499990463,NC,97.0,2020-09-08T21:00,21.1,51,10.7,20.1,0.0,0.0,0.0,0.0,0,1018.6,1007.2,7,0,0,24,0.05,1.21,7.9,12.3,344,7,13.0,25.8,25.9,22.8,20.9,0.119,0.142,0.18,0.328,0,0.0,0.0,0.0,0.0,0.0,0.0,0.0,0.0,0.0,0.0,0.0,0.0,0.0,Eucalyptus L'Hér.; Vitis vinifera L.; Tracheophyta; Magnoliopsida
2020,2020-09-08,Porto,Santo Tirso,Rebordões,Lage do Milho (Aldeia Nova),41.3429679997762,-8.42296200010512,NC,270.0,2020-09-08T21:00,19.7,55,10.4,18.7,0.0,0.0,0.0,0.0,0,1019.0,987.5,8,0,0,26,0.04,1.03,7.7,11.4,28,13,12.6,23.5,24.1,21.7,20.0,0.105,0.169,0.204,0.326,0,0.0,0.0,0.0,0.0,0.0,0.0,0.0,0.0,0.0,0.0,0.0,0.0,0.0,Eucalyptus L'Hér.; Tracheophyta; Pinus pinaster Aiton; Vitis vinifera L.
2020,2020-09-08,Porto,Amarante,Travanca,Matouce,41.2590149996016,-8.19314800050524,Desconhecida,214.0,2020-09-08T22:00,19.5,39,5.2,17.6,0.0,0.0,0.0,0.0,0,1019.2,994.1,12,0,0,41,0.04,1.38,5.3,5.9,28,79,10.8,23.1,24.6,22.4,20.6,0.102,0.153,0.193,0.319,0,0.0,0.0,0.0,0.0,0.0,0.0,0.0,0.0,0.0,0.0,0.0,0.0,0.0,Tracheophyta; Magnoliopsida; Eucalyptus L'Hér.; Vitis vinifera L.; Pinus pinaster Aiton; 
2020,2020-09-08,Porto,Felgueiras,Friande,Santa Quitéria (ER207 (ER207) Km 39),41.3738780000475,-8.18711500008901,Desconhecida,384.0,2020-09-08T23:00,17.7,43,4.9,15.6,0.0,0.0,0.0,0.0,0,1019.4,974.6,2,0,0,7,0.04,1.15,5.9,11.2,76,88,13.3,21.2,23.7,21.8,19.9,0.099,0.155,0.192,0.32,0,0.0,0.0,0.0,0.0,0.0,0.0,0.0,0.0,0.0,0.0,0.0,0.0,0.0,Vitis vinifera L.; Magnoliopsida; Eucalyptus L'Hér.; Tracheophyta
2020,2020-09-09,Porto,Póvoa de Varzim,Amorim,R DOUTOR MANUEL GIESTEIRA 49 AMORIM 4495-130_AMORIM 131313: ESTE (Agra),41.4027550000615,-8.74012399991353,NC,35.0,2020-09-09T00:00,17.5,67,11.3,16.7,0.0,0.0,0.0,0.0,0,1018.6,1014.4,13,0,0,42,0.03,0.66,8.2,11.4,61,72,11.9,20.3,23.9,21.8,20.2,0.113,0.172,0.206,0.322,0,0.0,0.0,0.0,0.0,0.0,0.0,0.0,0.0,0.0,0.0,0.0,0.0,0.0,Tracheophyta
2020,2020-09-09,Porto,Felgueiras,Pinheiro,L. Poeira (Poeira),41.3645430003272,-8.15462200005849,Reacendimento,484.0,2020-09-09T02:00,15.3,44,3.1,12.8,0.0,0.0,0.0,0.0,0,1019.4,962.9,0,0,0,1,0.04,0.98,6.2,11.3,83,97,16.6,17.2,22.2,21.2,19.5,0.111,0.163,0.211,0.331,0,0.0,0.0,0.0,0.0,0.0,0.0,0.0,0.0,0.0,0.0,0.0,0.0,0.0,Pinus pinaster Aiton; Tracheophyta; Magnoliopsida; Eucalyptus L'Hér.; Vitis vinifera L.
2020,2020-09-09,Porto,Paredes,Sobreira,R ERNESTO SILVA 244 RECAREI 4585 131020: ESTE (ER319 (ER319) Km 52),41.1545519998338,-8.39327999962701,Desconhecida,164.0,2020-09-09T04:00,17.0,41,3.5,14.5,0.0,0.0,0.0,0.0,0,1018.5,999.1,0,0,0,1,0.05,1.15,7.2,14.5,53,84,14.4,19.3,24.0,22.7,20.7,0.127,0.142,0.172,0.324,0,0.0,0.0,0.0,0.0,0.0,0.0,0.0,0.0,0.0,0.0,0.0,0.0,0.0,Magnoliopsida; Pinus pinaster Aiton; Eucalyptus L'Hér.; Tracheophyta; Vitis vinifera L.
2020,2020-09-09,Porto,Felgueiras,Margaride (Santa Eulália),L. Santa Quitéria (Pé do Monte),41.3719899998771,-8.19136200004154,Desconhecida,434.0,2020-09-09T04:00,15.4,41,2.2,12.4,0.0,0.0,0.0,0.0,0,1019.1,968.3,0,0,0,0,0.06,1.04,8.8,18.4,71,86,18.7,17.4,22.4,21.4,19.6,0.099,0.155,0.192,0.32,0,0.0,0.0,0.0,0.0,0.0,0.0,0.0,0.0,0.0,0.0,0.0,0.0,0.0,Magnoliopsida; Eucalyptus L'Hér.; Tracheophyta
2020,2020-09-09,Porto,Santo Tirso,Monte Córdova,Pereiras,41.3084669997957,-8.44107800006866,NC,333.0,2020-09-09T05:00,17.5,34,1.5,14.1,0.0,0.0,0.0,0.0,0,1018.9,979.9,5,0,0,18,0.09,1.32,10.4,24.8,88,99,23.4,18.3,22.7,21.7,19.9,0.093,0.165,0.205,0.324,0,0.0,0.0,0.0,0.0,0.0,0.0,0.0,0.0,0.0,0.0,0.0,0.0,0.0,Vitis vinifera L.; Eucalyptus L'Hér.; Pinus pinaster Aiton; Tracheophyta
2020,2020-09-09,Porto,Vila Nova de Gaia,Pedroso,Sra.Saúde (Travessa dos Carvalhos),41.0633519999186,-8.5707029999627,NC,184.0,2020-09-09T17:00,27.6,27,7.0,25.3,0.0,0.0,0.0,0.0,0,1018.9,997.9,17,0,0,57,0.34,2.7,10.8,13.9,296,301,27.0,31.6,24.9,22.3,20.3,0.118,0.141,0.179,0.328,1,3600.0,309.6,248.8,60.8,716.7,309.6,468.3,387.0,311.0,76.0,716.7,387.0,585.4,Eucalyptus L'Hér.; Magnoliopsida; Tracheophyta
2020,2020-09-09,Porto,Amarante,Várzea,SOUTO,41.2625529999203,-7.99514000044929,Desconhecida,256.0,2020-09-09T17:00,29.2,24,6.7,26.7,0.0,0.0,0.0,0.0,0,1018.8,989.8,8,0,0,28,0.36,3.08,11.4,15.8,294,297,28.1,31.5,24.2,22.4,20.6,0.105,0.151,0.204,0.326,1,3600.0,306.2,246.4,59.8,719.9,306.2,461.8,384.0,309.0,75.0,719.9,384.0,579.0,Magnoliopsida; Eucalyptus L'Hér.; Tracheophyta; Pinus pinaster Aiton; Vitis vinifera L.; Castanea sativa Mill.; Quercus L.; Olea europaea L.; Acacia Mill.; Pinales; 
2020,2020-09-09,Porto,Amarante,Real,RAMALHADA (Leira Longa),41.234253000021,-8.17588299963209,Desconhecida,166.0,2020-09-09T18:00,27.4,29,7.9,25.6,0.0,0.0,0.0,0.0,0,1018.9,999.9,20,0,0,66,0.2,2.59,8.9,15.5,302,306,26.6,30.7,25.0,22.8,21.0,0.102,0.151,0.192,0.319,1,3600.0,119.9,84.7,35.2,547.4,119.9,208.7,194.0,137.0,57.0,547.4,194.0,337.6,Pinus pinaster Aiton; Acacia Mill.; Tracheophyta; Vitis vinifera L.; Magnoliopsida
2020,2020-09-09,Porto,Felgueiras,Moure,Lg. Quinta (Felgueiras),41.3623499997457,-8.18620999998516,Desconhecida,324.0,2020-09-09T20:00,24.1,34,7.3,22.6,0.0,0.0,0.0,0.0,0,1020.0,982.8,10,0,0,33,0.05,1.98,5.5,9.4,328,328,13.7,26.2,24.5,22.1,20.3,0.098,0.153,0.191,0.319,0,0.0,0.0,0.0,0.0,0.0,0.0,0.0,0.0,0.0,0.0,0.0,0.0,0.0,Magnoliopsida; Tracheophyta; Pinus pinaster Aiton; Eucalyptus L'Hér.; Vitis vinifera L.
2020,2020-09-09,Porto,Santo Tirso,Negrelos (São Tomé),Lg. Barroco (São Tomé),41.3491020001306,-8.39875,NC,191.0,2020-09-09T21:00,23.5,36,7.7,22.6,0.0,0.0,0.0,0.0,0,1020.0,997.9,11,0,0,38,0.01,1.85,2.4,5.8,117,360,8.6,24.3,24.8,22.3,20.5,0.104,0.167,0.204,0.325,0,0.0,0.0,0.0,0.0,0.0,0.0,0.0,0.0,0.0,0.0,0.0,0.0,0.0,Magnoliopsida; Tracheophyta; Vitis vinifera L.; Quercus suber L.
2020,2020-09-10,Porto,Felgueiras,Sendim,Lg. Sergude (Calvário),41.3856949999597,-8.17723400010003,Desconhecida,412.0,2020-09-10T00:00,17.5,57,8.9,16.4,0.0,0.0,0.0,0.0,0,1020.2,972.2,0,0,0,0,0.02,0.85,5.8,5.1,86,82,11.5,20.3,23.7,21.6,19.8,0.098,0.153,0.191,0.319,0,0.0,0.0,0.0,0.0,0.0,0.0,0.0,0.0,0.0,0.0,0.0,0.0,0.0,Vitis vinifera L.; Tracheophyta; Eucalyptus L'Hér.; Pinus pinaster Aiton; Magnoliopsida
2020,2020-09-10,Porto,Felgueiras,Sendim,Lamelas,41.3899269999398,-8.18174999978807,Desconhecida,371.0,2020-09-10T00:00,17.7,57,9.2,16.7,0.0,0.0,0.0,0.0,0,1020.2,976.9,0,0,0,0,0.02,0.87,5.8,5.1,86,82,11.5,20.5,23.9,21.9,20.0,0.098,0.153,0.191,0.319,0,0.0,0.0,0.0,0.0,0.0,0.0,0.0,0.0,0.0,0.0,0.0,0.0,0.0,Magnoliopsida; Eucalyptus L'Hér.; Pinus pinaster Aiton; Tracheophyta
2020,2020-09-10,Porto,Marco de Canaveses,Penha Longa,Lg. Piares (Sardeiredo),41.0958969995711,-8.14235999955071,Desconhecida,364.0,2020-09-10T00:00,20.8,43,7.6,19.5,0.0,0.0,0.0,0.0,0,1019.9,977.8,0,0,0,0,0.03,1.41,4.5,4.3,119,114,11.9,20.5,23.8,21.7,19.6,0.098,0.138,0.195,0.322,0,0.0,0.0,0.0,0.0,0.0,0.0,0.0,0.0,0.0,0.0,0.0,0.0,0.0,Pinus pinaster Aiton; Magnoliopsida; Tracheophyta
2020,2020-09-10,Porto,Maia,Águas Santas,R CENTRAL DA AZENHA 107 GANDRA 4425-043_MAIA 130601: ESTE (Rua das Macieiras),41.2194730001026,-8.56718000001378,NC,96.0,2020-09-10T03:00,18.1,53,8.4,16.9,0.0,0.0,0.0,0.0,0,1018.5,1007.1,0,0,0,0,0.03,0.98,5.9,7.2,79,87,13.0,20.5,24.4,22.7,20.9,0.101,0.171,0.209,0.324,0,0.0,0.0,0.0,0.0,0.0,0.0,0.0,0.0,0.0,0.0,0.0,0.0,0.0,Tracheophyta; Pinus pinaster Aiton; Magnoliopsida; Eucalyptus L'Hér.; 
2020,2020-05-05,Porto,Matosinhos,Leça do Balio,Picotos (Variante à Rua de Mainça),41.1991420004103,-8.61651700019836,NC,64.0,2020-05-05T16:00,18.4,75,14.0,16.7,0.1,0.1,0.0,0.0,51,1016.7,1009.1,21,6,5,42,0.32,0.52,23.4,32.3,211,211,46.4,20.0,16.9,15.3,13.4,0.382,0.388,0.394,0.395,1,3600.0,581.2,483.0,98.2,767.4,581.2,846.4,645.0,536.0,109.0,767.4,645.0,939.4,Tracheophyta; Magnoliopsida
2020,2020-09-10,Porto,Felgueiras,Friande,Monte Santa Quitéria (Pé do Milo),41.3719369999568,-8.18341499999993,Desconhecida,363.0,2020-09-10T03:00,16.3,59,8.3,15.0,0.0,0.0,0.0,0.0,0,1019.1,976.5,0,0,0,0,0.02,0.76,6.4,10.7,74,78,13.3,18.7,23.4,21.9,20.1,0.098,0.153,0.191,0.319,0,0.0,0.0,0.0,0.0,0.0,0.0,0.0,0.0,0.0,0.0,0.0,0.0,0.0,Vitis vinifera L.; Magnoliopsida; Tracheophyta; Eucalyptus L'Hér.
2020,2020-09-10,Porto,Santo Tirso,Rebordões,Cancelo (Cimo de Vila),41.3429679997762,-8.42676200018989,NC,211.0,2020-09-10T03:00,17.5,55,8.3,15.9,0.0,0.0,0.0,0.0,0,1018.7,993.8,0,0,0,0,0.04,0.91,8.1,10.9,103,99,16.6,19.7,23.8,22.2,20.4,0.105,0.167,0.204,0.325,0,0.0,0.0,0.0,0.0,0.0,0.0,0.0,0.0,0.0,0.0,0.0,0.0,0.0,Eucalyptus L'Hér.; Tracheophyta; Magnoliopsida; Pinus pinaster Aiton; Vitis vinifera L.
2020,2020-09-10,Porto,Felgueiras,Friande,VILARINHO (Vilarinho de Cima),41.3612820000119,-8.16313300026788,Desconhecida,419.0,2020-09-10T12:00,29.5,27,8.8,29.3,0.0,0.0,0.0,0.0,1,1018.7,971.8,23,0,0,78,0.59,2.99,8.2,9.8,128,126,25.9,27.3,22.1,21.6,19.7,0.098,0.152,0.191,0.319,1,3600.0,801.0,701.4,99.6,881.8,801.0,1073.6,780.0,683.0,97.0,881.8,780.0,1045.4,Pinus pinaster Aiton; Magnoliopsida; Eucalyptus L'Hér.; Tracheophyta; Vitis vinifera L.
2020,2020-05-05,Porto,Maia,Avioso (São Pedro),Andorinhas (Vilarinho de Baixo),41.2726129998101,-8.62466700024075,NC,135.0,2020-05-05T18:00,16.9,84,14.2,15.6,0.0,0.0,0.0,0.0,0,1017.1,1001.1,1,0,1,0,0.15,0.31,18.2,26.2,205,207,40.0,18.8,16.7,14.7,12.9,0.375,0.387,0.395,0.394,1,3600.0,230.1,169.6,60.6,593.2,230.1,384.5,304.0,224.0,80.0,593.2,304.0,507.8,Eucalyptus L'Hér.; Tracheophyta; Pinus pinaster Aiton; Magnoliopsida
2020,2020-09-10,Porto,Felgueiras,Moure,Tomadas (Felgueiras),41.3620879999797,-8.18660000006358,Reacendimento,324.0,2020-09-10T14:00,31.3,23,7.5,31.6,0.0,0.0,0.0,0.0,0,1017.1,980.9,18,0,0,60,0.56,3.53,3.1,4.0,159,153,19.8,31.7,23.3,22.2,20.3,0.098,0.152,0.191,0.319,1,3600.0,733.7,621.2,112.5,835.5,733.7,1003.5,763.0,646.0,117.0,835.5,763.0,1043.5,Magnoliopsida; Tracheophyta; Pinus pinaster Aiton; Eucalyptus L'Hér.; Vitis vinifera L.
2020,2020-09-10,Porto,Santo Tirso,Couto (Santa Cristina),Ermida (Igreja),41.3288220002916,-8.47957999971178,NC,84.0,2020-09-10T15:00,28.6,33,10.6,27.6,0.0,0.0,0.0,0.0,0,1016.9,1007.3,7,0,0,23,0.54,2.64,13.2,16.9,287,290,33.5,31.4,24.4,22.7,20.8,0.126,0.15,0.186,0.33,1,3600.0,626.5,527.5,99.0,813.0,626.5,875.7,677.0,570.0,107.0,813.0,677.0,946.2,Eucalyptus L'Hér.; Vitis vinifera L.; Tracheophyta; Magnoliopsida; Pinus pinaster Aiton
2020,2020-09-10,Porto,Santo Tirso,Reguenga,Lugar Feiteira (Covelos),41.2797450002034,-8.4496869998508,Desconhecida,189.0,2020-09-10T16:00,28.3,33,10.3,26.5,0.0,0.0,0.0,0.0,0,1016.5,995.0,2,0,0,8,0.45,2.58,13.1,17.1,291,292,37.4,32.2,24.5,22.8,20.9,0.093,0.161,0.203,0.323,1,3600.0,474.0,385.5,88.5,756.5,474.0,687.7,541.0,440.0,101.0,756.5,541.0,785.0,Pinus pinaster Aiton; Vitis vinifera L.; Eucalyptus L'Hér.; Magnoliopsida; Tracheophyta
2020,2020-09-10,Porto,Amarante,Mancelos,Pidre (São Tomé do Meio),41.2729270002577,-8.13967000007629,Desconhecida,434.0,2020-09-10T17:00,27.5,33,10.0,25.3,0.0,0.0,0.0,0.0,0,1016.2,967.5,5,0,0,17,0.35,2.45,15.0,20.9,297,299,36.4,31.3,23.7,21.7,19.9,0.089,0.153,0.199,0.323,1,3600.0,295.7,235.3,60.4,698.1,295.7,454.9,372.0,296.0,76.0,698.1,372.0,572.3,Tracheophyta; Magnoliopsida; Eucalyptus L'Hér.; Pinus pinaster Aiton; Vitis vinifera L.; ; Quercus L.
2020,2020-09-10,Porto,Felgueiras,Sousa,Boavista,41.3455370002323,-8.25556199974484,Desconhecida,425.0,2020-09-10T17:00,27.5,35,10.5,25.4,0.0,0.0,0.0,0.0,0,1016.2,968.5,8,0,0,26,0.35,2.41,15.6,22.1,299,300,37.4,31.0,23.6,21.5,19.7,0.098,0.151,0.19,0.318,1,3600.0,294.2,232.2,62.0,689.0,294.2,454.8,370.0,292.0,78.0,689.0,370.0,572.0,Tracheophyta; Pinus pinaster Aiton; Eucalyptus L'Hér.; Magnoliopsida; Vitis vinifera L.
2020,2020-09-10,Porto,Felgueiras,Moure,Lg. Tomadas (Felgueiras),41.3630819998847,-8.1869049999449,Reacendimento,336.0,2020-09-10T19:00,23.3,53,13.1,23.1,0.0,0.0,0.0,0.0,0,1015.7,977.3,0,0,0,0,0.07,1.35,8.1,12.8,283,302,18.0,28.3,24.6,22.2,20.3,0.098,0.151,0.19,0.318,0,982.46,0.0,0.0,0.0,0.0,0.0,0.0,31.0,16.0,15.0,145.1,31.0,90.0,Magnoliopsida; Tracheophyta; Pinus pinaster Aiton; Eucalyptus L'Hér.; Vitis vinifera L.
2020,2020-09-10,Porto,Amarante,Mancelos,Senhora da Costa (Quinta da Costa),41.2704969999525,-8.16884500000212,Desconhecida,289.0,2020-09-10T20:00,25.5,39,10.6,25.1,0.0,0.0,0.0,0.0,0,1016.0,983.1,0,0,0,0,0.03,1.99,3.9,8.1,292,328,10.8,27.0,25.1,22.7,20.8,0.09,0.153,0.199,0.323,0,0.0,0.0,0.0,0.0,0.0,0.0,0.0,0.0,0.0,0.0,0.0,0.0,0.0,Tracheophyta; Magnoliopsida; Eucalyptus L'Hér.; Pinus pinaster Aiton; Vitis vinifera L.; 
2020,2020-09-10,Porto,Penafiel,Canelas,Friende,41.0711111111111,-8.3025,Desconhecida,64.0,2020-09-10T21:00,20.6,70,14.8,21.8,0.0,0.0,0.0,0.0,0,1015.8,1008.3,0,0,0,0,0.0,0.74,2.3,5.8,18,330,7.9,25.5,25.8,23.2,21.2,0.117,0.14,0.178,0.327,0,0.0,0.0,0.0,0.0,0.0,0.0,0.0,0.0,0.0,0.0,0.0,0.0,0.0,Vitis vinifera L.; Magnoliopsida; Tracheophyta
2020,2020-09-10,Porto,Felgueiras,Margaride (Santa Eulália),Pé Monte (Pé do Monte),41.3717800002628,-8.19116799990336,Desconhecida,434.0,2020-09-10T22:00,22.8,46,10.6,22.6,0.0,0.0,0.0,0.0,0,1016.2,966.8,0,0,0,0,0.01,1.5,2.6,1.6,146,207,4.7,23.1,24.0,21.5,19.6,0.098,0.151,0.19,0.318,0,0.0,0.0,0.0,0.0,0.0,0.0,0.0,0.0,0.0,0.0,0.0,0.0,0.0,Magnoliopsida; Eucalyptus L'Hér.; Tracheophyta
2020,2020-09-10,Porto,Paredes,Lordelo,Lg. Penhas Altas (Padrão),41.2306849998898,-8.41389700041877,Desconhecida,188.0,2020-09-10T22:00,22.3,52,12.0,22.5,0.0,0.0,0.0,0.0,0,1016.0,994.2,0,0,0,0,0.01,1.28,2.5,4.5,262,299,8.6,23.6,24.8,22.6,20.7,0.126,0.148,0.178,0.327,0,0.0,0.0,0.0,0.0,0.0,0.0,0.0,0.0,0.0,0.0,0.0,0.0,0.0,Magnoliopsida; Pinus pinaster Aiton; Eucalyptus L'Hér.; Tracheophyta; Vitis vinifera L.
2020,2020-09-11,Porto,Paredes,Sobrosa,SOBROSA 131021: @COMPLEXO DESPORTIVO DE SOBROSA (DESPORTO#135166) (Prado),41.2446350002289,-8.35711500008901,Desconhecida,306.0,2020-09-11T00:00,19.1,61,11.4,19.1,0.0,0.0,0.0,0.0,0,1015.6,980.0,3,0,0,10,0.0,0.86,3.0,0.5,76,135,7.6,21.0,23.9,21.8,19.9,0.126,0.148,0.178,0.327,0,0.0,0.0,0.0,0.0,0.0,0.0,0.0,0.0,0.0,0.0,0.0,0.0,0.0,Magnoliopsida; Pinus pinaster Aiton; Eucalyptus L'Hér.; Tracheophyta; Vitis vinifera L.
2020,2020-09-11,Porto,Marco de Canaveses,Paredes de Viadores,Penedo Cavalo (São João),41.1505299999979,-8.13259300020006,Desconhecida,314.0,2020-09-11T00:00,23.0,42,9.5,22.2,0.0,0.0,0.0,0.0,0,1015.9,979.9,0,0,0,1,0.03,1.62,4.0,1.9,80,112,7.6,21.8,24.8,22.6,20.6,0.086,0.141,0.205,0.327,0,0.0,0.0,0.0,0.0,0.0,0.0,0.0,0.0,0.0,0.0,0.0,0.0,0.0,Magnoliopsida; Pinus pinaster Aiton; Eucalyptus L'Hér.; Tracheophyta; Vitis vinifera L.; 
2020,2020-09-11,Porto,Marco de Canaveses,Paredes de Viadores,Lg. Couto (EN211 (EN211) Km 18),41.1471670002407,-8.13123499976264,Desconhecida,274.0,2020-09-11T00:00,23.2,42,9.7,22.6,0.0,0.0,0.0,0.0,0,1015.9,984.4,0,0,0,1,0.03,1.64,4.0,1.9,80,112,7.6,22.0,25.1,22.9,20.8,0.086,0.141,0.205,0.327,0,0.0,0.0,0.0,0.0,0.0,0.0,0.0,0.0,0.0,0.0,0.0,0.0,0.0,Magnoliopsida; Pinus pinaster Aiton; Eucalyptus L'Hér.; Tracheophyta; Vitis vinifera L.; 
2020,2020-09-11,Porto,Lousada,Sousela,Lugar de Cavadas,41.3048499997457,-8.31444300015767,Desconhecida,345.0,2020-09-11T01:00,17.8,62,10.5,17.1,0.0,0.0,0.0,0.0,0,1015.2,975.0,6,0,0,19,0.02,0.77,5.8,6.1,90,130,10.4,20.7,24.0,22.1,20.2,0.092,0.153,0.19,0.317,0,0.0,0.0,0.0,0.0,0.0,0.0,0.0,0.0,0.0,0.0,0.0,0.0,0.0,Tracheophyta; Magnoliopsida; Eucalyptus L'Hér.; Pinus pinaster Aiton
2020,2020-09-11,Porto,Valongo,Alfena,R SOL 171 ERMESINDE 4445-298_ERMESINDE 131503 (QUINTA GRANDE),41.2155919996897,-8.5360700000657,NC,160.0,2020-09-11T03:00,18.0,70,12.5,18.1,0.0,0.0,0.0,0.0,0,1014.3,995.5,16,0,0,52,0.01,0.62,5.1,4.7,141,176,7.9,19.5,23.8,22.4,20.5,0.11,0.168,0.21,0.323,0,0.0,0.0,0.0,0.0,0.0,0.0,0.0,0.0,0.0,0.0,0.0,0.0,0.0,Magnoliopsida; Tracheophyta; Eucalyptus L'Hér.; Pinus pinaster Aiton
2020,2020-09-11,Porto,Baião,Santa Marinha do Zêzere,Lug São Domingos (Casal Novo),41.1386240000195,-7.95047800001171,Desconhecida,298.0,2020-09-11T06:00,18.6,57,9.9,17.3,0.0,0.0,0.0,0.0,0,1013.9,979.2,0,0,0,0,0.05,0.92,9.4,25.7,92,96,25.9,18.8,23.8,22.7,20.7,0.086,0.141,0.205,0.327,0,0.0,0.0,0.0,0.0,0.0,0.0,0.0,0.0,0.0,0.0,0.0,0.0,0.0,Tracheophyta; Eucalyptus L'Hér.; Vitis vinifera L.; Magnoliopsida
2020,2020-09-11,Porto,Amarante,Mancelos,Lug de Pidre (São Tomé do Meio),41.2728450001611,-8.13838500022888,Desconhecida,436.0,2020-09-11T06:00,17.0,60,9.3,15.4,0.0,0.0,0.0,0.0,0,1014.0,963.5,0,0,0,0,0.04,0.77,9.6,23.1,77,93,20.5,18.0,22.7,21.7,19.8,0.09,0.153,0.199,0.323,0,0.0,0.0,0.0,0.0,0.0,0.0,0.0,0.0,0.0,0.0,0.0,0.0,0.0,Tracheophyta; Magnoliopsida; Eucalyptus L'Hér.; Pinus pinaster Aiton; Vitis vinifera L.; ; Quercus L.
2020,2020-09-11,Porto,Felgueiras,Moure,Tomadas (Felgueiras),41.361297999488,-8.18629699998432,Reacendimento,317.0,2020-09-11T08:00,22.0,45,9.4,20.1,0.0,0.0,0.0,0.0,0,1014.6,978.2,1,0,0,4,0.18,1.46,12.1,22.0,80,86,26.6,20.0,23.1,22.3,20.4,0.098,0.151,0.19,0.318,1,3600.0,260.6,186.1,74.4,548.9,260.6,457.8,189.0,135.0,54.0,548.9,189.0,332.1,Magnoliopsida; Tracheophyta; Pinus pinaster Aiton; Vitis vinifera L.
2020,2020-09-11,Porto,Amarante,Mancelos,Pidre (São Tomé do Meio),41.2731549999449,-8.13845900005764,Desconhecida,436.0,2020-09-11T14:00,30.7,26,8.9,29.8,0.0,0.0,0.0,0.0,1,1013.6,965.3,29,0,0,98,0.45,3.28,5.4,6.3,250,246,18.0,30.4,22.9,21.7,19.9,0.09,0.152,0.199,0.323,1,3600.0,539.2,192.2,347.0,259.9,539.2,998.9,561.0,200.0,361.0,259.9,561.0,1039.3,Tracheophyta; Magnoliopsida; Eucalyptus L'Hér.; Pinus pinaster Aiton; Vitis vinifera L.; ; Quercus L.
2020,2020-09-11,Porto,Paredes,Sobrosa,Lugar do Monte (Trás das Eiras),41.2446700000763,-8.35640500015683,Desconhecida,309.0,2020-09-11T15:00,29.1,33,11.3,28.1,0.0,0.0,0.0,0.0,1,1013.6,978.9,28,0,0,93,0.49,2.68,11.3,13.8,287,285,28.1,30.0,23.1,21.8,19.9,0.125,0.146,0.177,0.327,1,3600.0,550.9,342.0,208.9,531.4,550.9,869.1,596.0,370.0,226.0,531.4,596.0,940.2,Magnoliopsida; Pinus pinaster Aiton; Eucalyptus L'Hér.; Tracheophyta; Vitis vinifera L.
2020,2020-09-11,Porto,Paços de Ferreira,Lamoso,Lg. Cavaleiros (Corgo),41.3214580000771,-8.35965200000339,Desconhecida,381.0,2020-09-11T16:00,28.6,34,11.4,27.1,0.0,0.0,0.0,0.0,1,1013.3,970.7,28,0,1,92,0.41,2.56,13.2,16.7,296,295,30.6,30.9,23.6,21.8,20.0,0.092,0.151,0.19,0.317,1,3600.0,402.2,263.2,139.0,523.0,402.2,679.6,460.0,301.0,159.0,523.0,460.0,777.2,Magnoliopsida; Eucalyptus L'Hér.; Pinus pinaster Aiton; Tracheophyta; Quercus suber L.; 
2020,2020-09-11,Porto,Lousada,Meinedo,Rua da Ferradura,41.2442429998186,-8.24579000049167,Desconhecida,291.0,2020-09-11T16:00,29.7,32,11.2,28.3,0.0,0.0,0.0,0.0,1,1013.0,980.4,29,0,0,96,0.43,2.84,12.2,15.6,289,289,30.2,31.1,23.8,22.1,20.2,0.102,0.149,0.191,0.318,1,3600.0,417.9,280.6,137.3,557.3,417.9,680.0,478.0,321.0,157.0,557.3,478.0,777.8,Eucalyptus L'Hér.; Magnoliopsida; Tracheophyta; Pinus pinaster Aiton
2020,2020-09-11,Porto,Marco de Canaveses,Soalhães,Lg. Vale (Vale da Eira),41.1514970000585,-8.10469700018565,Desconhecida,372.0,2020-09-11T19:00,24.9,45,12.1,24.6,0.0,0.0,0.0,0.0,0,1013.6,971.5,1,0,0,3,0.07,1.73,6.6,8.7,283,300,14.4,28.4,24.6,22.2,20.2,0.086,0.141,0.204,0.327,0,252.96,0.0,0.0,0.0,0.0,0.0,0.0,26.0,9.0,17.0,83.8,26.0,86.1,Magnoliopsida; Tracheophyta; Quercus L.; Eucalyptus L'Hér.; Pinus pinaster Aiton; Vitis vinifera L.; Castanea sativa Mill.; Pinales; 
2020,2020-05-06,Porto,Marco de Canaveses,Penha Longa,Lg. Silvares (Água do Monte),41.1189480000072,-8.15339299996694,Desconhecida,496.0,2020-05-06T17:00,16.7,77,12.7,16.1,0.0,0.0,0.0,0.0,3,1019.2,961.6,100,65,47,55,0.16,0.43,10.2,13.6,280,282,28.4,18.7,15.2,13.1,11.2,0.379,0.39,0.41,0.416,1,1983.89,230.3,58.4,171.9,126.1,230.3,622.7,272.0,69.0,203.0,126.1,272.0,735.3,Magnoliopsida; Tracheophyta; Eucalyptus L'Hér.
2020,2020-09-11,Porto,Penafiel,Recezinhos (São Mamede),Lg LORDELO (Lordêlo),41.2409380001492,-8.22416499985589,Desconhecida,342.0,2020-09-11T21:00,21.7,55,12.2,21.7,0.0,0.0,0.0,0.0,0,1014.3,975.0,0,0,0,0,0.02,1.18,5.0,7.5,30,35,11.9,24.3,24.1,21.8,19.9,0.102,0.149,0.191,0.318,0,0.0,0.0,0.0,0.0,0.0,0.0,0.0,0.0,0.0,0.0,0.0,0.0,0.0,Tracheophyta; Magnoliopsida; Eucalyptus L'Hér.; Pinus pinaster Aiton
2020,2020-09-12,Porto,Póvoa de Varzim,Terroso,Cerco (Sejães),41.4225380002128,-8.71087999979655,Desconhecida,94.0,2020-09-12T00:00,19.3,74,14.5,20.6,0.0,0.0,0.0,0.0,0,1014.1,1003.0,0,0,0,0,0.0,0.59,1.5,2.9,76,60,4.7,19.6,22.9,21.5,19.9,0.101,0.167,0.2,0.321,0,0.0,0.0,0.0,0.0,0.0,0.0,0.0,0.0,0.0,0.0,0.0,0.0,0.0,Eucalyptus L'Hér.; Tracheophyta; Pinus pinaster Aiton
2020,2020-09-12,Porto,Santo Tirso,Rebordões,Lg. Cimo de Vila (Cimo de Vila),41.3435819996728,-8.4234080002043,NC,244.0,2020-09-12T00:00,19.8,63,12.4,19.7,0.0,0.0,0.0,0.0,0,1014.5,986.1,0,0,0,0,0.02,0.86,5.2,5.5,106,58,10.1,20.8,23.9,22.2,20.3,0.104,0.162,0.203,0.324,0,0.0,0.0,0.0,0.0,0.0,0.0,0.0,0.0,0.0,0.0,0.0,0.0,0.0,Eucalyptus L'Hér.; Tracheophyta; Pinus pinaster Aiton; Vitis vinifera L.
2020,2020-09-12,Porto,Trofa,Covelas,Paradela (Bouça da Francisca),41.3123319996728,-8.52717500050863,Desconhecida,174.0,2020-09-12T00:00,19.9,61,12.2,19.8,0.0,0.0,0.0,0.0,0,1014.2,993.9,9,0,0,29,0.02,0.9,5.4,6.1,90,40,8.6,20.7,23.9,22.2,20.2,0.121,0.146,0.185,0.329,0,0.0,0.0,0.0,0.0,0.0,0.0,0.0,0.0,0.0,0.0,0.0,0.0,0.0,Magnoliopsida; Pinus pinaster Aiton; Vitis vinifera L.; Quercus L.; Tracheophyta; Eucalyptus L'Hér.; Olea europaea L.; ; Pinales
2020,2020-09-12,Porto,Felgueiras,Moure,Lg Tomadas (Felgueiras),41.363208000395,-8.18604199992286,Reacendimento,326.0,2020-09-12T09:00,26.2,36,10.1,24.1,0.0,0.0,0.0,0.0,0,1016.0,979.0,6,0,0,21,0.34,2.17,15.1,21.2,87,89,32.8,22.3,22.8,22.3,20.4,0.098,0.15,0.19,0.318,1,3600.0,444.4,356.0,88.4,705.7,444.4,681.5,372.0,298.0,74.0,705.7,372.0,570.5,Magnoliopsida; Tracheophyta; Pinus pinaster Aiton; Eucalyptus L'Hér.; Vitis vinifera L.
2020,2020-09-12,Porto,Santo Tirso,Monte Córdova,Igreja (Assunção),41.3259229999118,-8.44495500034756,NC,434.0,2020-09-12T11:00,29.5,28,9.1,27.4,0.0,0.0,0.0,0.0,0,1016.2,967.8,10,0,0,34,0.58,2.97,17.9,24.7,99,98,42.1,26.1,22.1,21.5,19.6,0.092,0.151,0.19,0.316,1,3600.0,719.8,616.5,103.3,834.7,719.8,997.7,676.0,579.0,97.0,834.7,676.0,937.1,Pinus pinaster Aiton; Tracheophyta; Eucalyptus L'Hér.
2020,2020-09-12,Porto,Lousada,Caíde de Rei,Rua Quinta de Almeida,41.247345000373,-8.22114699999491,Desconhecida,296.0,2020-09-12T11:00,30.2,28,9.7,28.0,0.0,0.0,0.0,0.0,0,1016.0,982.8,11,0,0,36,0.6,3.08,18.4,25.2,92,92,46.8,26.5,22.7,22.1,20.2,0.102,0.148,0.191,0.317,1,3600.0,721.9,619.7,102.2,838.2,721.9,998.7,678.0,582.0,96.0,838.2,678.0,938.0,Eucalyptus L'Hér.; Tracheophyta; Magnoliopsida; Pinus pinaster Aiton
2020,2020-09-12,Porto,Santo Tirso,Couto (Santa Cristina),Merouços (Passagem),41.3235870001051,-8.47966499964396,NC,104.0,2020-09-12T12:00,34.4,20,8.3,31.9,0.0,0.0,0.0,0.0,0,1015.2,1003.6,18,0,0,59,0.75,4.35,21.5,28.5,100,100,41.4,28.6,23.3,22.7,20.7,0.131,0.148,0.186,0.329,1,3600.0,780.1,680.4,99.7,863.5,780.1,1064.5,759.0,662.0,97.0,863.5,759.0,1035.7,Magnoliopsida; Eucalyptus L'Hér.; Vitis vinifera L.; Tracheophyta; Pinus pinaster Aiton
2020,2020-09-12,Porto,Santo Tirso,Reguenga,Pinheiro (Bouça Velha),41.2779149998559,-8.43572499990463,NC,374.0,2020-09-12T14:00,33.0,20,6.8,31.5,0.0,0.0,0.0,0.0,1,1015.2,973.9,29,0,0,96,0.64,4.04,12.1,15.6,117,116,34.6,31.8,23.1,21.9,20.0,0.092,0.15,0.189,0.316,1,3600.0,710.2,567.0,143.2,770.5,710.2,994.3,739.0,590.0,149.0,770.5,739.0,1034.6,Magnoliopsida; Pinus pinaster Aiton; Tracheophyta; Eucalyptus L'Hér.
2020,2020-09-12,Porto,Santo Tirso,Campo (São Martinho),Aldeia Monte (Quintinha),41.3592029995388,-8.37452800008986,NC,119.0,2020-09-12T13:00,36.1,17,7.3,33.9,0.0,0.0,0.0,0.0,1,1014.7,1001.5,28,0,0,92,0.76,4.96,18.3,23.5,112,111,40.3,30.4,23.4,22.5,20.5,0.125,0.144,0.182,0.33,1,3600.0,773.9,648.6,125.3,823.9,773.9,1063.5,778.0,652.0,126.0,823.9,778.0,1069.2,Tracheophyta; Eucalyptus L'Hér.
2020,2020-09-12,Porto,Santo Tirso,Couto (Santa Cristina),Dinis (Bouças do Monte),41.3264949999915,-8.48669699986776,NC,104.0,2020-09-12T13:00,35.8,18,7.6,33.5,0.0,0.0,0.0,0.0,1,1014.8,1003.2,28,0,0,94,0.77,4.84,19.1,25.2,106,107,43.6,30.4,23.6,22.7,20.7,0.131,0.148,0.186,0.329,1,3600.0,771.9,639.6,132.3,811.8,771.9,1064.5,776.0,643.0,133.0,811.8,776.0,1070.2,Eucalyptus L'Hér.; Vitis vinifera L.; Tracheophyta; Magnoliopsida; Pinus pinaster Aiton
2020,2020-09-12,Porto,Amarante,Telões,São Brás,41.3150430001153,-8.0968930000729,Desconhecida,326.0,2020-09-12T14:00,33.8,20,7.4,32.4,0.0,0.0,0.0,0.0,1,1015.4,979.3,29,0,0,96,0.65,4.24,12.1,15.6,120,119,36.7,32.2,23.7,22.5,20.6,0.09,0.151,0.198,0.322,1,3600.0,713.9,575.5,138.4,782.7,713.9,993.4,743.0,599.0,144.0,782.7,743.0,1034.0,Magnoliopsida; Pinus pinaster Aiton; Tracheophyta; Vitis vinifera L.; Eucalyptus L'Hér.; 
2020,2020-09-12,Porto,Vila Nova de Gaia,Vilar do Paraíso,LG. PINHAL (Travessa do Pinhal),41.1066849999958,-8.61218500031365,NC,101.0,2020-09-12T14:00,29.4,43,15.7,30.1,0.0,0.0,0.0,0.0,1,1014.5,1003.0,28,0,1,92,0.55,2.32,14.2,18.2,291,295,29.9,30.3,22.1,21.3,19.9,0.122,0.167,0.219,0.339,1,3600.0,673.3,479.0,194.3,647.5,673.3,999.5,700.0,498.0,202.0,647.5,700.0,1039.1,Tracheophyta; Magnoliopsida; Eucalyptus L'Hér.
2020,2020-09-12,Porto,Santo Tirso,Monte Córdova,Pereiras (Rio Leça),41.3106529998779,-8.43941300021278,NC,340.0,2020-09-12T14:00,33.0,20,7.0,30.8,0.0,0.0,0.0,0.0,1,1015.0,977.3,29,0,0,96,0.67,4.02,16.4,21.5,109,111,40.0,31.2,23.1,21.9,20.0,0.097,0.164,0.204,0.322,1,3600.0,707.6,562.4,145.2,763.5,707.6,995.2,736.0,585.0,151.0,763.5,736.0,1035.2,Tracheophyta; Vitis vinifera L.; Eucalyptus L'Hér.; Pinus pinaster Aiton; Magnoliopsida
2020,2020-09-12,Porto,Gondomar,Lomba,AREJA,41.051618000004,-8.40433499998517,Desconhecida,124.0,2020-09-12T15:00,34.5,26,12.2,33.9,0.0,0.0,0.0,0.0,1,1014.0,1000.2,28,0,0,92,0.58,4.05,12.2,15.7,294,302,27.4,34.6,24.9,23.0,20.9,0.121,0.136,0.176,0.326,1,3600.0,587.6,442.5,145.0,690.1,587.6,866.4,636.0,479.0,157.0,690.1,636.0,937.8,Magnoliopsida; Eucalyptus L'Hér.; Vitis vinifera L.; Pinus pinaster Aiton; Tracheophyta; 
2020,2020-09-12,Porto,Trofa,Covelas,Lg. Rindo (Quereledo),41.2974429999457,-8.53860300011105,NC,107.0,2020-09-12T15:00,35.7,18,7.8,35.0,0.0,0.0,0.0,0.0,1,1014.2,1002.3,29,0,2,93,0.47,4.79,3.3,3.8,131,107,26.6,32.9,24.3,22.7,20.7,0.13,0.147,0.185,0.329,1,3600.0,560.9,375.2,185.7,586.8,560.9,863.8,607.0,406.0,201.0,586.8,607.0,934.8,Magnoliopsida; Pinus pinaster Aiton; Vitis vinifera L.; Quercus L.; Tracheophyta; Eucalyptus L'Hér.; Olea europaea L.; ; Pinales
2020,2020-09-12,Porto,Amarante,Mancelos,Lg. Troxainho (Lameiros),41.2921330001619,-8.1451930003696,Desconhecida,373.0,2020-09-12T16:00,32.9,20,7.1,31.3,0.0,0.0,0.0,0.0,1,1014.8,973.6,23,0,0,77,0.4,3.99,5.6,6.9,135,129,19.8,33.0,24.0,22.2,20.3,0.089,0.151,0.198,0.322,1,3600.0,426.7,295.8,130.9,595.3,426.7,671.3,489.0,339.0,150.0,595.3,489.0,769.4,Tracheophyta; Magnoliopsida; Eucalyptus L'Hér.; Pinus pinaster Aiton; Vitis vinifera L.; 
2020,2020-05-06,Porto,Gondomar,Foz do Sousa,EN108 (Esposade),41.0757869995965,-8.49995200051202,NC,125.0,2020-05-06T23:00,13.6,96,13.0,13.7,0.0,0.0,0.0,0.0,1,1018.9,1003.9,30,0,0,99,0.0,0.06,5.5,11.4,23,18,9.7,16.0,17.3,15.2,13.3,0.37,0.382,0.397,0.402,0,0.0,0.0,0.0,0.0,0.0,0.0,0.0,0.0,0.0,0.0,0.0,0.0,0.0,Eucalyptus L'Hér.; Magnoliopsida; Pinus pinaster Aiton; Tracheophyta
2020,2020-09-12,Porto,Paços de Ferreira,Freamunde,Lugar Vista Alegre (Calvário),41.2909619998932,-8.34006300025516,Desconhecida,372.0,2020-09-12T17:00,32.4,23,8.7,31.3,0.0,0.0,0.0,0.0,1,1014.6,973.4,29,0,0,97,0.29,3.75,5.8,10.5,90,94,20.5,32.4,24.1,21.9,20.0,0.092,0.15,0.189,0.316,1,3600.0,272.7,188.1,84.6,573.2,272.7,443.4,345.0,238.0,107.0,573.2,345.0,561.0,Tracheophyta; Eucalyptus L'Hér.; Magnoliopsida; Pinus pinaster Aiton; 
2020,2020-09-12,Porto,Paredes,Sobrosa,Lugar de Prado (Trás das Eiras),41.2442569997576,-8.35649999989404,Desconhecida,309.0,2020-09-12T19:00,25.8,47,13.7,25.9,0.0,0.0,0.0,0.0,1,1014.4,979.3,25,0,0,82,0.08,1.75,7.6,11.5,329,360,11.9,28.8,24.5,21.9,19.9,0.125,0.145,0.176,0.326,0,59.86,0.0,0.0,0.0,0.0,0.0,0.0,25.0,7.0,18.0,65.8,25.0,84.9,Magnoliopsida; Pinus pinaster Aiton; Eucalyptus L'Hér.; Tracheophyta; Vitis vinifera L.
2020,2020-09-12,Porto,Baião,Valadares,Lg. Urgueira (Cortinhas),41.1538700000445,-7.96517999966939,Desconhecida,679.0,2020-09-12T21:00,26.8,23,4.0,24.3,0.0,0.0,0.0,0.0,1,1016.8,941.7,26,0,0,86,0.09,2.71,7.3,12.4,110,98,25.9,23.6,22.3,19.9,18.2,0.118,0.138,0.193,0.331,0,0.0,0.0,0.0,0.0,0.0,0.0,0.0,0.0,0.0,0.0,0.0,0.0,0.0,Magnoliopsida; Pinus pinaster Aiton; Tracheophyta; Eucalyptus L'Hér.; Vitis vinifera L.; Pinales; Quercus L.; 
2020,2020-05-07,Porto,Marco de Canaveses,Tabuado,Outeiro (Sortes),41.1780529997084,-8.11488800048828,Desconhecida,238.0,2020-05-07T16:00,22.7,68,16.5,23.4,0.1,0.1,0.0,0.0,51,1012.2,984.8,31,13,30,3,0.36,0.87,10.9,14.7,279,281,25.9,22.3,16.9,14.2,12.3,0.356,0.378,0.403,0.41,1,3600.0,502.6,370.2,132.4,587.5,502.6,846.6,558.0,411.0,147.0,587.5,558.0,939.9,Quercus L.; Tracheophyta; Magnoliopsida; Pinus pinaster Aiton; Vitis vinifera L.; Eucalyptus L'Hér.; 
2020,2020-09-12,Porto,Felgueiras,Sendim,Junto Santuário Stª Quitéria (Casal),41.3831500000424,-8.19417799949646,Desconhecida,308.0,2020-09-12T23:00,22.2,43,9.0,21.0,0.0,0.0,0.0,0.0,1,1016.1,980.6,28,0,0,92,0.05,1.52,6.3,13.0,77,95,14.8,24.7,25.3,22.5,20.6,0.097,0.148,0.189,0.317,0,0.0,0.0,0.0,0.0,0.0,0.0,0.0,0.0,0.0,0.0,0.0,0.0,0.0,Magnoliopsida; Eucalyptus L'Hér.; Pinus pinaster Aiton; Tracheophyta
2020,2020-09-12,Porto,Santo Tirso,Refojos de Riba de Ave,Refojos (Represas),41.2969220002492,-8.43946199999915,Desconhecida,425.0,2020-09-12T23:00,21.9,39,7.3,20.2,0.0,0.0,0.0,0.0,1,1015.8,967.2,28,0,0,92,0.06,1.61,6.8,13.8,65,96,15.1,23.6,24.4,21.7,19.8,0.092,0.15,0.189,0.316,0,0.0,0.0,0.0,0.0,0.0,0.0,0.0,0.0,0.0,0.0,0.0,0.0,0.0,Tracheophyta; Magnoliopsida; Pinus pinaster Aiton; Eucalyptus L'Hér.
2020,2020-09-12,Porto,Valongo,Sobrado,Lugar da Aldeia (Alto do Vilar),41.2154350005256,-8.47006700012419,NC,148.0,2020-09-12T23:00,24.1,36,8.3,22.3,0.0,0.0,0.0,0.0,1,1015.1,998.0,28,0,0,93,0.09,1.91,9.0,17.5,74,82,16.6,24.6,25.0,22.5,20.7,0.111,0.164,0.211,0.322,0,0.0,0.0,0.0,0.0,0.0,0.0,0.0,0.0,0.0,0.0,0.0,0.0,0.0,Tracheophyta; Eucalyptus L'Hér.; Magnoliopsida; Pinus pinaster Aiton
2020,2020-09-13,Porto,Felgueiras,Moure,Tomadas (Felgueiras),41.3637949996524,-8.1863819999165,Reacendimento,322.0,2020-09-13T01:00,22.3,35,6.0,19.8,0.0,0.0,0.0,0.0,1,1016.3,979.3,28,0,0,93,0.09,1.76,10.1,24.3,73,84,23.4,22.6,25.1,22.5,20.5,0.097,0.148,0.189,0.317,0,0.0,0.0,0.0,0.0,0.0,0.0,0.0,0.0,0.0,0.0,0.0,0.0,0.0,Magnoliopsida; Tracheophyta; Pinus pinaster Aiton; Eucalyptus L'Hér.; Vitis vinifera L.
2020,2020-09-13,Porto,Vila Nova de Gaia,Mafamude,Lugar do Pinhal (Rua da Escola de Laborim),41.1065729999542,-8.60612800015344,NC,132.0,2020-09-13T02:00,19.9,64,12.9,19.7,0.0,0.0,0.0,0.0,1,1015.0,999.5,29,0,0,97,0.03,0.84,7.4,13.6,151,140,13.3,21.3,23.1,21.2,19.7,0.122,0.166,0.219,0.339,0,0.0,0.0,0.0,0.0,0.0,0.0,0.0,0.0,0.0,0.0,0.0,0.0,0.0,Tracheophyta; Magnoliopsida; Pinus pinaster Aiton; Pinus pinea L.; Eucalyptus L'Hér.
2020,2020-09-13,Porto,Valongo,Alfena,Lg. Ferraria (Ribeira da Junqueira),41.2618599997626,-8.5209069999059,NC,148.0,2020-09-13T02:00,26.9,25,5.3,23.5,0.0,0.0,0.0,0.0,1,1014.9,998.0,28,0,0,94,0.18,2.65,14.8,33.5,90,91,29.9,24.3,24.9,22.6,20.7,0.104,0.164,0.209,0.322,0,0.0,0.0,0.0,0.0,0.0,0.0,0.0,0.0,0.0,0.0,0.0,0.0,0.0,Eucalyptus L'Hér.; Tracheophyta; Pinus pinaster Aiton; Magnoliopsida
2020,2020-05-08,Porto,Paredes,Vandoma,VANDOMA,41.1988888888889,-8.3925,Desconhecida,486.0,2020-05-08T14:00,17.6,78,13.8,17.2,0.2,0.2,0.0,0.0,51,1012.9,957.0,63,41,44,0,0.33,0.44,14.0,18.5,244,246,32.8,19.4,15.7,13.0,10.9,0.366,0.381,0.411,0.411,1,3600.0,595.3,313.6,281.7,365.1,595.3,1153.5,615.0,324.0,291.0,365.1,615.0,1191.6,Magnoliopsida; Pinus pinaster Aiton; Eucalyptus L'Hér.; Tracheophyta; Vitis vinifera L.
2020,2020-09-13,Porto,Trofa,Alvarelhos,Castro (Monte Grande),41.300368000004,-8.62044299999873,Desconhecida,186.0,2020-09-13T02:00,26.7,25,4.8,23.0,0.0,0.0,0.0,0.0,1,1014.9,993.7,28,0,0,94,0.19,2.63,16.2,34.6,90,92,32.0,24.3,24.8,22.2,20.2,0.121,0.144,0.184,0.328,0,0.0,0.0,0.0,0.0,0.0,0.0,0.0,0.0,0.0,0.0,0.0,0.0,0.0,Pinus pinaster Aiton; Pinales; Magnoliopsida; Tracheophyta; Eucalyptus L'Hér.
2020,2020-09-13,Porto,Maia,Águas Santas,Lg. Souto (A3-A3 Km 3),41.1991870000627,-8.58795300006866,NC,93.0,2020-09-13T03:00,21.6,46,9.4,20.4,0.0,0.0,0.0,0.0,1,1015.2,1004.3,30,0,3,93,0.06,1.4,7.6,19.2,155,130,12.2,22.1,23.8,21.7,19.9,0.117,0.145,0.185,0.329,0,0.0,0.0,0.0,0.0,0.0,0.0,0.0,0.0,0.0,0.0,0.0,0.0,0.0,Tracheophyta; Pinus pinaster Aiton; Magnoliopsida; Eucalyptus L'Hér.; 
2020,2020-09-13,Porto,Paredes,Rebordosa,Curtinhas (Cortinhas),41.2145070001814,-8.40243299987581,Desconhecida,338.0,2020-09-13T03:00,25.2,25,3.5,21.1,0.0,0.0,0.0,0.0,1,1015.5,977.1,31,0,4,95,0.2,2.43,17.8,36.7,83,89,35.6,23.0,24.1,21.7,19.7,0.125,0.145,0.176,0.326,0,0.0,0.0,0.0,0.0,0.0,0.0,0.0,0.0,0.0,0.0,0.0,0.0,0.0,Magnoliopsida; Pinus pinaster Aiton; Eucalyptus L'Hér.; Tracheophyta; Vitis vinifera L.
2020,2020-09-13,Porto,Paredes,Rebordosa,Santiago,41.2078520001306,-8.41668800000101,Desconhecida,258.0,2020-09-13T03:00,25.8,25,4.1,21.8,0.0,0.0,0.0,0.0,1,1015.5,986.1,31,0,4,95,0.2,2.5,17.8,36.7,83,89,35.6,23.5,24.6,22.3,20.3,0.125,0.145,0.176,0.326,0,0.0,0.0,0.0,0.0,0.0,0.0,0.0,0.0,0.0,0.0,0.0,0.0,0.0,Magnoliopsida; Pinus pinaster Aiton; Eucalyptus L'Hér.; Tracheophyta; Vitis vinifera L.
2020,2020-09-13,Porto,Lousada,Caíde de Rei,Lugar de Almeida,41.2512630000379,-8.22433500025008,Desconhecida,253.0,2020-09-13T09:00,26.7,31,8.4,23.6,0.0,0.0,0.0,0.0,0,1017.0,988.2,4,0,7,0,0.37,2.41,19.1,28.1,90,93,45.0,24.7,24.2,22.5,20.5,0.101,0.147,0.19,0.317,1,3600.0,436.9,347.1,89.8,692.9,436.9,677.1,365.0,290.0,75.0,692.9,365.0,565.7,Tracheophyta; Magnoliopsida; Pinus pinaster Aiton; Eucalyptus L'Hér.
2020,2020-09-13,Porto,Paredes,Rebordosa,Monte Azevido (Cortinhas),41.2147020000882,-8.40355799992879,Desconhecida,327.0,2020-09-13T10:00,28.9,28,8.4,26.4,0.0,0.0,0.0,0.0,0,1017.1,980.3,9,0,3,24,0.47,2.89,14.6,19.6,106,107,38.9,26.2,23.8,21.9,19.8,0.124,0.144,0.176,0.326,1,3600.0,589.0,488.6,100.4,766.2,589.0,861.9,528.0,438.0,90.0,766.2,528.0,772.6,Magnoliopsida; Pinus pinaster Aiton; Eucalyptus L'Hér.; Tracheophyta; Vitis vinifera L.
2020,2020-09-13,Porto,Maia,Vermoim,CENTRAL (Rua Altino Gomes),41.2280529997084,-8.60646700011359,NC,72.0,2020-09-13T10:00,27.4,38,11.8,26.8,0.0,0.0,0.0,0.0,0,1016.9,1008.6,19,0,9,45,0.39,2.26,7.9,10.1,183,174,25.2,26.1,23.5,21.9,20.1,0.117,0.144,0.185,0.328,1,3600.0,582.9,477.9,105.0,751.9,582.9,859.1,522.0,428.0,94.0,751.9,522.0,769.4,Tracheophyta; Magnoliopsida; Eucalyptus L'Hér.
2020,2020-09-13,Porto,Lousada,Lodares,Lugar de Quintãs,41.2350939999686,-8.29761699994405,Desconhecida,202.0,2020-09-13T12:00,33.7,23,10.0,33.2,0.0,0.0,0.0,0.0,1,1017.1,994.5,38,0,24,79,0.62,4.01,10.9,13.8,124,129,36.0,30.1,24.7,22.9,20.9,0.101,0.147,0.19,0.317,1,3600.0,744.6,592.6,152.0,754.8,744.6,1061.4,725.0,577.0,148.0,754.8,725.0,1033.4,Magnoliopsida; Tracheophyta; Eucalyptus L'Hér.; Pinus pinaster Aiton; Vitis vinifera L.
2020,2020-09-13,Porto,Vila Nova de Gaia,Lever,Lg. Cruz (Travessa do Volta Atrás),41.0660660001967,-8.47362100018395,NC,104.0,2020-09-13T12:00,32.6,29,12.3,32.4,0.0,0.0,0.0,0.0,2,1017.0,1005.3,52,0,40,92,0.6,3.48,12.0,14.2,254,254,20.5,30.8,24.8,23.1,21.0,0.116,0.138,0.177,0.326,1,3600.0,724.5,546.7,177.8,695.3,724.5,1062.8,705.0,532.0,173.0,695.3,705.0,1034.2,Tracheophyta; Magnoliopsida; Eucalyptus L'Hér.; Pinus pinaster Aiton
2020,2020-09-13,Porto,Paredes,Rebordosa,Lg. Ribeiro (Sacouto),41.2139519998762,-8.40663699997796,Desconhecida,325.0,2020-09-13T13:00,31.6,27,10.5,29.7,0.0,0.0,0.0,0.0,2,1017.0,980.7,75,0,78,94,0.55,3.39,15.1,19.1,237,234,31.7,30.7,24.2,21.9,19.8,0.124,0.144,0.176,0.326,1,3600.0,575.6,294.3,281.4,375.3,575.6,1060.0,579.0,296.0,283.0,375.3,579.0,1066.2,Magnoliopsida; Pinus pinaster Aiton; Eucalyptus L'Hér.; Tracheophyta; Vitis vinifera L.
2020,2020-09-13,Porto,Vila Nova de Gaia,Oliveira do Douro,QUINTA CUBOS (Rua Henrique Costa Santos),41.1309450001187,-8.57393700016869,NC,0.0,2020-09-13T14:00,29.2,37,13.0,29.0,0.0,0.0,0.0,0.0,2,1016.4,1016.4,69,0,96,38,0.39,2.56,8.2,11.9,255,241,19.1,29.8,23.9,22.1,20.4,0.128,0.156,0.204,0.335,1,3600.0,430.7,238.4,192.3,324.6,430.7,993.0,448.0,248.0,200.0,324.6,448.0,1032.8,Magnoliopsida; Tracheophyta
2020,2020-09-13,Porto,Paredes,Louredo,Sª Ajuda (Sanatório),41.247882999844,-8.33483699997266,Desconhecida,358.0,2020-09-13T14:00,31.8,26,10.2,30.0,0.0,0.0,0.0,0.0,2,1016.6,976.8,51,0,78,14,0.56,3.46,14.7,19.2,234,232,38.9,31.7,24.2,21.9,19.9,0.101,0.147,0.19,0.316,1,3600.0,566.8,317.0,249.8,433.0,566.8,989.6,590.0,330.0,260.0,433.0,590.0,1030.1,Tracheophyta; Magnoliopsida; Eucalyptus L'Hér.; Pinus pinaster Aiton; Vitis vinifera L.; 
2020,2020-09-13,Porto,Valongo,Ermesinde,Montes da Costa (Chãos),41.2106500000424,-8.53697000000212,NC,159.0,2020-09-13T15:00,29.7,33,11.8,28.8,0.0,0.0,0.0,0.0,2,1016.4,998.4,55,0,76,31,0.32,2.79,10.2,13.6,260,259,27.0,31.6,25.2,22.5,20.6,0.102,0.162,0.208,0.322,1,1776.69,268.7,75.7,193.0,119.2,268.7,858.4,291.0,82.0,209.0,119.2,291.0,929.8,Magnoliopsida; Pinus pinaster Aiton; Tracheophyta; Eucalyptus L'Hér.
2020,2020-09-13,Porto,Santo Tirso,Carreira,N105 CARREIRA (Souto da Venda),41.2971640004052,-8.47086999999152,NC,159.0,2020-09-13T15:00,29.8,32,11.4,28.7,0.0,0.0,0.0,0.0,1,1016.3,998.3,44,0,70,6,0.31,2.84,10.5,13.7,254,252,31.0,31.9,25.5,22.5,20.4,0.121,0.143,0.183,0.328,1,33.46,236.4,38.8,197.6,61.1,236.4,857.7,256.0,42.0,214.0,61.1,256.0,929.0,Eucalyptus L'Hér.; Tracheophyta; Pinus pinaster Aiton; Magnoliopsida; Vitis vinifera L.
2020,2020-09-13,Porto,Amarante,Real,Lg. Padre Manuel ( Livração) (Monte Crasto),41.2575220002068,-8.14654699961344,Desconhecida,481.0,2020-09-13T15:00,31.9,24,8.8,30.3,0.0,0.0,0.0,0.0,1,1016.7,963.6,48,0,80,1,0.45,3.59,8.6,11.9,182,178,36.4,32.0,23.9,21.7,19.7,0.098,0.144,0.206,0.326,1,3600.0,457.2,259.0,198.2,410.6,457.2,852.8,496.0,281.0,215.0,410.6,496.0,925.2,Magnoliopsida; Tracheophyta; Eucalyptus L'Hér.; Vitis vinifera L.
2020,2020-05-08,Porto,Valongo,Sobrado,Lg. Vila Flor (Ponte Freixeira),41.1944400003221,-8.45464000013139,NC,123.0,2020-05-08T23:00,14.1,89,12.3,13.9,0.0,0.0,0.0,0.0,3,1014.1,999.4,100,95,1,72,0.0,0.18,6.7,10.6,216,215,11.9,16.4,17.6,15.5,13.3,0.362,0.37,0.397,0.404,0,0.0,0.0,0.0,0.0,0.0,0.0,0.0,0.0,0.0,0.0,0.0,0.0,0.0,Tracheophyta; Eucalyptus L'Hér.; Vitis vinifera L.; Pinus pinaster Aiton
2020,2020-09-13,Porto,Lousada,Meinedo,Rua Foz de Cima,41.2499349996779,-8.2329270002577,Desconhecida,284.0,2020-09-13T15:00,32.6,24,9.7,31.0,0.0,0.0,0.0,0.0,0,1016.1,984.5,17,0,28,1,0.44,3.71,10.1,13.6,197,191,34.2,32.4,24.9,22.3,20.3,0.101,0.147,0.19,0.316,1,3600.0,416.1,227.9,188.2,360.0,416.1,855.6,451.0,247.0,204.0,360.0,451.0,927.5,Magnoliopsida; Eucalyptus L'Hér.; Tracheophyta; Pinus pinaster Aiton; Vitis vinifera L.
2020,2020-09-13,Porto,Valongo,Campo,Alto da Mina (Alto de São Jemil),41.1726730002297,-8.45605999999576,NC,138.0,2020-09-13T15:00,30.4,31,11.5,29.3,0.0,0.0,0.0,0.0,2,1016.2,1000.6,58,0,80,32,0.35,2.98,10.4,13.7,272,272,23.4,32.0,25.4,22.7,20.7,0.109,0.142,0.181,0.329,1,3600.0,307.4,126.5,180.9,199.0,307.4,859.1,333.0,137.0,196.0,199.0,333.0,930.5,Magnoliopsida; Pinus pinaster Aiton; Tracheophyta; Eucalyptus L'Hér.
2020,2020-09-13,Porto,Lousada,Lodares,Lugar do monte,41.247238000234,-8.28906500021617,Desconhecida,198.0,2020-09-13T16:00,33.6,22,9.1,31.7,0.0,0.0,0.0,0.0,2,1015.7,993.6,61,0,70,63,0.46,4.03,10.8,14.4,184,177,28.4,33.4,25.8,22.9,20.9,0.101,0.147,0.19,0.316,1,3600.0,425.3,315.5,109.8,639.5,425.3,667.0,488.0,362.0,126.0,639.5,488.0,765.2,Tracheophyta; Magnoliopsida; Eucalyptus L'Hér.; Pinus pinaster Aiton
